[{"state":"Abu Dhabi Emirate","name":"Abu Dhabi Island and Internal Islands City","lat":"24.45110000","lon":"54.39690000"},
{"state":"Abu Dhabi Emirate","name":"Abu Dhabi Municipality","lat":"24.41361000","lon":"54.43295000"},
{"state":"Abu Dhabi Emirate","name":"Al Ain City","lat":"24.19167000","lon":"55.76056000"},
{"state":"Abu Dhabi Emirate","name":"Al Ain Municipality","lat":"24.15223000","lon":"55.82040000"},
{"state":"Abu Dhabi Emirate","name":"Al Dhafra","lat":"23.65745000","lon":"53.72225000"},
{"state":"Abu Dhabi Emirate","name":"Al Shamkhah City","lat":"24.39268000","lon":"54.70779000"},
{"state":"Abu Dhabi Emirate","name":"Ar Ruways","lat":"24.11028000","lon":"52.73056000"},
{"state":"Abu Dhabi Emirate","name":"Bani Yas City","lat":"24.30978000","lon":"54.62944000"},
{"state":"Abu Dhabi Emirate","name":"Khalifah A City","lat":"24.42588000","lon":"54.60500000"},
{"state":"Abu Dhabi Emirate","name":"Musaffah","lat":"24.35893000","lon":"54.48267000"},
{"state":"Abu Dhabi Emirate","name":"Muzayri‘","lat":"23.14355000","lon":"53.78810000"},
{"state":"Abu Dhabi Emirate","name":"Zayed City","lat":"23.65416000","lon":"53.70522000"},
{"state":"Ajman Emirate","name":"Ajman","lat":"25.40328000","lon":"55.52341000"},
{"state":"Ajman Emirate","name":"Ajman City","lat":"25.40177000","lon":"55.47878000"},
{"state":"Ajman Emirate","name":"Manama","lat":"25.32568000","lon":"56.00259000"},
{"state":"Ajman Emirate","name":"Masfout","lat":"24.83982000","lon":"56.05158000"},
{"state":"Dubai","name":"Dubai","lat":"25.06570000","lon":"55.17128000"},
{"state":"Fujairah","name":"Al Fujairah City","lat":"25.11641000","lon":"56.34141000"},
{"state":"Fujairah","name":"Al Fujairah Municipality","lat":"25.13557000","lon":"56.33279000"},
{"state":"Fujairah","name":"Dibba Al Fujairah Municipality","lat":"25.58580000","lon":"56.24792000"},
{"state":"Fujairah","name":"Dibba Al-Fujairah","lat":"25.59246000","lon":"56.26176000"},
{"state":"Fujairah","name":"Dibba Al-Hisn","lat":"25.61955000","lon":"56.27291000"},
{"state":"Fujairah","name":"Reef Al Fujairah City","lat":"25.14479000","lon":"56.24764000"},
{"state":"Ras al-Khaimah","name":"Ras Al Khaimah","lat":"25.46116000","lon":"56.04058000"},
{"state":"Ras al-Khaimah","name":"Ras Al Khaimah City","lat":"25.78953000","lon":"55.94320000"},
{"state":"Sharjah Emirate","name":"Adh Dhayd","lat":"25.28812000","lon":"55.88157000"},
{"state":"Sharjah Emirate","name":"Al Batayih","lat":"25.22317000","lon":"55.74272000"},
{"state":"Sharjah Emirate","name":"Al Hamriyah","lat":"25.46121000","lon":"55.54813000"},
{"state":"Sharjah Emirate","name":"Al Madam","lat":"24.95536000","lon":"55.76820000"},
{"state":"Sharjah Emirate","name":"Dhaid","lat":"25.26951000","lon":"55.92024000"},
{"state":"Sharjah Emirate","name":"Dibba Al Hesn","lat":"25.61593000","lon":"56.26899000"},
{"state":"Sharjah Emirate","name":"Kalba","lat":"24.99816000","lon":"56.27207000"},
{"state":"Sharjah Emirate","name":"Khawr Fakkān","lat":"25.33132000","lon":"56.34199000"},
{"state":"Sharjah Emirate","name":"Khor Fakkan","lat":"25.33966000","lon":"56.30280000"},
{"state":"Sharjah Emirate","name":"Milehah","lat":"25.10097000","lon":"55.91282000"},
{"state":"Sharjah Emirate","name":"Murbaḩ","lat":"25.27623000","lon":"56.36256000"},
{"state":"Sharjah Emirate","name":"Sharjah","lat":"25.33737000","lon":"55.41206000"},
{"state":"Umm al-Quwain","name":"Umm AL Quwain","lat":"25.49326000","lon":"55.73520000"},
{"state":"Umm al-Quwain","name":"Umm Al Quwain City","lat":"25.56473000","lon":"55.55517000"}]