[{"state":"Badakhshan","name":"Ashkāsham","lat":"36.68333000","lon":"71.53333000"},
{"state":"Badakhshan","name":"Fayzabad","lat":"37.11664000","lon":"70.58002000"},
{"state":"Badakhshan","name":"Jurm","lat":"36.86477000","lon":"70.83421000"},
{"state":"Badakhshan","name":"Khandūd","lat":"36.95127000","lon":"72.31800000"},
{"state":"Badakhshan","name":"Rāghistān","lat":"37.66079000","lon":"70.67346000"},
{"state":"Badakhshan","name":"Wākhān","lat":"37.05710000","lon":"73.34928000"},
{"state":"Badghis","name":"Ghormach","lat":"35.73062000","lon":"63.78264000"},
{"state":"Badghis","name":"Qala i Naw","lat":"34.98735000","lon":"63.12891000"},
{"state":"Baghlan","name":"Baghlān","lat":"36.13068000","lon":"68.70829000"},
{"state":"Baghlan","name":"Ḩukūmatī Dahanah-ye Ghōrī","lat":"35.90617000","lon":"68.48869000"},
{"state":"Baghlan","name":"Nahrīn","lat":"36.06490000","lon":"69.13343000"},
{"state":"Baghlan","name":"Pul-e Khumrī","lat":"35.94458000","lon":"68.71512000"},
{"state":"Balkh","name":"Balkh","lat":"36.75635000","lon":"66.89720000"},
{"state":"Balkh","name":"Dowlatābād","lat":"36.98821000","lon":"66.82069000"},
{"state":"Balkh","name":"Khulm","lat":"36.69736000","lon":"67.69826000"},
{"state":"Balkh","name":"Lab-Sar","lat":"36.02634000","lon":"66.83799000"},
{"state":"Balkh","name":"Mazār-e Sharīf","lat":"36.70904000","lon":"67.11087000"},
{"state":"Balkh","name":"Qarchī Gak","lat":"37.03999000","lon":"66.78891000"},
{"state":"Bamyan","name":"Bāmyān","lat":"34.82156000","lon":"67.82734000"},
{"state":"Bamyan","name":"Panjāb","lat":"34.38795000","lon":"67.02327000"},
{"state":"Daykundi","name":"Nīlī","lat":"33.76329000","lon":"66.07617000"},
{"state":"Farah","name":"Farah","lat":"32.37451000","lon":"62.11638000"},
{"state":"Faryab","name":"Andkhoy","lat":"36.95293000","lon":"65.12376000"},
{"state":"Faryab","name":"Maymana","lat":"35.92139000","lon":"64.78361000"},
{"state":"Ghazni","name":"Ghazni","lat":"33.55391000","lon":"68.42096000"},
{"state":"Ghōr","name":"Fayrōz Kōh","lat":"34.51952000","lon":"65.25093000"},
{"state":"Ghōr","name":"Shahrak","lat":"34.10737000","lon":"64.30520000"},
{"state":"Helmand","name":"‘Alāqahdārī Dīshū","lat":"30.43206000","lon":"63.29802000"},
{"state":"Helmand","name":"Gereshk","lat":"31.82089000","lon":"64.57005000"},
{"state":"Helmand","name":"Lashkar Gāh","lat":"31.59382000","lon":"64.37161000"},
{"state":"Helmand","name":"Markaz-e Ḩukūmat-e Darwēshān","lat":"31.13231000","lon":"64.19340000"},
{"state":"Helmand","name":"Sangīn","lat":"32.07275000","lon":"64.83590000"},
{"state":"Herat","name":"Chahār Burj","lat":"34.24475000","lon":"62.19165000"},
{"state":"Herat","name":"Ghōriyān","lat":"34.34480000","lon":"61.49321000"},
{"state":"Herat","name":"Herāt","lat":"34.34817000","lon":"62.19967000"},
{"state":"Herat","name":"Kafir Qala","lat":"34.66667000","lon":"61.06667000"},
{"state":"Herat","name":"Karukh","lat":"34.48108000","lon":"62.58630000"},
{"state":"Herat","name":"Kuhsān","lat":"34.65389000","lon":"61.19778000"},
{"state":"Herat","name":"Kushk","lat":"33.29565000","lon":"61.95221000"},
{"state":"Herat","name":"Qarah Bāgh","lat":"34.94023000","lon":"61.77589000"},
{"state":"Herat","name":"Shīnḏanḏ","lat":"33.30294000","lon":"62.14740000"},
{"state":"Herat","name":"Tīr Pul","lat":"34.59431000","lon":"61.26895000"},
{"state":"Herat","name":"Zindah Jān","lat":"34.34264000","lon":"61.74675000"},
{"state":"Jowzjan","name":"Āqchah","lat":"36.90500000","lon":"66.18341000"},
{"state":"Jowzjan","name":"Darzāb","lat":"35.97744000","lon":"65.37828000"},
{"state":"Jowzjan","name":"Qarqīn","lat":"37.41853000","lon":"66.04358000"},
{"state":"Jowzjan","name":"Shibirghān","lat":"36.66757000","lon":"65.75290000"},
{"state":"Kabul","name":"Kabul","lat":"34.52813000","lon":"69.17233000"},
{"state":"Kabul","name":"Mīr Bachah Kōṯ","lat":"34.74999000","lon":"69.11899000"},
{"state":"Kabul","name":"Paghmān","lat":"34.58787000","lon":"68.95091000"},
{"state":"Kandahar","name":"Kandahār","lat":"31.61332000","lon":"65.71013000"},
{"state":"Kapisa","name":"Sidqābād","lat":"35.02298000","lon":"69.35112000"},
{"state":"Khost","name":"Khōst","lat":"33.33951000","lon":"69.92041000"},
{"state":"Kunar","name":"Asadabad","lat":"34.87311000","lon":"71.14697000"},
{"state":"Kunar","name":"Āsmār","lat":"35.03333000","lon":"71.35809000"},
{"state":"Kunduz Province","name":"Dasht-e Archī","lat":"37.13333000","lon":"69.16667000"},
{"state":"Kunduz Province","name":"Imām Şāḩib","lat":"37.18897000","lon":"68.93644000"},
{"state":"Kunduz Province","name":"Khanabad","lat":"36.68250000","lon":"69.11556000"},
{"state":"Kunduz Province","name":"Kunduz","lat":"36.72895000","lon":"68.85700000"},
{"state":"Kunduz Province","name":"Qarāwul","lat":"37.21959000","lon":"68.78020000"},
{"state":"Laghman","name":"Mehtar Lām","lat":"34.67139000","lon":"70.20944000"},
{"state":"Logar","name":"Baraki Barak","lat":"33.96744000","lon":"68.94920000"},
{"state":"Logar","name":"Ḩukūmatī Azrah","lat":"34.17355000","lon":"69.64573000"},
{"state":"Logar","name":"Pul-e ‘Alam","lat":"33.99529000","lon":"69.02274000"},
{"state":"Nangarhar","name":"Bāsawul","lat":"34.24749000","lon":"70.87218000"},
{"state":"Nangarhar","name":"Jalālābād","lat":"34.42647000","lon":"70.45153000"},
{"state":"Nangarhar","name":"Markaz-e Woluswalī-ye Āchīn","lat":"34.12583000","lon":"70.70778000"},
{"state":"Nimruz","name":"Khāsh","lat":"31.52919000","lon":"62.79055000"},
{"state":"Nimruz","name":"Mīrābād","lat":"30.43624000","lon":"61.83830000"},
{"state":"Nimruz","name":"Rūdbār","lat":"30.15000000","lon":"62.60000000"},
{"state":"Nimruz","name":"Zaranj","lat":"30.95962000","lon":"61.86037000"},
{"state":"Nuristan","name":"Pārūn","lat":"35.42064000","lon":"70.92261000"},
{"state":"Paktia","name":"Gardez","lat":"33.59744000","lon":"69.22592000"},
{"state":"Paktika","name":"Saṟōbī","lat":"32.75221000","lon":"69.04587000"},
{"state":"Paktika","name":"Zaṟah Sharan","lat":"33.14641000","lon":"68.79213000"},
{"state":"Paktika","name":"Zarghūn Shahr","lat":"32.84734000","lon":"68.44573000"},
{"state":"Panjshir","name":"Bāzārak","lat":"35.31292000","lon":"69.51519000"},
{"state":"Parwan","name":"Charikar","lat":"35.01361000","lon":"69.17139000"},
{"state":"Parwan","name":"Jabal os Saraj","lat":"35.11833000","lon":"69.23778000"},
{"state":"Samangan","name":"Aībak","lat":"36.26468000","lon":"68.01551000"},
{"state":"Sar-e Pol","name":"Chīras","lat":"35.41674000","lon":"65.98234000"},
{"state":"Sar-e Pol","name":"Larkird","lat":"35.48936000","lon":"66.66409000"},
{"state":"Sar-e Pol","name":"Qal‘ah-ye Shahr","lat":"35.54729000","lon":"65.56760000"},
{"state":"Sar-e Pol","name":"Sang-e Chārak","lat":"35.84972000","lon":"66.43694000"},
{"state":"Sar-e Pol","name":"Sar-e Pul","lat":"36.21544000","lon":"65.93249000"},
{"state":"Sar-e Pol","name":"Tagāw-Bāy","lat":"35.69941000","lon":"66.06164000"},
{"state":"Sar-e Pol","name":"Tukzār","lat":"35.94831000","lon":"66.42132000"},
{"state":"Takhar","name":"Ārt Khwājah","lat":"37.08571000","lon":"69.47958000"},
{"state":"Takhar","name":"Taloqan","lat":"36.73605000","lon":"69.53451000"},
{"state":"Urozgan","name":"Tarinkot","lat":"32.62998000","lon":"65.87806000"},
{"state":"Urozgan","name":"Uruzgān","lat":"32.92775000","lon":"66.63253000"},
{"state":"Zabul","name":"Qalāt","lat":"32.10575000","lon":"66.90833000"}]