[{"name":"Berat County","native":null,"cities":[]},{"name":"Berat District","native":null,"cities":[{"name":"Banaj","native":null,"lat":"40.82492000","lon":"19.84074000"},{"name":"Bashkia Berat","native":null,"lat":"40.69997000","lon":"19.94983000"},{"name":"Bashkia Kuçovë","native":null,"lat":"40.82489000","lon":"19.95350000"},{"name":"Bashkia Poliçan","native":null,"lat":"40.58608000","lon":"20.04535000"},{"name":"Bashkia Skrapar","native":null,"lat":"40.56036000","lon":"20.25477000"},{"name":"Berat","native":null,"lat":"40.70583000","lon":"19.95222000"},{"name":"Çorovodë","native":null,"lat":"40.50417000","lon":"20.22722000"},{"name":"Kuçovë","native":null,"lat":"40.80028000","lon":"19.91667000"},{"name":"Poliçan","native":null,"lat":"40.61222000","lon":"20.09806000"},{"name":"Rrethi i Beratit","native":null,"lat":"40.66667000","lon":"20.00000000"},{"name":"Rrethi i Kuçovës","native":null,"lat":"40.83333000","lon":"19.91667000"},{"name":"Rrethi i Skraparit","native":null,"lat":"40.55000000","lon":"20.26667000"},{"name":"Ura Vajgurore","native":null,"lat":"40.76889000","lon":"19.87778000"}]},{"name":"Bulqizë District","native":null,"cities":[]},{"name":"Delvinë District","native":null,"cities":[]},{"name":"Devoll District","native":null,"cities":[]},{"name":"Dibër County","native":null,"cities":[{"name":"Bashkia Bulqizë","native":null,"lat":"41.47152000","lon":"20.33192000"},{"name":"Bashkia Klos","native":null,"lat":"41.50826000","lon":"20.07107000"},{"name":"Bashkia Mat","native":null,"lat":"41.63317000","lon":"20.01228000"},{"name":"Bulqizë","native":null,"lat":"41.49167000","lon":"20.22194000"},{"name":"Burrel","native":null,"lat":"41.61028000","lon":"20.00889000"},{"name":"Klos","native":null,"lat":"41.50694000","lon":"20.08667000"},{"name":"Peshkopi","native":null,"lat":"41.68500000","lon":"20.42889000"},{"name":"Rrethi i Bulqizës","native":null,"lat":"41.50000000","lon":"20.33333000"},{"name":"Rrethi i Dibrës","native":null,"lat":"41.75000000","lon":"20.33333000"},{"name":"Rrethi i Matit","native":null,"lat":"41.58333000","lon":"20.08333000"},{"name":"Ulëz","native":null,"lat":"41.68278000","lon":"19.89333000"}]},{"name":"Dibër District","native":null,"cities":[]},{"name":"Durrës County","native":null,"cities":[]},{"name":"Durrës District","native":null,"cities":[{"name":"Bashkia Durrës","native":null,"lat":"41.42743000","lon":"19.48690000"},{"name":"Bashkia Krujë","native":null,"lat":"41.50091000","lon":"19.72571000"},{"name":"Bashkia Shijak","native":null,"lat":"41.33558000","lon":"19.58977000"},{"name":"Durrës","native":null,"lat":"41.32355000","lon":"19.45469000"},{"name":"Durrës District","native":null,"lat":"41.31660000","lon":"19.45000000"},{"name":"Fushë-Krujë","native":null,"lat":"41.47833000","lon":"19.71778000"},{"name":"Krujë","native":null,"lat":"41.50917000","lon":"19.79278000"},{"name":"Rrethi i Krujës","native":null,"lat":"41.55000000","lon":"19.75000000"},{"name":"Shijak","native":null,"lat":"41.34556000","lon":"19.56722000"},{"name":"Sukth","native":null,"lat":"41.38056000","lon":"19.53778000"}]},{"name":"Elbasan County","native":null,"cities":[]},{"name":"Fier County","native":null,"cities":[{"name":"Ballsh","native":null,"lat":"40.59889000","lon":"19.73472000"},{"name":"Bashkia Divjakë","native":null,"lat":"40.95716000","lon":"19.52364000"},{"name":"Bashkia Fier","native":null,"lat":"40.72937000","lon":"19.48690000"},{"name":"Bashkia Mallakastër","native":null,"lat":"40.55669000","lon":"19.77347000"},{"name":"Bashkia Patos","native":null,"lat":"40.67793000","lon":"19.65591000"},{"name":"Divjakë","native":null,"lat":"40.99667000","lon":"19.52944000"},{"name":"Fier","native":null,"lat":"40.72389000","lon":"19.55611000"},{"name":"Fier-Çifçi","native":null,"lat":"40.71667000","lon":"19.56667000"},{"name":"Lushnjë","native":null,"lat":"40.94194000","lon":"19.70500000"},{"name":"Patos","native":null,"lat":"40.68333000","lon":"19.61944000"},{"name":"Patos Fshat","native":null,"lat":"40.64278000","lon":"19.65083000"},{"name":"Roskovec","native":null,"lat":"40.73750000","lon":"19.70222000"},{"name":"Rrethi i Mallakastrës","native":null,"lat":"40.55000000","lon":"19.78333000"}]},{"name":"Fier District","native":null,"cities":[]},{"name":"Gjirokastër County","native":null,"cities":[]},{"name":"Gjirokastër District","native":null,"cities":[{"name":"Bashkia Dropull","native":null,"lat":"39.98584000","lon":"20.30529000"},{"name":"Bashkia Kelcyrë","native":null,"lat":"40.36196000","lon":"20.16476000"},{"name":"Bashkia Libohovë","native":null,"lat":"40.10754000","lon":"20.25753000"},{"name":"Bashkia Memaliaj","native":null,"lat":"40.41524000","lon":"19.96911000"},{"name":"Bashkia Përmet","native":null,"lat":"40.23246000","lon":"20.41091000"},{"name":"Bashkia Tepelenë","native":null,"lat":"40.26736000","lon":"19.97003000"},{"name":"Gjinkar","native":null,"lat":"40.19944000","lon":"20.40611000"},{"name":"Gjirokastër","native":null,"lat":"40.07583000","lon":"20.13889000"},{"name":"Këlcyrë","native":null,"lat":"40.31306000","lon":"20.18944000"},{"name":"Lazarat","native":null,"lat":"40.04667000","lon":"20.14750000"},{"name":"Libohovë","native":null,"lat":"40.03111000","lon":"20.26306000"},{"name":"Memaliaj","native":null,"lat":"40.35167000","lon":"19.98028000"},{"name":"Përmet","native":null,"lat":"40.23361000","lon":"20.35167000"},{"name":"Tepelenë","native":null,"lat":"40.29583000","lon":"20.01917000"}]},{"name":"Gramsh District","native":null,"cities":[]},{"name":"Has District","native":null,"cities":[]},{"name":"Kavajë District","native":null,"cities":[]},{"name":"Kolonjë District","native":null,"cities":[]},{"name":"Korçë County","native":null,"cities":[{"name":"Bashkia Devoll","native":null,"lat":"40.60078000","lon":"20.93814000"},{"name":"Bashkia Kolonjë","native":null,"lat":"40.31420000","lon":"20.61482000"},{"name":"Bashkia Maliq","native":null,"lat":"40.75508000","lon":"20.60748000"},{"name":"Bashkia Pustec","native":null,"lat":"40.83591000","lon":"20.89405000"},{"name":"Bilisht","native":null,"lat":"40.62750000","lon":"20.99000000"},{"name":"Ersekë","native":null,"lat":"40.33778000","lon":"20.67889000"},{"name":"Korçë","native":null,"lat":"40.61861000","lon":"20.78083000"},{"name":"Leskovik","native":null,"lat":"40.15139000","lon":"20.59722000"},{"name":"Libonik","native":null,"lat":"40.70444000","lon":"20.70861000"},{"name":"Maliq","native":null,"lat":"40.70583000","lon":"20.69972000"},{"name":"Mborje","native":null,"lat":"40.60333000","lon":"20.80306000"},{"name":"Pogradec","native":null,"lat":"40.90250000","lon":"20.65250000"},{"name":"Rrethi i Devollit","native":null,"lat":"40.58333000","lon":"20.91667000"},{"name":"Rrethi i Kolonjës","native":null,"lat":"40.25000000","lon":"20.66667000"},{"name":"Velçan","native":null,"lat":"40.95472000","lon":"20.46222000"},{"name":"Voskopojë","native":null,"lat":"40.63306000","lon":"20.58889000"}]},{"name":"Korçë District","native":null,"cities":[]},{"name":"Krujë District","native":null,"cities":[]},{"name":"Kuçovë District","native":null,"cities":[]},{"name":"Kukës County","native":null,"cities":[]},{"name":"Kukës District","native":null,"cities":[{"name":"Bajram Curri","native":null,"lat":"42.35734000","lon":"20.07679000"},{"name":"Krumë","native":null,"lat":"42.19694000","lon":"20.41333000"},{"name":"Kukës","native":null,"lat":"42.07694000","lon":"20.42194000"},{"name":"Rrethi i Hasit","native":null,"lat":"42.16667000","lon":"20.33333000"},{"name":"Rrethi i Kukësit","native":null,"lat":"42.00000000","lon":"20.33333000"}]},{"name":"Kurbin District","native":null,"cities":[]},{"name":"Lezhë County","native":null,"cities":[{"name":"Bashkia Kurbin","native":null,"lat":"41.62215000","lon":"19.70734000"},{"name":"Bashkia Lezhë","native":null,"lat":"41.81320000","lon":"19.64121000"},{"name":"Bashkia Mirditë","native":null,"lat":"41.80953000","lon":"19.99024000"},{"name":"Kurbnesh","native":null,"lat":"41.77972000","lon":"20.08361000"},{"name":"Laç","native":null,"lat":"41.63556000","lon":"19.71306000"},{"name":"Lezhë","native":null,"lat":"41.78361000","lon":"19.64361000"},{"name":"Mamurras","native":null,"lat":"41.57750000","lon":"19.69222000"},{"name":"Milot","native":null,"lat":"41.68389000","lon":"19.71556000"},{"name":"Rrëshen","native":null,"lat":"41.76750000","lon":"19.87556000"},{"name":"Rrethi i Kurbinit","native":null,"lat":"41.63333000","lon":"19.71667000"},{"name":"Rubik","native":null,"lat":"41.77444000","lon":"19.78611000"},{"name":"Shëngjin","native":null,"lat":"41.81361000","lon":"19.59389000"}]},{"name":"Lezhë District","native":null,"cities":[]},{"name":"Librazhd District","native":null,"cities":[]},{"name":"Lushnjë District","native":null,"cities":[]},{"name":"Malësi e Madhe District","native":null,"cities":[]},{"name":"Mallakastër District","native":null,"cities":[]},{"name":"Mat District","native":null,"cities":[]},{"name":"Mirditë District","native":null,"cities":[]},{"name":"Peqin District","native":null,"cities":[]},{"name":"Përmet District","native":null,"cities":[]},{"name":"Pogradec District","native":null,"cities":[]},{"name":"Pukë District","native":null,"cities":[]},{"name":"Sarandë District","native":null,"cities":[]},{"name":"Shkodër County","native":null,"cities":[]},{"name":"Shkodër District","native":null,"cities":[{"name":"Bashkia Malësi e Madhe","native":null,"lat":"42.36798000","lon":"19.58977000"},{"name":"Bashkia Pukë","native":null,"lat":"42.02997000","lon":"19.92778000"},{"name":"Bashkia Vau i Dejës","native":null,"lat":"42.04834000","lon":"19.69999000"},{"name":"Fushë-Arrëz","native":null,"lat":"42.06222000","lon":"20.01667000"},{"name":"Koplik","native":null,"lat":"42.21361000","lon":"19.43639000"},{"name":"Pukë","native":null,"lat":"42.04444000","lon":"19.89972000"},{"name":"Rrethi i Malësia e Madhe","native":null,"lat":"42.33333000","lon":"19.58333000"},{"name":"Rrethi i Shkodrës","native":null,"lat":"42.06917000","lon":"19.53506000"},{"name":"Shkodër","native":null,"lat":"42.06828000","lon":"19.51258000"},{"name":"Vau i Dejës","native":null,"lat":"42.01000000","lon":"19.62472000"},{"name":"Vukatanë","native":null,"lat":"42.02806000","lon":"19.54778000"}]},{"name":"Skrapar District","native":null,"cities":[]},{"name":"Tepelenë District","native":null,"cities":[]},{"name":"Tirana County","native":null,"cities":[]},{"name":"Tirana District","native":null,"cities":[{"name":"Bashkia Kavajë","native":null,"lat":"41.18127000","lon":"19.55579000"},{"name":"Bashkia Vorë","native":null,"lat":"41.39804000","lon":"19.67703000"},{"name":"Kamëz","native":null,"lat":"41.38167000","lon":"19.76028000"},{"name":"Kavajë","native":null,"lat":"41.18556000","lon":"19.55694000"},{"name":"Krrabë","native":null,"lat":"41.21556000","lon":"19.97139000"},{"name":"Rrethi i Kavajës","native":null,"lat":"41.16667000","lon":"19.58333000"},{"name":"Rrethi i Tiranës","native":null,"lat":"41.33333000","lon":"19.91667000"},{"name":"Rrogozhinë","native":null,"lat":"41.07639000","lon":"19.66528000"},{"name":"Sinaballaj","native":null,"lat":"41.06889000","lon":"19.69944000"},{"name":"Tirana","native":null,"lat":"41.32750000","lon":"19.81889000"},{"name":"Vorë","native":null,"lat":"41.39083000","lon":"19.65500000"}]},{"name":"Tropojë District","native":null,"cities":[]},{"name":"Vlorë County","native":null,"cities":[{"name":"Bashkia Finiq","native":null,"lat":"39.84393000","lon":"20.16659000"},{"name":"Bashkia Himarë","native":null,"lat":"40.11581000","lon":"19.81389000"},{"name":"Bashkia Konispol","native":null,"lat":"39.70064000","lon":"20.13353000"},{"name":"Bashkia Selenicë","native":null,"lat":"40.39503000","lon":"19.65958000"},{"name":"Bashkia Vlorë","native":null,"lat":"40.41340000","lon":"19.49792000"},{"name":"Delvinë","native":null,"lat":"39.95111000","lon":"20.09778000"},{"name":"Himarë","native":null,"lat":"40.10167000","lon":"19.74472000"},{"name":"Konispol","native":null,"lat":"39.65889000","lon":"20.18139000"},{"name":"Ksamil","native":null,"lat":"39.76889000","lon":"19.99972000"},{"name":"Orikum","native":null,"lat":"40.32528000","lon":"19.47139000"},{"name":"Rrethi i Delvinës","native":null,"lat":"39.91667000","lon":"20.08333000"},{"name":"Sarandë","native":null,"lat":"39.87534000","lon":"20.00477000"},{"name":"Selenicë","native":null,"lat":"40.53056000","lon":"19.63583000"},{"name":"Vlorë","native":null,"lat":"40.46860000","lon":"19.48318000"}]},{"name":"Vlorë District","native":null,"cities":[]}]