[{"state":"Berat District","name":"Banaj","lat":"40.82492000","lon":"19.84074000"},
{"state":"Berat District","name":"Bashkia Berat","lat":"40.69997000","lon":"19.94983000"},
{"state":"Berat District","name":"Bashkia Kuçovë","lat":"40.82489000","lon":"19.95350000"},
{"state":"Berat District","name":"Bashkia Poliçan","lat":"40.58608000","lon":"20.04535000"},
{"state":"Berat District","name":"Bashkia Skrapar","lat":"40.56036000","lon":"20.25477000"},
{"state":"Berat District","name":"Berat","lat":"40.70583000","lon":"19.95222000"},
{"state":"Berat District","name":"Çorovodë","lat":"40.50417000","lon":"20.22722000"},
{"state":"Berat District","name":"Kuçovë","lat":"40.80028000","lon":"19.91667000"},
{"state":"Berat District","name":"Poliçan","lat":"40.61222000","lon":"20.09806000"},
{"state":"Berat District","name":"Rrethi i Beratit","lat":"40.66667000","lon":"20.00000000"},
{"state":"Berat District","name":"Rrethi i Kuçovës","lat":"40.83333000","lon":"19.91667000"},
{"state":"Berat District","name":"Rrethi i Skraparit","lat":"40.55000000","lon":"20.26667000"},
{"state":"Berat District","name":"Ura Vajgurore","lat":"40.76889000","lon":"19.87778000"},
{"state":"Dibër County","name":"Bashkia Bulqizë","lat":"41.47152000","lon":"20.33192000"},
{"state":"Dibër County","name":"Bashkia Klos","lat":"41.50826000","lon":"20.07107000"},
{"state":"Dibër County","name":"Bashkia Mat","lat":"41.63317000","lon":"20.01228000"},
{"state":"Dibër County","name":"Bulqizë","lat":"41.49167000","lon":"20.22194000"},
{"state":"Dibër County","name":"Burrel","lat":"41.61028000","lon":"20.00889000"},
{"state":"Dibër County","name":"Klos","lat":"41.50694000","lon":"20.08667000"},
{"state":"Dibër County","name":"Peshkopi","lat":"41.68500000","lon":"20.42889000"},
{"state":"Dibër County","name":"Rrethi i Bulqizës","lat":"41.50000000","lon":"20.33333000"},
{"state":"Dibër County","name":"Rrethi i Dibrës","lat":"41.75000000","lon":"20.33333000"},
{"state":"Dibër County","name":"Rrethi i Matit","lat":"41.58333000","lon":"20.08333000"},
{"state":"Dibër County","name":"Ulëz","lat":"41.68278000","lon":"19.89333000"},
{"state":"Durrës District","name":"Bashkia Durrës","lat":"41.42743000","lon":"19.48690000"},
{"state":"Durrës District","name":"Bashkia Krujë","lat":"41.50091000","lon":"19.72571000"},
{"state":"Durrës District","name":"Bashkia Shijak","lat":"41.33558000","lon":"19.58977000"},
{"state":"Durrës District","name":"Durrës","lat":"41.32355000","lon":"19.45469000"},
{"state":"Durrës District","name":"Durrës District","lat":"41.31660000","lon":"19.45000000"},
{"state":"Durrës District","name":"Fushë-Krujë","lat":"41.47833000","lon":"19.71778000"},
{"state":"Durrës District","name":"Krujë","lat":"41.50917000","lon":"19.79278000"},
{"state":"Durrës District","name":"Rrethi i Krujës","lat":"41.55000000","lon":"19.75000000"},
{"state":"Durrës District","name":"Shijak","lat":"41.34556000","lon":"19.56722000"},
{"state":"Durrës District","name":"Sukth","lat":"41.38056000","lon":"19.53778000"},
{"state":"Fier County","name":"Ballsh","lat":"40.59889000","lon":"19.73472000"},
{"state":"Fier County","name":"Bashkia Divjakë","lat":"40.95716000","lon":"19.52364000"},
{"state":"Fier County","name":"Bashkia Fier","lat":"40.72937000","lon":"19.48690000"},
{"state":"Fier County","name":"Bashkia Mallakastër","lat":"40.55669000","lon":"19.77347000"},
{"state":"Fier County","name":"Bashkia Patos","lat":"40.67793000","lon":"19.65591000"},
{"state":"Fier County","name":"Divjakë","lat":"40.99667000","lon":"19.52944000"},
{"state":"Fier County","name":"Fier","lat":"40.72389000","lon":"19.55611000"},
{"state":"Fier County","name":"Fier-Çifçi","lat":"40.71667000","lon":"19.56667000"},
{"state":"Fier County","name":"Lushnjë","lat":"40.94194000","lon":"19.70500000"},
{"state":"Fier County","name":"Patos","lat":"40.68333000","lon":"19.61944000"},
{"state":"Fier County","name":"Patos Fshat","lat":"40.64278000","lon":"19.65083000"},
{"state":"Fier County","name":"Roskovec","lat":"40.73750000","lon":"19.70222000"},
{"state":"Fier County","name":"Rrethi i Mallakastrës","lat":"40.55000000","lon":"19.78333000"},
{"state":"Gjirokastër District","name":"Bashkia Dropull","lat":"39.98584000","lon":"20.30529000"},
{"state":"Gjirokastër District","name":"Bashkia Kelcyrë","lat":"40.36196000","lon":"20.16476000"},
{"state":"Gjirokastër District","name":"Bashkia Libohovë","lat":"40.10754000","lon":"20.25753000"},
{"state":"Gjirokastër District","name":"Bashkia Memaliaj","lat":"40.41524000","lon":"19.96911000"},
{"state":"Gjirokastër District","name":"Bashkia Përmet","lat":"40.23246000","lon":"20.41091000"},
{"state":"Gjirokastër District","name":"Bashkia Tepelenë","lat":"40.26736000","lon":"19.97003000"},
{"state":"Gjirokastër District","name":"Gjinkar","lat":"40.19944000","lon":"20.40611000"},
{"state":"Gjirokastër District","name":"Gjirokastër","lat":"40.07583000","lon":"20.13889000"},
{"state":"Gjirokastër District","name":"Këlcyrë","lat":"40.31306000","lon":"20.18944000"},
{"state":"Gjirokastër District","name":"Lazarat","lat":"40.04667000","lon":"20.14750000"},
{"state":"Gjirokastër District","name":"Libohovë","lat":"40.03111000","lon":"20.26306000"},
{"state":"Gjirokastër District","name":"Memaliaj","lat":"40.35167000","lon":"19.98028000"},
{"state":"Gjirokastër District","name":"Përmet","lat":"40.23361000","lon":"20.35167000"},
{"state":"Gjirokastër District","name":"Tepelenë","lat":"40.29583000","lon":"20.01917000"},
{"state":"Korçë County","name":"Bashkia Devoll","lat":"40.60078000","lon":"20.93814000"},
{"state":"Korçë County","name":"Bashkia Kolonjë","lat":"40.31420000","lon":"20.61482000"},
{"state":"Korçë County","name":"Bashkia Maliq","lat":"40.75508000","lon":"20.60748000"},
{"state":"Korçë County","name":"Bashkia Pustec","lat":"40.83591000","lon":"20.89405000"},
{"state":"Korçë County","name":"Bilisht","lat":"40.62750000","lon":"20.99000000"},
{"state":"Korçë County","name":"Ersekë","lat":"40.33778000","lon":"20.67889000"},
{"state":"Korçë County","name":"Korçë","lat":"40.61861000","lon":"20.78083000"},
{"state":"Korçë County","name":"Leskovik","lat":"40.15139000","lon":"20.59722000"},
{"state":"Korçë County","name":"Libonik","lat":"40.70444000","lon":"20.70861000"},
{"state":"Korçë County","name":"Maliq","lat":"40.70583000","lon":"20.69972000"},
{"state":"Korçë County","name":"Mborje","lat":"40.60333000","lon":"20.80306000"},
{"state":"Korçë County","name":"Pogradec","lat":"40.90250000","lon":"20.65250000"},
{"state":"Korçë County","name":"Rrethi i Devollit","lat":"40.58333000","lon":"20.91667000"},
{"state":"Korçë County","name":"Rrethi i Kolonjës","lat":"40.25000000","lon":"20.66667000"},
{"state":"Korçë County","name":"Velçan","lat":"40.95472000","lon":"20.46222000"},
{"state":"Korçë County","name":"Voskopojë","lat":"40.63306000","lon":"20.58889000"},
{"state":"Kukës District","name":"Bajram Curri","lat":"42.35734000","lon":"20.07679000"},
{"state":"Kukës District","name":"Krumë","lat":"42.19694000","lon":"20.41333000"},
{"state":"Kukës District","name":"Kukës","lat":"42.07694000","lon":"20.42194000"},
{"state":"Kukës District","name":"Rrethi i Hasit","lat":"42.16667000","lon":"20.33333000"},
{"state":"Kukës District","name":"Rrethi i Kukësit","lat":"42.00000000","lon":"20.33333000"},
{"state":"Lezhë County","name":"Bashkia Kurbin","lat":"41.62215000","lon":"19.70734000"},
{"state":"Lezhë County","name":"Bashkia Lezhë","lat":"41.81320000","lon":"19.64121000"},
{"state":"Lezhë County","name":"Bashkia Mirditë","lat":"41.80953000","lon":"19.99024000"},
{"state":"Lezhë County","name":"Kurbnesh","lat":"41.77972000","lon":"20.08361000"},
{"state":"Lezhë County","name":"Laç","lat":"41.63556000","lon":"19.71306000"},
{"state":"Lezhë County","name":"Lezhë","lat":"41.78361000","lon":"19.64361000"},
{"state":"Lezhë County","name":"Mamurras","lat":"41.57750000","lon":"19.69222000"},
{"state":"Lezhë County","name":"Milot","lat":"41.68389000","lon":"19.71556000"},
{"state":"Lezhë County","name":"Rrëshen","lat":"41.76750000","lon":"19.87556000"},
{"state":"Lezhë County","name":"Rrethi i Kurbinit","lat":"41.63333000","lon":"19.71667000"},
{"state":"Lezhë County","name":"Rubik","lat":"41.77444000","lon":"19.78611000"},
{"state":"Lezhë County","name":"Shëngjin","lat":"41.81361000","lon":"19.59389000"},
{"state":"Shkodër District","name":"Bashkia Malësi e Madhe","lat":"42.36798000","lon":"19.58977000"},
{"state":"Shkodër District","name":"Bashkia Pukë","lat":"42.02997000","lon":"19.92778000"},
{"state":"Shkodër District","name":"Bashkia Vau i Dejës","lat":"42.04834000","lon":"19.69999000"},
{"state":"Shkodër District","name":"Fushë-Arrëz","lat":"42.06222000","lon":"20.01667000"},
{"state":"Shkodër District","name":"Koplik","lat":"42.21361000","lon":"19.43639000"},
{"state":"Shkodër District","name":"Pukë","lat":"42.04444000","lon":"19.89972000"},
{"state":"Shkodër District","name":"Rrethi i Malësia e Madhe","lat":"42.33333000","lon":"19.58333000"},
{"state":"Shkodër District","name":"Rrethi i Shkodrës","lat":"42.06917000","lon":"19.53506000"},
{"state":"Shkodër District","name":"Shkodër","lat":"42.06828000","lon":"19.51258000"},
{"state":"Shkodër District","name":"Vau i Dejës","lat":"42.01000000","lon":"19.62472000"},
{"state":"Shkodër District","name":"Vukatanë","lat":"42.02806000","lon":"19.54778000"},
{"state":"Tirana District","name":"Bashkia Kavajë","lat":"41.18127000","lon":"19.55579000"},
{"state":"Tirana District","name":"Bashkia Vorë","lat":"41.39804000","lon":"19.67703000"},
{"state":"Tirana District","name":"Kamëz","lat":"41.38167000","lon":"19.76028000"},
{"state":"Tirana District","name":"Kavajë","lat":"41.18556000","lon":"19.55694000"},
{"state":"Tirana District","name":"Krrabë","lat":"41.21556000","lon":"19.97139000"},
{"state":"Tirana District","name":"Rrethi i Kavajës","lat":"41.16667000","lon":"19.58333000"},
{"state":"Tirana District","name":"Rrethi i Tiranës","lat":"41.33333000","lon":"19.91667000"},
{"state":"Tirana District","name":"Rrogozhinë","lat":"41.07639000","lon":"19.66528000"},
{"state":"Tirana District","name":"Sinaballaj","lat":"41.06889000","lon":"19.69944000"},
{"state":"Tirana District","name":"Tirana","lat":"41.32750000","lon":"19.81889000"},
{"state":"Tirana District","name":"Vorë","lat":"41.39083000","lon":"19.65500000"},
{"state":"Vlorë County","name":"Bashkia Finiq","lat":"39.84393000","lon":"20.16659000"},
{"state":"Vlorë County","name":"Bashkia Himarë","lat":"40.11581000","lon":"19.81389000"},
{"state":"Vlorë County","name":"Bashkia Konispol","lat":"39.70064000","lon":"20.13353000"},
{"state":"Vlorë County","name":"Bashkia Selenicë","lat":"40.39503000","lon":"19.65958000"},
{"state":"Vlorë County","name":"Bashkia Vlorë","lat":"40.41340000","lon":"19.49792000"},
{"state":"Vlorë County","name":"Delvinë","lat":"39.95111000","lon":"20.09778000"},
{"state":"Vlorë County","name":"Himarë","lat":"40.10167000","lon":"19.74472000"},
{"state":"Vlorë County","name":"Konispol","lat":"39.65889000","lon":"20.18139000"},
{"state":"Vlorë County","name":"Ksamil","lat":"39.76889000","lon":"19.99972000"},
{"state":"Vlorë County","name":"Orikum","lat":"40.32528000","lon":"19.47139000"},
{"state":"Vlorë County","name":"Rrethi i Delvinës","lat":"39.91667000","lon":"20.08333000"},
{"state":"Vlorë County","name":"Sarandë","lat":"39.87534000","lon":"20.00477000"},
{"state":"Vlorë County","name":"Selenicë","lat":"40.53056000","lon":"19.63583000"},
{"state":"Vlorë County","name":"Vlorë","lat":"40.46860000","lon":"19.48318000"}]