[{"state":"Aragatsotn Region","name":"Agarakavan","lat":"40.33069000","lon":"44.07233000"},
{"state":"Aragatsotn Region","name":"Aparan","lat":"40.59323000","lon":"44.35890000"},
{"state":"Aragatsotn Region","name":"Aragats","lat":"40.48889000","lon":"44.35290000"},
{"state":"Aragatsotn Region","name":"Arteni","lat":"40.29730000","lon":"43.76672000"},
{"state":"Aragatsotn Region","name":"Ashnak","lat":"40.33069000","lon":"43.91669000"},
{"state":"Aragatsotn Region","name":"Ashtarak","lat":"40.29910000","lon":"44.36204000"},
{"state":"Aragatsotn Region","name":"Byurakan","lat":"40.33894000","lon":"44.27275000"},
{"state":"Aragatsotn Region","name":"Hnaberd","lat":"40.63721000","lon":"44.14058000"},
{"state":"Aragatsotn Region","name":"Karbi","lat":"40.33069000","lon":"44.37793000"},
{"state":"Aragatsotn Region","name":"Kasakh","lat":"40.53697000","lon":"44.41046000"},
{"state":"Aragatsotn Region","name":"Kosh","lat":"40.30011000","lon":"44.16107000"},
{"state":"Aragatsotn Region","name":"Nor Yerznka","lat":"40.30011000","lon":"44.38892000"},
{"state":"Aragatsotn Region","name":"Oshakan","lat":"40.26392000","lon":"44.31671000"},
{"state":"Aragatsotn Region","name":"Sasunik","lat":"40.25012000","lon":"44.34448000"},
{"state":"Aragatsotn Region","name":"Shenavan","lat":"40.48328000","lon":"44.38348000"},
{"state":"Aragatsotn Region","name":"T’alin","lat":"40.39172000","lon":"43.87793000"},
{"state":"Aragatsotn Region","name":"Tsaghkahovit","lat":"40.63428000","lon":"44.22241000"},
{"state":"Aragatsotn Region","name":"Ushi","lat":"40.34729000","lon":"44.37512000"},
{"state":"Aragatsotn Region","name":"Voskevaz","lat":"40.27508000","lon":"44.30011000"},
{"state":"Aragatsotn Region","name":"Zovuni","lat":"40.51111000","lon":"44.43890000"},
{"state":"Ararat Province","name":"Abovyan","lat":"40.04851000","lon":"44.54742000"},
{"state":"Ararat Province","name":"Aralez","lat":"39.90008000","lon":"44.65570000"},
{"state":"Ararat Province","name":"Ararat","lat":"39.83069000","lon":"44.70569000"},
{"state":"Ararat Province","name":"Arevabuyr","lat":"40.03607000","lon":"44.46948000"},
{"state":"Ararat Province","name":"Arevshat","lat":"40.03963000","lon":"44.54179000"},
{"state":"Ararat Province","name":"Armash","lat":"39.76672000","lon":"44.81110000"},
{"state":"Ararat Province","name":"Artashat","lat":"39.96144000","lon":"44.54447000"},
{"state":"Ararat Province","name":"Avshar","lat":"39.85553000","lon":"44.65832000"},
{"state":"Ararat Province","name":"Aygavan","lat":"39.87327000","lon":"44.66984000"},
{"state":"Ararat Province","name":"Aygepat","lat":"39.95845000","lon":"44.59981000"},
{"state":"Ararat Province","name":"Aygestan","lat":"40.00293000","lon":"44.55829000"},
{"state":"Ararat Province","name":"Aygezard","lat":"39.95436000","lon":"44.60229000"},
{"state":"Ararat Province","name":"Bardzrashen","lat":"40.08533000","lon":"44.57957000"},
{"state":"Ararat Province","name":"Berk’anush","lat":"39.97790000","lon":"44.51672000"},
{"state":"Ararat Province","name":"Burastan","lat":"39.99157000","lon":"44.49681000"},
{"state":"Ararat Province","name":"Byuravan","lat":"40.01604000","lon":"44.51889000"},
{"state":"Ararat Province","name":"Dalar","lat":"39.97653000","lon":"44.52649000"},
{"state":"Ararat Province","name":"Darakert","lat":"40.10553000","lon":"44.41388000"},
{"state":"Ararat Province","name":"Dashtavan","lat":"40.10010000","lon":"44.39172000"},
{"state":"Ararat Province","name":"Dimitrov","lat":"40.00848000","lon":"44.49170000"},
{"state":"Ararat Province","name":"Dvin","lat":"40.01984000","lon":"44.58376000"},
{"state":"Ararat Province","name":"Getazat","lat":"40.03844000","lon":"44.56369000"},
{"state":"Ararat Province","name":"Ghukasavan","lat":"40.12793000","lon":"44.41669000"},
{"state":"Ararat Province","name":"Goravan","lat":"39.90832000","lon":"44.73328000"},
{"state":"Ararat Province","name":"Hayanist","lat":"40.12231000","lon":"44.37793000"},
{"state":"Ararat Province","name":"Hovtashat","lat":"40.09729000","lon":"44.34448000"},
{"state":"Ararat Province","name":"Hovtashen","lat":"40.02508000","lon":"44.45007000"},
{"state":"Ararat Province","name":"Jrahovit","lat":"40.04730000","lon":"44.47510000"},
{"state":"Ararat Province","name":"Lusarrat","lat":"39.87403000","lon":"44.58678000"},
{"state":"Ararat Province","name":"Marmarashen","lat":"40.05829000","lon":"44.47229000"},
{"state":"Ararat Province","name":"Masis","lat":"40.06542000","lon":"44.41618000"},
{"state":"Ararat Province","name":"Mrganush","lat":"40.02857000","lon":"44.55831000"},
{"state":"Ararat Province","name":"Mrgavan","lat":"39.97251000","lon":"44.53565000"},
{"state":"Ararat Province","name":"Mrgavet","lat":"40.02789000","lon":"44.48328000"},
{"state":"Ararat Province","name":"Nizami","lat":"40.09168000","lon":"44.40570000"},
{"state":"Ararat Province","name":"Norabats’","lat":"40.10553000","lon":"44.43329000"},
{"state":"Ararat Province","name":"Noramarg","lat":"40.02228000","lon":"44.42511000"},
{"state":"Ararat Province","name":"Norashen","lat":"40.00130000","lon":"44.59296000"},
{"state":"Ararat Province","name":"Noyakert","lat":"39.83069000","lon":"44.66949000"},
{"state":"Ararat Province","name":"Nshavan","lat":"40.02787000","lon":"44.52565000"},
{"state":"Ararat Province","name":"Sayat’-Nova","lat":"40.07507000","lon":"44.40008000"},
{"state":"Ararat Province","name":"Shahumyan","lat":"39.94171000","lon":"44.57233000"},
{"state":"Ararat Province","name":"Sis","lat":"40.05829000","lon":"44.38892000"},
{"state":"Ararat Province","name":"Sisavan","lat":"39.90802000","lon":"44.66721000"},
{"state":"Ararat Province","name":"Surenavan","lat":"39.79449000","lon":"44.77508000"},
{"state":"Ararat Province","name":"Vedi","lat":"39.91388000","lon":"44.72510000"},
{"state":"Ararat Province","name":"Verin Artashat","lat":"39.99731000","lon":"44.58893000"},
{"state":"Ararat Province","name":"Verin Dvin","lat":"40.02434000","lon":"44.59038000"},
{"state":"Ararat Province","name":"Vosketap’","lat":"39.88114000","lon":"44.64917000"},
{"state":"Ararat Province","name":"Vostan","lat":"39.96515000","lon":"44.55937000"},
{"state":"Ararat Province","name":"Yeghegnavan","lat":"39.83893000","lon":"44.61951000"},
{"state":"Ararat Province","name":"Zangakatun","lat":"39.82233000","lon":"45.04169000"},
{"state":"Ararat Province","name":"Zorak","lat":"40.09168000","lon":"44.39447000"},
{"state":"Armavir Region","name":"Aghavnatun","lat":"40.23330000","lon":"44.25295000"},
{"state":"Armavir Region","name":"Aknalich","lat":"40.14728000","lon":"44.16669000"},
{"state":"Armavir Region","name":"Aknashen","lat":"40.09551000","lon":"44.28604000"},
{"state":"Armavir Region","name":"Alashkert","lat":"40.10712000","lon":"44.05108000"},
{"state":"Armavir Region","name":"Apaga","lat":"40.09729000","lon":"44.25293000"},
{"state":"Armavir Region","name":"Arak’s","lat":"40.05548000","lon":"44.30292000"},
{"state":"Armavir Region","name":"Arazap’","lat":"40.04169000","lon":"44.14728000"},
{"state":"Armavir Region","name":"Arbat’","lat":"40.13892000","lon":"44.40289000"},
{"state":"Armavir Region","name":"Arevashat","lat":"40.14447000","lon":"44.37512000"},
{"state":"Armavir Region","name":"Arevik","lat":"40.10010000","lon":"44.09448000"},
{"state":"Armavir Region","name":"Argavand","lat":"40.06110000","lon":"44.09448000"},
{"state":"Armavir Region","name":"Armavir","lat":"40.15446000","lon":"44.03815000"},
{"state":"Armavir Region","name":"Arshaluys","lat":"40.16949000","lon":"44.21393000"},
{"state":"Armavir Region","name":"Artimet","lat":"40.15008000","lon":"44.26672000"},
{"state":"Armavir Region","name":"Aygek","lat":"40.18890000","lon":"44.38611000"},
{"state":"Armavir Region","name":"Aygeshat","lat":"40.07507000","lon":"44.06110000"},
{"state":"Armavir Region","name":"Baghramyan","lat":"40.19452000","lon":"44.36951000"},
{"state":"Armavir Region","name":"Bambakashat","lat":"40.10828000","lon":"44.01947000"},
{"state":"Armavir Region","name":"Dalarik","lat":"40.22790000","lon":"43.87793000"},
{"state":"Armavir Region","name":"Doghs","lat":"40.22229000","lon":"44.27228000"},
{"state":"Armavir Region","name":"Gay","lat":"40.08444000","lon":"44.30528000"},
{"state":"Armavir Region","name":"Geghakert","lat":"40.18516000","lon":"44.24331000"},
{"state":"Armavir Region","name":"Geghanist","lat":"40.14587000","lon":"44.43048000"},
{"state":"Armavir Region","name":"Getashen","lat":"40.04449000","lon":"43.94171000"},
{"state":"Armavir Region","name":"Gmbet’","lat":"40.22369000","lon":"44.25409000"},
{"state":"Armavir Region","name":"Griboyedov","lat":"40.11307000","lon":"44.27169000"},
{"state":"Armavir Region","name":"Haykashen","lat":"40.07233000","lon":"44.30829000"},
{"state":"Armavir Region","name":"Hovtamej","lat":"40.18329000","lon":"44.25848000"},
{"state":"Armavir Region","name":"Janfida","lat":"40.04449000","lon":"44.02789000"},
{"state":"Armavir Region","name":"Khoronk’","lat":"40.13611000","lon":"44.24731000"},
{"state":"Armavir Region","name":"Lenughi","lat":"40.12512000","lon":"43.96393000"},
{"state":"Armavir Region","name":"Lukashin","lat":"40.18726000","lon":"44.00390000"},
{"state":"Armavir Region","name":"Margara","lat":"40.03332000","lon":"44.18048000"},
{"state":"Armavir Region","name":"Mayisyan","lat":"40.15701000","lon":"44.09192000"},
{"state":"Armavir Region","name":"Merdzavan","lat":"40.18140000","lon":"44.40033000"},
{"state":"Armavir Region","name":"Metsamor","lat":"40.14447000","lon":"44.11670000"},
{"state":"Armavir Region","name":"Mrgashat","lat":"40.13068000","lon":"44.08069000"},
{"state":"Armavir Region","name":"Musalerr","lat":"40.15570000","lon":"44.37793000"},
{"state":"Armavir Region","name":"Myasnikyan","lat":"40.18048000","lon":"43.91949000"},
{"state":"Armavir Region","name":"Nalbandyan","lat":"40.06390000","lon":"43.98889000"},
{"state":"Armavir Region","name":"Nor Armavir","lat":"40.08612000","lon":"43.99451000"},
{"state":"Armavir Region","name":"Norakert","lat":"40.19733000","lon":"44.35010000"},
{"state":"Armavir Region","name":"P’shatavan","lat":"40.03888000","lon":"44.06671000"},
{"state":"Armavir Region","name":"Ptghunk’","lat":"40.16388000","lon":"44.36389000"},
{"state":"Armavir Region","name":"Sardarapat","lat":"40.13206000","lon":"44.00969000"},
{"state":"Armavir Region","name":"Shenavan","lat":"40.05548000","lon":"43.93048000"},
{"state":"Armavir Region","name":"Tandzut","lat":"40.06952000","lon":"44.07788000"},
{"state":"Armavir Region","name":"Taronik","lat":"40.13367000","lon":"44.19957000"},
{"state":"Armavir Region","name":"Tsaghkunk’","lat":"40.18048000","lon":"44.27228000"},
{"state":"Armavir Region","name":"Tsiatsan","lat":"40.18610000","lon":"44.26947000"},
{"state":"Armavir Region","name":"Vagharshapat","lat":"40.16557000","lon":"44.29462000"},
{"state":"Armavir Region","name":"Voskehat","lat":"40.14172000","lon":"44.33069000"},
{"state":"Armavir Region","name":"Yeghegnut","lat":"40.08893000","lon":"44.16669000"},
{"state":"Armavir Region","name":"Yeraskhahun","lat":"40.07233000","lon":"44.21948000"},
{"state":"Gegharkunik Province","name":"Akunk’","lat":"40.15886000","lon":"45.72568000"},
{"state":"Gegharkunik Province","name":"Astghadzor","lat":"40.12231000","lon":"45.35553000"},
{"state":"Gegharkunik Province","name":"Chambarak","lat":"40.59655000","lon":"45.35498000"},
{"state":"Gegharkunik Province","name":"Ddmashen","lat":"40.57028000","lon":"44.82295000"},
{"state":"Gegharkunik Province","name":"Drakhtik","lat":"40.56497000","lon":"45.23670000"},
{"state":"Gegharkunik Province","name":"Dzoragyugh","lat":"40.16957000","lon":"45.18337000"},
{"state":"Gegharkunik Province","name":"Gagarin","lat":"40.54026000","lon":"44.86962000"},
{"state":"Gegharkunik Province","name":"Gandzak","lat":"40.31472000","lon":"45.11139000"},
{"state":"Gegharkunik Province","name":"Gavarr","lat":"40.35398000","lon":"45.12386000"},
{"state":"Gegharkunik Province","name":"Geghamasar","lat":"40.31091000","lon":"45.67924000"},
{"state":"Gegharkunik Province","name":"Geghamavan","lat":"40.56250000","lon":"44.88892000"},
{"state":"Gegharkunik Province","name":"Karanlukh","lat":"40.10444000","lon":"45.28972000"},
{"state":"Gegharkunik Province","name":"Karchaghbyur","lat":"40.17048000","lon":"45.57785000"},
{"state":"Gegharkunik Province","name":"Lanjaghbyur","lat":"40.26947000","lon":"45.14447000"},
{"state":"Gegharkunik Province","name":"Lchap’","lat":"40.45569000","lon":"45.07507000"},
{"state":"Gegharkunik Province","name":"Lchashen","lat":"40.51947000","lon":"44.93048000"},
{"state":"Gegharkunik Province","name":"Lichk’","lat":"40.15933000","lon":"45.23467000"},
{"state":"Gegharkunik Province","name":"Madina","lat":"40.07637000","lon":"45.25507000"},
{"state":"Gegharkunik Province","name":"Martuni","lat":"40.08333000","lon":"45.25000000"},
{"state":"Gegharkunik Province","name":"Mets Masrik","lat":"40.21948000","lon":"45.76391000"},
{"state":"Gegharkunik Province","name":"Nerk’in Getashen","lat":"40.14172000","lon":"45.27087000"},
{"state":"Gegharkunik Province","name":"Noratus","lat":"40.37793000","lon":"45.18048000"},
{"state":"Gegharkunik Province","name":"Sarukhan","lat":"40.29169000","lon":"45.13068000"},
{"state":"Gegharkunik Province","name":"Sevan","lat":"40.54730000","lon":"44.94171000"},
{"state":"Gegharkunik Province","name":"Tsovagyugh","lat":"40.63348000","lon":"44.96112000"},
{"state":"Gegharkunik Province","name":"Tsovak","lat":"40.18254000","lon":"45.63286000"},
{"state":"Gegharkunik Province","name":"Tsovasar","lat":"40.13820000","lon":"45.19096000"},
{"state":"Gegharkunik Province","name":"Tsovazard","lat":"40.47510000","lon":"45.05011000"},
{"state":"Gegharkunik Province","name":"Tsovinar","lat":"40.15959000","lon":"45.46786000"},
{"state":"Gegharkunik Province","name":"Vaghashen","lat":"40.13611000","lon":"45.33069000"},
{"state":"Gegharkunik Province","name":"Vahan","lat":"40.57549000","lon":"45.39769000"},
{"state":"Gegharkunik Province","name":"Vardenik","lat":"40.13348000","lon":"45.44311000"},
{"state":"Gegharkunik Province","name":"Vardenis","lat":"40.18329000","lon":"45.73053000"},
{"state":"Gegharkunik Province","name":"Varser","lat":"40.55548000","lon":"44.90832000"},
{"state":"Gegharkunik Province","name":"Verin Getashen","lat":"40.13068000","lon":"45.25293000"},
{"state":"Gegharkunik Province","name":"Yeranos","lat":"40.20428000","lon":"45.19209000"},
{"state":"Kotayk Region","name":"Abovyan","lat":"40.27368000","lon":"44.63348000"},
{"state":"Kotayk Region","name":"Aghavnadzor","lat":"40.58195000","lon":"44.69581000"},
{"state":"Kotayk Region","name":"Akunk’","lat":"40.26672000","lon":"44.68610000"},
{"state":"Kotayk Region","name":"Aramus","lat":"40.25095000","lon":"44.66351000"},
{"state":"Kotayk Region","name":"Argel","lat":"40.37793000","lon":"44.60010000"},
{"state":"Kotayk Region","name":"Arzakan","lat":"40.45007000","lon":"44.60828000"},
{"state":"Kotayk Region","name":"Arzni","lat":"40.29730000","lon":"44.59869000"},
{"state":"Kotayk Region","name":"Balahovit","lat":"40.25153000","lon":"44.60828000"},
{"state":"Kotayk Region","name":"Bjni","lat":"40.45831000","lon":"44.65008000"},
{"state":"Kotayk Region","name":"Buzhakan","lat":"40.45569000","lon":"44.51947000"},
{"state":"Kotayk Region","name":"Byureghavan","lat":"40.31417000","lon":"44.59333000"},
{"state":"Kotayk Region","name":"Dzoraghbyur","lat":"40.20412000","lon":"44.64150000"},
{"state":"Kotayk Region","name":"Fantan","lat":"40.39447000","lon":"44.68610000"},
{"state":"Kotayk Region","name":"Garrni","lat":"40.11931000","lon":"44.73442000"},
{"state":"Kotayk Region","name":"Goght’","lat":"40.13470000","lon":"44.78332000"},
{"state":"Kotayk Region","name":"Hrazdan","lat":"40.49748000","lon":"44.76620000"},
{"state":"Kotayk Region","name":"Kaputan","lat":"40.32507000","lon":"44.70007000"},
{"state":"Kotayk Region","name":"Kotayk’","lat":"40.27789000","lon":"44.66388000"},
{"state":"Kotayk Region","name":"Lerrnanist","lat":"40.46676000","lon":"44.79249000"},
{"state":"Kotayk Region","name":"Mayakovski","lat":"40.25293000","lon":"44.63892000"},
{"state":"Kotayk Region","name":"Meghradzor","lat":"40.60611000","lon":"44.65147000"},
{"state":"Kotayk Region","name":"Mrgashen","lat":"40.28607000","lon":"44.54449000"},
{"state":"Kotayk Region","name":"Nor Geghi","lat":"40.32233000","lon":"44.58331000"},
{"state":"Kotayk Region","name":"Nor Gyugh","lat":"40.26672000","lon":"44.65832000"},
{"state":"Kotayk Region","name":"Prroshyan","lat":"40.24731000","lon":"44.41949000"},
{"state":"Kotayk Region","name":"Ptghni","lat":"40.25568000","lon":"44.58612000"},
{"state":"Kotayk Region","name":"Solak","lat":"40.46252000","lon":"44.70709000"},
{"state":"Kotayk Region","name":"Tsaghkadzor","lat":"40.53259000","lon":"44.72025000"},
{"state":"Kotayk Region","name":"Yeghvard","lat":"40.32507000","lon":"44.48608000"},
{"state":"Kotayk Region","name":"Zarr","lat":"40.25848000","lon":"44.73328000"},
{"state":"Kotayk Region","name":"Zoravan","lat":"40.35553000","lon":"44.52228000"},
{"state":"Kotayk Region","name":"Zovaber","lat":"40.56671000","lon":"44.79028000"},
{"state":"Lori Region","name":"Agarak","lat":"41.01072000","lon":"44.46845000"},
{"state":"Lori Region","name":"Akht’ala","lat":"41.16838000","lon":"44.75811000"},
{"state":"Lori Region","name":"Alaverdi","lat":"41.09766000","lon":"44.67316000"},
{"state":"Lori Region","name":"Arevashogh","lat":"40.86039000","lon":"44.27438000"},
{"state":"Lori Region","name":"Bazum","lat":"40.86763000","lon":"44.43978000"},
{"state":"Lori Region","name":"Chochkan","lat":"41.18118000","lon":"44.83217000"},
{"state":"Lori Region","name":"Darpas","lat":"40.83674000","lon":"44.42494000"},
{"state":"Lori Region","name":"Dsegh","lat":"40.96170000","lon":"44.65003000"},
{"state":"Lori Region","name":"Fioletovo","lat":"40.72241000","lon":"44.71769000"},
{"state":"Lori Region","name":"Gogaran","lat":"40.89255000","lon":"44.19915000"},
{"state":"Lori Region","name":"Gugark’","lat":"40.80460000","lon":"44.54025000"},
{"state":"Lori Region","name":"Gyulagarak","lat":"40.96715000","lon":"44.47144000"},
{"state":"Lori Region","name":"Jrashen","lat":"40.79028000","lon":"44.18664000"},
{"state":"Lori Region","name":"Lerrnants’k’","lat":"40.79532000","lon":"44.27435000"},
{"state":"Lori Region","name":"Lerrnapat","lat":"40.81538000","lon":"44.39344000"},
{"state":"Lori Region","name":"Lerrnavan","lat":"40.78820000","lon":"44.16024000"},
{"state":"Lori Region","name":"Lorut","lat":"40.93717000","lon":"44.77142000"},
{"state":"Lori Region","name":"Margahovit","lat":"40.73381000","lon":"44.68474000"},
{"state":"Lori Region","name":"Mets Parni","lat":"40.83472000","lon":"44.11108000"},
{"state":"Lori Region","name":"Metsavan","lat":"41.20156000","lon":"44.22877000"},
{"state":"Lori Region","name":"Norashen","lat":"41.18886000","lon":"44.33336000"},
{"state":"Lori Region","name":"Odzun","lat":"41.05321000","lon":"44.61341000"},
{"state":"Lori Region","name":"Sarahart’","lat":"40.87043000","lon":"44.21407000"},
{"state":"Lori Region","name":"Saramej","lat":"40.77487000","lon":"44.22220000"},
{"state":"Lori Region","name":"Shahumyan","lat":"40.77482000","lon":"44.54596000"},
{"state":"Lori Region","name":"Shirakamut","lat":"40.86056000","lon":"44.15278000"},
{"state":"Lori Region","name":"Shnogh","lat":"41.14693000","lon":"44.84043000"},
{"state":"Lori Region","name":"Spitak","lat":"40.83221000","lon":"44.26731000"},
{"state":"Lori Region","name":"Step’anavan","lat":"41.00995000","lon":"44.38531000"},
{"state":"Lori Region","name":"Tashir","lat":"41.12072000","lon":"44.28462000"},
{"state":"Lori Region","name":"Tsaghkaber","lat":"40.79849000","lon":"44.10144000"},
{"state":"Lori Region","name":"Urrut","lat":"41.06778000","lon":"44.39628000"},
{"state":"Lori Region","name":"Vahagni","lat":"40.90698000","lon":"44.60873000"},
{"state":"Lori Region","name":"Vanadzor","lat":"40.80456000","lon":"44.49390000"},
{"state":"Lori Region","name":"Vardablur","lat":"40.97083000","lon":"44.50889000"},
{"state":"Lori Region","name":"Yeghegnut","lat":"40.90302000","lon":"44.63155000"},
{"state":"Shirak Region","name":"Akhuryan","lat":"40.78003000","lon":"43.90027000"},
{"state":"Shirak Region","name":"Amasia","lat":"40.95442000","lon":"43.78720000"},
{"state":"Shirak Region","name":"Anushavan","lat":"40.65008000","lon":"43.98053000"},
{"state":"Shirak Region","name":"Arevik","lat":"40.74170000","lon":"43.90430000"},
{"state":"Shirak Region","name":"Arevshat","lat":"40.65345000","lon":"44.04419000"},
{"state":"Shirak Region","name":"Arrap’i","lat":"40.78276000","lon":"43.80583000"},
{"state":"Shirak Region","name":"Azatan","lat":"40.71959000","lon":"43.82727000"},
{"state":"Shirak Region","name":"Basen","lat":"40.75767000","lon":"43.99274000"},
{"state":"Shirak Region","name":"Dzit’hank’ov","lat":"40.50848000","lon":"43.82092000"},
{"state":"Shirak Region","name":"Gyumri","lat":"40.79420000","lon":"43.84528000"},
{"state":"Shirak Region","name":"Haykavan","lat":"40.80312000","lon":"43.75173000"},
{"state":"Shirak Region","name":"Horrom","lat":"40.65973000","lon":"43.89032000"},
{"state":"Shirak Region","name":"Kamo","lat":"40.82572000","lon":"43.95071000"},
{"state":"Shirak Region","name":"Lerrnakert","lat":"40.56250000","lon":"43.93890000"},
{"state":"Shirak Region","name":"Maralik","lat":"40.57507000","lon":"43.87231000"},
{"state":"Shirak Region","name":"Marmashen","lat":"40.83486000","lon":"43.77790000"},
{"state":"Shirak Region","name":"Mayisyan","lat":"40.84715000","lon":"43.83938000"},
{"state":"Shirak Region","name":"Meghrashen","lat":"40.67230000","lon":"43.95831000"},
{"state":"Shirak Region","name":"Mets Mant’ash","lat":"40.64376000","lon":"44.05653000"},
{"state":"Shirak Region","name":"P’ok’r Mant’ash","lat":"40.64026000","lon":"44.04666000"},
{"state":"Shirak Region","name":"Pemzashen","lat":"40.58612000","lon":"43.94311000"},
{"state":"Shirak Region","name":"Saratak","lat":"40.67090000","lon":"43.87231000"},
{"state":"Shirak Region","name":"Shirak","lat":"40.84042000","lon":"43.91582000"},
{"state":"Shirak Region","name":"Spandaryan","lat":"40.66105000","lon":"44.01551000"},
{"state":"Shirak Region","name":"Voskehask","lat":"40.76426000","lon":"43.77474000"},
{"state":"Shirak Region","name":"Yerazgavors","lat":"40.69505000","lon":"43.74722000"},
{"state":"Syunik Province","name":"Agarak","lat":"39.20684000","lon":"46.54460000"},
{"state":"Syunik Province","name":"Akner","lat":"39.53491000","lon":"46.30732000"},
{"state":"Syunik Province","name":"Angeghakot’","lat":"39.56952000","lon":"45.94452000"},
{"state":"Syunik Province","name":"Brrnakot’","lat":"39.49742000","lon":"45.97241000"},
{"state":"Syunik Province","name":"Dzorastan","lat":"39.27059000","lon":"46.35720000"},
{"state":"Syunik Province","name":"Goris","lat":"39.51111000","lon":"46.34168000"},
{"state":"Syunik Province","name":"Hats’avan","lat":"39.46405000","lon":"45.97047000"},
{"state":"Syunik Province","name":"Kapan","lat":"39.20755000","lon":"46.40576000"},
{"state":"Syunik Province","name":"Khndzoresk","lat":"39.50568000","lon":"46.43610000"},
{"state":"Syunik Province","name":"Meghri","lat":"38.90292000","lon":"46.24458000"},
{"state":"Syunik Province","name":"Shaghat","lat":"39.55698000","lon":"45.90727000"},
{"state":"Syunik Province","name":"Shinuhayr","lat":"39.43670000","lon":"46.31787000"},
{"state":"Syunik Province","name":"Tegh","lat":"39.55826000","lon":"46.48054000"},
{"state":"Syunik Province","name":"Verishen","lat":"39.53543000","lon":"46.32063000"},
{"state":"Tavush Region","name":"Archis","lat":"41.16351000","lon":"44.87631000"},
{"state":"Tavush Region","name":"Artsvaberd","lat":"40.83947000","lon":"45.47033000"},
{"state":"Tavush Region","name":"Aygehovit","lat":"40.97951000","lon":"45.25033000"},
{"state":"Tavush Region","name":"Azatamut","lat":"40.98204000","lon":"45.18551000"},
{"state":"Tavush Region","name":"Bagratashen","lat":"41.24358000","lon":"44.81737000"},
{"state":"Tavush Region","name":"Berd","lat":"40.88135000","lon":"45.38901000"},
{"state":"Tavush Region","name":"Berdavan","lat":"41.20503000","lon":"44.99967000"},
{"state":"Tavush Region","name":"Dilijan","lat":"40.74170000","lon":"44.85010000"},
{"state":"Tavush Region","name":"Haghartsin","lat":"40.77614000","lon":"44.96847000"},
{"state":"Tavush Region","name":"Ijevan","lat":"40.87877000","lon":"45.14851000"},
{"state":"Tavush Region","name":"Khasht’arrak","lat":"40.93668000","lon":"45.18210000"},
{"state":"Tavush Region","name":"Mosesgegh","lat":"40.90534000","lon":"45.48838000"},
{"state":"Tavush Region","name":"Navur","lat":"40.86695000","lon":"45.34179000"},
{"state":"Tavush Region","name":"Noyemberyan","lat":"41.17244000","lon":"44.99917000"},
{"state":"Tavush Region","name":"Parravak’ar","lat":"40.98248000","lon":"45.36696000"},
{"state":"Tavush Region","name":"Sarigyugh","lat":"41.03531000","lon":"45.14486000"},
{"state":"Tavush Region","name":"Voskevan","lat":"41.12081000","lon":"45.06381000"},
{"state":"Vayots Dzor Region","name":"Agarakadzor","lat":"39.73608000","lon":"45.35553000"},
{"state":"Vayots Dzor Region","name":"Aghavnadzor","lat":"39.78607000","lon":"45.22790000"},
{"state":"Vayots Dzor Region","name":"Areni","lat":"39.71668000","lon":"45.18329000"},
{"state":"Vayots Dzor Region","name":"Getap’","lat":"39.76392000","lon":"45.30829000"},
{"state":"Vayots Dzor Region","name":"Gladzor","lat":"39.78070000","lon":"45.34729000"},
{"state":"Vayots Dzor Region","name":"Jermuk","lat":"39.84168000","lon":"45.66949000"},
{"state":"Vayots Dzor Region","name":"Malishka","lat":"39.74731000","lon":"45.40570000"},
{"state":"Vayots Dzor Region","name":"Rrind","lat":"39.76111000","lon":"45.17792000"},
{"state":"Vayots Dzor Region","name":"Shatin","lat":"39.83612000","lon":"45.30292000"},
{"state":"Vayots Dzor Region","name":"Vayk’","lat":"39.68890000","lon":"45.46668000"},
{"state":"Vayots Dzor Region","name":"Vernashen","lat":"39.79236000","lon":"45.36389000"},
{"state":"Vayots Dzor Region","name":"Yeghegis","lat":"39.87231000","lon":"45.35010000"},
{"state":"Vayots Dzor Region","name":"Yeghegnadzor","lat":"39.76389000","lon":"45.33239000"},
{"state":"Vayots Dzor Region","name":"Zarrit’ap’","lat":"39.63892000","lon":"45.51111000"},
{"state":"Yerevan","name":"Arabkir","lat":"40.20549000","lon":"44.50699000"},
{"state":"Yerevan","name":"Argavand","lat":"40.15289000","lon":"44.43890000"},
{"state":"Yerevan","name":"Jrashen","lat":"40.05275000","lon":"44.51259000"},
{"state":"Yerevan","name":"K’anak’erravan","lat":"40.24739000","lon":"44.53511000"},
{"state":"Yerevan","name":"Vardadzor","lat":"40.18701000","lon":"45.19212000"},
{"state":"Yerevan","name":"Yerevan","lat":"40.18111000","lon":"44.51361000"}]