[{"state":"Bengo Province","name":"Caxito","lat":"-8.57848000","lon":"13.66425000"},
{"state":"Benguela Province","name":"Benguela","lat":"-12.57626000","lon":"13.40547000"},
{"state":"Benguela Province","name":"Catumbela","lat":"-12.43002000","lon":"13.54677000"},
{"state":"Benguela Province","name":"Lobito","lat":"-12.36440000","lon":"13.53601000"},
{"state":"Bié Province","name":"Camacupa","lat":"-12.01667000","lon":"17.48333000"},
{"state":"Bié Province","name":"Catabola","lat":"-12.15000000","lon":"17.28333000"},
{"state":"Bié Province","name":"Chissamba","lat":"-12.16667000","lon":"17.33333000"},
{"state":"Bié Province","name":"Cuito","lat":"-12.38333000","lon":"16.93333000"},
{"state":"Cabinda Province","name":"Cabinda","lat":"-5.55000000","lon":"12.20000000"},
{"state":"Cuando Cubango Province","name":"Menongue","lat":"-14.65850000","lon":"17.69099000"},
{"state":"Cuanza Norte Province","name":"Camabatela","lat":"-8.18812000","lon":"15.37495000"},
{"state":"Cuanza Norte Province","name":"N’dalatando","lat":"-9.29782000","lon":"14.91162000"},
{"state":"Cuanza Sul","name":"Quibala","lat":"-10.73366000","lon":"14.97995000"},
{"state":"Cuanza Sul","name":"Sumbe","lat":"-11.20605000","lon":"13.84371000"},
{"state":"Cuanza Sul","name":"Uacu Cungo","lat":"-11.35669000","lon":"15.11719000"},
{"state":"Cunene Province","name":"Ondjiva","lat":"-17.06667000","lon":"15.73333000"},
{"state":"Huambo Province","name":"Caála","lat":"-12.85250000","lon":"15.56056000"},
{"state":"Huambo Province","name":"Chela","lat":"-12.30261000","lon":"15.43358000"},
{"state":"Huambo Province","name":"Huambo","lat":"-12.77611000","lon":"15.73917000"},
{"state":"Huambo Province","name":"Longonjo","lat":"-12.90667000","lon":"15.25333000"},
{"state":"Huíla Province","name":"Caconda","lat":"-13.73333000","lon":"15.06667000"},
{"state":"Huíla Province","name":"Caluquembe","lat":"-13.92093000","lon":"14.53476000"},
{"state":"Huíla Province","name":"Chibia","lat":"-15.23657000","lon":"13.88468000"},
{"state":"Huíla Province","name":"Chicomba","lat":"-14.30788000","lon":"14.98672000"},
{"state":"Huíla Province","name":"Chipindo","lat":"-13.86830000","lon":"15.73277000"},
{"state":"Huíla Province","name":"Cuvango","lat":"-14.27693000","lon":"16.31475000"},
{"state":"Huíla Province","name":"Gambos","lat":"-15.80926000","lon":"14.07661000"},
{"state":"Huíla Province","name":"Humpata","lat":"-15.07250000","lon":"13.36771000"},
{"state":"Huíla Province","name":"Jamba","lat":"-14.76294000","lon":"15.83493000"},
{"state":"Huíla Province","name":"Lubango","lat":"-14.91717000","lon":"13.49250000"},
{"state":"Huíla Province","name":"Matala","lat":"-15.23967000","lon":"15.17246000"},
{"state":"Huíla Province","name":"Quilengues","lat":"-13.99213000","lon":"13.76705000"},
{"state":"Huíla Province","name":"Quipungo","lat":"-15.12203000","lon":"14.55953000"},
{"state":"Luanda Province","name":"Belas","lat":"-9.06875000","lon":"13.16072000"},
{"state":"Luanda Province","name":"Icolo e Bengo","lat":"-9.24191000","lon":"13.73549000"},
{"state":"Luanda Province","name":"Luanda","lat":"-8.83682000","lon":"13.23432000"},
{"state":"Lunda Norte Province","name":"Lucapa","lat":"-8.68337000","lon":"20.27045000"},
{"state":"Lunda Sul Province","name":"Cazaji","lat":"-11.06715000","lon":"20.70148000"},
{"state":"Lunda Sul Province","name":"Saurimo","lat":"-9.66078000","lon":"20.39155000"},
{"state":"Malanje Province","name":"Malanje","lat":"-9.54015000","lon":"16.34096000"},
{"state":"Moxico Province","name":"Léua","lat":"-11.65000000","lon":"20.45000000"},
{"state":"Moxico Province","name":"Luau","lat":"-10.70727000","lon":"22.22466000"},
{"state":"Moxico Province","name":"Luena","lat":"-11.78333000","lon":"19.91667000"},
{"state":"Moxico Province","name":"Lumeje","lat":"-11.55000000","lon":"20.78333000"},
{"state":"Uíge Province","name":"Uíge","lat":"-7.60874000","lon":"15.06131000"},
{"state":"Zaire Province","name":"Mbanza Congo","lat":"-6.26703000","lon":"14.24010000"},
{"state":"Zaire Province","name":"N'zeto","lat":"-7.23116000","lon":"12.86660000"},
{"state":"Zaire Province","name":"Soio","lat":"-6.13490000","lon":"12.36894000"}]