[{"state":"Buenos Aires","name":"Balvanera","lat":"-34.61032000","lon":"-58.39766000"},
{"state":"Buenos Aires","name":"Barracas","lat":"-34.64966000","lon":"-58.38341000"},
{"state":"Buenos Aires","name":"Belgrano","lat":"-34.56270000","lon":"-58.45829000"},
{"state":"Buenos Aires","name":"Boedo","lat":"-34.63333000","lon":"-58.41667000"},
{"state":"Buenos Aires","name":"Buenos Aires","lat":"-34.61315000","lon":"-58.37723000"},
{"state":"Buenos Aires","name":"Colegiales","lat":"-34.57365000","lon":"-58.44924000"},
{"state":"Buenos Aires","name":"Retiro","lat":"-34.58333000","lon":"-58.38333000"},
{"state":"Buenos Aires","name":"Villa Lugano","lat":"-34.67907000","lon":"-58.47263000"},
{"state":"Buenos Aires","name":"Villa Ortúzar","lat":"-34.57973000","lon":"-58.46829000"},
{"state":"Buenos Aires","name":"Villa Santa Rita","lat":"-34.61082000","lon":"-58.48100000"},
{"state":"Catamarca","name":"Ancasti","lat":"-28.81247000","lon":"-65.50145000"},
{"state":"Catamarca","name":"Andalgalá","lat":"-27.58185000","lon":"-66.31626000"},
{"state":"Catamarca","name":"Antofagasta de la Sierra","lat":"-26.05940000","lon":"-67.40636000"},
{"state":"Catamarca","name":"Capayán","lat":"-28.77436000","lon":"-66.04749000"},
{"state":"Catamarca","name":"Departamento de Ambato","lat":"-28.00000000","lon":"-65.91667000"},
{"state":"Catamarca","name":"Departamento de Ancasti","lat":"-29.00000000","lon":"-65.50000000"},
{"state":"Catamarca","name":"Departamento de Andalgalá","lat":"-27.58333000","lon":"-66.46667000"},
{"state":"Catamarca","name":"Departamento de Antofagasta de la Sierra","lat":"-26.00000000","lon":"-67.58333000"},
{"state":"Catamarca","name":"Departamento de Capayán","lat":"-28.83333000","lon":"-66.00000000"},
{"state":"Catamarca","name":"Departamento de Capital","lat":"-28.41667000","lon":"-65.80000000"},
{"state":"Catamarca","name":"Departamento de El Alto","lat":"-28.41667000","lon":"-65.41667000"},
{"state":"Catamarca","name":"Departamento de Fray Mamerto Esquiú","lat":"-28.30000000","lon":"-65.75000000"},
{"state":"Catamarca","name":"Departamento de La Paz","lat":"-29.25000000","lon":"-65.25000000"},
{"state":"Catamarca","name":"Departamento de Pomán","lat":"-28.25000000","lon":"-66.41667000"},
{"state":"Catamarca","name":"Departamento de Santa María","lat":"-26.66667000","lon":"-66.41667000"},
{"state":"Catamarca","name":"Departamento de Santa Rosa","lat":"-28.08333000","lon":"-65.25000000"},
{"state":"Catamarca","name":"Departamento de Tinogasta","lat":"-27.50000000","lon":"-68.00000000"},
{"state":"Catamarca","name":"Departamento de Valle Viejo","lat":"-28.58333000","lon":"-65.75000000"},
{"state":"Catamarca","name":"El Rodeo","lat":"-28.21518000","lon":"-65.87420000"},
{"state":"Catamarca","name":"Fiambalá","lat":"-27.67225000","lon":"-67.61870000"},
{"state":"Catamarca","name":"Hualfín","lat":"-27.22896000","lon":"-66.83131000"},
{"state":"Catamarca","name":"Huillapima","lat":"-28.72533000","lon":"-65.97870000"},
{"state":"Catamarca","name":"Icaño","lat":"-28.91934000","lon":"-65.32817000"},
{"state":"Catamarca","name":"La Puerta de San José","lat":"-27.55000000","lon":"-67.01667000"},
{"state":"Catamarca","name":"Londres","lat":"-27.71439000","lon":"-67.13349000"},
{"state":"Catamarca","name":"Los Altos","lat":"-28.04845000","lon":"-65.49945000"},
{"state":"Catamarca","name":"Los Varela","lat":"-27.93003000","lon":"-65.87153000"},
{"state":"Catamarca","name":"Mutquín","lat":"-28.32104000","lon":"-66.14253000"},
{"state":"Catamarca","name":"Pomán","lat":"-28.39455000","lon":"-66.22052000"},
{"state":"Catamarca","name":"Puerta de Corral Quemado","lat":"-27.23000000","lon":"-66.93635000"},
{"state":"Catamarca","name":"Recreo","lat":"-29.28184000","lon":"-65.06096000"},
{"state":"Catamarca","name":"San Antonio","lat":"-28.01009000","lon":"-65.70874000"},
{"state":"Catamarca","name":"San Fernando del Valle de Catamarca","lat":"-28.46957000","lon":"-65.78524000"},
{"state":"Catamarca","name":"Santa María","lat":"-26.69547000","lon":"-66.04732000"},
{"state":"Catamarca","name":"Tinogasta","lat":"-28.06319000","lon":"-67.56488000"},
{"state":"Chaco","name":"Aviá Terai","lat":"-26.68532000","lon":"-60.72920000"},
{"state":"Chaco","name":"Barranqueras","lat":"-27.48132000","lon":"-58.93925000"},
{"state":"Chaco","name":"Basail","lat":"-27.88539000","lon":"-59.28245000"},
{"state":"Chaco","name":"Campo Largo","lat":"-26.80077000","lon":"-60.84215000"},
{"state":"Chaco","name":"Capitán Solari","lat":"-26.80215000","lon":"-59.56089000"},
{"state":"Chaco","name":"Castelli","lat":"-25.94679000","lon":"-60.61947000"},
{"state":"Chaco","name":"Charadai","lat":"-27.65503000","lon":"-59.86291000"},
{"state":"Chaco","name":"Charata","lat":"-27.21438000","lon":"-61.18795000"},
{"state":"Chaco","name":"Chorotis","lat":"-27.91578000","lon":"-61.39982000"},
{"state":"Chaco","name":"Ciervo Petiso","lat":"-26.58041000","lon":"-59.63094000"},
{"state":"Chaco","name":"Colonia Benítez","lat":"-27.33099000","lon":"-58.94622000"},
{"state":"Chaco","name":"Colonia Elisa","lat":"-26.93041000","lon":"-59.51861000"},
{"state":"Chaco","name":"Colonias Unidas","lat":"-26.69825000","lon":"-59.63154000"},
{"state":"Chaco","name":"Concepción del Bermejo","lat":"-26.59926000","lon":"-60.94617000"},
{"state":"Chaco","name":"Coronel Du Graty","lat":"-27.68038000","lon":"-60.91462000"},
{"state":"Chaco","name":"Corzuela","lat":"-26.95374000","lon":"-60.96928000"},
{"state":"Chaco","name":"Coté-Lai","lat":"-27.50000000","lon":"-59.60000000"},
{"state":"Chaco","name":"Departamento de Almirante Brown","lat":"-25.81662000","lon":"-61.45576000"},
{"state":"Chaco","name":"Departamento de Bermejo","lat":"-27.00000000","lon":"-58.66667000"},
{"state":"Chaco","name":"Departamento de Comandante Fernández","lat":"-26.83333000","lon":"-60.50000000"},
{"state":"Chaco","name":"Departamento de Doce de Octubre","lat":"-27.41667000","lon":"-61.33333000"},
{"state":"Chaco","name":"Departamento de Dos de Abril","lat":"-27.60932000","lon":"-61.34473000"},
{"state":"Chaco","name":"Departamento de General Donovan","lat":"-27.16667000","lon":"-59.33333000"},
{"state":"Chaco","name":"Departamento de General Güemes","lat":"-25.16667000","lon":"-61.41667000"},
{"state":"Chaco","name":"Departamento de Independencia","lat":"-26.66667000","lon":"-60.66667000"},
{"state":"Chaco","name":"Departamento de Libertad","lat":"-27.33333000","lon":"-59.33333000"},
{"state":"Chaco","name":"Departamento de Maipú","lat":"-26.33333000","lon":"-60.41667000"},
{"state":"Chaco","name":"Departamento de Nueve de Julio","lat":"-26.95331000","lon":"-61.27627000"},
{"state":"Chaco","name":"Departamento de O’Higgins","lat":"-27.25000000","lon":"-60.66667000"},
{"state":"Chaco","name":"Departamento de Presidencia de la Plaza","lat":"-27.00000000","lon":"-59.75000000"},
{"state":"Chaco","name":"Departamento de Quitilipi","lat":"-26.66667000","lon":"-60.16667000"},
{"state":"Chaco","name":"Departamento de San Fernando","lat":"-27.66667000","lon":"-59.16667000"},
{"state":"Chaco","name":"Departamento de San Lorenzo","lat":"-27.33333000","lon":"-60.41667000"},
{"state":"Chaco","name":"Departamento de Sargento Cabral","lat":"-26.83333000","lon":"-59.50000000"},
{"state":"Chaco","name":"Departamento de Tapenagá","lat":"-27.50000000","lon":"-59.75000000"},
{"state":"Chaco","name":"Fontana","lat":"-27.41813000","lon":"-59.02392000"},
{"state":"Chaco","name":"Gancedo","lat":"-27.49038000","lon":"-61.67571000"},
{"state":"Chaco","name":"General José de San Martín","lat":"-26.53743000","lon":"-59.34158000"},
{"state":"Chaco","name":"General Pinedo","lat":"-27.31667000","lon":"-61.28333000"},
{"state":"Chaco","name":"General Vedia","lat":"-26.93382000","lon":"-58.66040000"},
{"state":"Chaco","name":"Hermoso Campo","lat":"-27.60816000","lon":"-61.34441000"},
{"state":"Chaco","name":"La Clotilde","lat":"-27.13333000","lon":"-60.66667000"},
{"state":"Chaco","name":"La Eduvigis","lat":"-26.83607000","lon":"-59.06211000"},
{"state":"Chaco","name":"La Escondida","lat":"-27.10724000","lon":"-59.44784000"},
{"state":"Chaco","name":"La Leonesa","lat":"-27.03786000","lon":"-58.70347000"},
{"state":"Chaco","name":"La Tigra","lat":"-27.10996000","lon":"-60.58719000"},
{"state":"Chaco","name":"La Verde","lat":"-27.12634000","lon":"-59.37352000"},
{"state":"Chaco","name":"Laguna Limpia","lat":"-26.49565000","lon":"-59.68083000"},
{"state":"Chaco","name":"Lapachito","lat":"-27.15997000","lon":"-59.38605000"},
{"state":"Chaco","name":"Las Breñas","lat":"-27.08966000","lon":"-61.08161000"},
{"state":"Chaco","name":"Las Garcitas","lat":"-26.61802000","lon":"-59.80135000"},
{"state":"Chaco","name":"Los Frentones","lat":"-26.40770000","lon":"-61.41367000"},
{"state":"Chaco","name":"Machagai","lat":"-26.92614000","lon":"-60.04955000"},
{"state":"Chaco","name":"Makallé","lat":"-27.20687000","lon":"-59.28696000"},
{"state":"Chaco","name":"Margarita Belén","lat":"-27.26160000","lon":"-58.97219000"},
{"state":"Chaco","name":"Napenay","lat":"-26.73333000","lon":"-60.61667000"},
{"state":"Chaco","name":"Pampa Almirón","lat":"-26.70039000","lon":"-59.12331000"},
{"state":"Chaco","name":"Pampa del Indio","lat":"-26.04982000","lon":"-59.93728000"},
{"state":"Chaco","name":"Pampa del Infierno","lat":"-26.50517000","lon":"-61.17436000"},
{"state":"Chaco","name":"Presidencia de la Plaza","lat":"-27.00147000","lon":"-59.84243000"},
{"state":"Chaco","name":"Presidencia Roca","lat":"-26.14090000","lon":"-59.59541000"},
{"state":"Chaco","name":"Presidencia Roque Sáenz Peña","lat":"-26.78522000","lon":"-60.43876000"},
{"state":"Chaco","name":"Puerto Bermejo","lat":"-26.92739000","lon":"-58.50917000"},
{"state":"Chaco","name":"Puerto Tirol","lat":"-27.37218000","lon":"-59.08206000"},
{"state":"Chaco","name":"Puerto Vilelas","lat":"-27.51414000","lon":"-58.93906000"},
{"state":"Chaco","name":"Quitilipi","lat":"-26.86913000","lon":"-60.21683000"},
{"state":"Chaco","name":"Resistencia","lat":"-27.46056000","lon":"-58.98389000"},
{"state":"Chaco","name":"Samuhú","lat":"-27.52116000","lon":"-60.39167000"},
{"state":"Chaco","name":"San Bernardo","lat":"-27.28782000","lon":"-60.71252000"},
{"state":"Chaco","name":"Santa Sylvina","lat":"-27.83261000","lon":"-61.13747000"},
{"state":"Chaco","name":"Taco Pozo","lat":"-25.61557000","lon":"-63.26708000"},
{"state":"Chaco","name":"Tres Isletas","lat":"-26.34067000","lon":"-60.43207000"},
{"state":"Chaco","name":"Villa Ángela","lat":"-27.57383000","lon":"-60.71526000"},
{"state":"Chaco","name":"Villa Berthet","lat":"-27.29174000","lon":"-60.41263000"},
{"state":"Chubut","name":"Alto Río Senguer","lat":"-45.04105000","lon":"-70.81982000"},
{"state":"Chubut","name":"Camarones","lat":"-44.79709000","lon":"-65.70994000"},
{"state":"Chubut","name":"Comodoro Rivadavia","lat":"-45.86413000","lon":"-67.49656000"},
{"state":"Chubut","name":"Departamento de Biedma","lat":"-42.41667000","lon":"-65.00000000"},
{"state":"Chubut","name":"Departamento de Cushamen","lat":"-42.50000000","lon":"-70.83333000"},
{"state":"Chubut","name":"Departamento de Escalante","lat":"-45.33333000","lon":"-67.33333000"},
{"state":"Chubut","name":"Departamento de Florentino Ameghino","lat":"-44.41667000","lon":"-66.16667000"},
{"state":"Chubut","name":"Departamento de Futaleufú","lat":"-43.08333000","lon":"-71.41667000"},
{"state":"Chubut","name":"Departamento de Gaimán","lat":"-43.33333000","lon":"-66.33333000"},
{"state":"Chubut","name":"Departamento de Gastre","lat":"-42.83333000","lon":"-68.66667000"},
{"state":"Chubut","name":"Departamento de Languiñeo","lat":"-43.33333000","lon":"-70.66667000"},
{"state":"Chubut","name":"Departamento de Mártires","lat":"-43.83333000","lon":"-67.16667000"},
{"state":"Chubut","name":"Departamento de Paso de Indios","lat":"-44.00000000","lon":"-68.83333000"},
{"state":"Chubut","name":"Departamento de Rawson","lat":"-43.12342000","lon":"-65.10179000"},
{"state":"Chubut","name":"Departamento de Río Senguerr","lat":"-45.33333000","lon":"-70.83333000"},
{"state":"Chubut","name":"Departamento de Sarmiento","lat":"-45.33333000","lon":"-69.00000000"},
{"state":"Chubut","name":"Departamento de Tehuelches","lat":"-44.22132000","lon":"-70.25260000"},
{"state":"Chubut","name":"Departamento de Telsen","lat":"-42.41667000","lon":"-67.16667000"},
{"state":"Chubut","name":"Dolavón","lat":"-43.30684000","lon":"-65.70651000"},
{"state":"Chubut","name":"El Maitén","lat":"-42.04924000","lon":"-71.16693000"},
{"state":"Chubut","name":"Esquel","lat":"-42.91147000","lon":"-71.31947000"},
{"state":"Chubut","name":"Gaimán","lat":"-43.28970000","lon":"-65.49290000"},
{"state":"Chubut","name":"Gastre","lat":"-42.26186000","lon":"-69.22112000"},
{"state":"Chubut","name":"Gobernador Costa","lat":"-44.04992000","lon":"-70.59798000"},
{"state":"Chubut","name":"Hoyo de Epuyén","lat":"-42.07189000","lon":"-71.50811000"},
{"state":"Chubut","name":"José de San Martín","lat":"-44.05032000","lon":"-70.46967000"},
{"state":"Chubut","name":"Lago Puelo","lat":"-42.06684000","lon":"-71.60384000"},
{"state":"Chubut","name":"Las Plumas","lat":"-43.72058000","lon":"-67.28319000"},
{"state":"Chubut","name":"Puerto Madryn","lat":"-42.76920000","lon":"-65.03851000"},
{"state":"Chubut","name":"Rada Tilly","lat":"-45.92462000","lon":"-67.55424000"},
{"state":"Chubut","name":"Rawson","lat":"-43.30016000","lon":"-65.10228000"},
{"state":"Chubut","name":"Río Mayo","lat":"-45.68573000","lon":"-70.25797000"},
{"state":"Chubut","name":"Río Pico","lat":"-44.17905000","lon":"-71.36847000"},
{"state":"Chubut","name":"Sarmiento","lat":"-45.58815000","lon":"-69.06996000"},
{"state":"Chubut","name":"Tecka","lat":"-43.49489000","lon":"-70.81020000"},
{"state":"Chubut","name":"Trelew","lat":"-43.24895000","lon":"-65.30505000"},
{"state":"Chubut","name":"Trevelin","lat":"-43.08580000","lon":"-71.46386000"},
{"state":"Córdoba","name":"Achiras","lat":"-33.17538000","lon":"-64.99331000"},
{"state":"Córdoba","name":"Adelia María","lat":"-33.63152000","lon":"-64.02097000"},
{"state":"Córdoba","name":"Agua de Oro","lat":"-31.06661000","lon":"-64.30017000"},
{"state":"Córdoba","name":"Alejandro Roca","lat":"-33.35369000","lon":"-63.71849000"},
{"state":"Córdoba","name":"Alejo Ledesma","lat":"-33.60643000","lon":"-62.62304000"},
{"state":"Córdoba","name":"Almafuerte","lat":"-32.19296000","lon":"-64.25559000"},
{"state":"Córdoba","name":"Alta Gracia","lat":"-31.65292000","lon":"-64.42826000"},
{"state":"Córdoba","name":"Altos de Chipión","lat":"-30.95590000","lon":"-62.33727000"},
{"state":"Córdoba","name":"Arias","lat":"-33.64411000","lon":"-62.40272000"},
{"state":"Córdoba","name":"Arroyito","lat":"-31.42022000","lon":"-63.05002000"},
{"state":"Córdoba","name":"Arroyo Cabral","lat":"-32.49119000","lon":"-63.40126000"},
{"state":"Córdoba","name":"Balnearia","lat":"-31.00880000","lon":"-62.66733000"},
{"state":"Córdoba","name":"Bell Ville","lat":"-32.62591000","lon":"-62.68873000"},
{"state":"Córdoba","name":"Berrotarán","lat":"-32.45100000","lon":"-64.38867000"},
{"state":"Córdoba","name":"Brinkmann","lat":"-30.86589000","lon":"-62.03742000"},
{"state":"Córdoba","name":"Buchardo","lat":"-34.72263000","lon":"-63.50920000"},
{"state":"Córdoba","name":"Camilo Aldao","lat":"-33.12745000","lon":"-62.09453000"},
{"state":"Córdoba","name":"Cañada de Luque","lat":"-30.73341000","lon":"-63.72375000"},
{"state":"Córdoba","name":"Canals","lat":"-33.56542000","lon":"-62.88927000"},
{"state":"Córdoba","name":"Capilla del Monte","lat":"-30.86088000","lon":"-64.52515000"},
{"state":"Córdoba","name":"Carnerillo","lat":"-32.91371000","lon":"-64.02175000"},
{"state":"Córdoba","name":"Carrilobo","lat":"-31.87296000","lon":"-63.11715000"},
{"state":"Córdoba","name":"Cavanagh","lat":"-33.47606000","lon":"-62.33888000"},
{"state":"Córdoba","name":"Charras","lat":"-33.02400000","lon":"-64.04719000"},
{"state":"Córdoba","name":"Chazón","lat":"-33.07872000","lon":"-63.27657000"},
{"state":"Córdoba","name":"Cintra","lat":"-32.30673000","lon":"-62.65214000"},
{"state":"Córdoba","name":"Colonia La Tordilla","lat":"-31.23746000","lon":"-63.06134000"},
{"state":"Córdoba","name":"Colonia San Bartolomé","lat":"-31.52780000","lon":"-62.72436000"},
{"state":"Córdoba","name":"Córdoba","lat":"-31.41350000","lon":"-64.18105000"},
{"state":"Córdoba","name":"Coronel Baigorria","lat":"-32.84770000","lon":"-64.36107000"},
{"state":"Córdoba","name":"Coronel Moldes","lat":"-33.62270000","lon":"-64.59711000"},
{"state":"Córdoba","name":"Corral de Bustos","lat":"-33.28205000","lon":"-62.18463000"},
{"state":"Córdoba","name":"Corralito","lat":"-32.02462000","lon":"-64.19216000"},
{"state":"Córdoba","name":"Cosquín","lat":"-31.24508000","lon":"-64.46563000"},
{"state":"Córdoba","name":"Costa Sacate","lat":"-31.64770000","lon":"-63.75935000"},
{"state":"Córdoba","name":"Cruz Alta","lat":"-33.00887000","lon":"-61.80746000"},
{"state":"Córdoba","name":"Cruz del Eje","lat":"-30.72644000","lon":"-64.80387000"},
{"state":"Córdoba","name":"Cuesta Blanca","lat":"-31.48658000","lon":"-64.57150000"},
{"state":"Córdoba","name":"Dalmacio Vélez Sársfield","lat":"-32.61072000","lon":"-63.58038000"},
{"state":"Córdoba","name":"Deán Funes","lat":"-30.42036000","lon":"-64.34984000"},
{"state":"Córdoba","name":"Del Campillo","lat":"-34.37659000","lon":"-64.49504000"},
{"state":"Córdoba","name":"Departamento de Calamuchita","lat":"-32.25000000","lon":"-64.58333000"},
{"state":"Córdoba","name":"Departamento de Colón","lat":"-31.16667000","lon":"-64.16667000"},
{"state":"Córdoba","name":"Departamento de Cruz del Eje","lat":"-30.75000000","lon":"-65.00000000"},
{"state":"Córdoba","name":"Departamento de General Roca","lat":"-34.66667000","lon":"-64.25000000"},
{"state":"Córdoba","name":"Departamento de General San Martín","lat":"-32.50000000","lon":"-63.33333000"},
{"state":"Córdoba","name":"Departamento de Juárez Celman","lat":"-33.33333000","lon":"-63.66667000"},
{"state":"Córdoba","name":"Departamento de Marcos Juárez","lat":"-33.00000000","lon":"-62.25000000"},
{"state":"Córdoba","name":"Departamento de Minas","lat":"-31.00000000","lon":"-65.33333000"},
{"state":"Córdoba","name":"Departamento de Presidente Roque Sáenz Peña","lat":"-34.25000000","lon":"-63.50000000"},
{"state":"Córdoba","name":"Departamento de Río Cuarto","lat":"-33.33333000","lon":"-64.50000000"},
{"state":"Córdoba","name":"Departamento de Río Primero","lat":"-31.08333000","lon":"-63.50000000"},
{"state":"Córdoba","name":"Departamento de Río Seco","lat":"-30.08333000","lon":"-63.00000000"},
{"state":"Córdoba","name":"Departamento de Río Segundo","lat":"-31.75000000","lon":"-63.50000000"},
{"state":"Córdoba","name":"Departamento de San Alberto","lat":"-31.75000000","lon":"-65.25000000"},
{"state":"Córdoba","name":"Departamento de San Javier","lat":"-32.08333000","lon":"-65.16667000"},
{"state":"Córdoba","name":"Departamento de San Justo","lat":"-31.33333000","lon":"-62.66667000"},
{"state":"Córdoba","name":"Departamento de Sobremonte","lat":"-29.66667000","lon":"-64.08333000"},
{"state":"Córdoba","name":"Departamento de Totoral","lat":"-30.83333000","lon":"-63.91667000"},
{"state":"Córdoba","name":"Departamento de Tulumba","lat":"-30.25000000","lon":"-63.91667000"},
{"state":"Córdoba","name":"Departamento de Unión","lat":"-32.83333000","lon":"-62.75000000"},
{"state":"Córdoba","name":"Despeñaderos","lat":"-31.81626000","lon":"-64.28989000"},
{"state":"Córdoba","name":"Devoto","lat":"-31.40431000","lon":"-62.30634000"},
{"state":"Córdoba","name":"El Arañado","lat":"-31.74120000","lon":"-62.89322000"},
{"state":"Córdoba","name":"El Tío","lat":"-31.38357000","lon":"-62.82938000"},
{"state":"Córdoba","name":"Elena","lat":"-32.57205000","lon":"-64.39481000"},
{"state":"Córdoba","name":"Embalse","lat":"-32.18000000","lon":"-64.41809000"},
{"state":"Córdoba","name":"Etruria","lat":"-32.94008000","lon":"-63.24660000"},
{"state":"Córdoba","name":"General Baldissera","lat":"-33.12246000","lon":"-62.30630000"},
{"state":"Córdoba","name":"General Cabrera","lat":"-32.81313000","lon":"-63.87243000"},
{"state":"Córdoba","name":"General Levalle","lat":"-34.01472000","lon":"-63.92413000"},
{"state":"Córdoba","name":"General Roca","lat":"-32.73196000","lon":"-61.91599000"},
{"state":"Córdoba","name":"Guatimozín","lat":"-33.46149000","lon":"-62.43844000"},
{"state":"Córdoba","name":"Hernando","lat":"-32.42657000","lon":"-63.73333000"},
{"state":"Córdoba","name":"Huanchillas","lat":"-33.66653000","lon":"-63.63701000"},
{"state":"Córdoba","name":"Huerta Grande","lat":"-31.07524000","lon":"-64.49063000"},
{"state":"Córdoba","name":"Huinca Renancó","lat":"-34.84038000","lon":"-64.37580000"},
{"state":"Córdoba","name":"Idiazábal","lat":"-32.81411000","lon":"-63.03252000"},
{"state":"Córdoba","name":"Inriville","lat":"-32.94424000","lon":"-62.23028000"},
{"state":"Córdoba","name":"Isla Verde","lat":"-33.24104000","lon":"-62.40297000"},
{"state":"Córdoba","name":"Italó","lat":"-34.79237000","lon":"-63.78199000"},
{"state":"Córdoba","name":"James Craik","lat":"-32.16120000","lon":"-63.46688000"},
{"state":"Córdoba","name":"Jesús María","lat":"-30.98153000","lon":"-64.09424000"},
{"state":"Córdoba","name":"Justiniano Posse","lat":"-32.88411000","lon":"-62.67788000"},
{"state":"Córdoba","name":"La Calera","lat":"-31.34377000","lon":"-64.33529000"},
{"state":"Córdoba","name":"La Carlota","lat":"-33.41993000","lon":"-63.29769000"},
{"state":"Córdoba","name":"La Cesira","lat":"-33.95115000","lon":"-62.97238000"},
{"state":"Córdoba","name":"La Cumbre","lat":"-30.98201000","lon":"-64.49139000"},
{"state":"Córdoba","name":"La Falda","lat":"-31.08841000","lon":"-64.48987000"},
{"state":"Córdoba","name":"La Francia","lat":"-31.40675000","lon":"-62.63396000"},
{"state":"Córdoba","name":"La Granja","lat":"-31.00919000","lon":"-64.26869000"},
{"state":"Córdoba","name":"La Para","lat":"-30.89416000","lon":"-63.00107000"},
{"state":"Córdoba","name":"La Playosa","lat":"-32.10002000","lon":"-63.03088000"},
{"state":"Córdoba","name":"Laborde","lat":"-33.15319000","lon":"-62.85661000"},
{"state":"Córdoba","name":"Laboulaye","lat":"-34.12662000","lon":"-63.39119000"},
{"state":"Córdoba","name":"Laguna Larga","lat":"-31.77652000","lon":"-63.80104000"},
{"state":"Córdoba","name":"Las Acequias","lat":"-33.28155000","lon":"-63.97610000"},
{"state":"Córdoba","name":"Las Higueras","lat":"-33.09231000","lon":"-64.28899000"},
{"state":"Córdoba","name":"Las Junturas","lat":"-31.83125000","lon":"-63.45016000"},
{"state":"Córdoba","name":"Las Perdices","lat":"-32.69794000","lon":"-63.70634000"},
{"state":"Córdoba","name":"Las Varas","lat":"-31.80260000","lon":"-62.61655000"},
{"state":"Córdoba","name":"Las Varillas","lat":"-31.87208000","lon":"-62.71946000"},
{"state":"Córdoba","name":"Leones","lat":"-32.66174000","lon":"-62.29678000"},
{"state":"Córdoba","name":"Los Cocos","lat":"-30.92497000","lon":"-64.50207000"},
{"state":"Córdoba","name":"Los Cóndores","lat":"-32.31983000","lon":"-64.27751000"},
{"state":"Córdoba","name":"Los Surgentes","lat":"-32.98454000","lon":"-62.02191000"},
{"state":"Córdoba","name":"Malagueño","lat":"-31.46467000","lon":"-64.35840000"},
{"state":"Córdoba","name":"Malvinas Argentinas","lat":"-31.38194000","lon":"-64.05545000"},
{"state":"Córdoba","name":"Marcos Juárez","lat":"-32.69780000","lon":"-62.10672000"},
{"state":"Córdoba","name":"Marull","lat":"-30.99471000","lon":"-62.82576000"},
{"state":"Córdoba","name":"Mattaldi","lat":"-34.48194000","lon":"-64.17255000"},
{"state":"Córdoba","name":"Mendiolaza","lat":"-31.26738000","lon":"-64.30087000"},
{"state":"Córdoba","name":"Mina Clavero","lat":"-31.72101000","lon":"-65.00619000"},
{"state":"Córdoba","name":"Miramar","lat":"-30.91859000","lon":"-62.67814000"},
{"state":"Córdoba","name":"Monte Buey","lat":"-32.91642000","lon":"-62.45669000"},
{"state":"Córdoba","name":"Monte Cristo","lat":"-31.34312000","lon":"-63.94437000"},
{"state":"Córdoba","name":"Monte Maíz","lat":"-33.20462000","lon":"-62.60085000"},
{"state":"Córdoba","name":"Morrison","lat":"-32.59480000","lon":"-62.83455000"},
{"state":"Córdoba","name":"Morteros","lat":"-30.71164000","lon":"-61.99862000"},
{"state":"Córdoba","name":"Noetinger","lat":"-32.36597000","lon":"-62.31126000"},
{"state":"Córdoba","name":"Obispo Trejo","lat":"-30.78128000","lon":"-63.41349000"},
{"state":"Córdoba","name":"Oliva","lat":"-32.04158000","lon":"-63.56978000"},
{"state":"Córdoba","name":"Oncativo","lat":"-31.91353000","lon":"-63.68201000"},
{"state":"Córdoba","name":"Ordóñez","lat":"-32.84057000","lon":"-62.86552000"},
{"state":"Córdoba","name":"Pascanas","lat":"-33.12550000","lon":"-63.04084000"},
{"state":"Córdoba","name":"Pasco","lat":"-32.74733000","lon":"-63.34232000"},
{"state":"Córdoba","name":"Pilar","lat":"-31.67890000","lon":"-63.87964000"},
{"state":"Córdoba","name":"Piquillín","lat":"-31.30158000","lon":"-63.75788000"},
{"state":"Córdoba","name":"Porteña","lat":"-31.01391000","lon":"-62.06650000"},
{"state":"Córdoba","name":"Pozo del Molle","lat":"-32.01860000","lon":"-62.91984000"},
{"state":"Córdoba","name":"Quilino","lat":"-30.21397000","lon":"-64.50063000"},
{"state":"Córdoba","name":"Río Ceballos","lat":"-31.16486000","lon":"-64.32241000"},
{"state":"Córdoba","name":"Río Cuarto","lat":"-33.13067000","lon":"-64.34992000"},
{"state":"Córdoba","name":"Río Segundo","lat":"-31.65260000","lon":"-63.90990000"},
{"state":"Córdoba","name":"Río Tercero","lat":"-32.17301000","lon":"-64.11405000"},
{"state":"Córdoba","name":"Sacanta","lat":"-31.66300000","lon":"-63.04505000"},
{"state":"Córdoba","name":"Saldán","lat":"-31.30262000","lon":"-64.30700000"},
{"state":"Córdoba","name":"Salsacate","lat":"-31.31842000","lon":"-65.09003000"},
{"state":"Córdoba","name":"Salsipuedes","lat":"-31.13725000","lon":"-64.29589000"},
{"state":"Córdoba","name":"Sampacho","lat":"-33.38390000","lon":"-64.72211000"},
{"state":"Córdoba","name":"San Agustín","lat":"-31.97681000","lon":"-64.37400000"},
{"state":"Córdoba","name":"San Antonio de Litín","lat":"-32.21377000","lon":"-62.63237000"},
{"state":"Córdoba","name":"San Basilio","lat":"-33.49763000","lon":"-64.31495000"},
{"state":"Córdoba","name":"San Carlos","lat":"-31.17761000","lon":"-65.10245000"},
{"state":"Córdoba","name":"San Francisco","lat":"-31.42797000","lon":"-62.08266000"},
{"state":"Córdoba","name":"San Francisco del Chañar","lat":"-29.78830000","lon":"-63.94411000"},
{"state":"Córdoba","name":"San José de la Dormida","lat":"-30.35440000","lon":"-63.94871000"},
{"state":"Córdoba","name":"Santa Eufemia","lat":"-33.17659000","lon":"-63.28281000"},
{"state":"Córdoba","name":"Santa Magdalena","lat":"-34.51776000","lon":"-63.94409000"},
{"state":"Córdoba","name":"Santa Rosa de Calamuchita","lat":"-32.06905000","lon":"-64.53631000"},
{"state":"Córdoba","name":"Santa Rosa de Río Primero","lat":"-31.15231000","lon":"-63.40191000"},
{"state":"Córdoba","name":"Santiago Temple","lat":"-31.38731000","lon":"-63.41821000"},
{"state":"Córdoba","name":"Saturnino M. Laspiur","lat":"-31.70287000","lon":"-62.48202000"},
{"state":"Córdoba","name":"Sebastián Elcano","lat":"-30.16105000","lon":"-63.59360000"},
{"state":"Córdoba","name":"Serrano","lat":"-34.46971000","lon":"-63.53842000"},
{"state":"Córdoba","name":"Serrezuela","lat":"-30.63761000","lon":"-65.38692000"},
{"state":"Córdoba","name":"Tancacha","lat":"-32.24309000","lon":"-63.98070000"},
{"state":"Córdoba","name":"Ticino","lat":"-32.69350000","lon":"-63.43606000"},
{"state":"Córdoba","name":"Tío Pujio","lat":"-32.28790000","lon":"-63.35598000"},
{"state":"Córdoba","name":"Toledo","lat":"-31.55574000","lon":"-64.00947000"},
{"state":"Córdoba","name":"Ucacha","lat":"-33.03203000","lon":"-63.50666000"},
{"state":"Córdoba","name":"Unquillo","lat":"-31.23073000","lon":"-64.31615000"},
{"state":"Córdoba","name":"Valle Hermoso","lat":"-31.11732000","lon":"-64.48084000"},
{"state":"Córdoba","name":"Viamonte","lat":"-33.74647000","lon":"-63.09764000"},
{"state":"Córdoba","name":"Vicuña Mackenna","lat":"-33.91965000","lon":"-64.39215000"},
{"state":"Córdoba","name":"Villa Allende","lat":"-31.29458000","lon":"-64.29538000"},
{"state":"Córdoba","name":"Villa Ascasubi","lat":"-32.16351000","lon":"-63.89157000"},
{"state":"Córdoba","name":"Villa Berna","lat":"-31.91419000","lon":"-64.73249000"},
{"state":"Córdoba","name":"Villa Carlos Paz","lat":"-31.42414000","lon":"-64.49778000"},
{"state":"Córdoba","name":"Villa Concepción del Tío","lat":"-31.32259000","lon":"-62.81354000"},
{"state":"Córdoba","name":"Villa Cura Brochero","lat":"-31.70578000","lon":"-65.01796000"},
{"state":"Córdoba","name":"Villa de Soto","lat":"-30.85523000","lon":"-64.99947000"},
{"state":"Córdoba","name":"Villa del Dique","lat":"-32.17667000","lon":"-64.45543000"},
{"state":"Córdoba","name":"Villa del Rosario","lat":"-31.55660000","lon":"-63.53452000"},
{"state":"Córdoba","name":"Villa del Totoral","lat":"-30.81667000","lon":"-63.71667000"},
{"state":"Córdoba","name":"Villa Dolores","lat":"-31.94585000","lon":"-65.18958000"},
{"state":"Córdoba","name":"Villa General Belgrano","lat":"-31.97828000","lon":"-64.55627000"},
{"state":"Córdoba","name":"Villa Giardino","lat":"-31.03333000","lon":"-64.48333000"},
{"state":"Córdoba","name":"Villa Huidobro","lat":"-34.83826000","lon":"-64.58686000"},
{"state":"Córdoba","name":"Villa Las Rosas","lat":"-31.95021000","lon":"-65.05354000"},
{"state":"Córdoba","name":"Villa María","lat":"-32.40751000","lon":"-63.24016000"},
{"state":"Córdoba","name":"Villa Nueva","lat":"-32.43293000","lon":"-63.24763000"},
{"state":"Córdoba","name":"Villa Reducción","lat":"-33.20105000","lon":"-63.86234000"},
{"state":"Córdoba","name":"Villa Rumipal","lat":"-32.18790000","lon":"-64.48027000"},
{"state":"Córdoba","name":"Villa Tulumba","lat":"-30.39552000","lon":"-64.12241000"},
{"state":"Córdoba","name":"Villa Valeria","lat":"-34.34093000","lon":"-64.92030000"},
{"state":"Córdoba","name":"Wenceslao Escalante","lat":"-33.17303000","lon":"-62.77078000"},
{"state":"Corrientes","name":"Alvear","lat":"-29.09683000","lon":"-56.55043000"},
{"state":"Corrientes","name":"Berón de Astrada","lat":"-27.55067000","lon":"-57.53460000"},
{"state":"Corrientes","name":"Bonpland","lat":"-29.81708000","lon":"-57.42974000"},
{"state":"Corrientes","name":"Chavarría","lat":"-28.95489000","lon":"-58.57277000"},
{"state":"Corrientes","name":"Concepción","lat":"-28.39175000","lon":"-57.88777000"},
{"state":"Corrientes","name":"Corrientes","lat":"-27.46784000","lon":"-58.83440000"},
{"state":"Corrientes","name":"Cruz de los Milagros","lat":"-28.83646000","lon":"-59.00476000"},
{"state":"Corrientes","name":"Curuzú Cuatiá","lat":"-29.79171000","lon":"-58.05460000"},
{"state":"Corrientes","name":"Departamento de Bella Vista","lat":"-28.50000000","lon":"-58.83333000"},
{"state":"Corrientes","name":"Departamento de Berón de Astrada","lat":"-27.50000000","lon":"-57.66667000"},
{"state":"Corrientes","name":"Departamento de Capital","lat":"-27.50000000","lon":"-58.75000000"},
{"state":"Corrientes","name":"Departamento de Concepción","lat":"-28.33333000","lon":"-58.00000000"},
{"state":"Corrientes","name":"Departamento de Curuzú Cuatiá","lat":"-29.50000000","lon":"-58.50000000"},
{"state":"Corrientes","name":"Departamento de Empedrado","lat":"-27.83333000","lon":"-58.66667000"},
{"state":"Corrientes","name":"Departamento de Esquina","lat":"-30.00000000","lon":"-59.33333000"},
{"state":"Corrientes","name":"Departamento de General Alvear","lat":"-28.83333000","lon":"-56.50000000"},
{"state":"Corrientes","name":"Departamento de General Paz","lat":"-27.75000000","lon":"-57.83333000"},
{"state":"Corrientes","name":"Departamento de Goya","lat":"-29.50000000","lon":"-59.50000000"},
{"state":"Corrientes","name":"Departamento de Itatí","lat":"-27.33333000","lon":"-58.00000000"},
{"state":"Corrientes","name":"Departamento de Ituzaingó","lat":"-27.90085000","lon":"-56.86604000"},
{"state":"Corrientes","name":"Departamento de Lavalle","lat":"-29.00000000","lon":"-58.91667000"},
{"state":"Corrientes","name":"Departamento de Mburucuyá","lat":"-28.00000000","lon":"-58.25000000"},
{"state":"Corrientes","name":"Departamento de Mercedes","lat":"-29.00000000","lon":"-57.83333000"},
{"state":"Corrientes","name":"Departamento de Monte Caseros","lat":"-30.25000000","lon":"-57.83333000"},
{"state":"Corrientes","name":"Departamento de Paso de los Libres","lat":"-29.66667000","lon":"-57.25000000"},
{"state":"Corrientes","name":"Departamento de Saladas","lat":"-28.25000000","lon":"-58.75000000"},
{"state":"Corrientes","name":"Departamento de San Cosme","lat":"-27.33333000","lon":"-58.50000000"},
{"state":"Corrientes","name":"Departamento de San Luis del Palmar","lat":"-27.50000000","lon":"-58.25000000"},
{"state":"Corrientes","name":"Departamento de San Martín","lat":"-28.83333000","lon":"-56.91667000"},
{"state":"Corrientes","name":"Departamento de San Miguel","lat":"-27.91667000","lon":"-57.50000000"},
{"state":"Corrientes","name":"Departamento de San Roque","lat":"-28.66667000","lon":"-58.75000000"},
{"state":"Corrientes","name":"Departamento de Santo Tomé","lat":"-28.25000000","lon":"-56.25000000"},
{"state":"Corrientes","name":"Departamento de Sauce","lat":"-30.00000000","lon":"-58.66667000"},
{"state":"Corrientes","name":"Empedrado","lat":"-27.95178000","lon":"-58.80584000"},
{"state":"Corrientes","name":"Esquina","lat":"-30.01476000","lon":"-59.52890000"},
{"state":"Corrientes","name":"Felipe Yofré","lat":"-29.10226000","lon":"-58.33772000"},
{"state":"Corrientes","name":"Garruchos","lat":"-28.17208000","lon":"-55.65406000"},
{"state":"Corrientes","name":"Gobernador Juan E. Martínez","lat":"-28.91161000","lon":"-58.93594000"},
{"state":"Corrientes","name":"Gobernador Virasora","lat":"-28.05000000","lon":"-56.03333000"},
{"state":"Corrientes","name":"Goya","lat":"-29.13995000","lon":"-59.26343000"},
{"state":"Corrientes","name":"Herlitzka","lat":"-27.56516000","lon":"-58.25557000"},
{"state":"Corrientes","name":"Itá Ibaté","lat":"-27.42573000","lon":"-57.33758000"},
{"state":"Corrientes","name":"Itatí","lat":"-27.27043000","lon":"-58.24458000"},
{"state":"Corrientes","name":"Ituzaingó","lat":"-27.58162000","lon":"-56.68231000"},
{"state":"Corrientes","name":"Juan Pujol","lat":"-30.41873000","lon":"-57.85612000"},
{"state":"Corrientes","name":"La Cruz","lat":"-29.17443000","lon":"-56.64326000"},
{"state":"Corrientes","name":"Libertad","lat":"-30.04300000","lon":"-57.82020000"},
{"state":"Corrientes","name":"Lomas de Vallejos","lat":"-27.73501000","lon":"-57.91850000"},
{"state":"Corrientes","name":"Loreto","lat":"-27.76834000","lon":"-57.27531000"},
{"state":"Corrientes","name":"Mariano I. Loza","lat":"-29.37667000","lon":"-58.19436000"},
{"state":"Corrientes","name":"Mburucuyá","lat":"-28.04532000","lon":"-58.22835000"},
{"state":"Corrientes","name":"Mercedes","lat":"-29.18416000","lon":"-58.07519000"},
{"state":"Corrientes","name":"Mocoretá","lat":"-30.61891000","lon":"-57.96344000"},
{"state":"Corrientes","name":"Monte Caseros","lat":"-30.25359000","lon":"-57.63626000"},
{"state":"Corrientes","name":"Nuestra Señora del Rosario de Caa Catí","lat":"-27.75072000","lon":"-57.62073000"},
{"state":"Corrientes","name":"Nueve de Julio","lat":"-28.84051000","lon":"-58.82650000"},
{"state":"Corrientes","name":"Palmar Grande","lat":"-27.94195000","lon":"-57.90057000"},
{"state":"Corrientes","name":"Paso de la Patria","lat":"-27.31676000","lon":"-58.57197000"},
{"state":"Corrientes","name":"Paso de los Libres","lat":"-29.71251000","lon":"-57.08771000"},
{"state":"Corrientes","name":"Pedro R. Fernández","lat":"-28.75097000","lon":"-58.65583000"},
{"state":"Corrientes","name":"Perugorría","lat":"-29.34132000","lon":"-58.61059000"},
{"state":"Corrientes","name":"Pueblo Libertador","lat":"-30.22087000","lon":"-59.38981000"},
{"state":"Corrientes","name":"Riachuelo","lat":"-27.58191000","lon":"-58.74497000"},
{"state":"Corrientes","name":"Saladas","lat":"-28.25384000","lon":"-58.62591000"},
{"state":"Corrientes","name":"San Carlos","lat":"-27.74586000","lon":"-55.89731000"},
{"state":"Corrientes","name":"San Cosme","lat":"-27.37123000","lon":"-58.51214000"},
{"state":"Corrientes","name":"San Lorenzo","lat":"-28.13306000","lon":"-58.76733000"},
{"state":"Corrientes","name":"San Luis del Palmar","lat":"-27.50790000","lon":"-58.55454000"},
{"state":"Corrientes","name":"San Miguel","lat":"-27.99585000","lon":"-57.58964000"},
{"state":"Corrientes","name":"Santa Lucía","lat":"-28.98746000","lon":"-59.10287000"},
{"state":"Corrientes","name":"Santa Rosa","lat":"-28.26318000","lon":"-58.11891000"},
{"state":"Corrientes","name":"Santo Tomé","lat":"-28.54939000","lon":"-56.04077000"},
{"state":"Corrientes","name":"Yapeyú","lat":"-29.46914000","lon":"-56.81841000"},
{"state":"Corrientes","name":"Yataity Calle","lat":"-29.01913000","lon":"-58.90846000"},
{"state":"Entre Ríos","name":"Aldea San Antonio","lat":"-32.62317000","lon":"-58.70512000"},
{"state":"Entre Ríos","name":"Aranguren","lat":"-32.24252000","lon":"-60.16107000"},
{"state":"Entre Ríos","name":"Bovril","lat":"-31.34311000","lon":"-59.44512000"},
{"state":"Entre Ríos","name":"Caseros","lat":"-32.46325000","lon":"-58.47872000"},
{"state":"Entre Ríos","name":"Ceibas","lat":"-33.43333000","lon":"-58.75000000"},
{"state":"Entre Ríos","name":"Chajarí","lat":"-30.75048000","lon":"-57.97962000"},
{"state":"Entre Ríos","name":"Colón","lat":"-32.22312000","lon":"-58.14426000"},
{"state":"Entre Ríos","name":"Colonia Elía","lat":"-32.67144000","lon":"-58.32538000"},
{"state":"Entre Ríos","name":"Concepción del Uruguay","lat":"-32.48463000","lon":"-58.23217000"},
{"state":"Entre Ríos","name":"Concordia","lat":"-31.39296000","lon":"-58.02089000"},
{"state":"Entre Ríos","name":"Conscripto Bernardi","lat":"-31.04837000","lon":"-59.08435000"},
{"state":"Entre Ríos","name":"Crespo","lat":"-32.02873000","lon":"-60.30658000"},
{"state":"Entre Ríos","name":"Departamento de Gualeguaychú","lat":"-33.25000000","lon":"-59.00000000"},
{"state":"Entre Ríos","name":"Departamento de Paraná","lat":"-31.66667000","lon":"-60.00000000"},
{"state":"Entre Ríos","name":"Diamante","lat":"-32.06641000","lon":"-60.63837000"},
{"state":"Entre Ríos","name":"Domínguez","lat":"-31.98710000","lon":"-58.96197000"},
{"state":"Entre Ríos","name":"Federación","lat":"-31.00621000","lon":"-57.89962000"},
{"state":"Entre Ríos","name":"Federal","lat":"-30.95465000","lon":"-58.78326000"},
{"state":"Entre Ríos","name":"General Campos","lat":"-31.52311000","lon":"-58.40490000"},
{"state":"Entre Ríos","name":"General Galarza","lat":"-32.72034000","lon":"-59.39615000"},
{"state":"Entre Ríos","name":"General Ramírez","lat":"-32.17601000","lon":"-60.20079000"},
{"state":"Entre Ríos","name":"Gobernador Mansilla","lat":"-32.54453000","lon":"-59.35480000"},
{"state":"Entre Ríos","name":"Gualeguay","lat":"-33.14156000","lon":"-59.30966000"},
{"state":"Entre Ríos","name":"Gualeguaychú","lat":"-33.00937000","lon":"-58.51722000"},
{"state":"Entre Ríos","name":"Hasenkamp","lat":"-31.51226000","lon":"-59.83545000"},
{"state":"Entre Ríos","name":"Hernández","lat":"-32.33730000","lon":"-60.02160000"},
{"state":"Entre Ríos","name":"Herrera","lat":"-32.43401000","lon":"-58.63177000"},
{"state":"Entre Ríos","name":"La Criolla","lat":"-31.26904000","lon":"-58.10558000"},
{"state":"Entre Ríos","name":"La Paz","lat":"-30.74179000","lon":"-59.64517000"},
{"state":"Entre Ríos","name":"Larroque","lat":"-33.03595000","lon":"-59.00125000"},
{"state":"Entre Ríos","name":"Los Charrúas","lat":"-31.17548000","lon":"-58.18774000"},
{"state":"Entre Ríos","name":"Los Conquistadores","lat":"-30.59080000","lon":"-58.46773000"},
{"state":"Entre Ríos","name":"Lucas González","lat":"-32.38430000","lon":"-59.53013000"},
{"state":"Entre Ríos","name":"Maciá","lat":"-32.17220000","lon":"-59.39947000"},
{"state":"Entre Ríos","name":"Nogoyá","lat":"-32.39387000","lon":"-59.78953000"},
{"state":"Entre Ríos","name":"Oro Verde","lat":"-31.82508000","lon":"-60.51749000"},
{"state":"Entre Ríos","name":"Paraná","lat":"-31.73271000","lon":"-60.52897000"},
{"state":"Entre Ríos","name":"Piedras Blancas","lat":"-31.18592000","lon":"-59.95181000"},
{"state":"Entre Ríos","name":"Pronunciamiento","lat":"-32.34480000","lon":"-58.44268000"},
{"state":"Entre Ríos","name":"Puerto Ibicuy","lat":"-33.75305000","lon":"-59.17762000"},
{"state":"Entre Ríos","name":"Puerto Yeruá","lat":"-31.53713000","lon":"-58.01527000"},
{"state":"Entre Ríos","name":"Rosario del Tala","lat":"-32.30286000","lon":"-59.14545000"},
{"state":"Entre Ríos","name":"San Benito","lat":"-31.78371000","lon":"-60.44156000"},
{"state":"Entre Ríos","name":"San Gustavo","lat":"-30.68961000","lon":"-59.39840000"},
{"state":"Entre Ríos","name":"San José de Feliciano","lat":"-30.38452000","lon":"-58.75167000"},
{"state":"Entre Ríos","name":"San Justo","lat":"-32.44654000","lon":"-58.43569000"},
{"state":"Entre Ríos","name":"San Salvador","lat":"-31.62487000","lon":"-58.50524000"},
{"state":"Entre Ríos","name":"Santa Ana","lat":"-30.90004000","lon":"-57.93162000"},
{"state":"Entre Ríos","name":"Santa Anita","lat":"-32.17476000","lon":"-58.78622000"},
{"state":"Entre Ríos","name":"Santa Elena","lat":"-30.94432000","lon":"-59.78832000"},
{"state":"Entre Ríos","name":"Sauce de Luna","lat":"-31.23794000","lon":"-59.21872000"},
{"state":"Entre Ríos","name":"Seguí","lat":"-31.95642000","lon":"-60.12488000"},
{"state":"Entre Ríos","name":"Tabossi","lat":"-31.80135000","lon":"-59.93477000"},
{"state":"Entre Ríos","name":"Ubajay","lat":"-31.79358000","lon":"-58.31350000"},
{"state":"Entre Ríos","name":"Urdinarrain","lat":"-32.68573000","lon":"-58.89323000"},
{"state":"Entre Ríos","name":"Viale","lat":"-31.86782000","lon":"-60.00722000"},
{"state":"Entre Ríos","name":"Victoria","lat":"-32.61841000","lon":"-60.15478000"},
{"state":"Entre Ríos","name":"Villa del Rosario","lat":"-30.79567000","lon":"-57.91257000"},
{"state":"Entre Ríos","name":"Villa Elisa","lat":"-32.16320000","lon":"-58.40082000"},
{"state":"Entre Ríos","name":"Villa Hernandarias","lat":"-31.23097000","lon":"-59.98464000"},
{"state":"Entre Ríos","name":"Villa Mantero","lat":"-32.39727000","lon":"-58.74596000"},
{"state":"Entre Ríos","name":"Villa María Grande","lat":"-31.66565000","lon":"-59.90182000"},
{"state":"Entre Ríos","name":"Villa Paranacito","lat":"-33.71381000","lon":"-58.65844000"},
{"state":"Entre Ríos","name":"Villa Urquiza","lat":"-31.64757000","lon":"-60.37516000"},
{"state":"Entre Ríos","name":"Villaguay","lat":"-31.86530000","lon":"-59.02689000"},
{"state":"Formosa","name":"Clorinda","lat":"-25.28481000","lon":"-57.71851000"},
{"state":"Formosa","name":"Comandante Fontana","lat":"-25.33453000","lon":"-59.68212000"},
{"state":"Formosa","name":"Departamento de Pilcomayo","lat":"-25.50000000","lon":"-58.08333000"},
{"state":"Formosa","name":"El Colorado","lat":"-26.30808000","lon":"-59.37291000"},
{"state":"Formosa","name":"Estanislao del Campo","lat":"-25.05504000","lon":"-60.09218000"},
{"state":"Formosa","name":"Formosa","lat":"-26.18489000","lon":"-58.17313000"},
{"state":"Formosa","name":"General Enrique Mosconi","lat":"-23.21667000","lon":"-62.30000000"},
{"state":"Formosa","name":"Herradura","lat":"-26.48705000","lon":"-58.31198000"},
{"state":"Formosa","name":"Ibarreta","lat":"-25.21438000","lon":"-59.85851000"},
{"state":"Formosa","name":"Ingeniero Guillermo N. Juárez","lat":"-23.90000000","lon":"-61.85000000"},
{"state":"Formosa","name":"Laguna Naick-Neck","lat":"-25.24769000","lon":"-58.09383000"},
{"state":"Formosa","name":"Laguna Yema","lat":"-24.25391000","lon":"-61.24466000"},
{"state":"Formosa","name":"Las Lomitas","lat":"-24.70955000","lon":"-60.59303000"},
{"state":"Formosa","name":"Palo Santo","lat":"-25.56332000","lon":"-59.33781000"},
{"state":"Formosa","name":"Pirané","lat":"-25.73239000","lon":"-59.10879000"},
{"state":"Formosa","name":"Pozo del Tigre","lat":"-24.89682000","lon":"-60.32359000"},
{"state":"Formosa","name":"Riacho Eh-Eh","lat":"-25.36209000","lon":"-58.27750000"},
{"state":"Formosa","name":"San Francisco de Laishí","lat":"-26.24262000","lon":"-58.63039000"},
{"state":"Formosa","name":"Villa Escolar","lat":"-26.62209000","lon":"-58.67134000"},
{"state":"Formosa","name":"Villa General Guemes","lat":"-24.75530000","lon":"-59.48940000"},
{"state":"Jujuy","name":"Abra Pampa","lat":"-22.72049000","lon":"-65.69697000"},
{"state":"Jujuy","name":"Caimancito","lat":"-23.74069000","lon":"-64.59370000"},
{"state":"Jujuy","name":"Calilegua","lat":"-23.77368000","lon":"-64.77002000"},
{"state":"Jujuy","name":"Departamento de Cochinoca","lat":"-23.00000000","lon":"-65.83333000"},
{"state":"Jujuy","name":"Departamento de Rinconada","lat":"-22.50000000","lon":"-66.50000000"},
{"state":"Jujuy","name":"Departamento de Tumbaya","lat":"-23.71667000","lon":"-65.66667000"},
{"state":"Jujuy","name":"El Aguilar","lat":"-23.21572000","lon":"-65.68005000"},
{"state":"Jujuy","name":"Fraile Pintado","lat":"-23.94079000","lon":"-64.79943000"},
{"state":"Jujuy","name":"Humahuaca","lat":"-23.20544000","lon":"-65.35048000"},
{"state":"Jujuy","name":"Ingenio La Esperanza","lat":"-24.22554000","lon":"-64.83896000"},
{"state":"Jujuy","name":"La Mendieta","lat":"-24.31187000","lon":"-64.96377000"},
{"state":"Jujuy","name":"La Quiaca","lat":"-22.10236000","lon":"-65.59299000"},
{"state":"Jujuy","name":"Libertador General San Martín","lat":"-23.80644000","lon":"-64.78757000"},
{"state":"Jujuy","name":"Maimará","lat":"-23.62392000","lon":"-65.40797000"},
{"state":"Jujuy","name":"Palma Sola","lat":"-23.97771000","lon":"-64.30311000"},
{"state":"Jujuy","name":"Palpalá","lat":"-24.25647000","lon":"-65.21163000"},
{"state":"Jujuy","name":"San Pedro de Jujuy","lat":"-24.23127000","lon":"-64.86614000"},
{"state":"Jujuy","name":"San Salvador de Jujuy","lat":"-24.19457000","lon":"-65.29712000"},
{"state":"Jujuy","name":"Santa Clara","lat":"-24.30921000","lon":"-64.66253000"},
{"state":"Jujuy","name":"Tilcara","lat":"-23.57817000","lon":"-65.39516000"},
{"state":"Jujuy","name":"Yuto","lat":"-23.64342000","lon":"-64.47194000"},
{"state":"La Pampa","name":"Alpachiri","lat":"-37.37704000","lon":"-63.77445000"},
{"state":"La Pampa","name":"Alta Italia","lat":"-35.33350000","lon":"-64.11496000"},
{"state":"La Pampa","name":"Anguil","lat":"-36.52567000","lon":"-64.01025000"},
{"state":"La Pampa","name":"Arata","lat":"-35.63895000","lon":"-64.35621000"},
{"state":"La Pampa","name":"Bernardo Larroudé","lat":"-35.02449000","lon":"-63.58253000"},
{"state":"La Pampa","name":"Bernasconi","lat":"-37.90459000","lon":"-63.74240000"},
{"state":"La Pampa","name":"Caleufú","lat":"-35.59559000","lon":"-64.55778000"},
{"state":"La Pampa","name":"Catriló","lat":"-36.40597000","lon":"-63.42168000"},
{"state":"La Pampa","name":"Colonia Barón","lat":"-36.15152000","lon":"-63.85404000"},
{"state":"La Pampa","name":"Departamento de Caleu-Caleu","lat":"-38.58333000","lon":"-64.00000000"},
{"state":"La Pampa","name":"Departamento de Toay","lat":"-36.58333000","lon":"-64.80000000"},
{"state":"La Pampa","name":"Doblas","lat":"-37.14967000","lon":"-64.01183000"},
{"state":"La Pampa","name":"Eduardo Castex","lat":"-35.91501000","lon":"-64.29448000"},
{"state":"La Pampa","name":"Embajador Martini","lat":"-35.38633000","lon":"-64.28092000"},
{"state":"La Pampa","name":"General Acha","lat":"-37.37698000","lon":"-64.60431000"},
{"state":"La Pampa","name":"General Manuel J. Campos","lat":"-37.46025000","lon":"-63.58537000"},
{"state":"La Pampa","name":"General Pico","lat":"-35.65662000","lon":"-63.75682000"},
{"state":"La Pampa","name":"General San Martín","lat":"-37.97904000","lon":"-63.60449000"},
{"state":"La Pampa","name":"Guatraché","lat":"-37.66776000","lon":"-63.53021000"},
{"state":"La Pampa","name":"Ingeniero Luiggi","lat":"-35.38585000","lon":"-64.46519000"},
{"state":"La Pampa","name":"Intendente Alvear","lat":"-35.23383000","lon":"-63.59205000"},
{"state":"La Pampa","name":"Jacinto Arauz","lat":"-38.08606000","lon":"-63.43169000"},
{"state":"La Pampa","name":"La Adela","lat":"-38.98333000","lon":"-64.08333000"},
{"state":"La Pampa","name":"La Maruja","lat":"-35.67360000","lon":"-64.93997000"},
{"state":"La Pampa","name":"Lonquimay","lat":"-36.46546000","lon":"-63.62429000"},
{"state":"La Pampa","name":"Macachín","lat":"-37.13598000","lon":"-63.66650000"},
{"state":"La Pampa","name":"Miguel Riglos","lat":"-36.85398000","lon":"-63.68842000"},
{"state":"La Pampa","name":"Parera","lat":"-35.14600000","lon":"-64.50089000"},
{"state":"La Pampa","name":"Quemú Quemú","lat":"-36.05463000","lon":"-63.56428000"},
{"state":"La Pampa","name":"Rancul","lat":"-35.06862000","lon":"-64.68107000"},
{"state":"La Pampa","name":"Realicó","lat":"-35.03658000","lon":"-64.24470000"},
{"state":"La Pampa","name":"Santa Isabel","lat":"-36.22724000","lon":"-66.94240000"},
{"state":"La Pampa","name":"Santa Rosa","lat":"-36.61667000","lon":"-64.28333000"},
{"state":"La Pampa","name":"Telén","lat":"-36.26429000","lon":"-65.51018000"},
{"state":"La Pampa","name":"Trenel","lat":"-35.69837000","lon":"-64.13218000"},
{"state":"La Pampa","name":"Uriburu","lat":"-36.50682000","lon":"-63.86225000"},
{"state":"La Pampa","name":"Veinticinco de Mayo","lat":"-37.77410000","lon":"-67.71638000"},
{"state":"La Pampa","name":"Victorica","lat":"-36.21505000","lon":"-65.43586000"},
{"state":"La Pampa","name":"Winifreda","lat":"-36.22643000","lon":"-64.23388000"},
{"state":"La Rioja","name":"Arauco","lat":"-28.58071000","lon":"-66.79250000"},
{"state":"La Rioja","name":"Castro Barros","lat":"-30.57952000","lon":"-65.72696000"},
{"state":"La Rioja","name":"Chamical","lat":"-30.36002000","lon":"-66.31399000"},
{"state":"La Rioja","name":"Chilecito","lat":"-29.16195000","lon":"-67.49740000"},
{"state":"La Rioja","name":"Departamento de Arauco","lat":"-28.50000000","lon":"-66.83333000"},
{"state":"La Rioja","name":"Departamento de General Lamadrid","lat":"-28.83333000","lon":"-68.66667000"},
{"state":"La Rioja","name":"Departamento de Independencia","lat":"-30.16667000","lon":"-67.41667000"},
{"state":"La Rioja","name":"La Rioja","lat":"-29.41105000","lon":"-66.85067000"},
{"state":"La Rioja","name":"Villa Bustos","lat":"-29.28636000","lon":"-67.02067000"},
{"state":"La Rioja","name":"Vinchina","lat":"-28.75964000","lon":"-68.20692000"},
{"state":"Mendoza","name":"Departamento de Capital","lat":"-32.88469000","lon":"-68.85826000"},
{"state":"Mendoza","name":"Departamento de General Alvear","lat":"-35.16667000","lon":"-67.33333000"},
{"state":"Mendoza","name":"Departamento de Godoy Cruz","lat":"-32.93333000","lon":"-68.86667000"},
{"state":"Mendoza","name":"Departamento de Guaymallén","lat":"-32.88333000","lon":"-68.70000000"},
{"state":"Mendoza","name":"Departamento de La Paz","lat":"-33.66667000","lon":"-67.25000000"},
{"state":"Mendoza","name":"Departamento de Las Heras","lat":"-32.50000000","lon":"-69.50000000"},
{"state":"Mendoza","name":"Departamento de Lavalle","lat":"-32.50000000","lon":"-68.00000000"},
{"state":"Mendoza","name":"Departamento de Luján","lat":"-33.00000000","lon":"-69.33333000"},
{"state":"Mendoza","name":"Departamento de Maipú","lat":"-33.00000000","lon":"-68.58333000"},
{"state":"Mendoza","name":"Departamento de Malargüe","lat":"-36.25000000","lon":"-69.25000000"},
{"state":"Mendoza","name":"Departamento de Rivadavia","lat":"-33.18000000","lon":"-68.46600000"},
{"state":"Mendoza","name":"Departamento de San Carlos","lat":"-34.00000000","lon":"-69.00000000"},
{"state":"Mendoza","name":"Departamento de San Martín","lat":"-32.83730000","lon":"-68.24922000"},
{"state":"Mendoza","name":"Departamento de San Rafael","lat":"-35.00000000","lon":"-68.83333000"},
{"state":"Mendoza","name":"Departamento de Santa Rosa","lat":"-33.50000000","lon":"-68.00000000"},
{"state":"Mendoza","name":"Departamento de Tunuyán","lat":"-33.66667000","lon":"-69.50000000"},
{"state":"Mendoza","name":"Departamento de Tupungato","lat":"-33.25000000","lon":"-69.25000000"},
{"state":"Mendoza","name":"Godoy Cruz","lat":"-32.92863000","lon":"-68.83510000"},
{"state":"Mendoza","name":"Las Heras","lat":"-32.85273000","lon":"-68.82837000"},
{"state":"Mendoza","name":"Mendoza","lat":"-32.89084000","lon":"-68.82717000"},
{"state":"Mendoza","name":"San Martín","lat":"-33.08103000","lon":"-68.46814000"},
{"state":"Mendoza","name":"San Rafael","lat":"-34.61772000","lon":"-68.33007000"},
{"state":"Misiones","name":"Alba Posse","lat":"-27.56978000","lon":"-54.68262000"},
{"state":"Misiones","name":"Almafuerte","lat":"-27.50825000","lon":"-55.40258000"},
{"state":"Misiones","name":"Aristóbulo del Valle","lat":"-27.09625000","lon":"-54.89626000"},
{"state":"Misiones","name":"Arroyo del Medio","lat":"-27.69748000","lon":"-55.40376000"},
{"state":"Misiones","name":"Azara","lat":"-28.06160000","lon":"-55.67797000"},
{"state":"Misiones","name":"Bernardo de Irigoyen","lat":"-26.25520000","lon":"-53.64581000"},
{"state":"Misiones","name":"Bonpland","lat":"-27.48218000","lon":"-55.47756000"},
{"state":"Misiones","name":"Campo Grande","lat":"-27.20770000","lon":"-54.97977000"},
{"state":"Misiones","name":"Campo Ramón","lat":"-27.45490000","lon":"-55.02122000"},
{"state":"Misiones","name":"Campo Viera","lat":"-27.33271000","lon":"-55.05651000"},
{"state":"Misiones","name":"Candelaria","lat":"-27.45950000","lon":"-55.74536000"},
{"state":"Misiones","name":"Capioví","lat":"-26.92998000","lon":"-55.06084000"},
{"state":"Misiones","name":"Caraguatay","lat":"-26.60587000","lon":"-54.78093000"},
{"state":"Misiones","name":"Cerro Azul","lat":"-27.63310000","lon":"-55.49620000"},
{"state":"Misiones","name":"Cerro Corá","lat":"-27.51310000","lon":"-55.60896000"},
{"state":"Misiones","name":"Colonia Aurora","lat":"-27.47428000","lon":"-54.52498000"},
{"state":"Misiones","name":"Concepción de la Sierra","lat":"-27.98311000","lon":"-55.52031000"},
{"state":"Misiones","name":"Departamento de Apóstoles","lat":"-27.91667000","lon":"-55.75000000"},
{"state":"Misiones","name":"Departamento de Cainguás","lat":"-27.16667000","lon":"-54.83333000"},
{"state":"Misiones","name":"Departamento de Candelaria","lat":"-27.50000000","lon":"-55.50000000"},
{"state":"Misiones","name":"Departamento de Capital","lat":"-27.50000000","lon":"-55.83333000"},
{"state":"Misiones","name":"Departamento de Concepción de la Sierra","lat":"-27.83333000","lon":"-55.41667000"},
{"state":"Misiones","name":"Departamento de Eldorado","lat":"-26.25000000","lon":"-54.41667000"},
{"state":"Misiones","name":"Departamento de General Manuel Belgrano","lat":"-26.16667000","lon":"-53.91667000"},
{"state":"Misiones","name":"Departamento de Guaraní","lat":"-27.16667000","lon":"-54.16667000"},
{"state":"Misiones","name":"Departamento de Iguazú","lat":"-25.86667000","lon":"-54.36667000"},
{"state":"Misiones","name":"Departamento de Leandro N. Alem","lat":"-27.56667000","lon":"-55.33333000"},
{"state":"Misiones","name":"Departamento de Libertador General San Martín","lat":"-26.91667000","lon":"-54.91667000"},
{"state":"Misiones","name":"Departamento de Montecarlo","lat":"-26.71667000","lon":"-54.58333000"},
{"state":"Misiones","name":"Departamento de Oberá","lat":"-27.55000000","lon":"-55.08333000"},
{"state":"Misiones","name":"Departamento de San Ignacio","lat":"-27.25000000","lon":"-55.33333000"},
{"state":"Misiones","name":"Departamento de San Javier","lat":"-27.77806000","lon":"-55.13004000"},
{"state":"Misiones","name":"Departamento de San Pedro","lat":"-26.66667000","lon":"-54.00000000"},
{"state":"Misiones","name":"Departamento de Veinticinco de Mayo","lat":"-27.41667000","lon":"-54.66667000"},
{"state":"Misiones","name":"Dos Arroyos","lat":"-27.69946000","lon":"-55.25207000"},
{"state":"Misiones","name":"Dos de Mayo","lat":"-27.02277000","lon":"-54.68669000"},
{"state":"Misiones","name":"El Alcázar","lat":"-26.71459000","lon":"-54.81523000"},
{"state":"Misiones","name":"El Soberbio","lat":"-27.29847000","lon":"-54.19877000"},
{"state":"Misiones","name":"Florentino Ameghino","lat":"-27.56667000","lon":"-55.13333000"},
{"state":"Misiones","name":"Garuhapé","lat":"-26.81768000","lon":"-54.95665000"},
{"state":"Misiones","name":"Garupá","lat":"-27.48171000","lon":"-55.82921000"},
{"state":"Misiones","name":"General Alvear","lat":"-27.42611000","lon":"-55.16916000"},
{"state":"Misiones","name":"Gobernador Roca","lat":"-27.18636000","lon":"-55.46433000"},
{"state":"Misiones","name":"Guaraní","lat":"-27.52323000","lon":"-55.16077000"},
{"state":"Misiones","name":"Jardín América","lat":"-27.04346000","lon":"-55.22698000"},
{"state":"Misiones","name":"Loreto","lat":"-27.33177000","lon":"-55.52499000"},
{"state":"Misiones","name":"Los Helechos","lat":"-27.55051000","lon":"-55.07908000"},
{"state":"Misiones","name":"Mártires","lat":"-27.42265000","lon":"-55.37659000"},
{"state":"Misiones","name":"Mojón Grande","lat":"-27.71165000","lon":"-55.15631000"},
{"state":"Misiones","name":"Montecarlo","lat":"-26.56620000","lon":"-54.75700000"},
{"state":"Misiones","name":"Oberá","lat":"-27.48706000","lon":"-55.11994000"},
{"state":"Misiones","name":"Panambí","lat":"-27.72369000","lon":"-54.91515000"},
{"state":"Misiones","name":"Picada Gobernador López","lat":"-27.67069000","lon":"-55.24585000"},
{"state":"Misiones","name":"Posadas","lat":"-27.36708000","lon":"-55.89608000"},
{"state":"Misiones","name":"Puerto Eldorado","lat":"-26.40843000","lon":"-54.69463000"},
{"state":"Misiones","name":"Puerto Esperanza","lat":"-26.02267000","lon":"-54.61356000"},
{"state":"Misiones","name":"Puerto Iguazú","lat":"-25.59912000","lon":"-54.57355000"},
{"state":"Misiones","name":"Puerto Leoni","lat":"-26.98762000","lon":"-55.16569000"},
{"state":"Misiones","name":"Puerto Libertad","lat":"-25.91958000","lon":"-54.58229000"},
{"state":"Misiones","name":"Puerto Piray","lat":"-26.46937000","lon":"-54.70736000"},
{"state":"Misiones","name":"Puerto Rico","lat":"-26.79598000","lon":"-55.02402000"},
{"state":"Misiones","name":"Ruiz de Montoya","lat":"-26.98333000","lon":"-55.05000000"},
{"state":"Misiones","name":"San José","lat":"-27.76979000","lon":"-55.78260000"},
{"state":"Misiones","name":"San Pedro","lat":"-26.62207000","lon":"-54.10842000"},
{"state":"Misiones","name":"San Vicente","lat":"-26.61667000","lon":"-54.13333000"},
{"state":"Misiones","name":"Santa María","lat":"-27.93490000","lon":"-55.40742000"},
{"state":"Misiones","name":"Santo Pipó","lat":"-27.14132000","lon":"-55.40867000"},
{"state":"Misiones","name":"Tres Capones","lat":"-28.00641000","lon":"-55.60471000"},
{"state":"Misiones","name":"Veinticinco de Mayo","lat":"-27.37679000","lon":"-54.74312000"},
{"state":"Misiones","name":"Wanda","lat":"-25.96879000","lon":"-54.56285000"},
{"state":"Neuquén","name":"Aluminé","lat":"-39.23686000","lon":"-70.91970000"},
{"state":"Neuquén","name":"Andacollo","lat":"-37.17945000","lon":"-70.66912000"},
{"state":"Neuquén","name":"Añelo","lat":"-38.35441000","lon":"-68.78840000"},
{"state":"Neuquén","name":"Barrancas","lat":"-36.82344000","lon":"-69.91564000"},
{"state":"Neuquén","name":"Buta Ranquil","lat":"-37.05222000","lon":"-69.87713000"},
{"state":"Neuquén","name":"Centenario","lat":"-38.82955000","lon":"-68.13180000"},
{"state":"Neuquén","name":"Chos Malal","lat":"-37.37809000","lon":"-70.27085000"},
{"state":"Neuquén","name":"Cutral-Có","lat":"-38.93424000","lon":"-69.23052000"},
{"state":"Neuquén","name":"Departamento de Aluminé","lat":"-39.16667000","lon":"-71.00000000"},
{"state":"Neuquén","name":"Departamento de Añelo","lat":"-38.16667000","lon":"-69.00000000"},
{"state":"Neuquén","name":"Departamento de Catán-Lil","lat":"-39.50000000","lon":"-70.33333000"},
{"state":"Neuquén","name":"Departamento de Chos-Malal","lat":"-36.91667000","lon":"-70.16667000"},
{"state":"Neuquén","name":"Departamento de Collón-Curá","lat":"-40.08333000","lon":"-70.16667000"},
{"state":"Neuquén","name":"Departamento de Confluencia","lat":"-38.83333000","lon":"-68.83333000"},
{"state":"Neuquén","name":"Departamento de Lácar","lat":"-40.25000000","lon":"-71.20000000"},
{"state":"Neuquén","name":"Departamento de Minas","lat":"-36.83333000","lon":"-70.83333000"},
{"state":"Neuquén","name":"Departamento de Zapala","lat":"-39.00000000","lon":"-69.83333000"},
{"state":"Neuquén","name":"El Huecú","lat":"-37.64522000","lon":"-70.58006000"},
{"state":"Neuquén","name":"Junín de los Andes","lat":"-39.95043000","lon":"-71.06936000"},
{"state":"Neuquén","name":"Las Coloradas","lat":"-39.55534000","lon":"-70.59491000"},
{"state":"Neuquén","name":"Las Lajas","lat":"-38.52322000","lon":"-70.36745000"},
{"state":"Neuquén","name":"Las Ovejas","lat":"-36.98881000","lon":"-70.74991000"},
{"state":"Neuquén","name":"Loncopué","lat":"-38.07284000","lon":"-70.61609000"},
{"state":"Neuquén","name":"Mariano Moreno","lat":"-38.75029000","lon":"-70.02367000"},
{"state":"Neuquén","name":"Neuquén","lat":"-38.95161000","lon":"-68.05910000"},
{"state":"Neuquén","name":"Picún Leufú","lat":"-39.51614000","lon":"-69.28765000"},
{"state":"Neuquén","name":"Piedra del Águila","lat":"-40.04811000","lon":"-70.07410000"},
{"state":"Neuquén","name":"Plaza Huincul","lat":"-38.92598000","lon":"-69.20863000"},
{"state":"Neuquén","name":"Plottier","lat":"-38.96667000","lon":"-68.23333000"},
{"state":"Neuquén","name":"San Martín de los Andes","lat":"-40.15789000","lon":"-71.35337000"},
{"state":"Neuquén","name":"Senillosa","lat":"-39.01412000","lon":"-68.43281000"},
{"state":"Neuquén","name":"Villa La Angostura","lat":"-40.76173000","lon":"-71.64631000"},
{"state":"Neuquén","name":"Vista Alegre","lat":"-38.75000000","lon":"-68.18333000"},
{"state":"Neuquén","name":"Zapala","lat":"-38.89916000","lon":"-70.05442000"},
{"state":"Río Negro","name":"Allen","lat":"-38.97736000","lon":"-67.82714000"},
{"state":"Río Negro","name":"Catriel","lat":"-37.87907000","lon":"-67.79560000"},
{"state":"Río Negro","name":"Cervantes","lat":"-39.05444000","lon":"-67.39426000"},
{"state":"Río Negro","name":"Chichinales","lat":"-39.11505000","lon":"-66.92714000"},
{"state":"Río Negro","name":"Chimpay","lat":"-39.16482000","lon":"-66.14236000"},
{"state":"Río Negro","name":"Choele Choel","lat":"-39.28941000","lon":"-65.66060000"},
{"state":"Río Negro","name":"Cinco Saltos","lat":"-38.82225000","lon":"-68.06293000"},
{"state":"Río Negro","name":"Cipolletti","lat":"-38.93392000","lon":"-67.99032000"},
{"state":"Río Negro","name":"Comallo","lat":"-41.02993000","lon":"-70.26784000"},
{"state":"Río Negro","name":"Contraalmirante Cordero","lat":"-38.72423000","lon":"-68.15284000"},
{"state":"Río Negro","name":"Coronel Belisle","lat":"-39.18688000","lon":"-65.95422000"},
{"state":"Río Negro","name":"Darwin","lat":"-39.20334000","lon":"-65.73952000"},
{"state":"Río Negro","name":"Departamento de Avellaneda","lat":"-39.50000000","lon":"-66.50000000"},
{"state":"Río Negro","name":"Departamento de Veinticinco de Mayo","lat":"-41.25000000","lon":"-69.00000000"},
{"state":"Río Negro","name":"El Bolsón","lat":"-41.96051000","lon":"-71.53336000"},
{"state":"Río Negro","name":"El Cuy","lat":"-39.92685000","lon":"-68.34208000"},
{"state":"Río Negro","name":"Fray Luis Beltrán","lat":"-39.31369000","lon":"-65.76002000"},
{"state":"Río Negro","name":"General Conesa","lat":"-40.10408000","lon":"-64.45592000"},
{"state":"Río Negro","name":"General Enrique Godoy","lat":"-39.07891000","lon":"-67.15807000"},
{"state":"Río Negro","name":"General Fernández Oro","lat":"-38.95297000","lon":"-67.92489000"},
{"state":"Río Negro","name":"General Roca","lat":"-39.03333000","lon":"-67.58333000"},
{"state":"Río Negro","name":"Ingeniero Jacobacci","lat":"-41.32920000","lon":"-69.55015000"},
{"state":"Río Negro","name":"Ingeniero Luis A. Huergo","lat":"-39.07146000","lon":"-67.23790000"},
{"state":"Río Negro","name":"Lamarque","lat":"-39.42304000","lon":"-65.70208000"},
{"state":"Río Negro","name":"Los Menucos","lat":"-40.84402000","lon":"-68.08718000"},
{"state":"Río Negro","name":"Mainque","lat":"-39.06667000","lon":"-67.30000000"},
{"state":"Río Negro","name":"Maquinchao","lat":"-41.24912000","lon":"-68.70321000"},
{"state":"Río Negro","name":"Ñorquinco","lat":"-41.85072000","lon":"-70.90173000"},
{"state":"Río Negro","name":"Pilcaniyeu","lat":"-41.12288000","lon":"-70.72152000"},
{"state":"Río Negro","name":"Río Colorado","lat":"-38.99397000","lon":"-64.09295000"},
{"state":"Río Negro","name":"San Antonio Oeste","lat":"-40.73193000","lon":"-64.94769000"},
{"state":"Río Negro","name":"San Carlos de Bariloche","lat":"-41.14557000","lon":"-71.30822000"},
{"state":"Río Negro","name":"Sierra Colorada","lat":"-40.58487000","lon":"-67.75674000"},
{"state":"Río Negro","name":"Sierra Grande","lat":"-41.60603000","lon":"-65.35574000"},
{"state":"Río Negro","name":"Valcheta","lat":"-40.67989000","lon":"-66.16283000"},
{"state":"Río Negro","name":"Viedma","lat":"-40.81345000","lon":"-62.99668000"},
{"state":"Río Negro","name":"Villa Regina","lat":"-39.10000000","lon":"-67.06667000"},
{"state":"Salta","name":"Apolinario Saravia","lat":"-24.43276000","lon":"-63.99535000"},
{"state":"Salta","name":"Cachí","lat":"-25.12033000","lon":"-66.16519000"},
{"state":"Salta","name":"Cafayate","lat":"-26.08333000","lon":"-65.83333000"},
{"state":"Salta","name":"Campo Quijano","lat":"-24.90982000","lon":"-65.63656000"},
{"state":"Salta","name":"Chicoana","lat":"-25.10502000","lon":"-65.53473000"},
{"state":"Salta","name":"Departamento Capital","lat":"-24.83333000","lon":"-65.33333000"},
{"state":"Salta","name":"Departamento de Anta","lat":"-24.91667000","lon":"-64.00000000"},
{"state":"Salta","name":"Departamento de Cerrillos","lat":"-25.00000000","lon":"-65.41667000"},
{"state":"Salta","name":"Departamento de Chicoana","lat":"-25.11583000","lon":"-65.59466000"},
{"state":"Salta","name":"Departamento de General Güemes","lat":"-24.79464000","lon":"-64.94393000"},
{"state":"Salta","name":"Departamento de Guachipas","lat":"-25.66667000","lon":"-65.50000000"},
{"state":"Salta","name":"Departamento de Iruya","lat":"-22.80000000","lon":"-64.91667000"},
{"state":"Salta","name":"Departamento de La Poma","lat":"-24.16667000","lon":"-66.16667000"},
{"state":"Salta","name":"Departamento de La Viña","lat":"-25.50000000","lon":"-65.66667000"},
{"state":"Salta","name":"Departamento de Los Andes","lat":"-24.50000000","lon":"-67.33333000"},
{"state":"Salta","name":"Departamento de Metán","lat":"-25.50000000","lon":"-64.66667000"},
{"state":"Salta","name":"Departamento de Rivadavia","lat":"-23.66667000","lon":"-62.91667000"},
{"state":"Salta","name":"Departamento de Rosario de la Frontera","lat":"-25.91667000","lon":"-64.83333000"},
{"state":"Salta","name":"Departamento de Rosario de Lerma","lat":"-24.58333000","lon":"-65.83333000"},
{"state":"Salta","name":"Departamento de San Carlos","lat":"-25.75000000","lon":"-66.08333000"},
{"state":"Salta","name":"El Carril","lat":"-25.07410000","lon":"-65.49174000"},
{"state":"Salta","name":"El Galpón","lat":"-25.38069000","lon":"-64.65259000"},
{"state":"Salta","name":"El Quebrachal","lat":"-25.28333000","lon":"-64.06667000"},
{"state":"Salta","name":"Embarcación","lat":"-23.21003000","lon":"-64.09965000"},
{"state":"Salta","name":"General Enrique Mosconi","lat":"-22.59588000","lon":"-63.81255000"},
{"state":"Salta","name":"Joaquín V. González","lat":"-25.11364000","lon":"-64.12628000"},
{"state":"Salta","name":"La Caldera","lat":"-24.58333000","lon":"-65.41667000"},
{"state":"Salta","name":"Las Lajitas","lat":"-24.72762000","lon":"-64.19335000"},
{"state":"Salta","name":"Salta","lat":"-24.78590000","lon":"-65.41166000"},
{"state":"Salta","name":"San Antonio de los Cobres","lat":"-24.21804000","lon":"-66.31877000"},
{"state":"Salta","name":"San Ramón de la Nueva Orán","lat":"-23.13705000","lon":"-64.32426000"},
{"state":"Salta","name":"Santa Rosa de Tastil","lat":"-24.45166000","lon":"-65.97452000"},
{"state":"Salta","name":"Tartagal","lat":"-22.51637000","lon":"-63.80131000"},
{"state":"San Juan","name":"Albardón","lat":"-31.43722000","lon":"-68.52556000"},
{"state":"San Juan","name":"Calingasta","lat":"-31.33394000","lon":"-69.42080000"},
{"state":"San Juan","name":"Caucete","lat":"-31.65179000","lon":"-68.28105000"},
{"state":"San Juan","name":"Chimbas","lat":"-31.48333000","lon":"-68.53333000"},
{"state":"San Juan","name":"Departamento de Albardón","lat":"-31.28333000","lon":"-68.41667000"},
{"state":"San Juan","name":"Departamento de Angaco","lat":"-31.20000000","lon":"-68.13333000"},
{"state":"San Juan","name":"Departamento de Calingasta","lat":"-31.50000000","lon":"-69.75000000"},
{"state":"San Juan","name":"Departamento de Capital","lat":"-31.53333000","lon":"-68.53333000"},
{"state":"San Juan","name":"Departamento de Caucete","lat":"-31.45000000","lon":"-67.66667000"},
{"state":"San Juan","name":"Departamento de Chimbas","lat":"-31.48738000","lon":"-68.52691000"},
{"state":"San Juan","name":"Departamento de Iglesia","lat":"-29.33333000","lon":"-69.58333000"},
{"state":"San Juan","name":"Departamento de Jáchal","lat":"-30.50000000","lon":"-68.50000000"},
{"state":"San Juan","name":"Departamento de Nueve de Julio","lat":"-31.65072000","lon":"-68.38925000"},
{"state":"San Juan","name":"Departamento de Rawson","lat":"-31.70000000","lon":"-68.46667000"},
{"state":"San Juan","name":"Departamento de Rivadavia","lat":"-31.56450000","lon":"-68.65219000"},
{"state":"San Juan","name":"Departamento de San Martín","lat":"-31.50000000","lon":"-68.25000000"},
{"state":"San Juan","name":"Departamento de Santa Lucía","lat":"-31.53333000","lon":"-68.46667000"},
{"state":"San Juan","name":"Departamento de Sarmiento","lat":"-32.00000000","lon":"-68.66667000"},
{"state":"San Juan","name":"Departamento de Ullúm","lat":"-31.00000000","lon":"-68.91667000"},
{"state":"San Juan","name":"Departamento de Zonda","lat":"-31.68260000","lon":"-68.89938000"},
{"state":"San Juan","name":"Nueve de Julio","lat":"-31.66914000","lon":"-68.39023000"},
{"state":"San Juan","name":"Pocito","lat":"-31.68333000","lon":"-68.58333000"},
{"state":"San Juan","name":"San Agustín de Valle Fértil","lat":"-30.63353000","lon":"-67.46821000"},
{"state":"San Juan","name":"San José de Jáchal","lat":"-30.24057000","lon":"-68.74693000"},
{"state":"San Juan","name":"San Juan","lat":"-31.53750000","lon":"-68.53639000"},
{"state":"San Juan","name":"San Martín","lat":"-31.42957000","lon":"-68.50065000"},
{"state":"San Juan","name":"Santa Lucía","lat":"-31.53987000","lon":"-68.49503000"},
{"state":"San Juan","name":"Villa Basilio Nievas","lat":"-31.55000000","lon":"-68.73333000"},
{"state":"San Juan","name":"Villa Paula de Sarmiento","lat":"-31.49330000","lon":"-68.53838000"},
{"state":"San Luis","name":"Buena Esperanza","lat":"-34.75647000","lon":"-65.25379000"},
{"state":"San Luis","name":"Candelaria","lat":"-32.06036000","lon":"-65.82477000"},
{"state":"San Luis","name":"Concarán","lat":"-32.56009000","lon":"-65.24270000"},
{"state":"San Luis","name":"Juan Martín de Pueyrredón","lat":"-33.27544000","lon":"-66.32017000"},
{"state":"San Luis","name":"Justo Daract","lat":"-33.85940000","lon":"-65.18277000"},
{"state":"San Luis","name":"La Punta","lat":"-33.18368000","lon":"-66.31270000"},
{"state":"San Luis","name":"La Toma","lat":"-33.05258000","lon":"-65.62385000"},
{"state":"San Luis","name":"Luján","lat":"-32.36674000","lon":"-65.93642000"},
{"state":"San Luis","name":"Merlo","lat":"-32.34288000","lon":"-65.01396000"},
{"state":"San Luis","name":"Naschel","lat":"-32.91656000","lon":"-65.37535000"},
{"state":"San Luis","name":"San Francisco del Monte de Oro","lat":"-32.59825000","lon":"-66.12539000"},
{"state":"San Luis","name":"San Luis","lat":"-33.29501000","lon":"-66.33563000"},
{"state":"San Luis","name":"Santa Rosa del Conlara","lat":"-32.34286000","lon":"-65.20323000"},
{"state":"San Luis","name":"Tilisarao","lat":"-32.73292000","lon":"-65.29109000"},
{"state":"San Luis","name":"Unión","lat":"-35.15282000","lon":"-65.94602000"},
{"state":"San Luis","name":"Villa General Roca","lat":"-32.66535000","lon":"-66.45052000"},
{"state":"San Luis","name":"Villa Mercedes","lat":"-33.67571000","lon":"-65.45783000"},
{"state":"Santa Cruz","name":"28 de Noviembre","lat":"-51.58390000","lon":"-72.21382000"},
{"state":"Santa Cruz","name":"Caleta Olivia","lat":"-46.43929000","lon":"-67.52814000"},
{"state":"Santa Cruz","name":"Comandante Luis Piedra Buena","lat":"-49.98513000","lon":"-68.91467000"},
{"state":"Santa Cruz","name":"Departamento de Deseado","lat":"-47.33333000","lon":"-67.83333000"},
{"state":"Santa Cruz","name":"Departamento de Güer Aike","lat":"-51.33333000","lon":"-70.33333000"},
{"state":"Santa Cruz","name":"Departamento de Lago Argentino","lat":"-49.75000000","lon":"-72.00000000"},
{"state":"Santa Cruz","name":"Departamento de Magallanes","lat":"-48.75000000","lon":"-68.50000000"},
{"state":"Santa Cruz","name":"Departamento de Río Chico","lat":"-48.25000000","lon":"-71.00000000"},
{"state":"Santa Cruz","name":"El Calafate","lat":"-50.34075000","lon":"-72.27682000"},
{"state":"Santa Cruz","name":"Gobernador Gregores","lat":"-48.75057000","lon":"-70.24741000"},
{"state":"Santa Cruz","name":"Las Heras","lat":"-46.54186000","lon":"-68.93593000"},
{"state":"Santa Cruz","name":"Los Antiguos","lat":"-46.54972000","lon":"-71.63086000"},
{"state":"Santa Cruz","name":"Perito Moreno","lat":"-46.58995000","lon":"-70.92975000"},
{"state":"Santa Cruz","name":"Pico Truncado","lat":"-46.79490000","lon":"-67.95731000"},
{"state":"Santa Cruz","name":"Puerto Deseado","lat":"-47.75034000","lon":"-65.89382000"},
{"state":"Santa Cruz","name":"Puerto Santa Cruz","lat":"-50.01910000","lon":"-68.52321000"},
{"state":"Santa Cruz","name":"Río Gallegos","lat":"-51.62261000","lon":"-69.21813000"},
{"state":"Santa Cruz","name":"Río Turbio","lat":"-51.53587000","lon":"-72.33673000"},
{"state":"Santa Cruz","name":"San Julián","lat":"-49.30554000","lon":"-67.72743000"},
{"state":"Santa Cruz","name":"Yacimiento Río Turbio","lat":"-51.57321000","lon":"-72.35080000"},
{"state":"Santa Fe","name":"Armstrong","lat":"-32.78215000","lon":"-61.60222000"},
{"state":"Santa Fe","name":"Arroyo Seco","lat":"-33.15489000","lon":"-60.50863000"},
{"state":"Santa Fe","name":"Arrufó","lat":"-30.23281000","lon":"-61.72862000"},
{"state":"Santa Fe","name":"Avellaneda","lat":"-29.11761000","lon":"-59.65834000"},
{"state":"Santa Fe","name":"Bella Italia","lat":"-31.28182000","lon":"-61.41092000"},
{"state":"Santa Fe","name":"Calchaquí","lat":"-29.88767000","lon":"-60.28697000"},
{"state":"Santa Fe","name":"Cañada de Gómez","lat":"-32.81636000","lon":"-61.39493000"},
{"state":"Santa Fe","name":"Capitán Bermúdez","lat":"-32.82262000","lon":"-60.71852000"},
{"state":"Santa Fe","name":"Carcarañá","lat":"-32.85679000","lon":"-61.15331000"},
{"state":"Santa Fe","name":"Casilda","lat":"-33.04417000","lon":"-61.16806000"},
{"state":"Santa Fe","name":"Ceres","lat":"-29.88100000","lon":"-61.94504000"},
{"state":"Santa Fe","name":"Chañar Ladeado","lat":"-33.32524000","lon":"-62.03831000"},
{"state":"Santa Fe","name":"Coronda","lat":"-31.97263000","lon":"-60.91983000"},
{"state":"Santa Fe","name":"Departamento de Belgrano","lat":"-32.50000000","lon":"-61.75000000"},
{"state":"Santa Fe","name":"Departamento de Caseros","lat":"-33.25000000","lon":"-61.66667000"},
{"state":"Santa Fe","name":"Departamento de Castellanos","lat":"-31.16667000","lon":"-61.66667000"},
{"state":"Santa Fe","name":"Departamento de Constitución","lat":"-33.50000000","lon":"-60.91667000"},
{"state":"Santa Fe","name":"Departamento de La Capital","lat":"-31.50000000","lon":"-60.66667000"},
{"state":"Santa Fe","name":"Departamento de Nueve de Julio","lat":"-28.83333000","lon":"-61.33333000"},
{"state":"Santa Fe","name":"Departamento de San Cristóbal","lat":"-30.33333000","lon":"-61.33333000"},
{"state":"Santa Fe","name":"Departamento de San Javier","lat":"-30.33333000","lon":"-59.91667000"},
{"state":"Santa Fe","name":"Departamento de San Justo","lat":"-30.66667000","lon":"-60.50000000"},
{"state":"Santa Fe","name":"Departamento de San Lorenzo","lat":"-33.00000000","lon":"-61.00000000"},
{"state":"Santa Fe","name":"Departamento de San Martín","lat":"-32.00000000","lon":"-61.83333000"},
{"state":"Santa Fe","name":"Departamento de Vera","lat":"-29.00000000","lon":"-60.50000000"},
{"state":"Santa Fe","name":"El Trébol","lat":"-32.20080000","lon":"-61.70140000"},
{"state":"Santa Fe","name":"Esperanza","lat":"-31.44880000","lon":"-60.93173000"},
{"state":"Santa Fe","name":"Firmat","lat":"-33.45937000","lon":"-61.48320000"},
{"state":"Santa Fe","name":"Fray Luis A. Beltrán","lat":"-32.79122000","lon":"-60.72819000"},
{"state":"Santa Fe","name":"Funes","lat":"-32.91568000","lon":"-60.80995000"},
{"state":"Santa Fe","name":"Gálvez","lat":"-32.02927000","lon":"-61.22103000"},
{"state":"Santa Fe","name":"Gato Colorado","lat":"-28.02219000","lon":"-61.18663000"},
{"state":"Santa Fe","name":"Gobernador Gálvez","lat":"-33.03016000","lon":"-60.64045000"},
{"state":"Santa Fe","name":"Granadero Baigorria","lat":"-32.85683000","lon":"-60.71754000"},
{"state":"Santa Fe","name":"Helvecia","lat":"-31.09834000","lon":"-60.08830000"},
{"state":"Santa Fe","name":"Hersilia","lat":"-30.00447000","lon":"-61.84080000"},
{"state":"Santa Fe","name":"Iriondo Department","lat":"-32.63333000","lon":"-61.33333000"},
{"state":"Santa Fe","name":"Laguna Paiva","lat":"-31.30391000","lon":"-60.65894000"},
{"state":"Santa Fe","name":"Las Parejas","lat":"-32.68478000","lon":"-61.51637000"},
{"state":"Santa Fe","name":"Las Rosas","lat":"-32.47661000","lon":"-61.58041000"},
{"state":"Santa Fe","name":"Las Toscas","lat":"-28.35290000","lon":"-59.25795000"},
{"state":"Santa Fe","name":"Los Laureles","lat":"-29.36847000","lon":"-59.73634000"},
{"state":"Santa Fe","name":"Malabrigo","lat":"-29.34636000","lon":"-59.96957000"},
{"state":"Santa Fe","name":"Melincué","lat":"-33.65847000","lon":"-61.45459000"},
{"state":"Santa Fe","name":"Pérez","lat":"-32.99835000","lon":"-60.76791000"},
{"state":"Santa Fe","name":"Rafaela","lat":"-31.25033000","lon":"-61.48670000"},
{"state":"Santa Fe","name":"Reconquista","lat":"-29.15000000","lon":"-59.65000000"},
{"state":"Santa Fe","name":"Recreo","lat":"-31.49076000","lon":"-60.73299000"},
{"state":"Santa Fe","name":"Roldán","lat":"-32.89846000","lon":"-60.90681000"},
{"state":"Santa Fe","name":"Rosario","lat":"-32.94682000","lon":"-60.63932000"},
{"state":"Santa Fe","name":"Rufino","lat":"-34.26827000","lon":"-62.71262000"},
{"state":"Santa Fe","name":"San Carlos Centro","lat":"-31.72864000","lon":"-61.09192000"},
{"state":"Santa Fe","name":"San Cristóbal","lat":"-30.31053000","lon":"-61.23724000"},
{"state":"Santa Fe","name":"San Javier","lat":"-30.57781000","lon":"-59.93170000"},
{"state":"Santa Fe","name":"San Jorge","lat":"-31.89618000","lon":"-61.85984000"},
{"state":"Santa Fe","name":"San Justo","lat":"-30.78913000","lon":"-60.59189000"},
{"state":"Santa Fe","name":"Santa Fe","lat":"-31.64881000","lon":"-60.70868000"},
{"state":"Santa Fe","name":"Santo Tomé","lat":"-31.66274000","lon":"-60.76530000"},
{"state":"Santa Fe","name":"Sastre","lat":"-31.76762000","lon":"-61.82887000"},
{"state":"Santa Fe","name":"Sunchales","lat":"-30.94404000","lon":"-61.56148000"},
{"state":"Santa Fe","name":"Tacuarendí","lat":"-28.41265000","lon":"-59.26000000"},
{"state":"Santa Fe","name":"Tostado","lat":"-29.23202000","lon":"-61.76917000"},
{"state":"Santa Fe","name":"Totoras","lat":"-32.58440000","lon":"-61.16852000"},
{"state":"Santa Fe","name":"Venado Tuerto","lat":"-33.74556000","lon":"-61.96885000"},
{"state":"Santa Fe","name":"Vera","lat":"-29.45930000","lon":"-60.21261000"},
{"state":"Santa Fe","name":"Villa Cañás","lat":"-34.00565000","lon":"-61.60757000"},
{"state":"Santa Fe","name":"Villa Constitución","lat":"-33.22778000","lon":"-60.32970000"},
{"state":"Santa Fe","name":"Villa Mugueta","lat":"-33.31129000","lon":"-61.05515000"},
{"state":"Santa Fe","name":"Villa Ocampo","lat":"-28.48752000","lon":"-59.35515000"},
{"state":"Santa Fe","name":"Villa Trinidad","lat":"-30.21329000","lon":"-61.87597000"},
{"state":"Santiago del Estero","name":"Añatuya","lat":"-28.46064000","lon":"-62.83472000"},
{"state":"Santiago del Estero","name":"Beltrán","lat":"-27.82913000","lon":"-64.06098000"},
{"state":"Santiago del Estero","name":"Campo Gallo","lat":"-26.58333000","lon":"-62.85000000"},
{"state":"Santiago del Estero","name":"Clodomira","lat":"-27.57440000","lon":"-64.13108000"},
{"state":"Santiago del Estero","name":"Colonia Dora","lat":"-28.60000000","lon":"-62.95000000"},
{"state":"Santiago del Estero","name":"Departamento de Aguirre","lat":"-29.33333000","lon":"-62.50000000"},
{"state":"Santiago del Estero","name":"Departamento de Banda","lat":"-27.50000000","lon":"-64.33333000"},
{"state":"Santiago del Estero","name":"Departamento de Choya","lat":"-28.75000000","lon":"-64.75000000"},
{"state":"Santiago del Estero","name":"Departamento de Guasayán","lat":"-28.00000000","lon":"-64.83333000"},
{"state":"Santiago del Estero","name":"Departamento de Loreto","lat":"-28.55000000","lon":"-64.33333000"},
{"state":"Santiago del Estero","name":"Departamento de Moreno","lat":"-27.33333000","lon":"-62.50000000"},
{"state":"Santiago del Estero","name":"Departamento de Río Hondo","lat":"-27.58333000","lon":"-64.75000000"},
{"state":"Santiago del Estero","name":"Departamento de Robles","lat":"-27.83333000","lon":"-63.91667000"},
{"state":"Santiago del Estero","name":"Departamento de San Martín","lat":"-28.16667000","lon":"-63.83333000"},
{"state":"Santiago del Estero","name":"Departamento de Sarmiento","lat":"-28.08333000","lon":"-63.41667000"},
{"state":"Santiago del Estero","name":"El Hoyo","lat":"-27.02872000","lon":"-63.23197000"},
{"state":"Santiago del Estero","name":"La Banda","lat":"-27.73348000","lon":"-64.24278000"},
{"state":"Santiago del Estero","name":"Los Juríes","lat":"-28.46539000","lon":"-62.10862000"},
{"state":"Santiago del Estero","name":"Los Telares","lat":"-28.98479000","lon":"-63.44889000"},
{"state":"Santiago del Estero","name":"Pampa de los Guanacos","lat":"-26.23002000","lon":"-61.83774000"},
{"state":"Santiago del Estero","name":"Quimilí","lat":"-27.64615000","lon":"-62.41655000"},
{"state":"Santiago del Estero","name":"San Pedro","lat":"-27.95386000","lon":"-65.16651000"},
{"state":"Santiago del Estero","name":"Santiago del Estero","lat":"-27.79511000","lon":"-64.26149000"},
{"state":"Santiago del Estero","name":"Sumampa","lat":"-29.38470000","lon":"-63.46907000"},
{"state":"Santiago del Estero","name":"Suncho Corral","lat":"-27.93357000","lon":"-63.42938000"},
{"state":"Santiago del Estero","name":"Termas de Río Hondo","lat":"-27.49362000","lon":"-64.85972000"},
{"state":"Santiago del Estero","name":"Tintina","lat":"-27.02687000","lon":"-62.70643000"},
{"state":"Santiago del Estero","name":"Villa Atamisqui","lat":"-28.49609000","lon":"-63.81609000"},
{"state":"Santiago del Estero","name":"Villa General Mitre","lat":"-29.14310000","lon":"-62.65248000"},
{"state":"Santiago del Estero","name":"Villa Ojo de Agua","lat":"-29.50003000","lon":"-63.69377000"},
{"state":"Tierra del Fuego","name":"Río Grande","lat":"-53.78769000","lon":"-67.70946000"},
{"state":"Tierra del Fuego","name":"Tolhuin","lat":"-54.51083000","lon":"-67.19550000"},
{"state":"Tierra del Fuego","name":"Ushuaia","lat":"-54.81084000","lon":"-68.31591000"},
{"state":"Tucumán","name":"Aguilares","lat":"-27.43380000","lon":"-65.61427000"},
{"state":"Tucumán","name":"Alderetes","lat":"-26.81667000","lon":"-65.13333000"},
{"state":"Tucumán","name":"Bella Vista","lat":"-27.03424000","lon":"-65.30196000"},
{"state":"Tucumán","name":"Burruyacú","lat":"-26.49918000","lon":"-64.74206000"},
{"state":"Tucumán","name":"Departamento de Burruyacú","lat":"-26.50000000","lon":"-64.91667000"},
{"state":"Tucumán","name":"Departamento de Capital","lat":"-26.82825000","lon":"-65.21126000"},
{"state":"Tucumán","name":"Departamento de Cruz Alta","lat":"-26.91667000","lon":"-64.91667000"},
{"state":"Tucumán","name":"Departamento de Famaillá","lat":"-26.91667000","lon":"-65.50000000"},
{"state":"Tucumán","name":"Departamento de Graneros","lat":"-27.75000000","lon":"-65.33333000"},
{"state":"Tucumán","name":"Departamento de La Cocha","lat":"-27.77784000","lon":"-65.57109000"},
{"state":"Tucumán","name":"Departamento de Lules","lat":"-26.92886000","lon":"-65.33848000"},
{"state":"Tucumán","name":"Departamento de Monteros","lat":"-27.16667000","lon":"-65.58333000"},
{"state":"Tucumán","name":"Departamento de Río Chico","lat":"-27.43368000","lon":"-65.76671000"},
{"state":"Tucumán","name":"Departamento de Simoca","lat":"-27.26360000","lon":"-65.35612000"},
{"state":"Tucumán","name":"Departamento de Trancas","lat":"-26.41667000","lon":"-65.50000000"},
{"state":"Tucumán","name":"Departamento de Yerba Buena","lat":"-26.81826000","lon":"-65.31733000"},
{"state":"Tucumán","name":"Famaillá","lat":"-27.05413000","lon":"-65.40329000"},
{"state":"Tucumán","name":"Graneros","lat":"-27.64934000","lon":"-65.43830000"},
{"state":"Tucumán","name":"La Cocha","lat":"-27.76927000","lon":"-65.58711000"},
{"state":"Tucumán","name":"Monteros","lat":"-27.16741000","lon":"-65.49832000"},
{"state":"Tucumán","name":"San Miguel de Tucumán","lat":"-26.82414000","lon":"-65.22260000"},
{"state":"Tucumán","name":"Simoca","lat":"-27.26272000","lon":"-65.35647000"},
{"state":"Tucumán","name":"Tafí del Valle","lat":"-26.85275000","lon":"-65.70983000"},
{"state":"Tucumán","name":"Tafí Viejo","lat":"-26.73201000","lon":"-65.25921000"},
{"state":"Tucumán","name":"Trancas","lat":"-26.23136000","lon":"-65.28093000"},
{"state":"Tucumán","name":"Yerba Buena","lat":"-26.81667000","lon":"-65.31667000"}]