[{"state":"Absheron District","name":"Ceyranbatan","lat":"40.54194000","lon":"49.66073000"},
{"state":"Absheron District","name":"Digah","lat":"40.49257000","lon":"49.87477000"},
{"state":"Absheron District","name":"Gyuzdek","lat":"40.37444000","lon":"49.68194000"},
{"state":"Absheron District","name":"Khirdalan","lat":"40.44808000","lon":"49.75502000"},
{"state":"Absheron District","name":"Qobu","lat":"40.40472000","lon":"49.71306000"},
{"state":"Absheron District","name":"Saray","lat":"40.53299000","lon":"49.71681000"},
{"state":"Agdam District","name":"Ağdam","lat":"39.99096000","lon":"46.92736000"},
{"state":"Agdash District","name":"Ağdaş","lat":"40.64699000","lon":"47.47380000"},
{"state":"Aghjabadi District","name":"Agdzhabedy","lat":"40.05015000","lon":"47.45937000"},
{"state":"Aghjabadi District","name":"Avşar","lat":"39.97389000","lon":"47.42389000"},
{"state":"Agstafa District","name":"Aghstafa","lat":"41.11889000","lon":"45.45389000"},
{"state":"Agstafa District","name":"Saloğlu","lat":"41.27524000","lon":"45.35293000"},
{"state":"Agstafa District","name":"Vurğun","lat":"41.09524000","lon":"45.47111000"},
{"state":"Agsu District","name":"Aghsu","lat":"40.57028000","lon":"48.40087000"},
{"state":"Astara District","name":"Astara","lat":"38.45598000","lon":"48.87498000"},
{"state":"Astara District","name":"Kizhaba","lat":"38.53461000","lon":"48.80546000"},
{"state":"Baku","name":"Amirdzhan","lat":"40.42639000","lon":"49.98361000"},
{"state":"Baku","name":"Badamdar","lat":"40.34024000","lon":"49.80450000"},
{"state":"Baku","name":"Bakıxanov","lat":"40.41894000","lon":"49.96693000"},
{"state":"Baku","name":"Baku","lat":"40.37767000","lon":"49.89201000"},
{"state":"Baku","name":"Balakhani","lat":"40.46344000","lon":"49.91893000"},
{"state":"Baku","name":"Bilajari","lat":"40.44440000","lon":"49.80566000"},
{"state":"Baku","name":"Bilajer","lat":"40.56441000","lon":"50.04002000"},
{"state":"Baku","name":"Binagadi","lat":"40.46602000","lon":"49.82783000"},
{"state":"Baku","name":"Biny Selo","lat":"40.45076000","lon":"50.08686000"},
{"state":"Baku","name":"Buzovna","lat":"40.51903000","lon":"50.11438000"},
{"state":"Baku","name":"Hövsan","lat":"40.37444000","lon":"50.08528000"},
{"state":"Baku","name":"Khodzhi-Gasan","lat":"40.41293000","lon":"49.76904000"},
{"state":"Baku","name":"Korgöz","lat":"40.30446000","lon":"49.62360000"},
{"state":"Baku","name":"Lökbatan","lat":"40.32560000","lon":"49.73376000"},
{"state":"Baku","name":"Mardakan","lat":"40.49182000","lon":"50.14292000"},
{"state":"Baku","name":"Maştağa","lat":"40.52983000","lon":"50.00616000"},
{"state":"Baku","name":"Nardaran","lat":"40.55611000","lon":"50.00556000"},
{"state":"Baku","name":"Nizami Rayonu","lat":"40.40970000","lon":"49.91926000"},
{"state":"Baku","name":"Pirallahı","lat":"40.47013000","lon":"50.32476000"},
{"state":"Baku","name":"Puta","lat":"40.29667000","lon":"49.66028000"},
{"state":"Baku","name":"Qala","lat":"40.44256000","lon":"50.16759000"},
{"state":"Baku","name":"Qaraçuxur","lat":"40.39667000","lon":"49.97361000"},
{"state":"Baku","name":"Qobustan","lat":"40.08238000","lon":"49.41205000"},
{"state":"Baku","name":"Ramana","lat":"40.44222000","lon":"49.98056000"},
{"state":"Baku","name":"Sabunçu","lat":"40.44250000","lon":"49.94806000"},
{"state":"Baku","name":"Sanqaçal","lat":"40.16991000","lon":"49.46394000"},
{"state":"Baku","name":"Türkan","lat":"40.36460000","lon":"50.22075000"},
{"state":"Baku","name":"Yeni Suraxanı","lat":"40.43026000","lon":"50.03598000"},
{"state":"Baku","name":"Zabrat","lat":"40.47746000","lon":"49.94174000"},
{"state":"Baku","name":"Zyrya","lat":"40.36613000","lon":"50.29198000"},
{"state":"Balakan District","name":"Belokany","lat":"41.72626000","lon":"46.40478000"},
{"state":"Balakan District","name":"Qabaqçöl","lat":"41.75259000","lon":"46.27052000"},
{"state":"Barda District","name":"Barda","lat":"40.37577000","lon":"47.12619000"},
{"state":"Barda District","name":"Samuxlu","lat":"40.50833000","lon":"47.16917000"},
{"state":"Beylagan District","name":"Beylagan","lat":"39.77556000","lon":"47.61861000"},
{"state":"Beylagan District","name":"Birinci Aşıqlı","lat":"39.81917000","lon":"47.67944000"},
{"state":"Beylagan District","name":"Dünyamalılar","lat":"39.77278000","lon":"47.75889000"},
{"state":"Beylagan District","name":"Orjonikidze","lat":"39.63571000","lon":"47.71199000"},
{"state":"Beylagan District","name":"Yuxarı Aran","lat":"39.73361000","lon":"47.65500000"},
{"state":"Bilasuvar District","name":"Pushkino","lat":"39.45833000","lon":"48.54500000"},
{"state":"Dashkasan District","name":"Verkhniy Dashkesan","lat":"40.49357000","lon":"46.07175000"},
{"state":"Dashkasan District","name":"Yukhary-Dashkesan","lat":"40.52393000","lon":"46.08186000"},
{"state":"Fizuli District","name":"Fizuli","lat":"39.60094000","lon":"47.14529000"},
{"state":"Fizuli District","name":"Horadiz","lat":"39.45015000","lon":"47.33496000"},
{"state":"Ganja","name":"Ganja","lat":"40.68278000","lon":"46.36056000"},
{"state":"Gədəbəy","name":"Arıqdam","lat":"40.59313000","lon":"45.79900000"},
{"state":"Gədəbəy","name":"Arıqıran","lat":"40.53971000","lon":"45.61414000"},
{"state":"Gədəbəy","name":"Böyük Qaramurad","lat":"40.57626000","lon":"45.63727000"},
{"state":"Gədəbəy","name":"Kyadabek","lat":"40.57055000","lon":"45.81229000"},
{"state":"Gədəbəy","name":"Novosaratovka","lat":"40.59811000","lon":"45.60079000"},
{"state":"Gobustan District","name":"Qobustan","lat":"40.53360000","lon":"48.92819000"},
{"state":"Goranboy District","name":"Goranboy","lat":"40.61028000","lon":"46.78972000"},
{"state":"Goranboy District","name":"Qızılhacılı","lat":"40.57362000","lon":"46.84900000"},
{"state":"Goychay","name":"Geoktschai","lat":"40.65055000","lon":"47.74219000"},
{"state":"Goygol District","name":"Yelenendorf","lat":"40.58584000","lon":"46.31890000"},
{"state":"Hajigabul District","name":"Hacıqabul","lat":"40.03874000","lon":"48.94286000"},
{"state":"Hajigabul District","name":"Mughan","lat":"40.09902000","lon":"48.81886000"},
{"state":"Imishli District","name":"Imishli","lat":"39.87095000","lon":"48.05995000"},
{"state":"Ismailli District","name":"Basqal","lat":"40.75520000","lon":"48.39104000"},
{"state":"Ismailli District","name":"İsmayıllı","lat":"40.78485000","lon":"48.15141000"},
{"state":"Jabrayil District","name":"Jebrail","lat":"39.39917000","lon":"47.02835000"},
{"state":"Jalilabad District","name":"Jalilabad","lat":"39.20963000","lon":"48.49186000"},
{"state":"Jalilabad District","name":"Prishibinskoye","lat":"39.11998000","lon":"48.59383000"},
{"state":"Kalbajar District","name":"Kerbakhiar","lat":"40.10984000","lon":"46.04446000"},
{"state":"Kalbajar District","name":"Vank","lat":"40.05275000","lon":"46.54419000"},
{"state":"Khachmaz District","name":"Xaçmaz","lat":"41.46426000","lon":"48.80565000"},
{"state":"Khachmaz District","name":"Xudat","lat":"41.63052000","lon":"48.68161000"},
{"state":"Khizi District","name":"Altıağac","lat":"40.85785000","lon":"48.93540000"},
{"state":"Khizi District","name":"Khyzy","lat":"40.90847000","lon":"49.07481000"},
{"state":"Khizi District","name":"Kilyazi","lat":"40.87392000","lon":"49.34376000"},
{"state":"Khizi District","name":"Şuraabad","lat":"40.81990000","lon":"49.46774000"},
{"state":"Khojali District","name":"Askyaran","lat":"39.93910000","lon":"46.83161000"},
{"state":"Khojali District","name":"Xocalı","lat":"39.91297000","lon":"46.79028000"},
{"state":"Kurdamir District","name":"Kyurdarmir","lat":"40.34257000","lon":"48.15649000"},
{"state":"Lachin District","name":"Laçın","lat":"39.59881000","lon":"46.55045000"},
{"state":"Lankaran District","name":"Haftoni","lat":"38.76325000","lon":"48.76223000"},
{"state":"Lankaran District","name":"Lankaran","lat":"38.75428000","lon":"48.85062000"},
{"state":"Lerik District","name":"Lerik","lat":"38.77388000","lon":"48.41497000"},
{"state":"Martuni","name":"Hadrut","lat":"39.52003000","lon":"47.03190000"},
{"state":"Martuni","name":"Novyy Karanlug","lat":"39.79496000","lon":"47.11170000"},
{"state":"Martuni","name":"Qırmızı Bazar","lat":"39.67669000","lon":"46.95123000"},
{"state":"Masally District","name":"Boradigah","lat":"38.93013000","lon":"48.70920000"},
{"state":"Masally District","name":"Masally","lat":"39.03532000","lon":"48.66540000"},
{"state":"Mingachevir","name":"Mingelchaur","lat":"40.76395000","lon":"47.05953000"},
{"state":"Nakhchivan Autonomous Republic","name":"Cahri","lat":"39.34837000","lon":"45.41557000"},
{"state":"Nakhchivan Autonomous Republic","name":"Çalxanqala","lat":"39.44167000","lon":"45.28333000"},
{"state":"Nakhchivan Autonomous Republic","name":"Culfa","lat":"38.95397000","lon":"45.62961000"},
{"state":"Nakhchivan Autonomous Republic","name":"Deste","lat":"38.88375000","lon":"45.90963000"},
{"state":"Nakhchivan Autonomous Republic","name":"Heydarabad","lat":"39.72286000","lon":"44.84846000"},
{"state":"Nakhchivan Autonomous Republic","name":"Julfa Rayon","lat":"39.16667000","lon":"45.66667000"},
{"state":"Nakhchivan Autonomous Republic","name":"Nakhchivan","lat":"39.20889000","lon":"45.41222000"},
{"state":"Nakhchivan Autonomous Republic","name":"Oğlanqala","lat":"39.58694000","lon":"45.04611000"},
{"state":"Nakhchivan Autonomous Republic","name":"Ordubad","lat":"38.90961000","lon":"46.02274000"},
{"state":"Nakhchivan Autonomous Republic","name":"Ordubad Rayon","lat":"39.08333000","lon":"45.91667000"},
{"state":"Nakhchivan Autonomous Republic","name":"Qıvraq","lat":"39.39939000","lon":"45.11513000"},
{"state":"Nakhchivan Autonomous Republic","name":"Şahbuz","lat":"39.40722000","lon":"45.57389000"},
{"state":"Nakhchivan Autonomous Republic","name":"Sedarak","lat":"39.71427000","lon":"44.88455000"},
{"state":"Nakhchivan Autonomous Republic","name":"Shahbuz Rayon","lat":"39.41667000","lon":"45.58333000"},
{"state":"Nakhchivan Autonomous Republic","name":"Sharur City","lat":"39.55298000","lon":"44.97993000"},
{"state":"Nakhchivan Autonomous Republic","name":"Sumbatan-diza","lat":"38.94804000","lon":"45.82572000"},
{"state":"Nakhchivan Autonomous Republic","name":"Tazakend","lat":"39.15459000","lon":"45.44282000"},
{"state":"Nakhchivan Autonomous Republic","name":"Yaycı","lat":"38.94052000","lon":"45.73244000"},
{"state":"Neftchala District","name":"Neftçala","lat":"39.37680000","lon":"49.24700000"},
{"state":"Neftchala District","name":"Severo-Vostotchnyi Bank","lat":"39.41117000","lon":"49.24792000"},
{"state":"Neftchala District","name":"Sovetabad","lat":"39.33667000","lon":"49.21414000"},
{"state":"Neftchala District","name":"Xıllı","lat":"39.43012000","lon":"49.10166000"},
{"state":"Oghuz District","name":"Oğuz","lat":"41.07128000","lon":"47.46528000"},
{"state":"Qabala District","name":"Qutqashen","lat":"40.98247000","lon":"47.84909000"},
{"state":"Qakh District","name":"Çinarlı","lat":"41.46965000","lon":"46.91582000"},
{"state":"Qakh District","name":"Qax","lat":"41.41826000","lon":"46.92043000"},
{"state":"Qakh District","name":"Qax İngiloy","lat":"41.42412000","lon":"46.93859000"},
{"state":"Qakh District","name":"Qaxbaş","lat":"41.43254000","lon":"46.96460000"},
{"state":"Qazakh District","name":"Qazax","lat":"41.09246000","lon":"45.36561000"},
{"state":"Quba District","name":"Hacıhüseynli","lat":"41.45639000","lon":"48.64889000"},
{"state":"Quba District","name":"Quba","lat":"41.36108000","lon":"48.51341000"},
{"state":"Qubadli District","name":"Qubadlı","lat":"39.34441000","lon":"46.58183000"},
{"state":"Qusar District","name":"Qusar","lat":"41.42750000","lon":"48.43020000"},
{"state":"Qusar District","name":"Samur","lat":"41.63671000","lon":"48.43028000"},
{"state":"Saatly District","name":"Əhmədbəyli","lat":"39.88074000","lon":"48.39158000"},
{"state":"Saatly District","name":"Saatlı","lat":"39.93214000","lon":"48.36892000"},
{"state":"Sabirabad District","name":"Sabirabad","lat":"40.00869000","lon":"48.47701000"},
{"state":"Salyan District","name":"Qaraçala","lat":"39.81614000","lon":"48.93792000"},
{"state":"Salyan District","name":"Salyan","lat":"39.59621000","lon":"48.98479000"},
{"state":"Samukh District","name":"Qarayeri","lat":"40.78674000","lon":"46.31365000"},
{"state":"Samukh District","name":"Qırmızı Samux","lat":"40.93972000","lon":"46.37889000"},
{"state":"Samukh District","name":"Samux","lat":"40.76485000","lon":"46.40868000"},
{"state":"Shabran District","name":"Divichibazar","lat":"41.20117000","lon":"48.98712000"},
{"state":"Shaki","name":"Sheki","lat":"41.19194000","lon":"47.17056000"},
{"state":"Shaki District","name":"Baş Göynük","lat":"41.32582000","lon":"47.11357000"},
{"state":"Shamakhi District","name":"Shamakhi","lat":"40.63141000","lon":"48.64137000"},
{"state":"Shamkir District","name":"Dolyar","lat":"40.86278000","lon":"46.03493000"},
{"state":"Shamkir District","name":"Dzagam","lat":"40.90330000","lon":"45.88564000"},
{"state":"Shamkir District","name":"Qasım İsmayılov","lat":"40.81243000","lon":"46.25938000"},
{"state":"Shamkir District","name":"Shamkhor","lat":"40.82975000","lon":"46.01780000"},
{"state":"Shirvan","name":"Şirvan","lat":"39.93778000","lon":"48.92900000"},
{"state":"Shusha District","name":"Shushi","lat":"39.76006000","lon":"46.74989000"},
{"state":"Siazan District","name":"Gilgilçay","lat":"41.13932000","lon":"49.09038000"},
{"state":"Siazan District","name":"Kyzyl-Burun","lat":"41.07811000","lon":"49.11564000"},
{"state":"Sumqayit","name":"Corat","lat":"40.57176000","lon":"49.70509000"},
{"state":"Sumqayit","name":"Hacı Zeynalabdin","lat":"40.62333000","lon":"49.55861000"},
{"state":"Sumqayit","name":"Sumqayıt","lat":"40.58972000","lon":"49.66861000"},
{"state":"Tartar District","name":"Martakert","lat":"40.21127000","lon":"46.82135000"},
{"state":"Tartar District","name":"Terter","lat":"40.34201000","lon":"46.93161000"},
{"state":"Tovuz District","name":"Çatax","lat":"40.72622000","lon":"45.55919000"},
{"state":"Tovuz District","name":"Çobansığnaq","lat":"40.75244000","lon":"45.70645000"},
{"state":"Tovuz District","name":"Dondar Quşçu","lat":"40.95390000","lon":"45.61942000"},
{"state":"Tovuz District","name":"Qaraxanlı","lat":"41.04358000","lon":"45.65527000"},
{"state":"Tovuz District","name":"Tovuz","lat":"40.99249000","lon":"45.62838000"},
{"state":"Tovuz District","name":"Yanıqlı","lat":"40.84320000","lon":"45.68030000"},
{"state":"Ujar District","name":"Ujar","lat":"40.51902000","lon":"47.65423000"},
{"state":"Yardymli District","name":"Yardımlı","lat":"38.90771000","lon":"48.24052000"},
{"state":"Yevlakh","name":"Yevlakh","lat":"40.61832000","lon":"47.15014000"},
{"state":"Yevlakh District","name":"Aran","lat":"40.62528000","lon":"46.97556000"},
{"state":"Yevlakh District","name":"Qaramanlı","lat":"40.48135000","lon":"46.99339000"},
{"state":"Zangilan District","name":"Mincivan","lat":"39.03023000","lon":"46.72329000"},
{"state":"Zangilan District","name":"Zangilan","lat":"39.08371000","lon":"46.65988000"},
{"state":"Zaqatala District","name":"Aliabad","lat":"41.48290000","lon":"46.63483000"},
{"state":"Zaqatala District","name":"Faldarlı","lat":"41.46868000","lon":"46.51579000"},
{"state":"Zaqatala District","name":"Mamrux","lat":"41.54243000","lon":"46.76700000"},
{"state":"Zaqatala District","name":"Qandax","lat":"41.47546000","lon":"46.54128000"},
{"state":"Zaqatala District","name":"Zaqatala","lat":"41.63160000","lon":"46.64479000"},
{"state":"Zardab District","name":"Zardob","lat":"40.21840000","lon":"47.71214000"}]