[{"state":"Brčko District","name":"Brčko","lat":"44.86995000","lon":"18.81012000"},
{"state":"Brčko District","name":"Brka","lat":"44.82837000","lon":"18.72420000"},
{"state":"Federation of Bosnia and Herzegovina","name":"Banovići","lat":"44.40596000","lon":"18.52648000"},
{"state":"Federation of Bosnia and Herzegovina","name":"Barice","lat":"44.54065000","lon":"18.48069000"},
{"state":"Federation of Bosnia and Herzegovina","name":"Bihać","lat":"44.81694000","lon":"15.87083000"},
{"state":"Federation of Bosnia and Herzegovina","name":"Bijela","lat":"43.60871000","lon":"17.95078000"},
{"state":"Federation of Bosnia and Herzegovina","name":"Bila","lat":"43.78265000","lon":"16.92676000"},
{"state":"Federation of Bosnia and Herzegovina","name":"Blagaj","lat":"43.25892000","lon":"17.88815000"},
{"state":"Federation of Bosnia and Herzegovina","name":"Bosanska Krupa","lat":"44.88250000","lon":"16.15139000"},
{"state":"Federation of Bosnia and Herzegovina","name":"Bosanski Petrovac","lat":"44.55537000","lon":"16.36897000"},
{"state":"Federation of Bosnia and Herzegovina","name":"Bosansko Grahovo","lat":"44.17944000","lon":"16.36389000"},
{"state":"Federation of Bosnia and Herzegovina","name":"Breza","lat":"44.01862000","lon":"18.26063000"},
{"state":"Federation of Bosnia and Herzegovina","name":"Bugojno","lat":"44.05722000","lon":"17.45083000"},
{"state":"Federation of Bosnia and Herzegovina","name":"Busovača","lat":"44.09769000","lon":"17.87830000"},
{"state":"Federation of Bosnia and Herzegovina","name":"Bužim","lat":"45.05361000","lon":"16.03254000"},
{"state":"Federation of Bosnia and Herzegovina","name":"Čapljina","lat":"43.12139000","lon":"17.68444000"},
{"state":"Federation of Bosnia and Herzegovina","name":"Cazin","lat":"44.96694000","lon":"15.94306000"},
{"state":"Federation of Bosnia and Herzegovina","name":"Čelić","lat":"44.72524000","lon":"18.81474000"},
{"state":"Federation of Bosnia and Herzegovina","name":"Cim","lat":"43.35401000","lon":"17.78045000"},
{"state":"Federation of Bosnia and Herzegovina","name":"Čitluk","lat":"43.22861000","lon":"17.70083000"},
{"state":"Federation of Bosnia and Herzegovina","name":"Ćoralići","lat":"45.00694000","lon":"15.87194000"},
{"state":"Federation of Bosnia and Herzegovina","name":"Crnići","lat":"43.13156000","lon":"17.86452000"},
{"state":"Federation of Bosnia and Herzegovina","name":"Divičani","lat":"44.36682000","lon":"17.32678000"},
{"state":"Federation of Bosnia and Herzegovina","name":"Dobrinje","lat":"44.05008000","lon":"18.11958000"},
{"state":"Federation of Bosnia and Herzegovina","name":"Domaljevac","lat":"45.06110000","lon":"18.58612000"},
{"state":"Federation of Bosnia and Herzegovina","name":"Donja Dubica","lat":"45.07559000","lon":"18.41023000"},
{"state":"Federation of Bosnia and Herzegovina","name":"Donja Mahala","lat":"45.04327000","lon":"18.66996000"},
{"state":"Federation of Bosnia and Herzegovina","name":"Donja Međiđa","lat":"44.80235000","lon":"18.40477000"},
{"state":"Federation of Bosnia and Herzegovina","name":"Donji Vakuf","lat":"44.14361000","lon":"17.40000000"},
{"state":"Federation of Bosnia and Herzegovina","name":"Drežnica","lat":"43.52891000","lon":"17.28120000"},
{"state":"Federation of Bosnia and Herzegovina","name":"Drinovci","lat":"43.35454000","lon":"17.32536000"},
{"state":"Federation of Bosnia and Herzegovina","name":"Drvar","lat":"44.37389000","lon":"16.38083000"},
{"state":"Federation of Bosnia and Herzegovina","name":"Dubrave Donje","lat":"44.48060000","lon":"18.69709000"},
{"state":"Federation of Bosnia and Herzegovina","name":"Dubrave Gornje","lat":"44.47229000","lon":"18.72685000"},
{"state":"Federation of Bosnia and Herzegovina","name":"Dubravica","lat":"44.44131000","lon":"18.11883000"},
{"state":"Federation of Bosnia and Herzegovina","name":"Fojnica","lat":"43.95952000","lon":"17.90288000"},
{"state":"Federation of Bosnia and Herzegovina","name":"Glamoč","lat":"44.04583000","lon":"16.84861000"},
{"state":"Federation of Bosnia and Herzegovina","name":"Gnojnica","lat":"44.62058000","lon":"18.44684000"},
{"state":"Federation of Bosnia and Herzegovina","name":"Goražde","lat":"43.66795000","lon":"18.97564000"},
{"state":"Federation of Bosnia and Herzegovina","name":"Gorica","lat":"43.41833000","lon":"17.28500000"},
{"state":"Federation of Bosnia and Herzegovina","name":"Gornja Breza","lat":"44.03758000","lon":"18.24564000"},
{"state":"Federation of Bosnia and Herzegovina","name":"Gornja Koprivna","lat":"45.01091000","lon":"15.95487000"},
{"state":"Federation of Bosnia and Herzegovina","name":"Gornja Tuzla","lat":"44.55659000","lon":"18.76159000"},
{"state":"Federation of Bosnia and Herzegovina","name":"Gornje Moštre","lat":"44.01911000","lon":"18.15477000"},
{"state":"Federation of Bosnia and Herzegovina","name":"Gornje Živinice","lat":"44.42921000","lon":"18.61667000"},
{"state":"Federation of Bosnia and Herzegovina","name":"Gornji Vakuf","lat":"43.93806000","lon":"17.58833000"},
{"state":"Federation of Bosnia and Herzegovina","name":"Gostovići","lat":"44.41124000","lon":"18.17029000"},
{"state":"Federation of Bosnia and Herzegovina","name":"Gračanica","lat":"43.73333000","lon":"18.28333000"},
{"state":"Federation of Bosnia and Herzegovina","name":"Gradačac","lat":"44.87851000","lon":"18.42764000"},
{"state":"Federation of Bosnia and Herzegovina","name":"Gromiljak","lat":"43.96668000","lon":"18.05504000"},
{"state":"Federation of Bosnia and Herzegovina","name":"Grude","lat":"43.37208000","lon":"17.41449000"},
{"state":"Federation of Bosnia and Herzegovina","name":"Hadžići","lat":"43.82222000","lon":"18.20667000"},
{"state":"Federation of Bosnia and Herzegovina","name":"Hercegovačko-Neretvanski Kanton","lat":"43.45722000","lon":"17.81250000"},
{"state":"Federation of Bosnia and Herzegovina","name":"Hotonj","lat":"43.89341000","lon":"18.37751000"},
{"state":"Federation of Bosnia and Herzegovina","name":"Ilići","lat":"43.34765000","lon":"17.76848000"},
{"state":"Federation of Bosnia and Herzegovina","name":"Ilijaš","lat":"43.95128000","lon":"18.27128000"},
{"state":"Federation of Bosnia and Herzegovina","name":"Izačić","lat":"44.87485000","lon":"15.78256000"},
{"state":"Federation of Bosnia and Herzegovina","name":"Jablanica","lat":"43.66028000","lon":"17.76167000"},
{"state":"Federation of Bosnia and Herzegovina","name":"Jajce","lat":"44.34203000","lon":"17.27059000"},
{"state":"Federation of Bosnia and Herzegovina","name":"Jelah","lat":"44.65400000","lon":"17.95897000"},
{"state":"Federation of Bosnia and Herzegovina","name":"Jezerski","lat":"44.98172000","lon":"16.09447000"},
{"state":"Federation of Bosnia and Herzegovina","name":"Kačuni","lat":"44.06433000","lon":"17.93894000"},
{"state":"Federation of Bosnia and Herzegovina","name":"Kakanj","lat":"44.13311000","lon":"18.12292000"},
{"state":"Federation of Bosnia and Herzegovina","name":"Kanton Sarajevo","lat":"43.84333000","lon":"18.24222000"},
{"state":"Federation of Bosnia and Herzegovina","name":"Karadaglije","lat":"44.57065000","lon":"18.01775000"},
{"state":"Federation of Bosnia and Herzegovina","name":"Kiseljak","lat":"44.48904000","lon":"18.56982000"},
{"state":"Federation of Bosnia and Herzegovina","name":"Kladanj","lat":"44.22669000","lon":"18.69274000"},
{"state":"Federation of Bosnia and Herzegovina","name":"Ključ","lat":"44.53251000","lon":"16.77682000"},
{"state":"Federation of Bosnia and Herzegovina","name":"Kobilja Glava","lat":"43.88188000","lon":"18.38864000"},
{"state":"Federation of Bosnia and Herzegovina","name":"Kočerin","lat":"43.39005000","lon":"17.48552000"},
{"state":"Federation of Bosnia and Herzegovina","name":"Konjic","lat":"43.65126000","lon":"17.96082000"},
{"state":"Federation of Bosnia and Herzegovina","name":"Kovači","lat":"44.44874000","lon":"18.20521000"},
{"state":"Federation of Bosnia and Herzegovina","name":"Liješnica","lat":"44.49497000","lon":"18.07644000"},
{"state":"Federation of Bosnia and Herzegovina","name":"Livno","lat":"43.82695000","lon":"17.00746000"},
{"state":"Federation of Bosnia and Herzegovina","name":"Ljubuški","lat":"43.19694000","lon":"17.54500000"},
{"state":"Federation of Bosnia and Herzegovina","name":"Lokvine","lat":"44.20466000","lon":"17.85665000"},
{"state":"Federation of Bosnia and Herzegovina","name":"Lukavac","lat":"44.54245000","lon":"18.52618000"},
{"state":"Federation of Bosnia and Herzegovina","name":"Lukavica","lat":"44.76452000","lon":"18.16887000"},
{"state":"Federation of Bosnia and Herzegovina","name":"Maglaj","lat":"44.54771000","lon":"18.10003000"},
{"state":"Federation of Bosnia and Herzegovina","name":"Mahala","lat":"44.01194000","lon":"18.25528000"},
{"state":"Federation of Bosnia and Herzegovina","name":"Mala Kladuša","lat":"45.13443000","lon":"15.85217000"},
{"state":"Federation of Bosnia and Herzegovina","name":"Malešići","lat":"44.73824000","lon":"18.27335000"},
{"state":"Federation of Bosnia and Herzegovina","name":"Mionica","lat":"44.86646000","lon":"18.46603000"},
{"state":"Federation of Bosnia and Herzegovina","name":"Mostar","lat":"43.34333000","lon":"17.80806000"},
{"state":"Federation of Bosnia and Herzegovina","name":"Mramor","lat":"44.59234000","lon":"18.56458000"},
{"state":"Federation of Bosnia and Herzegovina","name":"Neum","lat":"42.92333000","lon":"17.61556000"},
{"state":"Federation of Bosnia and Herzegovina","name":"Novi Šeher","lat":"44.51031000","lon":"18.02624000"},
{"state":"Federation of Bosnia and Herzegovina","name":"Novi Travnik","lat":"44.17133000","lon":"17.65816000"},
{"state":"Federation of Bosnia and Herzegovina","name":"Odžak","lat":"45.02461000","lon":"18.32107000"},
{"state":"Federation of Bosnia and Herzegovina","name":"Olovo","lat":"44.12770000","lon":"18.58065000"},
{"state":"Federation of Bosnia and Herzegovina","name":"Omanjska","lat":"44.69831000","lon":"17.95757000"},
{"state":"Federation of Bosnia and Herzegovina","name":"Orahovica Donja","lat":"44.65345000","lon":"18.36951000"},
{"state":"Federation of Bosnia and Herzegovina","name":"Orašac","lat":"44.63039000","lon":"16.07443000"},
{"state":"Federation of Bosnia and Herzegovina","name":"Orašje","lat":"45.03366000","lon":"18.69334000"},
{"state":"Federation of Bosnia and Herzegovina","name":"Orguz","lat":"43.77414000","lon":"16.86329000"},
{"state":"Federation of Bosnia and Herzegovina","name":"Ostrožac","lat":"44.90866000","lon":"15.94045000"},
{"state":"Federation of Bosnia and Herzegovina","name":"Otoka","lat":"44.96000000","lon":"16.17917000"},
{"state":"Federation of Bosnia and Herzegovina","name":"Pajić Polje","lat":"43.97583000","lon":"17.52750000"},
{"state":"Federation of Bosnia and Herzegovina","name":"Pazarić","lat":"43.78882000","lon":"18.16049000"},
{"state":"Federation of Bosnia and Herzegovina","name":"Peći","lat":"44.63139000","lon":"16.78250000"},
{"state":"Federation of Bosnia and Herzegovina","name":"Pećigrad","lat":"45.05444000","lon":"15.89694000"},
{"state":"Federation of Bosnia and Herzegovina","name":"Pjanići","lat":"44.98568000","lon":"15.82304000"},
{"state":"Federation of Bosnia and Herzegovina","name":"Podhum","lat":"43.72295000","lon":"16.99887000"},
{"state":"Federation of Bosnia and Herzegovina","name":"Podzvizd","lat":"45.17417000","lon":"15.87361000"},
{"state":"Federation of Bosnia and Herzegovina","name":"Polje","lat":"43.88014000","lon":"18.07452000"},
{"state":"Federation of Bosnia and Herzegovina","name":"Polje-Bijela","lat":"43.63299000","lon":"17.97216000"},
{"state":"Federation of Bosnia and Herzegovina","name":"Potoci","lat":"43.40953000","lon":"17.87855000"},
{"state":"Federation of Bosnia and Herzegovina","name":"Prozor","lat":"43.82222000","lon":"17.60917000"},
{"state":"Federation of Bosnia and Herzegovina","name":"Puračić","lat":"44.54562000","lon":"18.47865000"},
{"state":"Federation of Bosnia and Herzegovina","name":"Radišići","lat":"43.22302000","lon":"17.54056000"},
{"state":"Federation of Bosnia and Herzegovina","name":"Rodoč","lat":"43.31453000","lon":"17.80290000"},
{"state":"Federation of Bosnia and Herzegovina","name":"Rumboci","lat":"43.83154000","lon":"17.50273000"},
{"state":"Federation of Bosnia and Herzegovina","name":"Sanica","lat":"44.61354000","lon":"16.64062000"},
{"state":"Federation of Bosnia and Herzegovina","name":"Sanski Most","lat":"44.76670000","lon":"16.66700000"},
{"state":"Federation of Bosnia and Herzegovina","name":"Sapna","lat":"44.50380000","lon":"18.99818000"},
{"state":"Federation of Bosnia and Herzegovina","name":"Sarajevo","lat":"43.84864000","lon":"18.35644000"},
{"state":"Federation of Bosnia and Herzegovina","name":"Šerići","lat":"44.46674000","lon":"18.56370000"},
{"state":"Federation of Bosnia and Herzegovina","name":"Široki Brijeg","lat":"43.38290000","lon":"17.59416000"},
{"state":"Federation of Bosnia and Herzegovina","name":"Skokovi","lat":"45.03139000","lon":"15.91444000"},
{"state":"Federation of Bosnia and Herzegovina","name":"Sladna","lat":"44.72897000","lon":"18.42575000"},
{"state":"Federation of Bosnia and Herzegovina","name":"Solina","lat":"44.56226000","lon":"18.69322000"},
{"state":"Federation of Bosnia and Herzegovina","name":"Srebrenik","lat":"44.70819000","lon":"18.48834000"},
{"state":"Federation of Bosnia and Herzegovina","name":"Stijena","lat":"44.93630000","lon":"16.02224000"},
{"state":"Federation of Bosnia and Herzegovina","name":"Stjepan-Polje","lat":"44.71634000","lon":"18.25783000"},
{"state":"Federation of Bosnia and Herzegovina","name":"Stolac","lat":"43.08400000","lon":"17.95995000"},
{"state":"Federation of Bosnia and Herzegovina","name":"Šturlić","lat":"45.06389000","lon":"15.77806000"},
{"state":"Federation of Bosnia and Herzegovina","name":"Šumatac","lat":"45.09743000","lon":"15.85818000"},
{"state":"Federation of Bosnia and Herzegovina","name":"Tasovčići","lat":"43.11333000","lon":"17.72000000"},
{"state":"Federation of Bosnia and Herzegovina","name":"Tešanj","lat":"44.61191000","lon":"17.98552000"},
{"state":"Federation of Bosnia and Herzegovina","name":"Tešanjka","lat":"44.67228000","lon":"18.01109000"},
{"state":"Federation of Bosnia and Herzegovina","name":"Todorovo","lat":"45.08833000","lon":"15.93083000"},
{"state":"Federation of Bosnia and Herzegovina","name":"Tojšići","lat":"44.50133000","lon":"18.78523000"},
{"state":"Federation of Bosnia and Herzegovina","name":"Tomislavgrad","lat":"43.71849000","lon":"17.22515000"},
{"state":"Federation of Bosnia and Herzegovina","name":"Travnik","lat":"44.22637000","lon":"17.66583000"},
{"state":"Federation of Bosnia and Herzegovina","name":"Tržačka Raštela","lat":"44.97597000","lon":"15.78489000"},
{"state":"Federation of Bosnia and Herzegovina","name":"Turbe","lat":"44.24352000","lon":"17.57499000"},
{"state":"Federation of Bosnia and Herzegovina","name":"Tuzla","lat":"44.53842000","lon":"18.66709000"},
{"state":"Federation of Bosnia and Herzegovina","name":"Ustikolina","lat":"43.58338000","lon":"18.79106000"},
{"state":"Federation of Bosnia and Herzegovina","name":"Vareš","lat":"44.16444000","lon":"18.32833000"},
{"state":"Federation of Bosnia and Herzegovina","name":"Varoška Rijeka","lat":"45.08936000","lon":"16.01906000"},
{"state":"Federation of Bosnia and Herzegovina","name":"Velagići","lat":"44.55618000","lon":"16.73349000"},
{"state":"Federation of Bosnia and Herzegovina","name":"Velika Kladuša","lat":"45.18497000","lon":"15.80579000"},
{"state":"Federation of Bosnia and Herzegovina","name":"Vidoši","lat":"43.77139000","lon":"17.02833000"},
{"state":"Federation of Bosnia and Herzegovina","name":"Visoko","lat":"43.98889000","lon":"18.17806000"},
{"state":"Federation of Bosnia and Herzegovina","name":"Vitez","lat":"44.15424000","lon":"17.79009000"},
{"state":"Federation of Bosnia and Herzegovina","name":"Vitina","lat":"43.23750000","lon":"17.48389000"},
{"state":"Federation of Bosnia and Herzegovina","name":"Vogošća","lat":"43.90225000","lon":"18.34438000"},
{"state":"Federation of Bosnia and Herzegovina","name":"Voljevac","lat":"43.87873000","lon":"17.65861000"},
{"state":"Federation of Bosnia and Herzegovina","name":"Vrnograč","lat":"45.16369000","lon":"15.95444000"},
{"state":"Federation of Bosnia and Herzegovina","name":"Vukovije Donje","lat":"44.46209000","lon":"18.74941000"},
{"state":"Federation of Bosnia and Herzegovina","name":"Zabrišće","lat":"43.79224000","lon":"16.94224000"},
{"state":"Federation of Bosnia and Herzegovina","name":"Zavidovići","lat":"44.44583000","lon":"18.14972000"},
{"state":"Federation of Bosnia and Herzegovina","name":"Zborište","lat":"45.14593000","lon":"16.01728000"},
{"state":"Federation of Bosnia and Herzegovina","name":"Željezno Polje","lat":"44.39875000","lon":"17.94103000"},
{"state":"Federation of Bosnia and Herzegovina","name":"Zenica","lat":"44.20169000","lon":"17.90397000"},
{"state":"Federation of Bosnia and Herzegovina","name":"Žepče","lat":"44.42667000","lon":"18.03778000"},
{"state":"Federation of Bosnia and Herzegovina","name":"Živinice","lat":"44.44929000","lon":"18.64978000"},
{"state":"Republika Srpska","name":"Balatun","lat":"44.86332000","lon":"19.33931000"},
{"state":"Republika Srpska","name":"Banja Luka","lat":"44.77842000","lon":"17.19386000"},
{"state":"Republika Srpska","name":"Bijeljina","lat":"44.76583000","lon":"19.15083000"},
{"state":"Republika Srpska","name":"Bileća","lat":"42.87645000","lon":"18.42967000"},
{"state":"Republika Srpska","name":"Blatnica","lat":"44.48677000","lon":"17.82278000"},
{"state":"Republika Srpska","name":"Brod","lat":"45.13747000","lon":"17.98722000"},
{"state":"Republika Srpska","name":"Bronzani Majdan","lat":"44.79237000","lon":"16.94039000"},
{"state":"Republika Srpska","name":"Čajniče","lat":"43.55712000","lon":"19.07186000"},
{"state":"Republika Srpska","name":"Čečava","lat":"44.67961000","lon":"17.75780000"},
{"state":"Republika Srpska","name":"Čelinac","lat":"44.72453000","lon":"17.32431000"},
{"state":"Republika Srpska","name":"Derventa","lat":"44.97839000","lon":"17.90779000"},
{"state":"Republika Srpska","name":"Doboj","lat":"44.75944000","lon":"18.06500000"},
{"state":"Republika Srpska","name":"Dobrljin","lat":"45.15106000","lon":"16.47869000"},
{"state":"Republika Srpska","name":"Dvorovi","lat":"44.80753000","lon":"19.25999000"},
{"state":"Republika Srpska","name":"Foča","lat":"43.50646000","lon":"18.77854000"},
{"state":"Republika Srpska","name":"Gacko","lat":"43.16722000","lon":"18.53528000"},
{"state":"Republika Srpska","name":"Gradiška","lat":"45.14484000","lon":"17.25453000"},
{"state":"Republika Srpska","name":"Hiseti","lat":"44.76111000","lon":"17.17944000"},
{"state":"Republika Srpska","name":"Istočni Mostar","lat":"43.42056000","lon":"18.00833000"},
{"state":"Republika Srpska","name":"Janja","lat":"44.66554000","lon":"19.24691000"},
{"state":"Republika Srpska","name":"Kalenderovci Donji","lat":"44.94673000","lon":"17.83785000"},
{"state":"Republika Srpska","name":"Kneževo","lat":"44.49071000","lon":"17.38161000"},
{"state":"Republika Srpska","name":"Knežica","lat":"45.10548000","lon":"16.67668000"},
{"state":"Republika Srpska","name":"Koran","lat":"43.81038000","lon":"18.56999000"},
{"state":"Republika Srpska","name":"Kostajnica","lat":"45.21956000","lon":"16.53929000"},
{"state":"Republika Srpska","name":"Kotor Varoš","lat":"44.61831000","lon":"17.37204000"},
{"state":"Republika Srpska","name":"Kozarska Dubica","lat":"45.17667000","lon":"16.80944000"},
{"state":"Republika Srpska","name":"Krupa na Vrbasu","lat":"44.61875000","lon":"17.14351000"},
{"state":"Republika Srpska","name":"Laktaši","lat":"44.90857000","lon":"17.30135000"},
{"state":"Republika Srpska","name":"Lamovita","lat":"44.92018000","lon":"16.89933000"},
{"state":"Republika Srpska","name":"Ljubinje","lat":"42.95120000","lon":"18.08702000"},
{"state":"Republika Srpska","name":"Lopare","lat":"44.63498000","lon":"18.84340000"},
{"state":"Republika Srpska","name":"Maglajani","lat":"44.94975000","lon":"17.35014000"},
{"state":"Republika Srpska","name":"Marićka","lat":"44.86801000","lon":"16.85510000"},
{"state":"Republika Srpska","name":"Maslovare","lat":"44.56594000","lon":"17.53216000"},
{"state":"Republika Srpska","name":"Mejdan - Obilićevo","lat":"44.76324000","lon":"17.19012000"},
{"state":"Republika Srpska","name":"Milići","lat":"44.17016000","lon":"19.09195000"},
{"state":"Republika Srpska","name":"Modriča","lat":"44.95444000","lon":"18.30361000"},
{"state":"Republika Srpska","name":"Mrkonjić Grad","lat":"44.41729000","lon":"17.08288000"},
{"state":"Republika Srpska","name":"Nevesinje","lat":"43.25861000","lon":"18.11333000"},
{"state":"Republika Srpska","name":"Novi Grad","lat":"45.04643000","lon":"16.37782000"},
{"state":"Republika Srpska","name":"Obudovac","lat":"44.95215000","lon":"18.59869000"},
{"state":"Republika Srpska","name":"Omarska","lat":"44.89170000","lon":"16.89814000"},
{"state":"Republika Srpska","name":"Opština Oštra Luka","lat":"44.73278000","lon":"16.82861000"},
{"state":"Republika Srpska","name":"Opština Višegrad","lat":"43.72167000","lon":"19.31361000"},
{"state":"Republika Srpska","name":"Oštra Luka","lat":"44.99724000","lon":"18.58464000"},
{"state":"Republika Srpska","name":"Pale","lat":"43.81664000","lon":"18.56949000"},
{"state":"Republika Srpska","name":"Pelagićevo","lat":"44.90105000","lon":"18.59185000"},
{"state":"Republika Srpska","name":"Petkovci","lat":"44.46849000","lon":"19.07466000"},
{"state":"Republika Srpska","name":"Piskavica","lat":"44.86717000","lon":"16.97464000"},
{"state":"Republika Srpska","name":"Podbrdo","lat":"44.44189000","lon":"17.01495000"},
{"state":"Republika Srpska","name":"Popovi","lat":"44.76547000","lon":"19.28667000"},
{"state":"Republika Srpska","name":"Pribinić","lat":"44.61010000","lon":"17.68981000"},
{"state":"Republika Srpska","name":"Priboj","lat":"44.60233000","lon":"18.93165000"},
{"state":"Republika Srpska","name":"Prijedor","lat":"44.97991000","lon":"16.71401000"},
{"state":"Republika Srpska","name":"Rogatica","lat":"43.79894000","lon":"19.00363000"},
{"state":"Republika Srpska","name":"Rudo","lat":"43.61781000","lon":"19.36719000"},
{"state":"Republika Srpska","name":"Šamac","lat":"45.05987000","lon":"18.46756000"},
{"state":"Republika Srpska","name":"Šekovići","lat":"44.29896000","lon":"18.85532000"},
{"state":"Republika Srpska","name":"Šipovo","lat":"44.28237000","lon":"17.08597000"},
{"state":"Republika Srpska","name":"Sokolac","lat":"43.93817000","lon":"18.80079000"},
{"state":"Republika Srpska","name":"Srbac","lat":"45.09730000","lon":"17.52331000"},
{"state":"Republika Srpska","name":"Srebrenica","lat":"44.10748000","lon":"19.29669000"},
{"state":"Republika Srpska","name":"Stanari","lat":"44.74475000","lon":"17.82714000"},
{"state":"Republika Srpska","name":"Starcevica","lat":"44.75708000","lon":"17.21178000"},
{"state":"Republika Srpska","name":"Svodna","lat":"45.03770000","lon":"16.54019000"},
{"state":"Republika Srpska","name":"Teslić","lat":"44.60639000","lon":"17.85972000"},
{"state":"Republika Srpska","name":"Trebinje","lat":"42.71197000","lon":"18.34362000"},
{"state":"Republika Srpska","name":"Trn","lat":"44.85829000","lon":"17.23583000"},
{"state":"Republika Srpska","name":"Ugljevik","lat":"44.66361000","lon":"19.02028000"},
{"state":"Republika Srpska","name":"Velika Obarska","lat":"44.80461000","lon":"19.16183000"},
{"state":"Republika Srpska","name":"Višegrad","lat":"43.78260000","lon":"19.29256000"},
{"state":"Republika Srpska","name":"Vlasenica","lat":"44.18183000","lon":"18.94096000"},
{"state":"Republika Srpska","name":"Živinice","lat":"44.54765000","lon":"17.37357000"},
{"state":"Republika Srpska","name":"Zvornik","lat":"44.38605000","lon":"19.10247000"}]