[{"name":"Bagerhat District","native":null,"cities":[]},{"name":"Bahadia","native":null,"cities":[]},{"name":"Bandarban District","native":null,"cities":[]},{"name":"Barguna District","native":null,"cities":[]},{"name":"Barisal District","native":null,"cities":[{"name":"Barguna","native":null,"lat":"22.13333000","lon":"90.13333000"},{"name":"Barisal","native":null,"lat":"22.80000000","lon":"90.50000000"},{"name":"Bhāndāria","native":null,"lat":"22.48898000","lon":"90.06273000"},{"name":"Bhola","native":null,"lat":"22.36667000","lon":"90.81667000"},{"name":"Burhānuddin","native":null,"lat":"22.49518000","lon":"90.72391000"},{"name":"Gaurnadi","native":null,"lat":"22.97372000","lon":"90.22376000"},{"name":"Jhalokati","native":null,"lat":"22.60000000","lon":"90.20000000"},{"name":"Lālmohan","native":null,"lat":"22.33774000","lon":"90.73708000"},{"name":"Mathba","native":null,"lat":"22.28616000","lon":"89.95883000"},{"name":"Mehendiganj","native":null,"lat":"22.82257000","lon":"90.52859000"},{"name":"Nālchiti","native":null,"lat":"22.63696000","lon":"90.27195000"},{"name":"Patuakhali","native":null,"lat":"22.33333000","lon":"90.33333000"},{"name":"Pirojpur","native":null,"lat":"22.53671000","lon":"90.00033000"}]},{"name":"Barisal Division","native":null,"cities":[]},{"name":"Bhola District","native":null,"cities":[]},{"name":"Bogra District","native":null,"cities":[]},{"name":"Brahmanbaria District","native":null,"cities":[]},{"name":"Chandpur District","native":null,"cities":[]},{"name":"Chapai Nawabganj District","native":null,"cities":[]},{"name":"Chittagong District","native":null,"cities":[]},{"name":"Chittagong Division","native":null,"cities":[{"name":"Bandarban","native":null,"lat":"22.00000000","lon":"92.33333000"},{"name":"Bibir Hat","native":null,"lat":"22.68347000","lon":"91.79058000"},{"name":"Brahmanbaria","native":null,"lat":"23.98333000","lon":"91.16667000"},{"name":"Chandpur","native":null,"lat":"23.25000000","lon":"90.83333000"},{"name":"Chhāgalnāiya","native":null,"lat":"23.02475000","lon":"91.51091000"},{"name":"Chittagong","native":null,"lat":"22.48750000","lon":"91.96333000"},{"name":"Comilla","native":null,"lat":"23.44170000","lon":"91.00987000"},{"name":"Cox's Bazar","native":null,"lat":"21.58389000","lon":"92.01528000"},{"name":"Cox’s Bāzār","native":null,"lat":"21.43973000","lon":"92.00955000"},{"name":"Feni","native":null,"lat":"22.96667000","lon":"91.31667000"},{"name":"Hājīganj","native":null,"lat":"23.25191000","lon":"90.85508000"},{"name":"Khagrachhari","native":null,"lat":"23.16667000","lon":"91.90000000"},{"name":"Lākshām","native":null,"lat":"23.24018000","lon":"91.12143000"},{"name":"Lakshmipur","native":null,"lat":"22.91667000","lon":"90.83333000"},{"name":"Manikchari","native":null,"lat":"22.83957000","lon":"91.84128000"},{"name":"Nabīnagar","native":null,"lat":"23.88791000","lon":"90.96792000"},{"name":"Noakhali","native":null,"lat":"22.75000000","lon":"91.16667000"},{"name":"Patiya","native":null,"lat":"22.29543000","lon":"91.97900000"},{"name":"Rāipur","native":null,"lat":"23.03910000","lon":"90.76808000"},{"name":"Rāmganj","native":null,"lat":"23.10060000","lon":"90.84989000"},{"name":"Rangamati","native":null,"lat":"22.63333000","lon":"92.20000000"},{"name":"Raojān","native":null,"lat":"22.53511000","lon":"91.91919000"},{"name":"Sandwīp","native":null,"lat":"22.51409000","lon":"91.45491000"},{"name":"Sātkania","native":null,"lat":"22.07639000","lon":"92.04955000"},{"name":"Teknāf","native":null,"lat":"20.85829000","lon":"92.29773000"}]},{"name":"Chuadanga District","native":null,"cities":[]},{"name":"Comilla District","native":null,"cities":[]},{"name":"Cox's Bazar District","native":null,"cities":[]},{"name":"Dhaka District","native":null,"cities":[{"name":"Azimpur","native":null,"lat":"23.72980000","lon":"90.38540000"},{"name":"Bājitpur","native":null,"lat":"24.21623000","lon":"90.95002000"},{"name":"Bhairab Bāzār","native":null,"lat":"24.05240000","lon":"90.97640000"},{"name":"Char Bhadrāsan","native":null,"lat":"23.30916000","lon":"90.22698000"},{"name":"Char Golora","native":null,"lat":"23.82037000","lon":"90.12175000"},{"name":"Dhaka","native":null,"lat":"23.81093000","lon":"90.36542000"},{"name":"Dohār","native":null,"lat":"23.59311000","lon":"90.14251000"},{"name":"Faridpur","native":null,"lat":"23.59419000","lon":"89.82147000"},{"name":"Gazipur","native":null,"lat":"24.20689000","lon":"90.47241000"},{"name":"Gopalganj","native":null,"lat":"23.16667000","lon":"89.91667000"},{"name":"Joymontop","native":null,"lat":"23.78789000","lon":"90.16472000"},{"name":"Khanbaniara","native":null,"lat":"23.78225000","lon":"90.18382000"},{"name":"Kishoregonj","native":null,"lat":"24.41667000","lon":"90.95000000"},{"name":"Kishorganj","native":null,"lat":"24.43944000","lon":"90.78291000"},{"name":"Madaripur","native":null,"lat":"23.25000000","lon":"90.20000000"},{"name":"Manikganj","native":null,"lat":"23.86667000","lon":"89.95000000"},{"name":"Mirzāpur","native":null,"lat":"24.10287000","lon":"90.09841000"},{"name":"Munshiganj","native":null,"lat":"23.55000000","lon":"90.36667000"},{"name":"Nāgarpur","native":null,"lat":"24.05783000","lon":"89.87696000"},{"name":"Narayanganj","native":null,"lat":"23.75000000","lon":"90.58333000"},{"name":"Narsingdi","native":null,"lat":"23.92298000","lon":"90.71768000"},{"name":"Pālang","native":null,"lat":"23.21824000","lon":"90.35076000"},{"name":"Paltan","native":null,"lat":"23.73625000","lon":"90.41426000"},{"name":"Parvez Ali","native":null,"lat":"23.81741000","lon":"90.11921000"},{"name":"Parvez Ali Hossain","native":null,"lat":"23.78758000","lon":"90.16487000"},{"name":"Rajbari","native":null,"lat":"23.66667000","lon":"89.55000000"},{"name":"Ramnagar","native":null,"lat":"23.77720000","lon":"90.17604000"},{"name":"Sakhipur","native":null,"lat":"24.31988000","lon":"90.16943000"},{"name":"Sayani","native":null,"lat":"23.79119000","lon":"90.16972000"},{"name":"Shariatpur","native":null,"lat":"23.25000000","lon":"90.36667000"},{"name":"Sonārgaon","native":null,"lat":"23.65000000","lon":"90.61667000"},{"name":"Tangail","native":null,"lat":"24.33853000","lon":"89.98667000"},{"name":"Tungi","native":null,"lat":"23.89154000","lon":"90.40232000"},{"name":"Tungipāra","native":null,"lat":"22.89983000","lon":"89.90326000"}]},{"name":"Dhaka Division","native":null,"cities":[]},{"name":"Dinajpur District","native":null,"cities":[]},{"name":"Faridpur District","native":null,"cities":[]},{"name":"Feni District","native":null,"cities":[]},{"name":"Gaibandha District","native":null,"cities":[]},{"name":"Gazipur District","native":null,"cities":[]},{"name":"Gopalganj District","native":null,"cities":[]},{"name":"Habiganj District","native":null,"cities":[]},{"name":"Jamalpur District","native":null,"cities":[]},{"name":"Jessore District","native":null,"cities":[]},{"name":"Jhalokati District","native":null,"cities":[]},{"name":"Jhenaidah District","native":null,"cities":[]},{"name":"Joypurhat District","native":null,"cities":[]},{"name":"Khagrachari District","native":null,"cities":[]},{"name":"Khulna District","native":null,"cities":[{"name":"Bagerhat","native":null,"lat":"22.40000000","lon":"89.75000000"},{"name":"Bhātpāra Abhaynagar","native":null,"lat":"23.01472000","lon":"89.43936000"},{"name":"Bherāmāra","native":null,"lat":"24.02452000","lon":"88.99234000"},{"name":"Chuadanga","native":null,"lat":"23.63333000","lon":"88.85000000"},{"name":"Jessore","native":null,"lat":"23.08333000","lon":"89.16667000"},{"name":"Jhenaidah","native":null,"lat":"23.50000000","lon":"89.16667000"},{"name":"Jhingergācha","native":null,"lat":"23.11134000","lon":"89.09061000"},{"name":"Kālia","native":null,"lat":"23.04300000","lon":"89.63094000"},{"name":"Kālīganj","native":null,"lat":"23.40964000","lon":"89.13801000"},{"name":"Kesabpur","native":null,"lat":"22.90725000","lon":"89.21954000"},{"name":"Khulna","native":null,"lat":"22.50000000","lon":"89.33333000"},{"name":"Kushtia","native":null,"lat":"23.83333000","lon":"88.91667000"},{"name":"Magura","native":null,"lat":"23.43333000","lon":"89.43333000"},{"name":"Meherpur","native":null,"lat":"23.75000000","lon":"88.70000000"},{"name":"Morrelgonj","native":null,"lat":"22.45566000","lon":"89.85584000"},{"name":"Narail","native":null,"lat":"23.13333000","lon":"89.60000000"},{"name":"Nowlamary","native":null,"lat":"23.67346000","lon":"88.98885000"},{"name":"Phultala","native":null,"lat":"22.71673000","lon":"89.51194000"},{"name":"Sarankhola","native":null,"lat":"22.31006000","lon":"89.79113000"},{"name":"Satkhira","native":null,"lat":"22.35000000","lon":"89.15000000"},{"name":"Ujalpur","native":null,"lat":"23.80562000","lon":"88.62444000"},{"name":"Uttar Char Fasson","native":null,"lat":"22.22647000","lon":"90.71275000"}]},{"name":"Khulna Division","native":null,"cities":[]},{"name":"Kishoreganj District","native":null,"cities":[]},{"name":"Kurigram District","native":null,"cities":[]},{"name":"Kushtia District","native":null,"cities":[]},{"name":"Lakshmipur District","native":null,"cities":[]},{"name":"Lalmonirhat District","native":null,"cities":[]},{"name":"Madaripur District","native":null,"cities":[]},{"name":"Meherpur District","native":null,"cities":[]},{"name":"Moulvibazar District","native":null,"cities":[]},{"name":"Munshiganj District","native":null,"cities":[]},{"name":"Mymensingh District","native":null,"cities":[{"name":"Gafargaon","native":null,"lat":"24.43200000","lon":"90.55850000"},{"name":"Jamalpur","native":null,"lat":"25.00000000","lon":"89.83333000"},{"name":"Muktāgācha","native":null,"lat":"24.76484000","lon":"90.25698000"},{"name":"Mymensingh","native":null,"lat":"24.75000000","lon":"90.40000000"},{"name":"Netrakona","native":null,"lat":"24.86667000","lon":"90.86667000"},{"name":"Sarishābāri","native":null,"lat":"24.75127000","lon":"89.83126000"},{"name":"Sherpur","native":null,"lat":"25.08333000","lon":"90.08333000"}]},{"name":"Mymensingh Division","native":null,"cities":[]},{"name":"Naogaon District","native":null,"cities":[]},{"name":"Narail District","native":null,"cities":[]},{"name":"Narayanganj District","native":null,"cities":[]},{"name":"Natore District","native":null,"cities":[]},{"name":"Netrokona District","native":null,"cities":[]},{"name":"Nilphamari District","native":null,"cities":[]},{"name":"Noakhali District","native":null,"cities":[]},{"name":"Pabna District","native":null,"cities":[]},{"name":"Panchagarh District","native":null,"cities":[]},{"name":"Patuakhali District","native":null,"cities":[]},{"name":"Pirojpur District","native":null,"cities":[]},{"name":"Rajbari District","native":null,"cities":[]},{"name":"Rajshahi District","native":null,"cities":[{"name":"Bera","native":null,"lat":"24.07821000","lon":"89.63262000"},{"name":"Bogra","native":null,"lat":"24.78333000","lon":"89.35000000"},{"name":"Chapai Nababganj","native":null,"lat":"24.68333000","lon":"88.25000000"},{"name":"Ishurdi","native":null,"lat":"24.12858000","lon":"89.06573000"},{"name":"Joypur Hāt","native":null,"lat":"25.10147000","lon":"89.02734000"},{"name":"Joypurhat","native":null,"lat":"25.08333000","lon":"89.10000000"},{"name":"Mahasthangarh","native":null,"lat":"24.96111000","lon":"89.34278000"},{"name":"Naogaon","native":null,"lat":"24.81180000","lon":"88.94657000"},{"name":"Natore","native":null,"lat":"24.35000000","lon":"89.08333000"},{"name":"Nawābganj","native":null,"lat":"24.59025000","lon":"88.27444000"},{"name":"Pabna","native":null,"lat":"24.00633000","lon":"89.33533000"},{"name":"Pār Naogaon","native":null,"lat":"24.80418000","lon":"88.94875000"},{"name":"Puthia","native":null,"lat":"24.36537000","lon":"88.83431000"},{"name":"Rajshahi","native":null,"lat":"24.36962000","lon":"88.60748000"},{"name":"Saidpur","native":null,"lat":"25.77769000","lon":"88.89169000"},{"name":"Shāhzādpur","native":null,"lat":"24.17687000","lon":"89.59880000"},{"name":"Shibganj","native":null,"lat":"25.00146000","lon":"89.32266000"},{"name":"Sirajganj","native":null,"lat":"24.33333000","lon":"89.61667000"}]},{"name":"Rajshahi Division","native":null,"cities":[]},{"name":"Rangamati Hill District","native":null,"cities":[]},{"name":"Rangpur District","native":null,"cities":[{"name":"Badarganj","native":null,"lat":"25.67419000","lon":"89.05377000"},{"name":"Chilmāri","native":null,"lat":"25.55613000","lon":"89.67097000"},{"name":"Dinajpur","native":null,"lat":"25.61667000","lon":"88.75000000"},{"name":"Gaibandha","native":null,"lat":"25.25000000","lon":"89.50000000"},{"name":"Kurigram","native":null,"lat":"25.75000000","lon":"89.66667000"},{"name":"Lalmonirhat","native":null,"lat":"25.91719000","lon":"89.44595000"},{"name":"Lalmonirhat District","native":null,"lat":"26.00000000","lon":"89.25000000"},{"name":"Nageswari","native":null,"lat":"25.96817000","lon":"89.69153000"},{"name":"Nilphamari Zila","native":null,"lat":"25.96667000","lon":"88.95000000"},{"name":"Panchagarh","native":null,"lat":"26.33333000","lon":"88.56667000"},{"name":"Parbatipur","native":null,"lat":"25.66369000","lon":"88.93093000"},{"name":"Pīrgaaj","native":null,"lat":"25.85587000","lon":"88.35943000"},{"name":"Rangpur","native":null,"lat":"25.73333000","lon":"89.25000000"},{"name":"Thakurgaon","native":null,"lat":"25.96667000","lon":"88.33333000"}]},{"name":"Rangpur Division","native":null,"cities":[]},{"name":"Satkhira District","native":null,"cities":[]},{"name":"Shariatpur District","native":null,"cities":[]},{"name":"Sherpur District","native":null,"cities":[]},{"name":"Sirajganj District","native":null,"cities":[]},{"name":"Sunamganj District","native":null,"cities":[]},{"name":"Sylhet District","native":null,"cities":[{"name":"Baniachang","native":null,"lat":"24.51863000","lon":"91.35787000"},{"name":"Chhātak","native":null,"lat":"25.03852000","lon":"91.66958000"},{"name":"Habiganj","native":null,"lat":"24.43333000","lon":"91.41667000"},{"name":"Jahedpur","native":null,"lat":"24.83333000","lon":"91.65000000"},{"name":"Maulavi Bāzār","native":null,"lat":"24.48888000","lon":"91.77075000"},{"name":"Maulvibazar","native":null,"lat":"24.50000000","lon":"91.83333000"},{"name":"Sunamganj","native":null,"lat":"24.86667000","lon":"91.41667000"},{"name":"Sylhet","native":null,"lat":"24.91667000","lon":"91.76667000"}]},{"name":"Sylhet Division","native":null,"cities":[]},{"name":"Tangail District","native":null,"cities":[]},{"name":"Thakurgaon District","native":null,"cities":[]}]