[{"state":"Barisal District","name":"Barguna","lat":"22.13333000","lon":"90.13333000"},
{"state":"Barisal District","name":"Barisal","lat":"22.80000000","lon":"90.50000000"},
{"state":"Barisal District","name":"Bhāndāria","lat":"22.48898000","lon":"90.06273000"},
{"state":"Barisal District","name":"Bhola","lat":"22.36667000","lon":"90.81667000"},
{"state":"Barisal District","name":"Burhānuddin","lat":"22.49518000","lon":"90.72391000"},
{"state":"Barisal District","name":"Gaurnadi","lat":"22.97372000","lon":"90.22376000"},
{"state":"Barisal District","name":"Jhalokati","lat":"22.60000000","lon":"90.20000000"},
{"state":"Barisal District","name":"Lālmohan","lat":"22.33774000","lon":"90.73708000"},
{"state":"Barisal District","name":"Mathba","lat":"22.28616000","lon":"89.95883000"},
{"state":"Barisal District","name":"Mehendiganj","lat":"22.82257000","lon":"90.52859000"},
{"state":"Barisal District","name":"Nālchiti","lat":"22.63696000","lon":"90.27195000"},
{"state":"Barisal District","name":"Patuakhali","lat":"22.33333000","lon":"90.33333000"},
{"state":"Barisal District","name":"Pirojpur","lat":"22.53671000","lon":"90.00033000"},
{"state":"Chittagong Division","name":"Bandarban","lat":"22.00000000","lon":"92.33333000"},
{"state":"Chittagong Division","name":"Bibir Hat","lat":"22.68347000","lon":"91.79058000"},
{"state":"Chittagong Division","name":"Brahmanbaria","lat":"23.98333000","lon":"91.16667000"},
{"state":"Chittagong Division","name":"Chandpur","lat":"23.25000000","lon":"90.83333000"},
{"state":"Chittagong Division","name":"Chhāgalnāiya","lat":"23.02475000","lon":"91.51091000"},
{"state":"Chittagong Division","name":"Chittagong","lat":"22.48750000","lon":"91.96333000"},
{"state":"Chittagong Division","name":"Comilla","lat":"23.44170000","lon":"91.00987000"},
{"state":"Chittagong Division","name":"Cox's Bazar","lat":"21.58389000","lon":"92.01528000"},
{"state":"Chittagong Division","name":"Cox’s Bāzār","lat":"21.43973000","lon":"92.00955000"},
{"state":"Chittagong Division","name":"Feni","lat":"22.96667000","lon":"91.31667000"},
{"state":"Chittagong Division","name":"Hājīganj","lat":"23.25191000","lon":"90.85508000"},
{"state":"Chittagong Division","name":"Khagrachhari","lat":"23.16667000","lon":"91.90000000"},
{"state":"Chittagong Division","name":"Lākshām","lat":"23.24018000","lon":"91.12143000"},
{"state":"Chittagong Division","name":"Lakshmipur","lat":"22.91667000","lon":"90.83333000"},
{"state":"Chittagong Division","name":"Manikchari","lat":"22.83957000","lon":"91.84128000"},
{"state":"Chittagong Division","name":"Nabīnagar","lat":"23.88791000","lon":"90.96792000"},
{"state":"Chittagong Division","name":"Noakhali","lat":"22.75000000","lon":"91.16667000"},
{"state":"Chittagong Division","name":"Patiya","lat":"22.29543000","lon":"91.97900000"},
{"state":"Chittagong Division","name":"Rāipur","lat":"23.03910000","lon":"90.76808000"},
{"state":"Chittagong Division","name":"Rāmganj","lat":"23.10060000","lon":"90.84989000"},
{"state":"Chittagong Division","name":"Rangamati","lat":"22.63333000","lon":"92.20000000"},
{"state":"Chittagong Division","name":"Raojān","lat":"22.53511000","lon":"91.91919000"},
{"state":"Chittagong Division","name":"Sandwīp","lat":"22.51409000","lon":"91.45491000"},
{"state":"Chittagong Division","name":"Sātkania","lat":"22.07639000","lon":"92.04955000"},
{"state":"Chittagong Division","name":"Teknāf","lat":"20.85829000","lon":"92.29773000"},
{"state":"Dhaka District","name":"Azimpur","lat":"23.72980000","lon":"90.38540000"},
{"state":"Dhaka District","name":"Bājitpur","lat":"24.21623000","lon":"90.95002000"},
{"state":"Dhaka District","name":"Bhairab Bāzār","lat":"24.05240000","lon":"90.97640000"},
{"state":"Dhaka District","name":"Char Bhadrāsan","lat":"23.30916000","lon":"90.22698000"},
{"state":"Dhaka District","name":"Char Golora","lat":"23.82037000","lon":"90.12175000"},
{"state":"Dhaka District","name":"Dhaka","lat":"23.81093000","lon":"90.36542000"},
{"state":"Dhaka District","name":"Dohār","lat":"23.59311000","lon":"90.14251000"},
{"state":"Dhaka District","name":"Faridpur","lat":"23.59419000","lon":"89.82147000"},
{"state":"Dhaka District","name":"Gazipur","lat":"24.20689000","lon":"90.47241000"},
{"state":"Dhaka District","name":"Gopalganj","lat":"23.16667000","lon":"89.91667000"},
{"state":"Dhaka District","name":"Joymontop","lat":"23.78789000","lon":"90.16472000"},
{"state":"Dhaka District","name":"Khanbaniara","lat":"23.78225000","lon":"90.18382000"},
{"state":"Dhaka District","name":"Kishoregonj","lat":"24.41667000","lon":"90.95000000"},
{"state":"Dhaka District","name":"Kishorganj","lat":"24.43944000","lon":"90.78291000"},
{"state":"Dhaka District","name":"Madaripur","lat":"23.25000000","lon":"90.20000000"},
{"state":"Dhaka District","name":"Manikganj","lat":"23.86667000","lon":"89.95000000"},
{"state":"Dhaka District","name":"Mirzāpur","lat":"24.10287000","lon":"90.09841000"},
{"state":"Dhaka District","name":"Munshiganj","lat":"23.55000000","lon":"90.36667000"},
{"state":"Dhaka District","name":"Nāgarpur","lat":"24.05783000","lon":"89.87696000"},
{"state":"Dhaka District","name":"Narayanganj","lat":"23.75000000","lon":"90.58333000"},
{"state":"Dhaka District","name":"Narsingdi","lat":"23.92298000","lon":"90.71768000"},
{"state":"Dhaka District","name":"Pālang","lat":"23.21824000","lon":"90.35076000"},
{"state":"Dhaka District","name":"Paltan","lat":"23.73625000","lon":"90.41426000"},
{"state":"Dhaka District","name":"Parvez Ali","lat":"23.81741000","lon":"90.11921000"},
{"state":"Dhaka District","name":"Parvez Ali Hossain","lat":"23.78758000","lon":"90.16487000"},
{"state":"Dhaka District","name":"Rajbari","lat":"23.66667000","lon":"89.55000000"},
{"state":"Dhaka District","name":"Ramnagar","lat":"23.77720000","lon":"90.17604000"},
{"state":"Dhaka District","name":"Sakhipur","lat":"24.31988000","lon":"90.16943000"},
{"state":"Dhaka District","name":"Sayani","lat":"23.79119000","lon":"90.16972000"},
{"state":"Dhaka District","name":"Shariatpur","lat":"23.25000000","lon":"90.36667000"},
{"state":"Dhaka District","name":"Sonārgaon","lat":"23.65000000","lon":"90.61667000"},
{"state":"Dhaka District","name":"Tangail","lat":"24.33853000","lon":"89.98667000"},
{"state":"Dhaka District","name":"Tungi","lat":"23.89154000","lon":"90.40232000"},
{"state":"Dhaka District","name":"Tungipāra","lat":"22.89983000","lon":"89.90326000"},
{"state":"Khulna District","name":"Bagerhat","lat":"22.40000000","lon":"89.75000000"},
{"state":"Khulna District","name":"Bhātpāra Abhaynagar","lat":"23.01472000","lon":"89.43936000"},
{"state":"Khulna District","name":"Bherāmāra","lat":"24.02452000","lon":"88.99234000"},
{"state":"Khulna District","name":"Chuadanga","lat":"23.63333000","lon":"88.85000000"},
{"state":"Khulna District","name":"Jessore","lat":"23.08333000","lon":"89.16667000"},
{"state":"Khulna District","name":"Jhenaidah","lat":"23.50000000","lon":"89.16667000"},
{"state":"Khulna District","name":"Jhingergācha","lat":"23.11134000","lon":"89.09061000"},
{"state":"Khulna District","name":"Kālia","lat":"23.04300000","lon":"89.63094000"},
{"state":"Khulna District","name":"Kālīganj","lat":"23.40964000","lon":"89.13801000"},
{"state":"Khulna District","name":"Kesabpur","lat":"22.90725000","lon":"89.21954000"},
{"state":"Khulna District","name":"Khulna","lat":"22.50000000","lon":"89.33333000"},
{"state":"Khulna District","name":"Kushtia","lat":"23.83333000","lon":"88.91667000"},
{"state":"Khulna District","name":"Magura","lat":"23.43333000","lon":"89.43333000"},
{"state":"Khulna District","name":"Meherpur","lat":"23.75000000","lon":"88.70000000"},
{"state":"Khulna District","name":"Morrelgonj","lat":"22.45566000","lon":"89.85584000"},
{"state":"Khulna District","name":"Narail","lat":"23.13333000","lon":"89.60000000"},
{"state":"Khulna District","name":"Nowlamary","lat":"23.67346000","lon":"88.98885000"},
{"state":"Khulna District","name":"Phultala","lat":"22.71673000","lon":"89.51194000"},
{"state":"Khulna District","name":"Sarankhola","lat":"22.31006000","lon":"89.79113000"},
{"state":"Khulna District","name":"Satkhira","lat":"22.35000000","lon":"89.15000000"},
{"state":"Khulna District","name":"Ujalpur","lat":"23.80562000","lon":"88.62444000"},
{"state":"Khulna District","name":"Uttar Char Fasson","lat":"22.22647000","lon":"90.71275000"},
{"state":"Mymensingh District","name":"Gafargaon","lat":"24.43200000","lon":"90.55850000"},
{"state":"Mymensingh District","name":"Jamalpur","lat":"25.00000000","lon":"89.83333000"},
{"state":"Mymensingh District","name":"Muktāgācha","lat":"24.76484000","lon":"90.25698000"},
{"state":"Mymensingh District","name":"Mymensingh","lat":"24.75000000","lon":"90.40000000"},
{"state":"Mymensingh District","name":"Netrakona","lat":"24.86667000","lon":"90.86667000"},
{"state":"Mymensingh District","name":"Sarishābāri","lat":"24.75127000","lon":"89.83126000"},
{"state":"Mymensingh District","name":"Sherpur","lat":"25.08333000","lon":"90.08333000"},
{"state":"Rajshahi District","name":"Bera","lat":"24.07821000","lon":"89.63262000"},
{"state":"Rajshahi District","name":"Bogra","lat":"24.78333000","lon":"89.35000000"},
{"state":"Rajshahi District","name":"Chapai Nababganj","lat":"24.68333000","lon":"88.25000000"},
{"state":"Rajshahi District","name":"Ishurdi","lat":"24.12858000","lon":"89.06573000"},
{"state":"Rajshahi District","name":"Joypur Hāt","lat":"25.10147000","lon":"89.02734000"},
{"state":"Rajshahi District","name":"Joypurhat","lat":"25.08333000","lon":"89.10000000"},
{"state":"Rajshahi District","name":"Mahasthangarh","lat":"24.96111000","lon":"89.34278000"},
{"state":"Rajshahi District","name":"Naogaon","lat":"24.81180000","lon":"88.94657000"},
{"state":"Rajshahi District","name":"Natore","lat":"24.35000000","lon":"89.08333000"},
{"state":"Rajshahi District","name":"Nawābganj","lat":"24.59025000","lon":"88.27444000"},
{"state":"Rajshahi District","name":"Pabna","lat":"24.00633000","lon":"89.33533000"},
{"state":"Rajshahi District","name":"Pār Naogaon","lat":"24.80418000","lon":"88.94875000"},
{"state":"Rajshahi District","name":"Puthia","lat":"24.36537000","lon":"88.83431000"},
{"state":"Rajshahi District","name":"Rajshahi","lat":"24.36962000","lon":"88.60748000"},
{"state":"Rajshahi District","name":"Saidpur","lat":"25.77769000","lon":"88.89169000"},
{"state":"Rajshahi District","name":"Shāhzādpur","lat":"24.17687000","lon":"89.59880000"},
{"state":"Rajshahi District","name":"Shibganj","lat":"25.00146000","lon":"89.32266000"},
{"state":"Rajshahi District","name":"Sirajganj","lat":"24.33333000","lon":"89.61667000"},
{"state":"Rangpur District","name":"Badarganj","lat":"25.67419000","lon":"89.05377000"},
{"state":"Rangpur District","name":"Chilmāri","lat":"25.55613000","lon":"89.67097000"},
{"state":"Rangpur District","name":"Dinajpur","lat":"25.61667000","lon":"88.75000000"},
{"state":"Rangpur District","name":"Gaibandha","lat":"25.25000000","lon":"89.50000000"},
{"state":"Rangpur District","name":"Kurigram","lat":"25.75000000","lon":"89.66667000"},
{"state":"Rangpur District","name":"Lalmonirhat","lat":"25.91719000","lon":"89.44595000"},
{"state":"Rangpur District","name":"Lalmonirhat District","lat":"26.00000000","lon":"89.25000000"},
{"state":"Rangpur District","name":"Nageswari","lat":"25.96817000","lon":"89.69153000"},
{"state":"Rangpur District","name":"Nilphamari Zila","lat":"25.96667000","lon":"88.95000000"},
{"state":"Rangpur District","name":"Panchagarh","lat":"26.33333000","lon":"88.56667000"},
{"state":"Rangpur District","name":"Parbatipur","lat":"25.66369000","lon":"88.93093000"},
{"state":"Rangpur District","name":"Pīrgaaj","lat":"25.85587000","lon":"88.35943000"},
{"state":"Rangpur District","name":"Rangpur","lat":"25.73333000","lon":"89.25000000"},
{"state":"Rangpur District","name":"Thakurgaon","lat":"25.96667000","lon":"88.33333000"},
{"state":"Sylhet District","name":"Baniachang","lat":"24.51863000","lon":"91.35787000"},
{"state":"Sylhet District","name":"Chhātak","lat":"25.03852000","lon":"91.66958000"},
{"state":"Sylhet District","name":"Habiganj","lat":"24.43333000","lon":"91.41667000"},
{"state":"Sylhet District","name":"Jahedpur","lat":"24.83333000","lon":"91.65000000"},
{"state":"Sylhet District","name":"Maulavi Bāzār","lat":"24.48888000","lon":"91.77075000"},
{"state":"Sylhet District","name":"Maulvibazar","lat":"24.50000000","lon":"91.83333000"},
{"state":"Sylhet District","name":"Sunamganj","lat":"24.86667000","lon":"91.41667000"},
{"state":"Sylhet District","name":"Sylhet","lat":"24.91667000","lon":"91.76667000"}]