[{"state":"Brussels-Capital Region","name":"Brussels","lat":"50.85045000","lon":"4.34878000"},
{"state":"Flanders","name":"Aalst","lat":"50.93604000","lon":"4.03550000"},
{"state":"Flanders","name":"Aalter","lat":"51.09017000","lon":"3.44693000"},
{"state":"Flanders","name":"Aarschot","lat":"50.98715000","lon":"4.83695000"},
{"state":"Flanders","name":"Aartselaar","lat":"51.13412000","lon":"4.38678000"},
{"state":"Flanders","name":"Alken","lat":"50.87553000","lon":"5.30558000"},
{"state":"Flanders","name":"Alveringem","lat":"51.01238000","lon":"2.71117000"},
{"state":"Flanders","name":"Antwerpen","lat":"51.21989000","lon":"4.40346000"},
{"state":"Flanders","name":"Anzegem","lat":"50.83700000","lon":"3.47786000"},
{"state":"Flanders","name":"Ardooie","lat":"50.97570000","lon":"3.19736000"},
{"state":"Flanders","name":"Arendonk","lat":"51.32267000","lon":"5.08289000"},
{"state":"Flanders","name":"As","lat":"51.00755000","lon":"5.58453000"},
{"state":"Flanders","name":"Asse","lat":"50.91011000","lon":"4.19836000"},
{"state":"Flanders","name":"Assenede","lat":"51.22598000","lon":"3.75085000"},
{"state":"Flanders","name":"Avelgem","lat":"50.77618000","lon":"3.44502000"},
{"state":"Flanders","name":"Baarle-Hertog","lat":"51.40504000","lon":"4.89226000"},
{"state":"Flanders","name":"Balen","lat":"51.16837000","lon":"5.17027000"},
{"state":"Flanders","name":"Beernem","lat":"51.13981000","lon":"3.33896000"},
{"state":"Flanders","name":"Beerse","lat":"51.31927000","lon":"4.85304000"},
{"state":"Flanders","name":"Beersel","lat":"50.76589000","lon":"4.30020000"},
{"state":"Flanders","name":"Begijnendijk","lat":"51.01942000","lon":"4.78377000"},
{"state":"Flanders","name":"Bekkevoort","lat":"50.94074000","lon":"4.96900000"},
{"state":"Flanders","name":"Beringen","lat":"51.04954000","lon":"5.22606000"},
{"state":"Flanders","name":"Berlaar","lat":"51.11760000","lon":"4.65835000"},
{"state":"Flanders","name":"Berlare","lat":"51.03333000","lon":"4.00000000"},
{"state":"Flanders","name":"Bertem","lat":"50.86403000","lon":"4.62918000"},
{"state":"Flanders","name":"Bever","lat":"50.91667000","lon":"4.31667000"},
{"state":"Flanders","name":"Beveren","lat":"51.21187000","lon":"4.25633000"},
{"state":"Flanders","name":"Bierbeek","lat":"50.82876000","lon":"4.75949000"},
{"state":"Flanders","name":"Bilzen","lat":"50.87325000","lon":"5.51840000"},
{"state":"Flanders","name":"Blankenberge","lat":"51.31306000","lon":"3.13227000"},
{"state":"Flanders","name":"Bocholt","lat":"51.17337000","lon":"5.57994000"},
{"state":"Flanders","name":"Boechout","lat":"51.15959000","lon":"4.49195000"},
{"state":"Flanders","name":"Bonheiden","lat":"51.02261000","lon":"4.54714000"},
{"state":"Flanders","name":"Boom","lat":"51.09242000","lon":"4.37170000"},
{"state":"Flanders","name":"Boortmeerbeek","lat":"50.97929000","lon":"4.57443000"},
{"state":"Flanders","name":"Borgloon","lat":"50.80505000","lon":"5.34366000"},
{"state":"Flanders","name":"Bornem","lat":"51.09716000","lon":"4.24364000"},
{"state":"Flanders","name":"Borsbeek","lat":"51.19661000","lon":"4.48543000"},
{"state":"Flanders","name":"Boutersem","lat":"50.83511000","lon":"4.83450000"},
{"state":"Flanders","name":"Brasschaat","lat":"51.29120000","lon":"4.49182000"},
{"state":"Flanders","name":"Brecht","lat":"51.35024000","lon":"4.63829000"},
{"state":"Flanders","name":"Bredene","lat":"51.23489000","lon":"2.97559000"},
{"state":"Flanders","name":"Bree","lat":"51.14152000","lon":"5.59690000"},
{"state":"Flanders","name":"Brugge","lat":"51.20892000","lon":"3.22424000"},
{"state":"Flanders","name":"Buggenhout","lat":"51.01590000","lon":"4.20173000"},
{"state":"Flanders","name":"Damme","lat":"51.25147000","lon":"3.28144000"},
{"state":"Flanders","name":"De Haan","lat":"51.27261000","lon":"3.03446000"},
{"state":"Flanders","name":"De Panne","lat":"51.09793000","lon":"2.59368000"},
{"state":"Flanders","name":"De Pinte","lat":"50.99339000","lon":"3.64747000"},
{"state":"Flanders","name":"Deerlijk","lat":"50.85337000","lon":"3.35416000"},
{"state":"Flanders","name":"Deinze","lat":"50.98175000","lon":"3.53096000"},
{"state":"Flanders","name":"Denderleeuw","lat":"50.88506000","lon":"4.07601000"},
{"state":"Flanders","name":"Dendermonde","lat":"51.02869000","lon":"4.10106000"},
{"state":"Flanders","name":"Dentergem","lat":"50.96429000","lon":"3.41617000"},
{"state":"Flanders","name":"Dessel","lat":"51.23855000","lon":"5.11448000"},
{"state":"Flanders","name":"Destelbergen","lat":"51.05952000","lon":"3.79899000"},
{"state":"Flanders","name":"Deurne","lat":"51.22134000","lon":"4.46595000"},
{"state":"Flanders","name":"Diegem","lat":"50.89727000","lon":"4.43354000"},
{"state":"Flanders","name":"Diepenbeek","lat":"50.90769000","lon":"5.41875000"},
{"state":"Flanders","name":"Diest","lat":"50.98923000","lon":"5.05062000"},
{"state":"Flanders","name":"Diksmuide","lat":"51.03248000","lon":"2.86384000"},
{"state":"Flanders","name":"Dilbeek","lat":"50.84799000","lon":"4.25972000"},
{"state":"Flanders","name":"Drogenbos","lat":"50.78733000","lon":"4.31471000"},
{"state":"Flanders","name":"Duffel","lat":"51.09554000","lon":"4.50903000"},
{"state":"Flanders","name":"Edegem","lat":"51.15662000","lon":"4.44504000"},
{"state":"Flanders","name":"Eeklo","lat":"51.18703000","lon":"3.55654000"},
{"state":"Flanders","name":"Essen","lat":"51.46791000","lon":"4.46901000"},
{"state":"Flanders","name":"Evergem","lat":"51.11306000","lon":"3.70976000"},
{"state":"Flanders","name":"Galmaarden","lat":"50.75389000","lon":"3.97121000"},
{"state":"Flanders","name":"Gavere","lat":"50.92917000","lon":"3.66184000"},
{"state":"Flanders","name":"Geel","lat":"51.16557000","lon":"4.98917000"},
{"state":"Flanders","name":"Geetbets","lat":"50.89431000","lon":"5.11199000"},
{"state":"Flanders","name":"Genk","lat":"50.96500000","lon":"5.50082000"},
{"state":"Flanders","name":"Gent","lat":"51.05000000","lon":"3.71667000"},
{"state":"Flanders","name":"Geraardsbergen","lat":"50.77343000","lon":"3.88223000"},
{"state":"Flanders","name":"Gingelom","lat":"50.74792000","lon":"5.13422000"},
{"state":"Flanders","name":"Gistel","lat":"51.15612000","lon":"2.96387000"},
{"state":"Flanders","name":"Glabbeek","lat":"50.87267000","lon":"4.95615000"},
{"state":"Flanders","name":"Gooik","lat":"50.79443000","lon":"4.11378000"},
{"state":"Flanders","name":"Grimbergen","lat":"50.93409000","lon":"4.37213000"},
{"state":"Flanders","name":"Grobbendonk","lat":"51.19043000","lon":"4.73562000"},
{"state":"Flanders","name":"Haacht","lat":"50.97737000","lon":"4.63777000"},
{"state":"Flanders","name":"Haaltert","lat":"50.90634000","lon":"4.00093000"},
{"state":"Flanders","name":"Halen","lat":"50.94837000","lon":"5.11096000"},
{"state":"Flanders","name":"Halle","lat":"50.73385000","lon":"4.23454000"},
{"state":"Flanders","name":"Hamme","lat":"51.09822000","lon":"4.13705000"},
{"state":"Flanders","name":"Harelbeke","lat":"50.85343000","lon":"3.30935000"},
{"state":"Flanders","name":"Hasselt","lat":"50.93106000","lon":"5.33781000"},
{"state":"Flanders","name":"Heers","lat":"50.75383000","lon":"5.30210000"},
{"state":"Flanders","name":"Heist-op-den-Berg","lat":"51.07537000","lon":"4.72827000"},
{"state":"Flanders","name":"Helchteren","lat":"51.05591000","lon":"5.38244000"},
{"state":"Flanders","name":"Hemiksem","lat":"51.14484000","lon":"4.33874000"},
{"state":"Flanders","name":"Herent","lat":"50.90861000","lon":"4.67056000"},
{"state":"Flanders","name":"Herentals","lat":"51.17655000","lon":"4.83248000"},
{"state":"Flanders","name":"Herenthout","lat":"51.14010000","lon":"4.75572000"},
{"state":"Flanders","name":"Herk-de-Stad","lat":"50.94013000","lon":"5.16636000"},
{"state":"Flanders","name":"Herne","lat":"50.72423000","lon":"4.03481000"},
{"state":"Flanders","name":"Herselt","lat":"51.05159000","lon":"4.88231000"},
{"state":"Flanders","name":"Herzele","lat":"50.88681000","lon":"3.89014000"},
{"state":"Flanders","name":"Heusden","lat":"51.03664000","lon":"5.28013000"},
{"state":"Flanders","name":"Hoboken","lat":"51.17611000","lon":"4.34844000"},
{"state":"Flanders","name":"Hoegaarden","lat":"50.77560000","lon":"4.88952000"},
{"state":"Flanders","name":"Hoeilaart","lat":"50.76730000","lon":"4.46835000"},
{"state":"Flanders","name":"Hoeselt","lat":"50.84714000","lon":"5.48767000"},
{"state":"Flanders","name":"Holsbeek","lat":"50.92097000","lon":"4.75747000"},
{"state":"Flanders","name":"Hooglede","lat":"50.98333000","lon":"3.08333000"},
{"state":"Flanders","name":"Hoogstraten","lat":"51.40029000","lon":"4.76034000"},
{"state":"Flanders","name":"Houthalen","lat":"51.03427000","lon":"5.37429000"},
{"state":"Flanders","name":"Houthulst","lat":"50.97824000","lon":"2.95050000"},
{"state":"Flanders","name":"Hove","lat":"51.15446000","lon":"4.47070000"},
{"state":"Flanders","name":"Huldenberg","lat":"50.78939000","lon":"4.58310000"},
{"state":"Flanders","name":"Hulshout","lat":"51.07451000","lon":"4.79081000"},
{"state":"Flanders","name":"Ichtegem","lat":"51.09572000","lon":"3.01549000"},
{"state":"Flanders","name":"Ieper","lat":"50.85114000","lon":"2.88569000"},
{"state":"Flanders","name":"Ingelmunster","lat":"50.92081000","lon":"3.25571000"},
{"state":"Flanders","name":"Izegem","lat":"50.91396000","lon":"3.21378000"},
{"state":"Flanders","name":"Jabbeke","lat":"51.18185000","lon":"3.08935000"},
{"state":"Flanders","name":"Kalmthout","lat":"51.38442000","lon":"4.47556000"},
{"state":"Flanders","name":"Kampenhout","lat":"50.94210000","lon":"4.55103000"},
{"state":"Flanders","name":"Kapelle-op-den-Bos","lat":"51.00970000","lon":"4.36303000"},
{"state":"Flanders","name":"Kapellen","lat":"51.31377000","lon":"4.43539000"},
{"state":"Flanders","name":"Kaprijke","lat":"51.21720000","lon":"3.61519000"},
{"state":"Flanders","name":"Kasterlee","lat":"51.24118000","lon":"4.96651000"},
{"state":"Flanders","name":"Keerbergen","lat":"51.00295000","lon":"4.63434000"},
{"state":"Flanders","name":"Kinrooi","lat":"51.14543000","lon":"5.74207000"},
{"state":"Flanders","name":"Knesselare","lat":"51.13932000","lon":"3.41282000"},
{"state":"Flanders","name":"Knokke-Heist","lat":"51.35000000","lon":"3.26667000"},
{"state":"Flanders","name":"Koekelare","lat":"51.09047000","lon":"2.97830000"},
{"state":"Flanders","name":"Koksijde","lat":"51.11642000","lon":"2.63772000"},
{"state":"Flanders","name":"Kontich","lat":"51.13213000","lon":"4.44706000"},
{"state":"Flanders","name":"Kortemark","lat":"51.02951000","lon":"3.04112000"},
{"state":"Flanders","name":"Kortenaken","lat":"50.90862000","lon":"5.05968000"},
{"state":"Flanders","name":"Kortenberg","lat":"50.88982000","lon":"4.54353000"},
{"state":"Flanders","name":"Kortessem","lat":"50.85890000","lon":"5.38974000"},
{"state":"Flanders","name":"Kortrijk","lat":"50.82803000","lon":"3.26487000"},
{"state":"Flanders","name":"Kraainem","lat":"50.86155000","lon":"4.46946000"},
{"state":"Flanders","name":"Kruibeke","lat":"51.17048000","lon":"4.31444000"},
{"state":"Flanders","name":"Kruishoutem","lat":"50.90168000","lon":"3.52588000"},
{"state":"Flanders","name":"Kuurne","lat":"50.85143000","lon":"3.28240000"},
{"state":"Flanders","name":"Laarne","lat":"51.03078000","lon":"3.85077000"},
{"state":"Flanders","name":"Lanaken","lat":"50.89318000","lon":"5.64680000"},
{"state":"Flanders","name":"Landen","lat":"50.75267000","lon":"5.08200000"},
{"state":"Flanders","name":"Lebbeke","lat":"51.00464000","lon":"4.13457000"},
{"state":"Flanders","name":"Lede","lat":"50.96626000","lon":"3.98594000"},
{"state":"Flanders","name":"Ledeberg","lat":"51.03859000","lon":"3.74458000"},
{"state":"Flanders","name":"Ledegem","lat":"50.85785000","lon":"3.12409000"},
{"state":"Flanders","name":"Lendelede","lat":"50.88626000","lon":"3.23747000"},
{"state":"Flanders","name":"Leopoldsburg","lat":"51.11667000","lon":"5.25000000"},
{"state":"Flanders","name":"Leuven","lat":"50.87959000","lon":"4.70093000"},
{"state":"Flanders","name":"Lichtervelde","lat":"51.03333000","lon":"3.15000000"},
{"state":"Flanders","name":"Liedekerke","lat":"50.86892000","lon":"4.08743000"},
{"state":"Flanders","name":"Lier","lat":"51.13128000","lon":"4.57041000"},
{"state":"Flanders","name":"Lille","lat":"51.24197000","lon":"4.82313000"},
{"state":"Flanders","name":"Linkebeek","lat":"50.76781000","lon":"4.33688000"},
{"state":"Flanders","name":"Lint","lat":"51.12707000","lon":"4.49669000"},
{"state":"Flanders","name":"Lochristi","lat":"51.09644000","lon":"3.83194000"},
{"state":"Flanders","name":"Lokeren","lat":"51.10364000","lon":"3.99339000"},
{"state":"Flanders","name":"Lommel","lat":"51.23074000","lon":"5.31349000"},
{"state":"Flanders","name":"Londerzeel","lat":"51.00468000","lon":"4.30304000"},
{"state":"Flanders","name":"Lovendegem","lat":"51.10168000","lon":"3.61298000"},
{"state":"Flanders","name":"Lubbeek","lat":"50.88278000","lon":"4.83896000"},
{"state":"Flanders","name":"Lummen","lat":"50.98772000","lon":"5.19121000"},
{"state":"Flanders","name":"Maaseik","lat":"51.09802000","lon":"5.78379000"},
{"state":"Flanders","name":"Maasmechelen","lat":"50.96545000","lon":"5.69452000"},
{"state":"Flanders","name":"Machelen","lat":"50.91061000","lon":"4.44174000"},
{"state":"Flanders","name":"Maldegem","lat":"51.20737000","lon":"3.44511000"},
{"state":"Flanders","name":"Mechelen","lat":"51.02574000","lon":"4.47762000"},
{"state":"Flanders","name":"Meerhout","lat":"51.13210000","lon":"5.07842000"},
{"state":"Flanders","name":"Meise","lat":"50.93934000","lon":"4.32655000"},
{"state":"Flanders","name":"Melle","lat":"51.00232000","lon":"3.80526000"},
{"state":"Flanders","name":"Menen","lat":"50.79722000","lon":"3.12245000"},
{"state":"Flanders","name":"Merchtem","lat":"50.95129000","lon":"4.23197000"},
{"state":"Flanders","name":"Merelbeke","lat":"50.99447000","lon":"3.74621000"},
{"state":"Flanders","name":"Merksplas","lat":"51.35851000","lon":"4.86513000"},
{"state":"Flanders","name":"Meulebeke","lat":"50.95136000","lon":"3.28804000"},
{"state":"Flanders","name":"Middelkerke","lat":"51.18532000","lon":"2.82077000"},
{"state":"Flanders","name":"Moerbeke","lat":"51.17409000","lon":"3.93001000"},
{"state":"Flanders","name":"Mol","lat":"51.19188000","lon":"5.11662000"},
{"state":"Flanders","name":"Moorslede","lat":"50.89190000","lon":"3.06117000"},
{"state":"Flanders","name":"Mortsel","lat":"51.16697000","lon":"4.45127000"},
{"state":"Flanders","name":"Nazareth","lat":"50.95686000","lon":"3.59425000"},
{"state":"Flanders","name":"Neerpelt","lat":"51.22807000","lon":"5.44270000"},
{"state":"Flanders","name":"Nevele","lat":"51.03531000","lon":"3.54574000"},
{"state":"Flanders","name":"Niel","lat":"51.11096000","lon":"4.33428000"},
{"state":"Flanders","name":"Nieuwerkerken","lat":"50.86380000","lon":"5.19467000"},
{"state":"Flanders","name":"Nieuwpoort","lat":"51.13008000","lon":"2.75135000"},
{"state":"Flanders","name":"Nijlen","lat":"51.16096000","lon":"4.67008000"},
{"state":"Flanders","name":"Ninove","lat":"50.82776000","lon":"4.02657000"},
{"state":"Flanders","name":"Olen","lat":"51.14391000","lon":"4.85980000"},
{"state":"Flanders","name":"Oostduinkerke","lat":"51.11565000","lon":"2.68217000"},
{"state":"Flanders","name":"Oosterzele","lat":"50.95261000","lon":"3.79826000"},
{"state":"Flanders","name":"Oostkamp","lat":"51.15432000","lon":"3.23128000"},
{"state":"Flanders","name":"Oostmalle","lat":"51.30000000","lon":"4.73333000"},
{"state":"Flanders","name":"Oostrozebeke","lat":"50.92093000","lon":"3.33799000"},
{"state":"Flanders","name":"Opglabbeek","lat":"51.04258000","lon":"5.58346000"},
{"state":"Flanders","name":"Opwijk","lat":"50.96724000","lon":"4.18442000"},
{"state":"Flanders","name":"Ostend","lat":"51.21551000","lon":"2.92700000"},
{"state":"Flanders","name":"Oud-Heverlee","lat":"50.83522000","lon":"4.66421000"},
{"state":"Flanders","name":"Oud-Turnhout","lat":"51.31978000","lon":"4.98410000"},
{"state":"Flanders","name":"Oudenaarde","lat":"50.85168000","lon":"3.60891000"},
{"state":"Flanders","name":"Oudenburg","lat":"51.18489000","lon":"3.00035000"},
{"state":"Flanders","name":"Overijse","lat":"50.77436000","lon":"4.53461000"},
{"state":"Flanders","name":"Overpelt","lat":"51.21038000","lon":"5.41557000"},
{"state":"Flanders","name":"Peer","lat":"51.13030000","lon":"5.45952000"},
{"state":"Flanders","name":"Pepingen","lat":"50.75922000","lon":"4.15983000"},
{"state":"Flanders","name":"Perre","lat":"50.88914000","lon":"3.86098000"},
{"state":"Flanders","name":"Pittem","lat":"50.99279000","lon":"3.26317000"},
{"state":"Flanders","name":"Poperinge","lat":"50.85386000","lon":"2.72659000"},
{"state":"Flanders","name":"Provincie Antwerpen","lat":"51.16558000","lon":"4.83402000"},
{"state":"Flanders","name":"Provincie Limburg","lat":"51.00000000","lon":"5.50000000"},
{"state":"Flanders","name":"Provincie Oost-Vlaanderen","lat":"51.00000000","lon":"3.75000000"},
{"state":"Flanders","name":"Provincie Vlaams-Brabant","lat":"50.91667000","lon":"4.58333000"},
{"state":"Flanders","name":"Provincie West-Vlaanderen","lat":"51.00000000","lon":"3.00000000"},
{"state":"Flanders","name":"Putte","lat":"51.05337000","lon":"4.63263000"},
{"state":"Flanders","name":"Puurs","lat":"51.07409000","lon":"4.28844000"},
{"state":"Flanders","name":"Ranst","lat":"51.18983000","lon":"4.56533000"},
{"state":"Flanders","name":"Ravels","lat":"51.37274000","lon":"4.99210000"},
{"state":"Flanders","name":"Retie","lat":"51.26652000","lon":"5.08242000"},
{"state":"Flanders","name":"Riemst","lat":"50.80995000","lon":"5.60131000"},
{"state":"Flanders","name":"Rijkevorsel","lat":"51.34795000","lon":"4.76053000"},
{"state":"Flanders","name":"Roeselare","lat":"50.94653000","lon":"3.12269000"},
{"state":"Flanders","name":"Ronse","lat":"50.74574000","lon":"3.60050000"},
{"state":"Flanders","name":"Rotselaar","lat":"50.95302000","lon":"4.71665000"},
{"state":"Flanders","name":"Ruiselede","lat":"51.04039000","lon":"3.39416000"},
{"state":"Flanders","name":"Rumst","lat":"51.08153000","lon":"4.42217000"},
{"state":"Flanders","name":"Schelle","lat":"51.12615000","lon":"4.34114000"},
{"state":"Flanders","name":"Schilde","lat":"51.24107000","lon":"4.58336000"},
{"state":"Flanders","name":"Schoten","lat":"51.25251000","lon":"4.50268000"},
{"state":"Flanders","name":"Sint-Amands","lat":"51.05645000","lon":"4.20957000"},
{"state":"Flanders","name":"Sint-Genesius-Rode","lat":"50.74645000","lon":"4.35754000"},
{"state":"Flanders","name":"Sint-Gillis-Waas","lat":"51.21914000","lon":"4.12374000"},
{"state":"Flanders","name":"Sint-Joris","lat":"50.87117000","lon":"5.27200000"},
{"state":"Flanders","name":"Sint-Katelijne-Waver","lat":"51.06691000","lon":"4.53469000"},
{"state":"Flanders","name":"Sint-Kruis","lat":"51.21399000","lon":"3.24949000"},
{"state":"Flanders","name":"Sint-Laureins","lat":"51.24202000","lon":"3.52441000"},
{"state":"Flanders","name":"Sint-Lievens-Houtem","lat":"50.91970000","lon":"3.86225000"},
{"state":"Flanders","name":"Sint-Maria-Lierde","lat":"50.81867000","lon":"3.84436000"},
{"state":"Flanders","name":"Sint-Martens-Latem","lat":"51.01459000","lon":"3.63779000"},
{"state":"Flanders","name":"Sint-Martens-Lennik","lat":"50.81158000","lon":"4.16965000"},
{"state":"Flanders","name":"Sint-Niklaas","lat":"51.16509000","lon":"4.14370000"},
{"state":"Flanders","name":"Sint-Pieters-Leeuw","lat":"50.77926000","lon":"4.24355000"},
{"state":"Flanders","name":"Sint-Pieters-Voeren","lat":"50.73863000","lon":"5.82224000"},
{"state":"Flanders","name":"Sint-Truiden","lat":"50.81679000","lon":"5.18647000"},
{"state":"Flanders","name":"Stabroek","lat":"51.33189000","lon":"4.37127000"},
{"state":"Flanders","name":"Staden","lat":"50.97456000","lon":"3.01469000"},
{"state":"Flanders","name":"Steenokkerzeel","lat":"50.91851000","lon":"4.50989000"},
{"state":"Flanders","name":"Stekene","lat":"51.20990000","lon":"4.03651000"},
{"state":"Flanders","name":"Temse","lat":"51.12794000","lon":"4.21372000"},
{"state":"Flanders","name":"Terkoest","lat":"50.89832000","lon":"5.27623000"},
{"state":"Flanders","name":"Ternat","lat":"50.86654000","lon":"4.16682000"},
{"state":"Flanders","name":"Tervuren","lat":"50.82372000","lon":"4.51418000"},
{"state":"Flanders","name":"Tessenderlo","lat":"51.06513000","lon":"5.08856000"},
{"state":"Flanders","name":"Tielt","lat":"50.99931000","lon":"3.32707000"},
{"state":"Flanders","name":"Tienen","lat":"50.80745000","lon":"4.93780000"},
{"state":"Flanders","name":"Tongeren","lat":"50.78054000","lon":"5.46484000"},
{"state":"Flanders","name":"Torhout","lat":"51.06560000","lon":"3.10085000"},
{"state":"Flanders","name":"Tremelo","lat":"50.99231000","lon":"4.70807000"},
{"state":"Flanders","name":"Turnhout","lat":"51.32254000","lon":"4.94471000"},
{"state":"Flanders","name":"Veurne","lat":"51.07316000","lon":"2.66803000"},
{"state":"Flanders","name":"Vilvoorde","lat":"50.92814000","lon":"4.42938000"},
{"state":"Flanders","name":"Vorselaar","lat":"51.20243000","lon":"4.77259000"},
{"state":"Flanders","name":"Vosselaar","lat":"51.30856000","lon":"4.88960000"},
{"state":"Flanders","name":"Waarschoot","lat":"51.15250000","lon":"3.60500000"},
{"state":"Flanders","name":"Waasmunster","lat":"51.10572000","lon":"4.08573000"},
{"state":"Flanders","name":"Wachtebeke","lat":"51.16852000","lon":"3.87183000"},
{"state":"Flanders","name":"Waregem","lat":"50.88898000","lon":"3.42756000"},
{"state":"Flanders","name":"Wellen","lat":"50.84096000","lon":"5.33867000"},
{"state":"Flanders","name":"Wemmel","lat":"50.90812000","lon":"4.30613000"},
{"state":"Flanders","name":"Wenduine","lat":"51.29830000","lon":"3.08213000"},
{"state":"Flanders","name":"Wervik","lat":"50.78069000","lon":"3.03854000"},
{"state":"Flanders","name":"Westerlo","lat":"51.09049000","lon":"4.91544000"},
{"state":"Flanders","name":"Wetteren","lat":"51.00526000","lon":"3.88341000"},
{"state":"Flanders","name":"Wevelgem","lat":"50.80000000","lon":"3.16667000"},
{"state":"Flanders","name":"Wezembeek-Oppem","lat":"50.83950000","lon":"4.49427000"},
{"state":"Flanders","name":"Wichelen","lat":"51.00526000","lon":"3.97683000"},
{"state":"Flanders","name":"Wielsbeke","lat":"50.90000000","lon":"3.36667000"},
{"state":"Flanders","name":"Wijnegem","lat":"51.22787000","lon":"4.51895000"},
{"state":"Flanders","name":"Willebroek","lat":"51.06041000","lon":"4.36019000"},
{"state":"Flanders","name":"Wingene","lat":"51.05782000","lon":"3.27359000"},
{"state":"Flanders","name":"Wommelgem","lat":"51.20452000","lon":"4.52250000"},
{"state":"Flanders","name":"Wuustwezel","lat":"51.39214000","lon":"4.59546000"},
{"state":"Flanders","name":"Zandhoven","lat":"51.21488000","lon":"4.66164000"},
{"state":"Flanders","name":"Zaventem","lat":"50.88365000","lon":"4.47298000"},
{"state":"Flanders","name":"Zedelgem","lat":"51.14236000","lon":"3.13680000"},
{"state":"Flanders","name":"Zeebrugge","lat":"51.32901000","lon":"3.18188000"},
{"state":"Flanders","name":"Zele","lat":"51.06566000","lon":"4.04030000"},
{"state":"Flanders","name":"Zelzate","lat":"51.18963000","lon":"3.80777000"},
{"state":"Flanders","name":"Zemst","lat":"50.98318000","lon":"4.46079000"},
{"state":"Flanders","name":"Zingem","lat":"50.90409000","lon":"3.65305000"},
{"state":"Flanders","name":"Zoersel","lat":"51.26825000","lon":"4.71296000"},
{"state":"Flanders","name":"Zomergem","lat":"51.11994000","lon":"3.56496000"},
{"state":"Flanders","name":"Zonhoven","lat":"50.99064000","lon":"5.36819000"},
{"state":"Flanders","name":"Zonnebeke","lat":"50.87260000","lon":"2.98725000"},
{"state":"Flanders","name":"Zottegem","lat":"50.86955000","lon":"3.81052000"},
{"state":"Flanders","name":"Zoutleeuw","lat":"50.83316000","lon":"5.10376000"},
{"state":"Flanders","name":"Zuienkerke","lat":"51.26511000","lon":"3.15506000"},
{"state":"Flanders","name":"Zulte","lat":"50.91954000","lon":"3.44859000"},
{"state":"Flanders","name":"Zutendaal","lat":"50.93306000","lon":"5.57530000"},
{"state":"Flanders","name":"Zwevegem","lat":"50.81268000","lon":"3.33848000"},
{"state":"Flanders","name":"Zwijndrecht","lat":"51.21979000","lon":"4.32664000"},
{"state":"Wallonia","name":"Aiseau","lat":"50.41158000","lon":"4.58671000"},
{"state":"Wallonia","name":"Amay","lat":"50.54829000","lon":"5.30974000"},
{"state":"Wallonia","name":"Amblève","lat":"50.35357000","lon":"6.17002000"},
{"state":"Wallonia","name":"Andenne","lat":"50.48941000","lon":"5.09513000"},
{"state":"Wallonia","name":"Anderlues","lat":"50.40704000","lon":"4.27136000"},
{"state":"Wallonia","name":"Anhée","lat":"50.31039000","lon":"4.87827000"},
{"state":"Wallonia","name":"Ans","lat":"50.66230000","lon":"5.52029000"},
{"state":"Wallonia","name":"Anthisnes","lat":"50.48323000","lon":"5.51900000"},
{"state":"Wallonia","name":"Antoing","lat":"50.56765000","lon":"3.44920000"},
{"state":"Wallonia","name":"Arlon","lat":"49.68333000","lon":"5.81667000"},
{"state":"Wallonia","name":"Assesse","lat":"50.36934000","lon":"5.02204000"},
{"state":"Wallonia","name":"Ath","lat":"50.62937000","lon":"3.77801000"},
{"state":"Wallonia","name":"Attert","lat":"49.75035000","lon":"5.78634000"},
{"state":"Wallonia","name":"Aubange","lat":"49.56652000","lon":"5.80492000"},
{"state":"Wallonia","name":"Aubel","lat":"50.70189000","lon":"5.85812000"},
{"state":"Wallonia","name":"Awans","lat":"50.66774000","lon":"5.46329000"},
{"state":"Wallonia","name":"Aywaille","lat":"50.47411000","lon":"5.67684000"},
{"state":"Wallonia","name":"Baelen","lat":"50.63131000","lon":"5.97433000"},
{"state":"Wallonia","name":"Basse Lasne","lat":"50.69503000","lon":"4.49218000"},
{"state":"Wallonia","name":"Bassenge","lat":"50.75883000","lon":"5.60989000"},
{"state":"Wallonia","name":"Bastogne","lat":"50.00347000","lon":"5.71844000"},
{"state":"Wallonia","name":"Beaumont","lat":"50.23699000","lon":"4.23926000"},
{"state":"Wallonia","name":"Beauraing","lat":"50.11042000","lon":"4.95554000"},
{"state":"Wallonia","name":"Beauvechain","lat":"50.78195000","lon":"4.77180000"},
{"state":"Wallonia","name":"Beloeil","lat":"50.55047000","lon":"3.73484000"},
{"state":"Wallonia","name":"Berloz","lat":"50.69829000","lon":"5.21236000"},
{"state":"Wallonia","name":"Bernissart","lat":"50.47460000","lon":"3.64961000"},
{"state":"Wallonia","name":"Bertogne","lat":"50.08364000","lon":"5.66689000"},
{"state":"Wallonia","name":"Bertrix","lat":"49.85596000","lon":"5.25539000"},
{"state":"Wallonia","name":"Beyne-Heusay","lat":"50.62251000","lon":"5.66508000"},
{"state":"Wallonia","name":"Bièvre","lat":"49.94085000","lon":"5.01591000"},
{"state":"Wallonia","name":"Binche","lat":"50.41155000","lon":"4.16469000"},
{"state":"Wallonia","name":"Blégny","lat":"50.67255000","lon":"5.72508000"},
{"state":"Wallonia","name":"Bouillon","lat":"49.79324000","lon":"5.06703000"},
{"state":"Wallonia","name":"Boussu","lat":"50.43417000","lon":"3.79440000"},
{"state":"Wallonia","name":"Braine-l'Alleud","lat":"50.68363000","lon":"4.36784000"},
{"state":"Wallonia","name":"Braine-le-Château","lat":"50.67990000","lon":"4.27385000"},
{"state":"Wallonia","name":"Braine-le-Comte","lat":"50.60979000","lon":"4.14658000"},
{"state":"Wallonia","name":"Braives","lat":"50.61745000","lon":"5.13302000"},
{"state":"Wallonia","name":"Brugelette","lat":"50.59577000","lon":"3.85363000"},
{"state":"Wallonia","name":"Brunehault","lat":"50.50524000","lon":"4.43209000"},
{"state":"Wallonia","name":"Bullange","lat":"50.40731000","lon":"6.25749000"},
{"state":"Wallonia","name":"Burdinne","lat":"50.58454000","lon":"5.07663000"},
{"state":"Wallonia","name":"Butgenbach","lat":"50.42689000","lon":"6.20504000"},
{"state":"Wallonia","name":"Celles","lat":"50.71229000","lon":"3.45733000"},
{"state":"Wallonia","name":"Cerfontaine","lat":"50.17047000","lon":"4.41028000"},
{"state":"Wallonia","name":"Chapelle-lez-Herlaimont","lat":"50.47130000","lon":"4.28227000"},
{"state":"Wallonia","name":"Charleroi","lat":"50.41136000","lon":"4.44448000"},
{"state":"Wallonia","name":"Chastre-Villeroux-Blanmont","lat":"50.60857000","lon":"4.64198000"},
{"state":"Wallonia","name":"Châtelet","lat":"50.40338000","lon":"4.52826000"},
{"state":"Wallonia","name":"Chaudfontaine","lat":"50.58280000","lon":"5.63410000"},
{"state":"Wallonia","name":"Chaumont-Gistoux","lat":"50.67753000","lon":"4.72120000"},
{"state":"Wallonia","name":"Chièvres","lat":"50.58787000","lon":"3.80711000"},
{"state":"Wallonia","name":"Chimay","lat":"50.04856000","lon":"4.31712000"},
{"state":"Wallonia","name":"Chiny","lat":"49.73833000","lon":"5.34104000"},
{"state":"Wallonia","name":"Ciney","lat":"50.29449000","lon":"5.10015000"},
{"state":"Wallonia","name":"Clavier","lat":"50.40069000","lon":"5.35154000"},
{"state":"Wallonia","name":"Colfontaine","lat":"50.41410000","lon":"3.85569000"},
{"state":"Wallonia","name":"Comblain-au-Pont","lat":"50.47488000","lon":"5.57711000"},
{"state":"Wallonia","name":"Courcelles","lat":"50.46379000","lon":"4.37470000"},
{"state":"Wallonia","name":"Court-Saint-Étienne","lat":"50.63378000","lon":"4.56851000"},
{"state":"Wallonia","name":"Couvin","lat":"50.05284000","lon":"4.49495000"},
{"state":"Wallonia","name":"Crisnée","lat":"50.71703000","lon":"5.39802000"},
{"state":"Wallonia","name":"Dalhem","lat":"50.71315000","lon":"5.72774000"},
{"state":"Wallonia","name":"Daverdisse","lat":"50.02161000","lon":"5.11811000"},
{"state":"Wallonia","name":"Dinant","lat":"50.25807000","lon":"4.91166000"},
{"state":"Wallonia","name":"Dison","lat":"50.61004000","lon":"5.85340000"},
{"state":"Wallonia","name":"Doische","lat":"50.13356000","lon":"4.73545000"},
{"state":"Wallonia","name":"Donceel","lat":"50.64827000","lon":"5.32000000"},
{"state":"Wallonia","name":"Dour","lat":"50.39583000","lon":"3.77792000"},
{"state":"Wallonia","name":"Durbuy","lat":"50.35291000","lon":"5.45631000"},
{"state":"Wallonia","name":"Écaussinnes-d’Enghien","lat":"50.56822000","lon":"4.16580000"},
{"state":"Wallonia","name":"Éghezée","lat":"50.59076000","lon":"4.91175000"},
{"state":"Wallonia","name":"Ellezelles","lat":"50.73512000","lon":"3.67985000"},
{"state":"Wallonia","name":"Enghien","lat":"50.68373000","lon":"4.03284000"},
{"state":"Wallonia","name":"Engis","lat":"50.58156000","lon":"5.39916000"},
{"state":"Wallonia","name":"Érezée","lat":"50.29292000","lon":"5.55815000"},
{"state":"Wallonia","name":"Erquelinnes","lat":"50.30688000","lon":"4.11129000"},
{"state":"Wallonia","name":"Esneux","lat":"50.53596000","lon":"5.56775000"},
{"state":"Wallonia","name":"Estaimpuis","lat":"50.70485000","lon":"3.26785000"},
{"state":"Wallonia","name":"Estinnes-au-Val","lat":"50.41016000","lon":"4.10477000"},
{"state":"Wallonia","name":"Étalle","lat":"49.67385000","lon":"5.60019000"},
{"state":"Wallonia","name":"Eupen","lat":"50.62790000","lon":"6.03647000"},
{"state":"Wallonia","name":"Faimes","lat":"50.66252000","lon":"5.26005000"},
{"state":"Wallonia","name":"Farciennes","lat":"50.43006000","lon":"4.54152000"},
{"state":"Wallonia","name":"Fauvillers","lat":"49.85116000","lon":"5.66405000"},
{"state":"Wallonia","name":"Ferrières","lat":"50.40157000","lon":"5.61092000"},
{"state":"Wallonia","name":"Fexhe-le-Haut-Clocher","lat":"50.66540000","lon":"5.39978000"},
{"state":"Wallonia","name":"Flémalle-Haute","lat":"50.59994000","lon":"5.44471000"},
{"state":"Wallonia","name":"Fléron","lat":"50.61516000","lon":"5.68062000"},
{"state":"Wallonia","name":"Fleurus","lat":"50.48351000","lon":"4.55006000"},
{"state":"Wallonia","name":"Flobecq","lat":"50.73733000","lon":"3.73876000"},
{"state":"Wallonia","name":"Floreffe","lat":"50.43452000","lon":"4.75960000"},
{"state":"Wallonia","name":"Florennes","lat":"50.25127000","lon":"4.60636000"},
{"state":"Wallonia","name":"Florenville","lat":"49.69983000","lon":"5.30740000"},
{"state":"Wallonia","name":"Forville","lat":"50.57424000","lon":"4.99861000"},
{"state":"Wallonia","name":"Fosses-la-Ville","lat":"50.39517000","lon":"4.69623000"},
{"state":"Wallonia","name":"Frameries","lat":"50.40578000","lon":"3.89603000"},
{"state":"Wallonia","name":"Frasnes-lez-Buissenal","lat":"50.66783000","lon":"3.62047000"},
{"state":"Wallonia","name":"Froidchapelle","lat":"50.15106000","lon":"4.32742000"},
{"state":"Wallonia","name":"Gedinne","lat":"49.98037000","lon":"4.93674000"},
{"state":"Wallonia","name":"Geer","lat":"50.66990000","lon":"5.17364000"},
{"state":"Wallonia","name":"Gembloux","lat":"50.56149000","lon":"4.69889000"},
{"state":"Wallonia","name":"Genappe","lat":"50.61173000","lon":"4.45152000"},
{"state":"Wallonia","name":"Gerpinnes","lat":"50.33789000","lon":"4.52731000"},
{"state":"Wallonia","name":"Gesves","lat":"50.40146000","lon":"5.07457000"},
{"state":"Wallonia","name":"Gouvy","lat":"50.18600000","lon":"5.93917000"},
{"state":"Wallonia","name":"Grez-Doiceau","lat":"50.73901000","lon":"4.69829000"},
{"state":"Wallonia","name":"Habay-la-Vieille","lat":"49.72329000","lon":"5.61999000"},
{"state":"Wallonia","name":"Hamoir","lat":"50.42675000","lon":"5.53304000"},
{"state":"Wallonia","name":"Hamois","lat":"50.34020000","lon":"5.15619000"},
{"state":"Wallonia","name":"Hannut","lat":"50.67142000","lon":"5.07898000"},
{"state":"Wallonia","name":"Hastière-Lavaux","lat":"50.21849000","lon":"4.82446000"},
{"state":"Wallonia","name":"Havelange","lat":"50.38931000","lon":"5.23816000"},
{"state":"Wallonia","name":"Hensies","lat":"50.43263000","lon":"3.68411000"},
{"state":"Wallonia","name":"Herbeumont","lat":"49.78086000","lon":"5.23580000"},
{"state":"Wallonia","name":"Héron","lat":"50.54731000","lon":"5.09774000"},
{"state":"Wallonia","name":"Herstal","lat":"50.66415000","lon":"5.62346000"},
{"state":"Wallonia","name":"Herve","lat":"50.64083000","lon":"5.79353000"},
{"state":"Wallonia","name":"Hotton","lat":"50.26742000","lon":"5.44609000"},
{"state":"Wallonia","name":"Houffalize","lat":"50.13235000","lon":"5.78962000"},
{"state":"Wallonia","name":"Houyet","lat":"50.18619000","lon":"5.00762000"},
{"state":"Wallonia","name":"Huy","lat":"50.51894000","lon":"5.23284000"},
{"state":"Wallonia","name":"Incourt","lat":"50.69151000","lon":"4.79816000"},
{"state":"Wallonia","name":"Ittre","lat":"50.64396000","lon":"4.26476000"},
{"state":"Wallonia","name":"Jalhay","lat":"50.55876000","lon":"5.96764000"},
{"state":"Wallonia","name":"Jodoigne","lat":"50.72357000","lon":"4.86914000"},
{"state":"Wallonia","name":"Juprelle","lat":"50.70760000","lon":"5.53127000"},
{"state":"Wallonia","name":"Jurbise","lat":"50.53100000","lon":"3.90942000"},
{"state":"Wallonia","name":"La Bruyère","lat":"50.39478000","lon":"4.61444000"},
{"state":"Wallonia","name":"La Calamine","lat":"50.71809000","lon":"6.01107000"},
{"state":"Wallonia","name":"La Hulpe","lat":"50.73091000","lon":"4.48577000"},
{"state":"Wallonia","name":"La Louvière","lat":"50.48657000","lon":"4.18785000"},
{"state":"Wallonia","name":"La Roche-en-Ardenne","lat":"50.18361000","lon":"5.57547000"},
{"state":"Wallonia","name":"Léglise","lat":"49.79985000","lon":"5.53652000"},
{"state":"Wallonia","name":"Lens","lat":"50.55696000","lon":"3.89946000"},
{"state":"Wallonia","name":"Lessines","lat":"50.71104000","lon":"3.83579000"},
{"state":"Wallonia","name":"Libin","lat":"49.98107000","lon":"5.25612000"},
{"state":"Wallonia","name":"Liège","lat":"50.63373000","lon":"5.56749000"},
{"state":"Wallonia","name":"Lierneux","lat":"50.28477000","lon":"5.79236000"},
{"state":"Wallonia","name":"Limbourg","lat":"50.61222000","lon":"5.94120000"},
{"state":"Wallonia","name":"Lincent","lat":"50.71222000","lon":"5.03654000"},
{"state":"Wallonia","name":"Lobbes","lat":"50.35258000","lon":"4.26716000"},
{"state":"Wallonia","name":"Lontzen","lat":"50.68126000","lon":"6.00712000"},
{"state":"Wallonia","name":"Louvain-la-Neuve","lat":"50.66829000","lon":"4.61443000"},
{"state":"Wallonia","name":"Malmédy","lat":"50.42686000","lon":"6.02794000"},
{"state":"Wallonia","name":"Manage","lat":"50.50312000","lon":"4.23589000"},
{"state":"Wallonia","name":"Manhay","lat":"50.29219000","lon":"5.67562000"},
{"state":"Wallonia","name":"Marche-en-Famenne","lat":"50.22678000","lon":"5.34416000"},
{"state":"Wallonia","name":"Marchin","lat":"50.46707000","lon":"5.24280000"},
{"state":"Wallonia","name":"Martelange","lat":"49.83195000","lon":"5.73655000"},
{"state":"Wallonia","name":"Meix-devant-Virton","lat":"49.60581000","lon":"5.48045000"},
{"state":"Wallonia","name":"Merbes-le-Château","lat":"50.32449000","lon":"4.16489000"},
{"state":"Wallonia","name":"Messancy","lat":"49.59201000","lon":"5.81879000"},
{"state":"Wallonia","name":"Mettet","lat":"50.32119000","lon":"4.66232000"},
{"state":"Wallonia","name":"Modave","lat":"50.44614000","lon":"5.29532000"},
{"state":"Wallonia","name":"Momignies","lat":"50.02710000","lon":"4.16519000"},
{"state":"Wallonia","name":"Mons","lat":"50.45413000","lon":"3.95229000"},
{"state":"Wallonia","name":"Mons-lez-Liège","lat":"50.61667000","lon":"5.46667000"},
{"state":"Wallonia","name":"Mont-Saint-Guibert","lat":"50.63427000","lon":"4.61061000"},
{"state":"Wallonia","name":"Morlanwelz-Mariemont","lat":"50.45502000","lon":"4.24519000"},
{"state":"Wallonia","name":"Mouscron","lat":"50.74497000","lon":"3.20639000"},
{"state":"Wallonia","name":"Musson","lat":"49.55835000","lon":"5.70525000"},
{"state":"Wallonia","name":"Namur","lat":"50.46690000","lon":"4.86746000"},
{"state":"Wallonia","name":"Nandrin","lat":"50.50675000","lon":"5.41905000"},
{"state":"Wallonia","name":"Nassogne","lat":"50.12849000","lon":"5.34274000"},
{"state":"Wallonia","name":"Neufchâteau","lat":"49.84074000","lon":"5.43535000"},
{"state":"Wallonia","name":"Nivelles","lat":"50.59833000","lon":"4.32848000"},
{"state":"Wallonia","name":"Noville-les-Bois","lat":"50.55702000","lon":"4.98466000"},
{"state":"Wallonia","name":"Ohey","lat":"50.43570000","lon":"5.12375000"},
{"state":"Wallonia","name":"Olne","lat":"50.58994000","lon":"5.74662000"},
{"state":"Wallonia","name":"Onhaye","lat":"50.24148000","lon":"4.84069000"},
{"state":"Wallonia","name":"Oreye","lat":"50.71749000","lon":"5.34880000"},
{"state":"Wallonia","name":"Ottignies","lat":"50.66535000","lon":"4.56679000"},
{"state":"Wallonia","name":"Ouffet","lat":"50.43870000","lon":"5.46570000"},
{"state":"Wallonia","name":"Oupeye","lat":"50.71184000","lon":"5.64680000"},
{"state":"Wallonia","name":"Paliseul","lat":"49.90395000","lon":"5.13537000"},
{"state":"Wallonia","name":"Pecq","lat":"50.68619000","lon":"3.33789000"},
{"state":"Wallonia","name":"Pepinster","lat":"50.57375000","lon":"5.80490000"},
{"state":"Wallonia","name":"Péruwelz","lat":"50.50819000","lon":"3.59373000"},
{"state":"Wallonia","name":"Perwez","lat":"50.62426000","lon":"4.81354000"},
{"state":"Wallonia","name":"Philippeville","lat":"50.19612000","lon":"4.54374000"},
{"state":"Wallonia","name":"Plombières","lat":"50.73656000","lon":"5.95922000"},
{"state":"Wallonia","name":"Pont-à-Celles","lat":"50.50518000","lon":"4.36887000"},
{"state":"Wallonia","name":"Profondeville","lat":"50.37581000","lon":"4.86506000"},
{"state":"Wallonia","name":"Province de Liège","lat":"50.63427000","lon":"5.56543000"},
{"state":"Wallonia","name":"Province de Namur","lat":"50.33333000","lon":"4.83333000"},
{"state":"Wallonia","name":"Province du Brabant Wallon","lat":"50.75000000","lon":"4.58333000"},
{"state":"Wallonia","name":"Province du Hainaut","lat":"50.50000000","lon":"3.83333000"},
{"state":"Wallonia","name":"Province du Luxembourg","lat":"50.00000000","lon":"5.50000000"},
{"state":"Wallonia","name":"Quaregnon","lat":"50.44067000","lon":"3.86530000"},
{"state":"Wallonia","name":"Quévy-le-Petit","lat":"50.36879000","lon":"3.93602000"},
{"state":"Wallonia","name":"Quiévrain","lat":"50.40737000","lon":"3.68351000"},
{"state":"Wallonia","name":"Raeren","lat":"50.66720000","lon":"6.11535000"},
{"state":"Wallonia","name":"Ramillies","lat":"50.63395000","lon":"4.90119000"},
{"state":"Wallonia","name":"Rebecq-Rognon","lat":"50.65147000","lon":"4.10683000"},
{"state":"Wallonia","name":"Remicourt","lat":"50.68069000","lon":"5.32785000"},
{"state":"Wallonia","name":"Rendeux","lat":"50.23423000","lon":"5.50414000"},
{"state":"Wallonia","name":"Rixensart","lat":"50.71229000","lon":"4.52529000"},
{"state":"Wallonia","name":"Rochefort","lat":"50.16310000","lon":"5.22160000"},
{"state":"Wallonia","name":"Roeulx","lat":"50.50365000","lon":"4.11163000"},
{"state":"Wallonia","name":"Rouvroy","lat":"49.53771000","lon":"5.49031000"},
{"state":"Wallonia","name":"Rumes","lat":"50.55450000","lon":"3.30535000"},
{"state":"Wallonia","name":"Saint-Ghislain","lat":"50.44816000","lon":"3.81886000"},
{"state":"Wallonia","name":"Saint-Hubert","lat":"50.02668000","lon":"5.37401000"},
{"state":"Wallonia","name":"Saint-Léger","lat":"49.61196000","lon":"5.65688000"},
{"state":"Wallonia","name":"Saint-Nicolas","lat":"50.62837000","lon":"5.53243000"},
{"state":"Wallonia","name":"Saint-Vith","lat":"50.28146000","lon":"6.12724000"},
{"state":"Wallonia","name":"Sainte-Ode","lat":"50.01723000","lon":"5.51926000"},
{"state":"Wallonia","name":"Seneffe","lat":"50.53135000","lon":"4.26301000"},
{"state":"Wallonia","name":"Seraing","lat":"50.58362000","lon":"5.50115000"},
{"state":"Wallonia","name":"Silly","lat":"50.64877000","lon":"3.92363000"},
{"state":"Wallonia","name":"Soignies","lat":"50.57904000","lon":"4.07129000"},
{"state":"Wallonia","name":"Sombreffe","lat":"50.52865000","lon":"4.60087000"},
{"state":"Wallonia","name":"Somme-Leuze","lat":"50.33699000","lon":"5.36705000"},
{"state":"Wallonia","name":"Soumagne","lat":"50.61385000","lon":"5.74679000"},
{"state":"Wallonia","name":"Spa","lat":"50.48375000","lon":"5.86674000"},
{"state":"Wallonia","name":"Sprimont","lat":"50.50922000","lon":"5.65950000"},
{"state":"Wallonia","name":"Stavelot","lat":"50.39500000","lon":"5.93124000"},
{"state":"Wallonia","name":"Stoumont","lat":"50.40667000","lon":"5.80838000"},
{"state":"Wallonia","name":"Tellin","lat":"50.08038000","lon":"5.21638000"},
{"state":"Wallonia","name":"Tenneville","lat":"50.09501000","lon":"5.52895000"},
{"state":"Wallonia","name":"Theux","lat":"50.53323000","lon":"5.81245000"},
{"state":"Wallonia","name":"Thuin","lat":"50.33933000","lon":"4.28604000"},
{"state":"Wallonia","name":"Tinlot","lat":"50.47493000","lon":"5.37755000"},
{"state":"Wallonia","name":"Tintigny","lat":"49.68326000","lon":"5.51349000"},
{"state":"Wallonia","name":"Tournai","lat":"50.60715000","lon":"3.38932000"},
{"state":"Wallonia","name":"Trois-Ponts","lat":"50.37128000","lon":"5.87146000"},
{"state":"Wallonia","name":"Trooz","lat":"50.57026000","lon":"5.69521000"},
{"state":"Wallonia","name":"Tubize","lat":"50.69059000","lon":"4.20090000"},
{"state":"Wallonia","name":"Vaux-sur-Sûre","lat":"49.91100000","lon":"5.57848000"},
{"state":"Wallonia","name":"Verlaine","lat":"50.60743000","lon":"5.31740000"},
{"state":"Wallonia","name":"Verviers","lat":"50.58907000","lon":"5.86241000"},
{"state":"Wallonia","name":"Vielsalm","lat":"50.28407000","lon":"5.91502000"},
{"state":"Wallonia","name":"Villers-la-Ville","lat":"50.56667000","lon":"4.51667000"},
{"state":"Wallonia","name":"Villers-le-Bouillet","lat":"50.57708000","lon":"5.25945000"},
{"state":"Wallonia","name":"Virton","lat":"49.56824000","lon":"5.53259000"},
{"state":"Wallonia","name":"Visé","lat":"50.73760000","lon":"5.69907000"},
{"state":"Wallonia","name":"Waimes","lat":"50.41488000","lon":"6.11207000"},
{"state":"Wallonia","name":"Walcourt","lat":"50.25401000","lon":"4.43796000"},
{"state":"Wallonia","name":"Walhain-Saint-Paul","lat":"50.62627000","lon":"4.69837000"},
{"state":"Wallonia","name":"Wanze","lat":"50.53907000","lon":"5.20846000"},
{"state":"Wallonia","name":"Waremme","lat":"50.69760000","lon":"5.25524000"},
{"state":"Wallonia","name":"Wasseiges","lat":"50.62186000","lon":"5.00528000"},
{"state":"Wallonia","name":"Waterloo","lat":"50.71469000","lon":"4.39910000"},
{"state":"Wallonia","name":"Wavre","lat":"50.71717000","lon":"4.60138000"},
{"state":"Wallonia","name":"Welkenraedt","lat":"50.66050000","lon":"5.97034000"},
{"state":"Wallonia","name":"Wellin","lat":"50.08133000","lon":"5.11413000"},
{"state":"Wallonia","name":"Yvoir","lat":"50.32790000","lon":"4.88059000"}]