[{"state":"Boucle du Mouhoun Region","name":"Barani","lat":"13.16910000","lon":"-3.88990000"},
{"state":"Boucle du Mouhoun Region","name":"Boromo","lat":"11.74542000","lon":"-2.93006000"},
{"state":"Boucle du Mouhoun Region","name":"Dédougou","lat":"12.46338000","lon":"-3.46075000"},
{"state":"Boucle du Mouhoun Region","name":"Nouna","lat":"12.72939000","lon":"-3.86305000"},
{"state":"Boucle du Mouhoun Region","name":"Province de la Kossi","lat":"12.91667000","lon":"-3.83333000"},
{"state":"Boucle du Mouhoun Region","name":"Province des Balé","lat":"11.71667000","lon":"-3.05000000"},
{"state":"Boucle du Mouhoun Region","name":"Province des Banwa","lat":"12.16667000","lon":"-4.16667000"},
{"state":"Boucle du Mouhoun Region","name":"Province du Mouhoun","lat":"12.25000000","lon":"-3.41667000"},
{"state":"Boucle du Mouhoun Region","name":"Province du Nayala","lat":"12.66667000","lon":"-3.00000000"},
{"state":"Boucle du Mouhoun Region","name":"Province du Sourou","lat":"13.25000000","lon":"-3.00000000"},
{"state":"Boucle du Mouhoun Region","name":"Salanso","lat":"12.17423000","lon":"-4.08477000"},
{"state":"Boucle du Mouhoun Region","name":"Toma","lat":"12.75844000","lon":"-2.89879000"},
{"state":"Boucle du Mouhoun Region","name":"Tougan","lat":"13.07250000","lon":"-3.06940000"},
{"state":"Cascades Region","name":"Banfora","lat":"10.63333000","lon":"-4.76667000"},
{"state":"Cascades Region","name":"Province de la Comoé","lat":"10.33333000","lon":"-4.41667000"},
{"state":"Cascades Region","name":"Province de la Léraba","lat":"10.66667000","lon":"-5.20000000"},
{"state":"Cascades Region","name":"Sindou","lat":"10.66667000","lon":"-5.16667000"},
{"state":"Centre","name":"Kadiogo Province","lat":"12.33333000","lon":"-1.50000000"},
{"state":"Centre","name":"Ouagadougou","lat":"12.36566000","lon":"-1.53388000"},
{"state":"Centre-Est Region","name":"Garango","lat":"11.80000000","lon":"-0.55056000"},
{"state":"Centre-Est Region","name":"Koupéla","lat":"12.17864000","lon":"-0.35103000"},
{"state":"Centre-Est Region","name":"Kouritenga Province","lat":"12.20000000","lon":"-0.30000000"},
{"state":"Centre-Est Region","name":"Ouargaye","lat":"11.50202000","lon":"0.05886000"},
{"state":"Centre-Est Region","name":"Province du Boulgou","lat":"11.50000000","lon":"-0.41667000"},
{"state":"Centre-Est Region","name":"Province du Koulpélogo","lat":"11.41667000","lon":"0.16667000"},
{"state":"Centre-Est Region","name":"Tenkodogo","lat":"11.78000000","lon":"-0.36972000"},
{"state":"Centre-Nord Region","name":"Boulsa","lat":"12.66664000","lon":"-0.57469000"},
{"state":"Centre-Nord Region","name":"Kaya","lat":"13.09167000","lon":"-1.08444000"},
{"state":"Centre-Nord Region","name":"Kongoussi","lat":"13.32583000","lon":"-1.53472000"},
{"state":"Centre-Nord Region","name":"Province du Bam","lat":"13.46667000","lon":"-1.58333000"},
{"state":"Centre-Nord Region","name":"Province du Namentenga","lat":"13.25000000","lon":"-0.50000000"},
{"state":"Centre-Nord Region","name":"Province du Sanmatenga","lat":"13.25000000","lon":"-1.08333000"},
{"state":"Centre-Ouest Region","name":"Goulouré","lat":"12.23484000","lon":"-1.93394000"},
{"state":"Centre-Ouest Region","name":"Kokologo","lat":"12.19392000","lon":"-1.87687000"},
{"state":"Centre-Ouest Region","name":"Koudougou","lat":"12.25263000","lon":"-2.36272000"},
{"state":"Centre-Ouest Region","name":"Léo","lat":"11.10033000","lon":"-2.10654000"},
{"state":"Centre-Ouest Region","name":"Pitmoaga","lat":"12.24564000","lon":"-1.88148000"},
{"state":"Centre-Ouest Region","name":"Province de la Sissili","lat":"11.33333000","lon":"-2.25000000"},
{"state":"Centre-Ouest Region","name":"Province du Boulkiemdé","lat":"12.33333000","lon":"-2.16667000"},
{"state":"Centre-Ouest Region","name":"Province du Sanguié","lat":"12.16667000","lon":"-2.66667000"},
{"state":"Centre-Ouest Region","name":"Province du Ziro","lat":"11.58333000","lon":"-1.91667000"},
{"state":"Centre-Ouest Region","name":"Réo","lat":"12.31963000","lon":"-2.47094000"},
{"state":"Centre-Ouest Region","name":"Sapouy","lat":"11.55444000","lon":"-1.77361000"},
{"state":"Centre-Sud Region","name":"Bazega Province","lat":"11.91667000","lon":"-1.50000000"},
{"state":"Centre-Sud Region","name":"Kombissiri","lat":"12.06884000","lon":"-1.33644000"},
{"state":"Centre-Sud Region","name":"Manga","lat":"11.66361000","lon":"-1.07306000"},
{"state":"Centre-Sud Region","name":"Nahouri Province","lat":"11.25000000","lon":"-1.25000000"},
{"state":"Centre-Sud Region","name":"Pô","lat":"11.16972000","lon":"-1.14500000"},
{"state":"Centre-Sud Region","name":"Zoundweogo Province","lat":"11.58333000","lon":"-1.00000000"},
{"state":"Est Region","name":"Bogandé","lat":"12.97040000","lon":"-0.14953000"},
{"state":"Est Region","name":"Diapaga","lat":"12.07305000","lon":"1.78838000"},
{"state":"Est Region","name":"Fada N'gourma","lat":"12.06157000","lon":"0.35843000"},
{"state":"Est Region","name":"Gayéri","lat":"12.64824000","lon":"0.49314000"},
{"state":"Est Region","name":"Gnagna Province","lat":"12.91880000","lon":"0.03920000"},
{"state":"Est Region","name":"Pama","lat":"11.24972000","lon":"0.70750000"},
{"state":"Est Region","name":"Province de la Komandjoari","lat":"12.66667000","lon":"0.66667000"},
{"state":"Est Region","name":"Province de la Kompienga","lat":"11.41667000","lon":"0.91667000"},
{"state":"Est Region","name":"Province de la Tapoa","lat":"12.00000000","lon":"1.75000000"},
{"state":"Est Region","name":"Province du Gourma","lat":"12.08333000","lon":"0.50000000"},
{"state":"Hauts-Bassins Region","name":"Bobo-Dioulasso","lat":"11.17715000","lon":"-4.29790000"},
{"state":"Hauts-Bassins Region","name":"Houndé","lat":"11.50000000","lon":"-3.51667000"},
{"state":"Hauts-Bassins Region","name":"Province du Houet","lat":"11.33333000","lon":"-4.25000000"},
{"state":"Hauts-Bassins Region","name":"Province du Kénédougou","lat":"11.41667000","lon":"-5.00000000"},
{"state":"Hauts-Bassins Region","name":"Province du Tuy","lat":"11.41667000","lon":"-3.41667000"},
{"state":"Nord Region, Burkina Faso","name":"Gourcy","lat":"13.20776000","lon":"-2.35893000"},
{"state":"Nord Region, Burkina Faso","name":"Ouahigouya","lat":"13.58278000","lon":"-2.42158000"},
{"state":"Nord Region, Burkina Faso","name":"Province du Loroum","lat":"13.91667000","lon":"-2.16667000"},
{"state":"Nord Region, Burkina Faso","name":"Province du Passoré","lat":"12.91667000","lon":"-2.16667000"},
{"state":"Nord Region, Burkina Faso","name":"Province du Yatenga","lat":"13.58333000","lon":"-2.41667000"},
{"state":"Nord Region, Burkina Faso","name":"Province du Zondoma","lat":"13.18333000","lon":"-2.36667000"},
{"state":"Nord Region, Burkina Faso","name":"Titao","lat":"13.76667000","lon":"-2.06667000"},
{"state":"Nord Region, Burkina Faso","name":"Yako","lat":"12.95910000","lon":"-2.26075000"},
{"state":"Plateau-Central Region","name":"Boussé","lat":"12.66121000","lon":"-1.89515000"},
{"state":"Plateau-Central Region","name":"Oubritenga","lat":"12.66667000","lon":"-1.33333000"},
{"state":"Plateau-Central Region","name":"Province du Ganzourgou","lat":"12.26667000","lon":"-0.76667000"},
{"state":"Plateau-Central Region","name":"Province du Kourwéogo","lat":"12.58333000","lon":"-1.76667000"},
{"state":"Plateau-Central Region","name":"Ziniaré","lat":"12.58186000","lon":"-1.29710000"},
{"state":"Plateau-Central Region","name":"Zorgo","lat":"12.24922000","lon":"-0.61527000"},
{"state":"Sahel Region","name":"Djibo","lat":"14.09940000","lon":"-1.62554000"},
{"state":"Sahel Region","name":"Dori","lat":"14.03540000","lon":"-0.03450000"},
{"state":"Sahel Region","name":"Gorom-Gorom","lat":"14.44290000","lon":"-0.23468000"},
{"state":"Sahel Region","name":"Province de l’Oudalan","lat":"14.66667000","lon":"-0.33333000"},
{"state":"Sahel Region","name":"Province du Séno","lat":"13.96400000","lon":"0.01200000"},
{"state":"Sahel Region","name":"Province du Soum","lat":"14.33333000","lon":"-1.25000000"},
{"state":"Sahel Region","name":"Province du Yagha","lat":"13.41667000","lon":"0.58333000"},
{"state":"Sud-Ouest Region","name":"Batié","lat":"9.88333000","lon":"-2.91667000"},
{"state":"Sud-Ouest Region","name":"Dano","lat":"11.14640000","lon":"-3.05784000"},
{"state":"Sud-Ouest Region","name":"Diébougou","lat":"10.96209000","lon":"-3.24967000"},
{"state":"Sud-Ouest Region","name":"Province de la Bougouriba","lat":"10.83333000","lon":"-3.41667000"},
{"state":"Sud-Ouest Region","name":"Province du Ioba","lat":"11.08333000","lon":"-3.08333000"},
{"state":"Sud-Ouest Region","name":"Province du Noumbièl","lat":"9.83333000","lon":"-3.00000000"},
{"state":"Sud-Ouest Region","name":"Province du Poni","lat":"10.25000000","lon":"-3.41667000"}]