[{"name":"Blagoevgrad Province","native":null,"cities":[{"name":"Bansko","native":null,"lat":"41.83830000","lon":"23.48851000"},{"name":"Belitsa","native":null,"lat":"41.95694000","lon":"23.57250000"},{"name":"Blagoevgrad","native":null,"lat":"42.01667000","lon":"23.10000000"},{"name":"Garmen","native":null,"lat":"41.60000000","lon":"23.81667000"},{"name":"Gotse Delchev","native":null,"lat":"41.56667000","lon":"23.73333000"},{"name":"Hadzhidimovo","native":null,"lat":"41.52222000","lon":"23.86861000"},{"name":"Kolarovo","native":null,"lat":"41.36385000","lon":"23.10669000"},{"name":"Kresna","native":null,"lat":"41.73333000","lon":"23.15000000"},{"name":"Obshtina Bansko","native":null,"lat":"41.80000000","lon":"23.60000000"},{"name":"Obshtina Belitsa","native":null,"lat":"42.01667000","lon":"23.58333000"},{"name":"Obshtina Blagoevgrad","native":null,"lat":"42.01667000","lon":"23.16667000"},{"name":"Obshtina Garmen","native":null,"lat":"41.70000000","lon":"23.85000000"},{"name":"Obshtina Gotse Delchev","native":null,"lat":"41.63333000","lon":"23.68333000"},{"name":"Obshtina Kresna","native":null,"lat":"41.76667000","lon":"23.23333000"},{"name":"Obshtina Petrich","native":null,"lat":"41.45000000","lon":"23.16667000"},{"name":"Obshtina Razlog","native":null,"lat":"41.95000000","lon":"23.46667000"},{"name":"Obshtina Sandanski","native":null,"lat":"41.56667000","lon":"23.45000000"},{"name":"Obshtina Satovcha","native":null,"lat":"41.59848000","lon":"24.00781000"},{"name":"Obshtina Simitli","native":null,"lat":"41.88333000","lon":"23.16667000"},{"name":"Obshtina Strumyani","native":null,"lat":"41.63333000","lon":"23.20000000"},{"name":"Obshtina Yakoruda","native":null,"lat":"42.08333000","lon":"23.70000000"},{"name":"Petrich","native":null,"lat":"41.39846000","lon":"23.20702000"},{"name":"Razlog","native":null,"lat":"41.88630000","lon":"23.46714000"},{"name":"Sandanski","native":null,"lat":"41.56667000","lon":"23.28333000"},{"name":"Satovcha","native":null,"lat":"41.61667000","lon":"23.98333000"},{"name":"Simitli","native":null,"lat":"41.88333000","lon":"23.11667000"},{"name":"Stara Kresna","native":null,"lat":"41.80000000","lon":"23.18333000"},{"name":"Strumyani","native":null,"lat":"41.63333000","lon":"23.20000000"},{"name":"Yakoruda","native":null,"lat":"42.02528000","lon":"23.68417000"}]},{"name":"Burgas Province","native":null,"cities":[{"name":"Aheloy","native":null,"lat":"42.64987000","lon":"27.64838000"},{"name":"Ahtopol","native":null,"lat":"42.09768000","lon":"27.93961000"},{"name":"Aytos","native":null,"lat":"42.70000000","lon":"27.25000000"},{"name":"Bata","native":null,"lat":"42.73802000","lon":"27.49643000"},{"name":"Burgas","native":null,"lat":"42.50606000","lon":"27.46781000"},{"name":"Chernomorets","native":null,"lat":"42.44408000","lon":"27.63902000"},{"name":"Kameno","native":null,"lat":"42.57084000","lon":"27.29875000"},{"name":"Karnobat","native":null,"lat":"42.65000000","lon":"26.98333000"},{"name":"Kiten","native":null,"lat":"42.23424000","lon":"27.77490000"},{"name":"Malko Tarnovo","native":null,"lat":"41.97958000","lon":"27.52477000"},{"name":"Nesebar","native":null,"lat":"42.65921000","lon":"27.73602000"},{"name":"Obshtina Aytos","native":null,"lat":"42.70000000","lon":"27.25000000"},{"name":"Obshtina Burgas","native":null,"lat":"42.50000000","lon":"27.46667000"},{"name":"Obshtina Kameno","native":null,"lat":"42.51667000","lon":"27.18333000"},{"name":"Obshtina Karnobat","native":null,"lat":"42.65000000","lon":"26.98333000"},{"name":"Obshtina Malko Tarnovo","native":null,"lat":"42.08333000","lon":"27.53333000"},{"name":"Obshtina Nesebar","native":null,"lat":"42.78333000","lon":"27.73333000"},{"name":"Obshtina Pomorie","native":null,"lat":"42.73333000","lon":"27.55000000"},{"name":"Obshtina Primorsko","native":null,"lat":"42.25000000","lon":"27.63333000"},{"name":"Obshtina Sozopol","native":null,"lat":"42.31123000","lon":"27.51733000"},{"name":"Obshtina Sungurlare","native":null,"lat":"42.83333000","lon":"26.83333000"},{"name":"Obzor","native":null,"lat":"42.81998000","lon":"27.88007000"},{"name":"Pomorie","native":null,"lat":"42.56326000","lon":"27.62986000"},{"name":"Primorsko","native":null,"lat":"42.26791000","lon":"27.75611000"},{"name":"Ravda","native":null,"lat":"42.64185000","lon":"27.67713000"},{"name":"Ruen","native":null,"lat":"42.80000000","lon":"27.28333000"},{"name":"Sarafovo","native":null,"lat":"42.56079000","lon":"27.52195000"},{"name":"Sozopol","native":null,"lat":"42.41801000","lon":"27.69560000"},{"name":"Sredets","native":null,"lat":"42.34747000","lon":"27.17898000"},{"name":"Sungurlare","native":null,"lat":"42.76667000","lon":"26.78333000"},{"name":"Sveti Vlas","native":null,"lat":"42.71360000","lon":"27.75867000"},{"name":"Tsarevo","native":null,"lat":"42.16955000","lon":"27.84541000"}]},{"name":"Dobrich Province","native":null,"cities":[{"name":"Balchik","native":null,"lat":"43.42166000","lon":"28.15848000"},{"name":"Dobrich","native":null,"lat":"43.56667000","lon":"27.83333000"},{"name":"General Toshevo","native":null,"lat":"43.70123000","lon":"28.03787000"},{"name":"Kavarna","native":null,"lat":"43.43601000","lon":"28.33953000"},{"name":"Krushari","native":null,"lat":"43.81675000","lon":"27.75552000"},{"name":"Obshtina Balchik","native":null,"lat":"43.50000000","lon":"28.13333000"},{"name":"Obshtina Dobrich","native":null,"lat":"43.57763000","lon":"27.80628000"},{"name":"Obshtina Dobrich-Selska","native":null,"lat":"43.63333000","lon":"27.73333000"},{"name":"Obshtina General Toshevo","native":null,"lat":"43.73333000","lon":"28.08333000"},{"name":"Obshtina Kavarna","native":null,"lat":"43.50000000","lon":"28.38333000"},{"name":"Obshtina Krushari","native":null,"lat":"43.88333000","lon":"27.75000000"},{"name":"Obshtina Shabla","native":null,"lat":"43.61667000","lon":"28.51667000"},{"name":"Obshtina Tervel","native":null,"lat":"43.75000000","lon":"27.40000000"},{"name":"Shabla","native":null,"lat":"43.53983000","lon":"28.53429000"},{"name":"Tervel","native":null,"lat":"43.74789000","lon":"27.40911000"}]},{"name":"Gabrovo Province","native":null,"cities":[{"name":"Dryanovo","native":null,"lat":"42.97897000","lon":"25.47850000"},{"name":"Gabrovo","native":null,"lat":"42.87472000","lon":"25.33417000"},{"name":"Obshtina Dryanovo","native":null,"lat":"43.00000000","lon":"25.46667000"},{"name":"Obshtina Gabrovo","native":null,"lat":"42.90000000","lon":"25.30000000"},{"name":"Obshtina Sevlievo","native":null,"lat":"43.01667000","lon":"25.10000000"},{"name":"Obshtina Tryavna","native":null,"lat":"42.85000000","lon":"25.55000000"},{"name":"Sevlievo","native":null,"lat":"43.02583000","lon":"25.11361000"},{"name":"Tryavna","native":null,"lat":"42.86667000","lon":"25.50000000"}]},{"name":"Haskovo Province","native":null,"cities":[{"name":"Dimitrovgrad","native":null,"lat":"42.05000000","lon":"25.60000000"},{"name":"Harmanli","native":null,"lat":"41.93333000","lon":"25.90000000"},{"name":"Haskovo","native":null,"lat":"41.93415000","lon":"25.55557000"},{"name":"Ivaylovgrad","native":null,"lat":"41.52672000","lon":"26.12490000"},{"name":"Lyubimets","native":null,"lat":"41.83333000","lon":"26.08333000"},{"name":"Madzharovo","native":null,"lat":"41.63461000","lon":"25.86439000"},{"name":"Mineralni Bani","native":null,"lat":"41.91667000","lon":"25.35000000"},{"name":"Obshtina Dimitrovgrad","native":null,"lat":"42.05000000","lon":"25.60000000"},{"name":"Obshtina Harmanli","native":null,"lat":"41.93333000","lon":"25.98333000"},{"name":"Obshtina Haskovo","native":null,"lat":"41.88333000","lon":"25.61667000"},{"name":"Obshtina Ivaylovgrad","native":null,"lat":"41.48333000","lon":"26.00000000"},{"name":"Obshtina Madzharovo","native":null,"lat":"41.68333000","lon":"25.90000000"},{"name":"Obshtina Mineralni Bani","native":null,"lat":"41.90000000","lon":"25.33333000"},{"name":"Obshtina Stambolovo","native":null,"lat":"41.73333000","lon":"25.70000000"},{"name":"Obshtina Svilengrad","native":null,"lat":"41.86667000","lon":"26.31667000"},{"name":"Obshtina Topolovgrad","native":null,"lat":"42.08333000","lon":"26.33333000"},{"name":"Simeonovgrad","native":null,"lat":"42.03333000","lon":"25.83333000"},{"name":"Svilengrad","native":null,"lat":"41.76667000","lon":"26.20000000"},{"name":"Topolovgrad","native":null,"lat":"42.08333000","lon":"26.33333000"}]},{"name":"Kardzhali Province","native":null,"cities":[{"name":"Ardino","native":null,"lat":"41.58333000","lon":"25.13333000"},{"name":"Dzhebel","native":null,"lat":"41.49566000","lon":"25.30363000"},{"name":"Kardzhali","native":null,"lat":"41.65000000","lon":"25.36667000"},{"name":"Kirkovo","native":null,"lat":"41.32715000","lon":"25.36379000"},{"name":"Krumovgrad","native":null,"lat":"41.47127000","lon":"25.65485000"},{"name":"Obshtina Ardino","native":null,"lat":"41.60000000","lon":"25.15000000"},{"name":"Obshtina Chernoochene","native":null,"lat":"41.78333000","lon":"25.25000000"},{"name":"Obshtina Dzhebel","native":null,"lat":"41.50000000","lon":"25.26667000"},{"name":"Obshtina Kardzhali","native":null,"lat":"41.68333000","lon":"25.43333000"},{"name":"Obshtina Kirkovo","native":null,"lat":"41.35816000","lon":"25.33731000"},{"name":"Obshtina Momchilgrad","native":null,"lat":"41.53333000","lon":"25.50000000"}]},{"name":"Kyustendil Province","native":null,"cities":[{"name":"Boboshevo","native":null,"lat":"42.15296000","lon":"23.00146000"},{"name":"Bobov Dol","native":null,"lat":"42.36256000","lon":"23.00324000"},{"name":"Dupnitsa","native":null,"lat":"42.26667000","lon":"23.11667000"},{"name":"Kocherinovo","native":null,"lat":"42.08439000","lon":"23.05710000"},{"name":"Kyustendil","native":null,"lat":"42.28389000","lon":"22.69111000"},{"name":"Nevestino","native":null,"lat":"42.25551000","lon":"22.85175000"},{"name":"Obshtina Boboshevo","native":null,"lat":"42.18333000","lon":"23.02731000"},{"name":"Obshtina Bobov Dol","native":null,"lat":"42.31667000","lon":"22.98333000"},{"name":"Obshtina Dupnitsa","native":null,"lat":"42.28333000","lon":"23.15000000"},{"name":"Obshtina Kocherinovo","native":null,"lat":"42.09909000","lon":"23.02942000"},{"name":"Obshtina Kyustendil","native":null,"lat":"42.28333000","lon":"22.68333000"},{"name":"Obshtina Nevestino","native":null,"lat":"42.16667000","lon":"22.83333000"},{"name":"Obshtina Rila","native":null,"lat":"42.15000000","lon":"23.31667000"},{"name":"Obshtina Sapareva Banya","native":null,"lat":"42.28333000","lon":"23.31667000"},{"name":"Obshtina Treklyano","native":null,"lat":"42.55000000","lon":"22.60000000"},{"name":"Rila","native":null,"lat":"42.13333000","lon":"23.13333000"},{"name":"Sapareva Banya","native":null,"lat":"42.28333000","lon":"23.26667000"}]},{"name":"Lovech Province","native":null,"cities":[{"name":"Apriltsi","native":null,"lat":"42.84142000","lon":"24.91759000"},{"name":"Letnitsa","native":null,"lat":"43.31167000","lon":"25.07333000"},{"name":"Lovech","native":null,"lat":"43.13333000","lon":"24.71667000"},{"name":"Lukovit","native":null,"lat":"43.20000000","lon":"24.16667000"},{"name":"Obshtina Lovech","native":null,"lat":"43.16667000","lon":"24.80000000"},{"name":"Obshtina Teteven","native":null,"lat":"42.91667000","lon":"24.26667000"},{"name":"Obshtina Ugarchin","native":null,"lat":"43.10000000","lon":"24.41667000"},{"name":"Teteven","native":null,"lat":"42.91667000","lon":"24.26667000"},{"name":"Troyan","native":null,"lat":"42.89427000","lon":"24.71589000"},{"name":"Ugarchin","native":null,"lat":"43.10000000","lon":"24.41667000"},{"name":"Yablanitsa","native":null,"lat":"43.03139000","lon":"24.11278000"}]},{"name":"Montana Province","native":null,"cities":[{"name":"Berkovitsa","native":null,"lat":"43.23581000","lon":"23.12738000"},{"name":"Boychinovtsi","native":null,"lat":"43.47222000","lon":"23.33583000"},{"name":"Brusartsi","native":null,"lat":"43.66075000","lon":"23.06732000"},{"name":"Chiprovtsi","native":null,"lat":"43.38417000","lon":"22.88083000"},{"name":"Lom","native":null,"lat":"43.82106000","lon":"23.23677000"},{"name":"Medkovets","native":null,"lat":"43.62403000","lon":"23.16876000"},{"name":"Montana","native":null,"lat":"43.41250000","lon":"23.22500000"},{"name":"Obshtina Boychinovtsi","native":null,"lat":"43.53333000","lon":"23.43333000"},{"name":"Obshtina Chiprovtsi","native":null,"lat":"43.41667000","lon":"22.90000000"},{"name":"Obshtina Georgi Damyanovo","native":null,"lat":"43.35000000","lon":"23.00000000"},{"name":"Obshtina Lom","native":null,"lat":"43.81667000","lon":"23.23333000"},{"name":"Obshtina Montana","native":null,"lat":"43.46667000","lon":"23.20000000"},{"name":"Obshtina Valchedram","native":null,"lat":"43.71667000","lon":"23.51667000"},{"name":"Obshtina Varshets","native":null,"lat":"43.21667000","lon":"23.33333000"},{"name":"Obshtina Yakimovo","native":null,"lat":"43.63333000","lon":"23.33333000"},{"name":"Valchedram","native":null,"lat":"43.69281000","lon":"23.44518000"},{"name":"Varshets","native":null,"lat":"43.19356000","lon":"23.28680000"},{"name":"Yakimovo","native":null,"lat":"43.63472000","lon":"23.35350000"}]},{"name":"Pazardzhik Province","native":null,"cities":[{"name":"Batak","native":null,"lat":"41.94225000","lon":"24.21843000"},{"name":"Belovo","native":null,"lat":"42.21239000","lon":"24.02081000"},{"name":"Bratsigovo","native":null,"lat":"42.01667000","lon":"24.36667000"},{"name":"Lesichovo","native":null,"lat":"42.35626000","lon":"24.11190000"},{"name":"Obshtina Batak","native":null,"lat":"41.86667000","lon":"24.21667000"},{"name":"Obshtina Belovo","native":null,"lat":"42.20000000","lon":"23.93333000"},{"name":"Obshtina Bratsigovo","native":null,"lat":"42.00000000","lon":"24.40000000"},{"name":"Obshtina Lesichovo","native":null,"lat":"42.36667000","lon":"24.15000000"},{"name":"Obshtina Panagyurishte","native":null,"lat":"42.50000000","lon":"24.16667000"},{"name":"Obshtina Pazardzhik","native":null,"lat":"42.20000000","lon":"24.33333000"},{"name":"Obshtina Peshtera","native":null,"lat":"42.03333000","lon":"24.30000000"},{"name":"Obshtina Rakitovo","native":null,"lat":"41.99965000","lon":"24.10877000"},{"name":"Obshtina Septemvri","native":null,"lat":"42.26667000","lon":"24.13333000"},{"name":"Obshtina Strelcha","native":null,"lat":"42.46667000","lon":"24.36667000"},{"name":"Obshtina Velingrad","native":null,"lat":"41.96667000","lon":"23.93333000"},{"name":"Panagyurishte","native":null,"lat":"42.49518000","lon":"24.19021000"},{"name":"Pazardzhik","native":null,"lat":"42.20000000","lon":"24.33333000"},{"name":"Peshtera","native":null,"lat":"42.03372000","lon":"24.29995000"},{"name":"Rakitovo","native":null,"lat":"41.99012000","lon":"24.08730000"},{"name":"Sarnitsa","native":null,"lat":"41.73835000","lon":"24.02435000"},{"name":"Sarnitsa Obshtina","native":null,"lat":"41.73333000","lon":"24.03333000"},{"name":"Septemvri","native":null,"lat":"42.21138000","lon":"24.12946000"},{"name":"Strelcha","native":null,"lat":"42.50000000","lon":"24.31667000"},{"name":"Velingrad","native":null,"lat":"42.02754000","lon":"23.99155000"}]},{"name":"Pernik Province","native":null,"cities":[{"name":"Batanovtsi","native":null,"lat":"42.59692000","lon":"22.95634000"},{"name":"Breznik","native":null,"lat":"42.74085000","lon":"22.90723000"},{"name":"Obshtina Kovachevtsi","native":null,"lat":"42.55000000","lon":"22.83333000"},{"name":"Obshtina Pernik","native":null,"lat":"42.61667000","lon":"23.08333000"},{"name":"Obshtina Radomir","native":null,"lat":"42.46667000","lon":"23.01667000"},{"name":"Obshtina Zemen","native":null,"lat":"42.55067000","lon":"22.71440000"},{"name":"Pernik","native":null,"lat":"42.60000000","lon":"23.03333000"},{"name":"Radomir","native":null,"lat":"42.54565000","lon":"22.96553000"},{"name":"Tran","native":null,"lat":"42.83528000","lon":"22.65167000"},{"name":"Zemen","native":null,"lat":"42.47889000","lon":"22.74917000"}]},{"name":"Pleven Province","native":null,"cities":[{"name":"Belene","native":null,"lat":"43.64594000","lon":"25.12627000"},{"name":"Cherven Bryag","native":null,"lat":"43.26667000","lon":"24.10000000"},{"name":"Dolna Mitropolia","native":null,"lat":"43.46667000","lon":"24.53333000"},{"name":"Dolni Dabnik","native":null,"lat":"43.40000000","lon":"24.43333000"},{"name":"Gulyantsi","native":null,"lat":"43.64109000","lon":"24.69368000"},{"name":"Iskar","native":null,"lat":"43.45000000","lon":"24.26667000"},{"name":"Knezha","native":null,"lat":"43.50000000","lon":"24.08333000"},{"name":"Koynare","native":null,"lat":"43.35000000","lon":"24.13333000"},{"name":"Levski","native":null,"lat":"43.36667000","lon":"25.13333000"},{"name":"Nikopol","native":null,"lat":"43.70528000","lon":"24.89521000"},{"name":"Obshtina Belene","native":null,"lat":"43.63333000","lon":"25.13333000"},{"name":"Obshtina Cherven Bryag","native":null,"lat":"43.33333000","lon":"24.13333000"},{"name":"Obshtina Dolna Mitropolia","native":null,"lat":"43.58333000","lon":"24.41667000"},{"name":"Obshtina Dolni Dabnik","native":null,"lat":"43.36667000","lon":"24.41667000"},{"name":"Obshtina Gulyantsi","native":null,"lat":"43.68333000","lon":"24.65000000"},{"name":"Obshtina Iskar","native":null,"lat":"43.50000000","lon":"24.28333000"},{"name":"Obshtina Knezha","native":null,"lat":"43.50000000","lon":"24.11667000"},{"name":"Obshtina Levski","native":null,"lat":"43.43333000","lon":"25.10000000"},{"name":"Obshtina Nikopol","native":null,"lat":"43.60000000","lon":"24.93333000"},{"name":"Obshtina Pleven","native":null,"lat":"43.40000000","lon":"24.70000000"},{"name":"Obshtina Pordim","native":null,"lat":"43.38333000","lon":"24.90000000"},{"name":"Pleven","native":null,"lat":"43.41667000","lon":"24.61667000"},{"name":"Pordim","native":null,"lat":"43.38333000","lon":"24.85000000"},{"name":"Slavyanovo","native":null,"lat":"43.46667000","lon":"24.86667000"}]},{"name":"Plovdiv Province","native":null,"cities":[{"name":"Asenovgrad","native":null,"lat":"42.01667000","lon":"24.86667000"},{"name":"Brezovo","native":null,"lat":"42.35000000","lon":"25.08333000"},{"name":"Hisarya","native":null,"lat":"42.50000000","lon":"24.70000000"},{"name":"Kalofer","native":null,"lat":"42.61667000","lon":"24.98333000"},{"name":"Kaloyanovo","native":null,"lat":"42.35000000","lon":"24.73333000"},{"name":"Karlovo","native":null,"lat":"42.63333000","lon":"24.80000000"},{"name":"Klisura","native":null,"lat":"42.70000000","lon":"24.45000000"},{"name":"Krichim","native":null,"lat":"42.05000000","lon":"24.46667000"},{"name":"Laki","native":null,"lat":"41.85000000","lon":"24.81667000"},{"name":"Obshtina Asenovgrad","native":null,"lat":"41.95000000","lon":"24.96667000"},{"name":"Obshtina Hisarya","native":null,"lat":"42.50000000","lon":"24.60000000"},{"name":"Obshtina Kaloyanovo","native":null,"lat":"42.38333000","lon":"24.81667000"},{"name":"Obshtina Karlovo","native":null,"lat":"42.68333000","lon":"24.66667000"},{"name":"Obshtina Krichim","native":null,"lat":"42.00439000","lon":"24.47235000"},{"name":"Obshtina Kuklen","native":null,"lat":"42.03725000","lon":"24.77949000"},{"name":"Obshtina Laki","native":null,"lat":"41.81667000","lon":"24.85000000"},{"name":"Obshtina Maritsa","native":null,"lat":"42.23333000","lon":"24.80000000"},{"name":"Obshtina Parvomay","native":null,"lat":"42.03333000","lon":"25.20000000"},{"name":"Obshtina Perushtitsa","native":null,"lat":"42.06667000","lon":"24.55000000"},{"name":"Obshtina Plovdiv","native":null,"lat":"42.15000000","lon":"24.75000000"},{"name":"Obshtina Rakovski","native":null,"lat":"42.26667000","lon":"24.98333000"},{"name":"Obshtina Rodopi","native":null,"lat":"42.03333000","lon":"24.68333000"},{"name":"Obshtina Sadovo","native":null,"lat":"42.13333000","lon":"25.00000000"},{"name":"Obshtina Saedinenie","native":null,"lat":"42.31667000","lon":"24.58333000"},{"name":"Obshtina Sopot","native":null,"lat":"42.65214000","lon":"24.74310000"},{"name":"Obshtina Stamboliyski","native":null,"lat":"42.11667000","lon":"24.51667000"},{"name":"Parvomay","native":null,"lat":"42.10000000","lon":"25.21667000"},{"name":"Perushtitsa","native":null,"lat":"42.05000000","lon":"24.55000000"},{"name":"Plovdiv","native":null,"lat":"42.15000000","lon":"24.75000000"},{"name":"Rakovski","native":null,"lat":"42.27408000","lon":"24.94083000"},{"name":"Sadovo","native":null,"lat":"42.13178000","lon":"24.93999000"},{"name":"Saedinenie","native":null,"lat":"42.26667000","lon":"24.55000000"},{"name":"Stamboliyski","native":null,"lat":"42.13333000","lon":"24.53333000"},{"name":"Topolovo","native":null,"lat":"41.90000000","lon":"25.00000000"}]},{"name":"Razgrad Province","native":null,"cities":[{"name":"Isperih","native":null,"lat":"43.71667000","lon":"26.83333000"},{"name":"Kubrat","native":null,"lat":"43.79658000","lon":"26.50063000"},{"name":"Loznitsa","native":null,"lat":"43.36667000","lon":"26.60000000"},{"name":"Medovene","native":null,"lat":"43.76667000","lon":"26.51667000"},{"name":"Obshtina Isperih","native":null,"lat":"43.71667000","lon":"26.83333000"},{"name":"Obshtina Kubrat","native":null,"lat":"43.86667000","lon":"26.48333000"},{"name":"Obshtina Loznitsa","native":null,"lat":"43.41667000","lon":"26.58333000"},{"name":"Obshtina Razgrad","native":null,"lat":"43.53333000","lon":"26.51667000"},{"name":"Obshtina Samuil","native":null,"lat":"43.60000000","lon":"26.80000000"},{"name":"Obshtina Tsar Kaloyan","native":null,"lat":"43.60000000","lon":"26.21667000"},{"name":"Obshtina Zavet","native":null,"lat":"43.76667000","lon":"26.68333000"},{"name":"Razgrad","native":null,"lat":"43.53333000","lon":"26.51667000"},{"name":"Samuil","native":null,"lat":"43.51667000","lon":"26.75000000"},{"name":"Tsar Kaloyan","native":null,"lat":"43.61667000","lon":"26.25000000"},{"name":"Zavet","native":null,"lat":"43.76036000","lon":"26.68063000"}]},{"name":"Ruse Province","native":null,"cities":[{"name":"Borovo","native":null,"lat":"43.50086000","lon":"25.80992000"},{"name":"Dve Mogili","native":null,"lat":"43.59258000","lon":"25.87486000"},{"name":"Ivanovo","native":null,"lat":"43.68568000","lon":"25.95565000"},{"name":"Obshtina Borovo","native":null,"lat":"43.60000000","lon":"25.80000000"},{"name":"Obshtina Byala","native":null,"lat":"43.41667000","lon":"25.83333000"},{"name":"Obshtina Dve Mogili","native":null,"lat":"43.51667000","lon":"25.96667000"},{"name":"Obshtina Ivanovo","native":null,"lat":"43.70000000","lon":"25.98333000"},{"name":"Obshtina Ruse","native":null,"lat":"43.85000000","lon":"26.08333000"},{"name":"Obshtina Slivo Pole","native":null,"lat":"43.96667000","lon":"26.30000000"},{"name":"Obshtina Tsenovo","native":null,"lat":"43.58333000","lon":"25.61667000"},{"name":"Obshtina Vetovo","native":null,"lat":"43.71667000","lon":"26.33333000"},{"name":"Ruse","native":null,"lat":"43.84872000","lon":"25.95340000"},{"name":"Senovo","native":null,"lat":"43.65000000","lon":"26.36667000"},{"name":"Slivo Pole","native":null,"lat":"43.94248000","lon":"26.20464000"},{"name":"Tsenovo","native":null,"lat":"43.53588000","lon":"25.65764000"},{"name":"Vetovo","native":null,"lat":"43.70000000","lon":"26.26667000"}]},{"name":"Shumen","native":null,"cities":[{"name":"Shumen","native":null,"lat":"43.28333300","lon":"26.93333300"}]},{"name":"Silistra Province","native":null,"cities":[{"name":"Alfatar","native":null,"lat":"43.94525000","lon":"27.28751000"},{"name":"Dulovo","native":null,"lat":"43.81667000","lon":"27.15000000"},{"name":"Glavinitsa","native":null,"lat":"43.91667000","lon":"26.83333000"},{"name":"Kaynardzha","native":null,"lat":"43.99278000","lon":"27.50713000"},{"name":"Obshtina Alfatar","native":null,"lat":"43.90000000","lon":"27.33333000"},{"name":"Obshtina Dulovo","native":null,"lat":"43.81667000","lon":"27.08333000"},{"name":"Obshtina Glavinitsa","native":null,"lat":"43.95000000","lon":"26.85000000"},{"name":"Obshtina Kaynardzha","native":null,"lat":"43.95000000","lon":"27.53333000"},{"name":"Obshtina Silistra","native":null,"lat":"44.03333000","lon":"27.20000000"},{"name":"Obshtina Sitovo","native":null,"lat":"44.01667000","lon":"27.00000000"},{"name":"Obshtina Tutrakan","native":null,"lat":"44.00000000","lon":"26.60000000"},{"name":"Silistra","native":null,"lat":"44.11710000","lon":"27.26056000"},{"name":"Sitovo","native":null,"lat":"44.02730000","lon":"27.01982000"},{"name":"Tutrakan","native":null,"lat":"44.04906000","lon":"26.61206000"}]},{"name":"Sliven Province","native":null,"cities":[{"name":"Kermen","native":null,"lat":"42.50000000","lon":"26.25000000"},{"name":"Kotel","native":null,"lat":"42.88333000","lon":"26.45000000"},{"name":"Nova Zagora","native":null,"lat":"42.48333000","lon":"26.01667000"},{"name":"Obshtina Kotel","native":null,"lat":"42.88333000","lon":"26.45000000"},{"name":"Obshtina Nova Zagora","native":null,"lat":"42.45000000","lon":"26.05000000"},{"name":"Obshtina Sliven","native":null,"lat":"42.66667000","lon":"26.31667000"},{"name":"Obshtina Tvarditsa","native":null,"lat":"42.73333000","lon":"26.00000000"},{"name":"Sliven","native":null,"lat":"42.68583000","lon":"26.32917000"},{"name":"Tvarditsa","native":null,"lat":"42.70000000","lon":"25.90000000"}]},{"name":"Smolyan Province","native":null,"cities":[{"name":"Banite","native":null,"lat":"41.61667000","lon":"25.01667000"},{"name":"Borino","native":null,"lat":"41.68408000","lon":"24.29300000"},{"name":"Chepelare","native":null,"lat":"41.73333000","lon":"24.68333000"},{"name":"Devin","native":null,"lat":"41.74327000","lon":"24.40003000"},{"name":"Dospat","native":null,"lat":"41.64462000","lon":"24.15857000"},{"name":"Gyovren","native":null,"lat":"41.66326000","lon":"24.37557000"},{"name":"Madan","native":null,"lat":"41.49869000","lon":"24.93973000"},{"name":"Nedelino","native":null,"lat":"41.45602000","lon":"25.08008000"},{"name":"Obshtina Banite","native":null,"lat":"41.70000000","lon":"25.00000000"},{"name":"Obshtina Borino","native":null,"lat":"41.64834000","lon":"24.31694000"},{"name":"Obshtina Chepelare","native":null,"lat":"41.80000000","lon":"24.68333000"},{"name":"Obshtina Devin","native":null,"lat":"41.74346000","lon":"24.40192000"},{"name":"Obshtina Dospat","native":null,"lat":"41.63228000","lon":"24.18765000"},{"name":"Obshtina Madan","native":null,"lat":"41.53333000","lon":"24.96667000"},{"name":"Obshtina Nedelino","native":null,"lat":"41.46894000","lon":"25.09481000"},{"name":"Obshtina Rudozem","native":null,"lat":"41.45439000","lon":"24.83690000"},{"name":"Obshtina Smolyan","native":null,"lat":"41.57516000","lon":"24.71302000"},{"name":"Obshtina Zlatograd","native":null,"lat":"41.40028000","lon":"25.04591000"},{"name":"Rudozem","native":null,"lat":"41.48751000","lon":"24.84945000"},{"name":"Smolyan","native":null,"lat":"41.57439000","lon":"24.71204000"},{"name":"Zlatograd","native":null,"lat":"41.37950000","lon":"25.09605000"}]},{"name":"Sofia City Province","native":null,"cities":[{"name":"Buhovo","native":null,"lat":"42.76667000","lon":"23.56667000"},{"name":"Sofia","native":null,"lat":"42.69751000","lon":"23.32415000"},{"name":"Stolichna Obshtina","native":null,"lat":"42.68647000","lon":"23.30561000"}]},{"name":"Sofia Province","native":null,"cities":[{"name":"Anton","native":null,"lat":"42.75000000","lon":"24.28333000"},{"name":"Botevgrad","native":null,"lat":"42.90000000","lon":"23.78333000"},{"name":"Bozhurishte","native":null,"lat":"42.75000000","lon":"23.20000000"},{"name":"Chavdar","native":null,"lat":"42.65000000","lon":"24.05000000"},{"name":"Chelopech","native":null,"lat":"42.70000000","lon":"24.08333000"},{"name":"Dolna Banya","native":null,"lat":"42.30000000","lon":"23.76667000"},{"name":"Dragoman","native":null,"lat":"42.92191000","lon":"22.93109000"},{"name":"Elin Pelin","native":null,"lat":"42.66667000","lon":"23.60000000"},{"name":"Etropole","native":null,"lat":"42.83333000","lon":"24.00000000"},{"name":"Godech","native":null,"lat":"43.01682000","lon":"23.04852000"},{"name":"Gorna Malina","native":null,"lat":"42.68333000","lon":"23.70000000"},{"name":"Ihtiman","native":null,"lat":"42.43333000","lon":"23.81667000"},{"name":"Koprivshtitsa","native":null,"lat":"42.63333000","lon":"24.35000000"},{"name":"Kostinbrod","native":null,"lat":"42.81667000","lon":"23.21667000"},{"name":"Lakatnik","native":null,"lat":"43.05000000","lon":"23.40000000"},{"name":"Mirkovo","native":null,"lat":"42.70000000","lon":"23.98333000"},{"name":"Obshtina Anton","native":null,"lat":"42.76667000","lon":"24.30000000"},{"name":"Obshtina Botevgrad","native":null,"lat":"42.95000000","lon":"23.75000000"},{"name":"Obshtina Bozhurishte","native":null,"lat":"42.78333000","lon":"23.11667000"},{"name":"Obshtina Chavdar","native":null,"lat":"42.61667000","lon":"24.08333000"},{"name":"Obshtina Chelopech","native":null,"lat":"42.71667000","lon":"24.06667000"},{"name":"Obshtina Dolna Banya","native":null,"lat":"42.30000000","lon":"23.76667000"},{"name":"Obshtina Dragoman","native":null,"lat":"42.93333000","lon":"22.93333000"},{"name":"Obshtina Elin Pelin","native":null,"lat":"42.66667000","lon":"23.60000000"},{"name":"Obshtina Etropole","native":null,"lat":"42.85000000","lon":"24.03333000"},{"name":"Obshtina Gorna Malina","native":null,"lat":"42.71667000","lon":"23.80000000"},{"name":"Obshtina Koprivshtitsa","native":null,"lat":"42.61667000","lon":"24.38333000"},{"name":"Obshtina Kostenets","native":null,"lat":"42.30000000","lon":"23.86667000"},{"name":"Obshtina Kostinbrod","native":null,"lat":"42.88333000","lon":"23.20000000"},{"name":"Obshtina Mirkovo","native":null,"lat":"42.66667000","lon":"23.96667000"},{"name":"Obshtina Pirdop","native":null,"lat":"42.70000000","lon":"24.23333000"},{"name":"Obshtina Pravets","native":null,"lat":"42.96667000","lon":"23.98333000"},{"name":"Obshtina Samokov","native":null,"lat":"42.33333000","lon":"23.55000000"},{"name":"Obshtina Slivnitsa","native":null,"lat":"42.85000000","lon":"22.98333000"},{"name":"Obshtina Svoge","native":null,"lat":"43.00000000","lon":"23.40000000"},{"name":"Obshtina Zlatitsa","native":null,"lat":"42.70000000","lon":"24.13333000"},{"name":"Pirdop","native":null,"lat":"42.70000000","lon":"24.18333000"},{"name":"Pravets","native":null,"lat":"42.88333000","lon":"23.91667000"},{"name":"Samokov","native":null,"lat":"42.33700000","lon":"23.55280000"},{"name":"Slivnitsa","native":null,"lat":"42.85182000","lon":"23.03792000"},{"name":"Svoge","native":null,"lat":"42.96667000","lon":"23.35000000"},{"name":"Zlatitsa","native":null,"lat":"42.71667000","lon":"24.13333000"}]},{"name":"Stara Zagora Province","native":null,"cities":[{"name":"Asen","native":null,"lat":"42.65000000","lon":"25.20000000"},{"name":"Chirpan","native":null,"lat":"42.20000000","lon":"25.33333000"},{"name":"Gŭlŭbovo","native":null,"lat":"42.13333000","lon":"25.85000000"},{"name":"Gurkovo","native":null,"lat":"42.66667000","lon":"25.80000000"},{"name":"Kazanlak","native":null,"lat":"42.61667000","lon":"25.40000000"},{"name":"Maglizh","native":null,"lat":"42.60000000","lon":"25.55000000"},{"name":"Nikolaevo","native":null,"lat":"42.63333000","lon":"25.80000000"},{"name":"Obshtina Bratya Daskalovi","native":null,"lat":"42.30000000","lon":"25.21667000"},{"name":"Obshtina Chirpan","native":null,"lat":"42.23333000","lon":"25.38333000"},{"name":"Obshtina Galabovo","native":null,"lat":"42.15000000","lon":"25.96667000"},{"name":"Obshtina Gurkovo","native":null,"lat":"42.71667000","lon":"25.80000000"},{"name":"Obshtina Kazanlŭk","native":null,"lat":"42.61943000","lon":"25.39885000"},{"name":"Obshtina Maglizh","native":null,"lat":"42.63333000","lon":"25.61667000"},{"name":"Obshtina Nikolaevo","native":null,"lat":"42.60000000","lon":"25.78333000"},{"name":"Obshtina Opan","native":null,"lat":"42.21667000","lon":"25.70000000"},{"name":"Obshtina Pavel Banya","native":null,"lat":"42.63333000","lon":"25.13333000"},{"name":"Obshtina Radnevo","native":null,"lat":"42.30000000","lon":"25.93333000"},{"name":"Obshtina Stara Zagora","native":null,"lat":"42.41667000","lon":"25.63333000"},{"name":"Pavel Banya","native":null,"lat":"42.60000000","lon":"25.20000000"},{"name":"Radnevo","native":null,"lat":"42.30000000","lon":"25.93333000"},{"name":"Shipka","native":null,"lat":"42.71667000","lon":"25.33333000"},{"name":"Stara Zagora","native":null,"lat":"42.43278000","lon":"25.64194000"}]},{"name":"Targovishte Province","native":null,"cities":[{"name":"Antonovo","native":null,"lat":"43.15000000","lon":"26.16667000"},{"name":"Obshtina Antonovo","native":null,"lat":"43.11667000","lon":"26.20000000"},{"name":"Obshtina Omurtag","native":null,"lat":"43.08333000","lon":"26.48333000"},{"name":"Obshtina Opaka","native":null,"lat":"43.46667000","lon":"26.15000000"},{"name":"Obshtina Popovo","native":null,"lat":"43.35000000","lon":"26.23333000"},{"name":"Obshtina Targovishte","native":null,"lat":"43.25000000","lon":"26.56667000"},{"name":"Omurtag","native":null,"lat":"43.10000000","lon":"26.41667000"},{"name":"Opaka","native":null,"lat":"43.45000000","lon":"26.16667000"},{"name":"Popovo","native":null,"lat":"43.35000000","lon":"26.23333000"},{"name":"Targovishte","native":null,"lat":"43.25120000","lon":"26.57215000"}]},{"name":"Varna Province","native":null,"cities":[{"name":"Aksakovo","native":null,"lat":"43.25615000","lon":"27.82105000"},{"name":"Asparuhovo","native":null,"lat":"43.18067000","lon":"27.88823000"},{"name":"Balgarevo","native":null,"lat":"43.40296000","lon":"28.41189000"},{"name":"Beloslav","native":null,"lat":"43.18960000","lon":"27.70429000"},{"name":"Byala","native":null,"lat":"42.87426000","lon":"27.88865000"},{"name":"Dalgopol","native":null,"lat":"43.05000000","lon":"27.35000000"},{"name":"Devnya","native":null,"lat":"43.22222000","lon":"27.56944000"},{"name":"Dolni Chiflik","native":null,"lat":"42.99296000","lon":"27.71596000"},{"name":"Kiten","native":null,"lat":"43.08333000","lon":"27.31667000"},{"name":"Obshtina Aksakovo","native":null,"lat":"43.31667000","lon":"27.85000000"},{"name":"Obshtina Avren","native":null,"lat":"43.10000000","lon":"27.71667000"},{"name":"Obshtina Beloslav","native":null,"lat":"43.20000000","lon":"27.73333000"},{"name":"Obshtina Byala","native":null,"lat":"42.88333000","lon":"27.81667000"},{"name":"Obshtina Dalgopol","native":null,"lat":"43.05000000","lon":"27.35000000"},{"name":"Obshtina Devnya","native":null,"lat":"43.22056000","lon":"27.60052000"},{"name":"Obshtina Dolni Chiflik","native":null,"lat":"42.96667000","lon":"27.68333000"},{"name":"Obshtina Provadia","native":null,"lat":"43.18333000","lon":"27.40000000"},{"name":"Obshtina Suvorovo","native":null,"lat":"43.33333000","lon":"27.65000000"},{"name":"Obshtina Valchidol","native":null,"lat":"43.45000000","lon":"27.50000000"},{"name":"Obshtina Varna","native":null,"lat":"43.21667000","lon":"27.91667000"},{"name":"Obshtina Vetrino","native":null,"lat":"43.31667000","lon":"27.43333000"},{"name":"Provadia","native":null,"lat":"43.18333000","lon":"27.43333000"},{"name":"Suvorovo","native":null,"lat":"43.33058000","lon":"27.59908000"},{"name":"Valchidol","native":null,"lat":"43.40000000","lon":"27.55000000"},{"name":"Varna","native":null,"lat":"43.21667000","lon":"27.91667000"},{"name":"Vetrino","native":null,"lat":"43.31667000","lon":"27.43333000"},{"name":"Zlatni Pyasatsi","native":null,"lat":"43.28500000","lon":"28.04180000"}]},{"name":"Veliko Tarnovo Province","native":null,"cities":[{"name":"Byala Cherkva","native":null,"lat":"43.20000000","lon":"25.30000000"},{"name":"Debelets","native":null,"lat":"43.03333000","lon":"25.61667000"},{"name":"Elena","native":null,"lat":"42.93333000","lon":"25.88333000"},{"name":"Gorna Oryahovitsa","native":null,"lat":"43.12778000","lon":"25.70167000"},{"name":"Kilifarevo","native":null,"lat":"42.98333000","lon":"25.63333000"},{"name":"Lyaskovets","native":null,"lat":"43.11111000","lon":"25.72833000"},{"name":"Obshtina Elena","native":null,"lat":"42.91667000","lon":"25.95000000"},{"name":"Obshtina Gorna Oryahovitsa","native":null,"lat":"43.21667000","lon":"25.75000000"},{"name":"Obshtina Lyaskovets","native":null,"lat":"43.13333000","lon":"25.85000000"},{"name":"Obshtina Pavlikeni","native":null,"lat":"43.28333000","lon":"25.35000000"},{"name":"Obshtina Polski Trambesh","native":null,"lat":"43.35000000","lon":"25.58333000"},{"name":"Obshtina Strazhitsa","native":null,"lat":"43.26667000","lon":"25.98333000"},{"name":"Obshtina Suhindol","native":null,"lat":"43.16667000","lon":"25.20000000"},{"name":"Obshtina Svishtov","native":null,"lat":"43.53333000","lon":"25.35000000"},{"name":"Obshtina Veliko Tŭrnovo","native":null,"lat":"43.08241000","lon":"25.63202000"},{"name":"Obshtina Zlataritsa","native":null,"lat":"43.06667000","lon":"25.98333000"},{"name":"Parvomaytsi","native":null,"lat":"43.15000000","lon":"25.65000000"},{"name":"Pavlikeni","native":null,"lat":"43.24278000","lon":"25.32194000"},{"name":"Polski Trambesh","native":null,"lat":"43.37233000","lon":"25.63525000"},{"name":"Strazhitsa","native":null,"lat":"43.23333000","lon":"25.96667000"},{"name":"Suhindol","native":null,"lat":"43.19167000","lon":"25.18111000"},{"name":"Svishtov","native":null,"lat":"43.61875000","lon":"25.35033000"},{"name":"Veliko Tŭrnovo","native":null,"lat":"43.08124000","lon":"25.62904000"},{"name":"Zlataritsa","native":null,"lat":"43.05000000","lon":"25.90000000"}]},{"name":"Vidin Province","native":null,"cities":[{"name":"Belogradchik","native":null,"lat":"43.62722000","lon":"22.68361000"},{"name":"Boynitsa","native":null,"lat":"43.95650000","lon":"22.53255000"},{"name":"Bregovo","native":null,"lat":"44.15167000","lon":"22.64250000"},{"name":"Chuprene","native":null,"lat":"43.51806000","lon":"22.66611000"},{"name":"Dimovo","native":null,"lat":"43.74167000","lon":"22.72694000"},{"name":"Drenovets","native":null,"lat":"43.69134000","lon":"22.97365000"},{"name":"Dunavtsi","native":null,"lat":"43.92111000","lon":"22.82111000"},{"name":"Gramada","native":null,"lat":"43.83738000","lon":"22.65279000"},{"name":"Kula","native":null,"lat":"43.88833000","lon":"22.52139000"},{"name":"Makresh","native":null,"lat":"43.76794000","lon":"22.66406000"},{"name":"Novo Selo","native":null,"lat":"44.16214000","lon":"22.78376000"},{"name":"Obshtina Belogradchik","native":null,"lat":"43.65000000","lon":"22.60000000"},{"name":"Obshtina Boynitsa","native":null,"lat":"44.00000000","lon":"22.55000000"},{"name":"Obshtina Dimovo","native":null,"lat":"43.75000000","lon":"22.81667000"},{"name":"Obshtina Gramada","native":null,"lat":"43.83333000","lon":"22.65000000"},{"name":"Obshtina Kula","native":null,"lat":"43.90000000","lon":"22.56667000"},{"name":"Obshtina Ruzhintsi","native":null,"lat":"43.65000000","lon":"22.90000000"},{"name":"Obshtina Vidin","native":null,"lat":"44.00000000","lon":"22.83333000"},{"name":"Ruzhintsi","native":null,"lat":"43.62179000","lon":"22.83286000"},{"name":"Vidin","native":null,"lat":"43.99159000","lon":"22.88236000"}]},{"name":"Vratsa Province","native":null,"cities":[{"name":"Borovan","native":null,"lat":"43.43333000","lon":"23.75000000"},{"name":"Byala Slatina","native":null,"lat":"43.46667000","lon":"23.93333000"},{"name":"Hayredin","native":null,"lat":"43.60193000","lon":"23.66135000"},{"name":"Kozloduy","native":null,"lat":"43.77864000","lon":"23.72058000"},{"name":"Krivodol","native":null,"lat":"43.37444000","lon":"23.48444000"},{"name":"Mezdra","native":null,"lat":"43.15000000","lon":"23.70000000"},{"name":"Mizia","native":null,"lat":"43.68623000","lon":"23.85371000"},{"name":"Obshtina Borovan","native":null,"lat":"43.43333000","lon":"23.75000000"},{"name":"Obshtina Hayredin","native":null,"lat":"43.58333000","lon":"23.66667000"},{"name":"Obshtina Kozloduy","native":null,"lat":"43.71667000","lon":"23.73333000"},{"name":"Obshtina Krivodol","native":null,"lat":"43.38333000","lon":"23.48333000"},{"name":"Obshtina Mezdra","native":null,"lat":"43.13333000","lon":"23.73333000"},{"name":"Obshtina Mizia","native":null,"lat":"43.63333000","lon":"23.85000000"},{"name":"Obshtina Oryahovo","native":null,"lat":"43.69038000","lon":"23.98643000"},{"name":"Obshtina Roman","native":null,"lat":"43.15000000","lon":"23.91667000"},{"name":"Obshtina Vratsa","native":null,"lat":"43.28333000","lon":"23.60000000"},{"name":"Oryahovo","native":null,"lat":"43.73618000","lon":"23.96052000"},{"name":"Roman","native":null,"lat":"43.15000000","lon":"23.91667000"},{"name":"Vratsa","native":null,"lat":"43.21000000","lon":"23.56250000"}]},{"name":"Yambol Province","native":null,"cities":[{"name":"Bolyarovo","native":null,"lat":"42.14962000","lon":"26.81116000"},{"name":"Elhovo","native":null,"lat":"42.16667000","lon":"26.56667000"},{"name":"Obshtina Bolyarovo","native":null,"lat":"42.15000000","lon":"26.85000000"},{"name":"Obshtina Elhovo","native":null,"lat":"42.11667000","lon":"26.61667000"},{"name":"Obshtina Straldzha","native":null,"lat":"42.48333000","lon":"26.78333000"},{"name":"Obshtina Tundzha","native":null,"lat":"42.35000000","lon":"26.45000000"},{"name":"Obshtina Yambol","native":null,"lat":"42.48333000","lon":"26.50000000"},{"name":"Straldzha","native":null,"lat":"42.60000000","lon":"26.68333000"},{"name":"Yambol","native":null,"lat":"42.48333000","lon":"26.50000000"}]}]