[{"state":"Blagoevgrad Province","name":"Bansko","lat":"41.83830000","lon":"23.48851000"},
{"state":"Blagoevgrad Province","name":"Belitsa","lat":"41.95694000","lon":"23.57250000"},
{"state":"Blagoevgrad Province","name":"Blagoevgrad","lat":"42.01667000","lon":"23.10000000"},
{"state":"Blagoevgrad Province","name":"Garmen","lat":"41.60000000","lon":"23.81667000"},
{"state":"Blagoevgrad Province","name":"Gotse Delchev","lat":"41.56667000","lon":"23.73333000"},
{"state":"Blagoevgrad Province","name":"Hadzhidimovo","lat":"41.52222000","lon":"23.86861000"},
{"state":"Blagoevgrad Province","name":"Kolarovo","lat":"41.36385000","lon":"23.10669000"},
{"state":"Blagoevgrad Province","name":"Kresna","lat":"41.73333000","lon":"23.15000000"},
{"state":"Blagoevgrad Province","name":"Obshtina Bansko","lat":"41.80000000","lon":"23.60000000"},
{"state":"Blagoevgrad Province","name":"Obshtina Belitsa","lat":"42.01667000","lon":"23.58333000"},
{"state":"Blagoevgrad Province","name":"Obshtina Blagoevgrad","lat":"42.01667000","lon":"23.16667000"},
{"state":"Blagoevgrad Province","name":"Obshtina Garmen","lat":"41.70000000","lon":"23.85000000"},
{"state":"Blagoevgrad Province","name":"Obshtina Gotse Delchev","lat":"41.63333000","lon":"23.68333000"},
{"state":"Blagoevgrad Province","name":"Obshtina Kresna","lat":"41.76667000","lon":"23.23333000"},
{"state":"Blagoevgrad Province","name":"Obshtina Petrich","lat":"41.45000000","lon":"23.16667000"},
{"state":"Blagoevgrad Province","name":"Obshtina Razlog","lat":"41.95000000","lon":"23.46667000"},
{"state":"Blagoevgrad Province","name":"Obshtina Sandanski","lat":"41.56667000","lon":"23.45000000"},
{"state":"Blagoevgrad Province","name":"Obshtina Satovcha","lat":"41.59848000","lon":"24.00781000"},
{"state":"Blagoevgrad Province","name":"Obshtina Simitli","lat":"41.88333000","lon":"23.16667000"},
{"state":"Blagoevgrad Province","name":"Obshtina Strumyani","lat":"41.63333000","lon":"23.20000000"},
{"state":"Blagoevgrad Province","name":"Obshtina Yakoruda","lat":"42.08333000","lon":"23.70000000"},
{"state":"Blagoevgrad Province","name":"Petrich","lat":"41.39846000","lon":"23.20702000"},
{"state":"Blagoevgrad Province","name":"Razlog","lat":"41.88630000","lon":"23.46714000"},
{"state":"Blagoevgrad Province","name":"Sandanski","lat":"41.56667000","lon":"23.28333000"},
{"state":"Blagoevgrad Province","name":"Satovcha","lat":"41.61667000","lon":"23.98333000"},
{"state":"Blagoevgrad Province","name":"Simitli","lat":"41.88333000","lon":"23.11667000"},
{"state":"Blagoevgrad Province","name":"Stara Kresna","lat":"41.80000000","lon":"23.18333000"},
{"state":"Blagoevgrad Province","name":"Strumyani","lat":"41.63333000","lon":"23.20000000"},
{"state":"Blagoevgrad Province","name":"Yakoruda","lat":"42.02528000","lon":"23.68417000"},
{"state":"Burgas Province","name":"Aheloy","lat":"42.64987000","lon":"27.64838000"},
{"state":"Burgas Province","name":"Ahtopol","lat":"42.09768000","lon":"27.93961000"},
{"state":"Burgas Province","name":"Aytos","lat":"42.70000000","lon":"27.25000000"},
{"state":"Burgas Province","name":"Bata","lat":"42.73802000","lon":"27.49643000"},
{"state":"Burgas Province","name":"Burgas","lat":"42.50606000","lon":"27.46781000"},
{"state":"Burgas Province","name":"Chernomorets","lat":"42.44408000","lon":"27.63902000"},
{"state":"Burgas Province","name":"Kameno","lat":"42.57084000","lon":"27.29875000"},
{"state":"Burgas Province","name":"Karnobat","lat":"42.65000000","lon":"26.98333000"},
{"state":"Burgas Province","name":"Kiten","lat":"42.23424000","lon":"27.77490000"},
{"state":"Burgas Province","name":"Malko Tarnovo","lat":"41.97958000","lon":"27.52477000"},
{"state":"Burgas Province","name":"Nesebar","lat":"42.65921000","lon":"27.73602000"},
{"state":"Burgas Province","name":"Obshtina Aytos","lat":"42.70000000","lon":"27.25000000"},
{"state":"Burgas Province","name":"Obshtina Burgas","lat":"42.50000000","lon":"27.46667000"},
{"state":"Burgas Province","name":"Obshtina Kameno","lat":"42.51667000","lon":"27.18333000"},
{"state":"Burgas Province","name":"Obshtina Karnobat","lat":"42.65000000","lon":"26.98333000"},
{"state":"Burgas Province","name":"Obshtina Malko Tarnovo","lat":"42.08333000","lon":"27.53333000"},
{"state":"Burgas Province","name":"Obshtina Nesebar","lat":"42.78333000","lon":"27.73333000"},
{"state":"Burgas Province","name":"Obshtina Pomorie","lat":"42.73333000","lon":"27.55000000"},
{"state":"Burgas Province","name":"Obshtina Primorsko","lat":"42.25000000","lon":"27.63333000"},
{"state":"Burgas Province","name":"Obshtina Sozopol","lat":"42.31123000","lon":"27.51733000"},
{"state":"Burgas Province","name":"Obshtina Sungurlare","lat":"42.83333000","lon":"26.83333000"},
{"state":"Burgas Province","name":"Obzor","lat":"42.81998000","lon":"27.88007000"},
{"state":"Burgas Province","name":"Pomorie","lat":"42.56326000","lon":"27.62986000"},
{"state":"Burgas Province","name":"Primorsko","lat":"42.26791000","lon":"27.75611000"},
{"state":"Burgas Province","name":"Ravda","lat":"42.64185000","lon":"27.67713000"},
{"state":"Burgas Province","name":"Ruen","lat":"42.80000000","lon":"27.28333000"},
{"state":"Burgas Province","name":"Sarafovo","lat":"42.56079000","lon":"27.52195000"},
{"state":"Burgas Province","name":"Sozopol","lat":"42.41801000","lon":"27.69560000"},
{"state":"Burgas Province","name":"Sredets","lat":"42.34747000","lon":"27.17898000"},
{"state":"Burgas Province","name":"Sungurlare","lat":"42.76667000","lon":"26.78333000"},
{"state":"Burgas Province","name":"Sveti Vlas","lat":"42.71360000","lon":"27.75867000"},
{"state":"Burgas Province","name":"Tsarevo","lat":"42.16955000","lon":"27.84541000"},
{"state":"Dobrich Province","name":"Balchik","lat":"43.42166000","lon":"28.15848000"},
{"state":"Dobrich Province","name":"Dobrich","lat":"43.56667000","lon":"27.83333000"},
{"state":"Dobrich Province","name":"General Toshevo","lat":"43.70123000","lon":"28.03787000"},
{"state":"Dobrich Province","name":"Kavarna","lat":"43.43601000","lon":"28.33953000"},
{"state":"Dobrich Province","name":"Krushari","lat":"43.81675000","lon":"27.75552000"},
{"state":"Dobrich Province","name":"Obshtina Balchik","lat":"43.50000000","lon":"28.13333000"},
{"state":"Dobrich Province","name":"Obshtina Dobrich","lat":"43.57763000","lon":"27.80628000"},
{"state":"Dobrich Province","name":"Obshtina Dobrich-Selska","lat":"43.63333000","lon":"27.73333000"},
{"state":"Dobrich Province","name":"Obshtina General Toshevo","lat":"43.73333000","lon":"28.08333000"},
{"state":"Dobrich Province","name":"Obshtina Kavarna","lat":"43.50000000","lon":"28.38333000"},
{"state":"Dobrich Province","name":"Obshtina Krushari","lat":"43.88333000","lon":"27.75000000"},
{"state":"Dobrich Province","name":"Obshtina Shabla","lat":"43.61667000","lon":"28.51667000"},
{"state":"Dobrich Province","name":"Obshtina Tervel","lat":"43.75000000","lon":"27.40000000"},
{"state":"Dobrich Province","name":"Shabla","lat":"43.53983000","lon":"28.53429000"},
{"state":"Dobrich Province","name":"Tervel","lat":"43.74789000","lon":"27.40911000"},
{"state":"Gabrovo Province","name":"Dryanovo","lat":"42.97897000","lon":"25.47850000"},
{"state":"Gabrovo Province","name":"Gabrovo","lat":"42.87472000","lon":"25.33417000"},
{"state":"Gabrovo Province","name":"Obshtina Dryanovo","lat":"43.00000000","lon":"25.46667000"},
{"state":"Gabrovo Province","name":"Obshtina Gabrovo","lat":"42.90000000","lon":"25.30000000"},
{"state":"Gabrovo Province","name":"Obshtina Sevlievo","lat":"43.01667000","lon":"25.10000000"},
{"state":"Gabrovo Province","name":"Obshtina Tryavna","lat":"42.85000000","lon":"25.55000000"},
{"state":"Gabrovo Province","name":"Sevlievo","lat":"43.02583000","lon":"25.11361000"},
{"state":"Gabrovo Province","name":"Tryavna","lat":"42.86667000","lon":"25.50000000"},
{"state":"Haskovo Province","name":"Dimitrovgrad","lat":"42.05000000","lon":"25.60000000"},
{"state":"Haskovo Province","name":"Harmanli","lat":"41.93333000","lon":"25.90000000"},
{"state":"Haskovo Province","name":"Haskovo","lat":"41.93415000","lon":"25.55557000"},
{"state":"Haskovo Province","name":"Ivaylovgrad","lat":"41.52672000","lon":"26.12490000"},
{"state":"Haskovo Province","name":"Lyubimets","lat":"41.83333000","lon":"26.08333000"},
{"state":"Haskovo Province","name":"Madzharovo","lat":"41.63461000","lon":"25.86439000"},
{"state":"Haskovo Province","name":"Mineralni Bani","lat":"41.91667000","lon":"25.35000000"},
{"state":"Haskovo Province","name":"Obshtina Dimitrovgrad","lat":"42.05000000","lon":"25.60000000"},
{"state":"Haskovo Province","name":"Obshtina Harmanli","lat":"41.93333000","lon":"25.98333000"},
{"state":"Haskovo Province","name":"Obshtina Haskovo","lat":"41.88333000","lon":"25.61667000"},
{"state":"Haskovo Province","name":"Obshtina Ivaylovgrad","lat":"41.48333000","lon":"26.00000000"},
{"state":"Haskovo Province","name":"Obshtina Madzharovo","lat":"41.68333000","lon":"25.90000000"},
{"state":"Haskovo Province","name":"Obshtina Mineralni Bani","lat":"41.90000000","lon":"25.33333000"},
{"state":"Haskovo Province","name":"Obshtina Stambolovo","lat":"41.73333000","lon":"25.70000000"},
{"state":"Haskovo Province","name":"Obshtina Svilengrad","lat":"41.86667000","lon":"26.31667000"},
{"state":"Haskovo Province","name":"Obshtina Topolovgrad","lat":"42.08333000","lon":"26.33333000"},
{"state":"Haskovo Province","name":"Simeonovgrad","lat":"42.03333000","lon":"25.83333000"},
{"state":"Haskovo Province","name":"Svilengrad","lat":"41.76667000","lon":"26.20000000"},
{"state":"Haskovo Province","name":"Topolovgrad","lat":"42.08333000","lon":"26.33333000"},
{"state":"Kardzhali Province","name":"Ardino","lat":"41.58333000","lon":"25.13333000"},
{"state":"Kardzhali Province","name":"Dzhebel","lat":"41.49566000","lon":"25.30363000"},
{"state":"Kardzhali Province","name":"Kardzhali","lat":"41.65000000","lon":"25.36667000"},
{"state":"Kardzhali Province","name":"Kirkovo","lat":"41.32715000","lon":"25.36379000"},
{"state":"Kardzhali Province","name":"Krumovgrad","lat":"41.47127000","lon":"25.65485000"},
{"state":"Kardzhali Province","name":"Obshtina Ardino","lat":"41.60000000","lon":"25.15000000"},
{"state":"Kardzhali Province","name":"Obshtina Chernoochene","lat":"41.78333000","lon":"25.25000000"},
{"state":"Kardzhali Province","name":"Obshtina Dzhebel","lat":"41.50000000","lon":"25.26667000"},
{"state":"Kardzhali Province","name":"Obshtina Kardzhali","lat":"41.68333000","lon":"25.43333000"},
{"state":"Kardzhali Province","name":"Obshtina Kirkovo","lat":"41.35816000","lon":"25.33731000"},
{"state":"Kardzhali Province","name":"Obshtina Momchilgrad","lat":"41.53333000","lon":"25.50000000"},
{"state":"Kyustendil Province","name":"Boboshevo","lat":"42.15296000","lon":"23.00146000"},
{"state":"Kyustendil Province","name":"Bobov Dol","lat":"42.36256000","lon":"23.00324000"},
{"state":"Kyustendil Province","name":"Dupnitsa","lat":"42.26667000","lon":"23.11667000"},
{"state":"Kyustendil Province","name":"Kocherinovo","lat":"42.08439000","lon":"23.05710000"},
{"state":"Kyustendil Province","name":"Kyustendil","lat":"42.28389000","lon":"22.69111000"},
{"state":"Kyustendil Province","name":"Nevestino","lat":"42.25551000","lon":"22.85175000"},
{"state":"Kyustendil Province","name":"Obshtina Boboshevo","lat":"42.18333000","lon":"23.02731000"},
{"state":"Kyustendil Province","name":"Obshtina Bobov Dol","lat":"42.31667000","lon":"22.98333000"},
{"state":"Kyustendil Province","name":"Obshtina Dupnitsa","lat":"42.28333000","lon":"23.15000000"},
{"state":"Kyustendil Province","name":"Obshtina Kocherinovo","lat":"42.09909000","lon":"23.02942000"},
{"state":"Kyustendil Province","name":"Obshtina Kyustendil","lat":"42.28333000","lon":"22.68333000"},
{"state":"Kyustendil Province","name":"Obshtina Nevestino","lat":"42.16667000","lon":"22.83333000"},
{"state":"Kyustendil Province","name":"Obshtina Rila","lat":"42.15000000","lon":"23.31667000"},
{"state":"Kyustendil Province","name":"Obshtina Sapareva Banya","lat":"42.28333000","lon":"23.31667000"},
{"state":"Kyustendil Province","name":"Obshtina Treklyano","lat":"42.55000000","lon":"22.60000000"},
{"state":"Kyustendil Province","name":"Rila","lat":"42.13333000","lon":"23.13333000"},
{"state":"Kyustendil Province","name":"Sapareva Banya","lat":"42.28333000","lon":"23.26667000"},
{"state":"Lovech Province","name":"Apriltsi","lat":"42.84142000","lon":"24.91759000"},
{"state":"Lovech Province","name":"Letnitsa","lat":"43.31167000","lon":"25.07333000"},
{"state":"Lovech Province","name":"Lovech","lat":"43.13333000","lon":"24.71667000"},
{"state":"Lovech Province","name":"Lukovit","lat":"43.20000000","lon":"24.16667000"},
{"state":"Lovech Province","name":"Obshtina Lovech","lat":"43.16667000","lon":"24.80000000"},
{"state":"Lovech Province","name":"Obshtina Teteven","lat":"42.91667000","lon":"24.26667000"},
{"state":"Lovech Province","name":"Obshtina Ugarchin","lat":"43.10000000","lon":"24.41667000"},
{"state":"Lovech Province","name":"Teteven","lat":"42.91667000","lon":"24.26667000"},
{"state":"Lovech Province","name":"Troyan","lat":"42.89427000","lon":"24.71589000"},
{"state":"Lovech Province","name":"Ugarchin","lat":"43.10000000","lon":"24.41667000"},
{"state":"Lovech Province","name":"Yablanitsa","lat":"43.03139000","lon":"24.11278000"},
{"state":"Montana Province","name":"Berkovitsa","lat":"43.23581000","lon":"23.12738000"},
{"state":"Montana Province","name":"Boychinovtsi","lat":"43.47222000","lon":"23.33583000"},
{"state":"Montana Province","name":"Brusartsi","lat":"43.66075000","lon":"23.06732000"},
{"state":"Montana Province","name":"Chiprovtsi","lat":"43.38417000","lon":"22.88083000"},
{"state":"Montana Province","name":"Lom","lat":"43.82106000","lon":"23.23677000"},
{"state":"Montana Province","name":"Medkovets","lat":"43.62403000","lon":"23.16876000"},
{"state":"Montana Province","name":"Montana","lat":"43.41250000","lon":"23.22500000"},
{"state":"Montana Province","name":"Obshtina Boychinovtsi","lat":"43.53333000","lon":"23.43333000"},
{"state":"Montana Province","name":"Obshtina Chiprovtsi","lat":"43.41667000","lon":"22.90000000"},
{"state":"Montana Province","name":"Obshtina Georgi Damyanovo","lat":"43.35000000","lon":"23.00000000"},
{"state":"Montana Province","name":"Obshtina Lom","lat":"43.81667000","lon":"23.23333000"},
{"state":"Montana Province","name":"Obshtina Montana","lat":"43.46667000","lon":"23.20000000"},
{"state":"Montana Province","name":"Obshtina Valchedram","lat":"43.71667000","lon":"23.51667000"},
{"state":"Montana Province","name":"Obshtina Varshets","lat":"43.21667000","lon":"23.33333000"},
{"state":"Montana Province","name":"Obshtina Yakimovo","lat":"43.63333000","lon":"23.33333000"},
{"state":"Montana Province","name":"Valchedram","lat":"43.69281000","lon":"23.44518000"},
{"state":"Montana Province","name":"Varshets","lat":"43.19356000","lon":"23.28680000"},
{"state":"Montana Province","name":"Yakimovo","lat":"43.63472000","lon":"23.35350000"},
{"state":"Pazardzhik Province","name":"Batak","lat":"41.94225000","lon":"24.21843000"},
{"state":"Pazardzhik Province","name":"Belovo","lat":"42.21239000","lon":"24.02081000"},
{"state":"Pazardzhik Province","name":"Bratsigovo","lat":"42.01667000","lon":"24.36667000"},
{"state":"Pazardzhik Province","name":"Lesichovo","lat":"42.35626000","lon":"24.11190000"},
{"state":"Pazardzhik Province","name":"Obshtina Batak","lat":"41.86667000","lon":"24.21667000"},
{"state":"Pazardzhik Province","name":"Obshtina Belovo","lat":"42.20000000","lon":"23.93333000"},
{"state":"Pazardzhik Province","name":"Obshtina Bratsigovo","lat":"42.00000000","lon":"24.40000000"},
{"state":"Pazardzhik Province","name":"Obshtina Lesichovo","lat":"42.36667000","lon":"24.15000000"},
{"state":"Pazardzhik Province","name":"Obshtina Panagyurishte","lat":"42.50000000","lon":"24.16667000"},
{"state":"Pazardzhik Province","name":"Obshtina Pazardzhik","lat":"42.20000000","lon":"24.33333000"},
{"state":"Pazardzhik Province","name":"Obshtina Peshtera","lat":"42.03333000","lon":"24.30000000"},
{"state":"Pazardzhik Province","name":"Obshtina Rakitovo","lat":"41.99965000","lon":"24.10877000"},
{"state":"Pazardzhik Province","name":"Obshtina Septemvri","lat":"42.26667000","lon":"24.13333000"},
{"state":"Pazardzhik Province","name":"Obshtina Strelcha","lat":"42.46667000","lon":"24.36667000"},
{"state":"Pazardzhik Province","name":"Obshtina Velingrad","lat":"41.96667000","lon":"23.93333000"},
{"state":"Pazardzhik Province","name":"Panagyurishte","lat":"42.49518000","lon":"24.19021000"},
{"state":"Pazardzhik Province","name":"Pazardzhik","lat":"42.20000000","lon":"24.33333000"},
{"state":"Pazardzhik Province","name":"Peshtera","lat":"42.03372000","lon":"24.29995000"},
{"state":"Pazardzhik Province","name":"Rakitovo","lat":"41.99012000","lon":"24.08730000"},
{"state":"Pazardzhik Province","name":"Sarnitsa","lat":"41.73835000","lon":"24.02435000"},
{"state":"Pazardzhik Province","name":"Sarnitsa Obshtina","lat":"41.73333000","lon":"24.03333000"},
{"state":"Pazardzhik Province","name":"Septemvri","lat":"42.21138000","lon":"24.12946000"},
{"state":"Pazardzhik Province","name":"Strelcha","lat":"42.50000000","lon":"24.31667000"},
{"state":"Pazardzhik Province","name":"Velingrad","lat":"42.02754000","lon":"23.99155000"},
{"state":"Pernik Province","name":"Batanovtsi","lat":"42.59692000","lon":"22.95634000"},
{"state":"Pernik Province","name":"Breznik","lat":"42.74085000","lon":"22.90723000"},
{"state":"Pernik Province","name":"Obshtina Kovachevtsi","lat":"42.55000000","lon":"22.83333000"},
{"state":"Pernik Province","name":"Obshtina Pernik","lat":"42.61667000","lon":"23.08333000"},
{"state":"Pernik Province","name":"Obshtina Radomir","lat":"42.46667000","lon":"23.01667000"},
{"state":"Pernik Province","name":"Obshtina Zemen","lat":"42.55067000","lon":"22.71440000"},
{"state":"Pernik Province","name":"Pernik","lat":"42.60000000","lon":"23.03333000"},
{"state":"Pernik Province","name":"Radomir","lat":"42.54565000","lon":"22.96553000"},
{"state":"Pernik Province","name":"Tran","lat":"42.83528000","lon":"22.65167000"},
{"state":"Pernik Province","name":"Zemen","lat":"42.47889000","lon":"22.74917000"},
{"state":"Pleven Province","name":"Belene","lat":"43.64594000","lon":"25.12627000"},
{"state":"Pleven Province","name":"Cherven Bryag","lat":"43.26667000","lon":"24.10000000"},
{"state":"Pleven Province","name":"Dolna Mitropolia","lat":"43.46667000","lon":"24.53333000"},
{"state":"Pleven Province","name":"Dolni Dabnik","lat":"43.40000000","lon":"24.43333000"},
{"state":"Pleven Province","name":"Gulyantsi","lat":"43.64109000","lon":"24.69368000"},
{"state":"Pleven Province","name":"Iskar","lat":"43.45000000","lon":"24.26667000"},
{"state":"Pleven Province","name":"Knezha","lat":"43.50000000","lon":"24.08333000"},
{"state":"Pleven Province","name":"Koynare","lat":"43.35000000","lon":"24.13333000"},
{"state":"Pleven Province","name":"Levski","lat":"43.36667000","lon":"25.13333000"},
{"state":"Pleven Province","name":"Nikopol","lat":"43.70528000","lon":"24.89521000"},
{"state":"Pleven Province","name":"Obshtina Belene","lat":"43.63333000","lon":"25.13333000"},
{"state":"Pleven Province","name":"Obshtina Cherven Bryag","lat":"43.33333000","lon":"24.13333000"},
{"state":"Pleven Province","name":"Obshtina Dolna Mitropolia","lat":"43.58333000","lon":"24.41667000"},
{"state":"Pleven Province","name":"Obshtina Dolni Dabnik","lat":"43.36667000","lon":"24.41667000"},
{"state":"Pleven Province","name":"Obshtina Gulyantsi","lat":"43.68333000","lon":"24.65000000"},
{"state":"Pleven Province","name":"Obshtina Iskar","lat":"43.50000000","lon":"24.28333000"},
{"state":"Pleven Province","name":"Obshtina Knezha","lat":"43.50000000","lon":"24.11667000"},
{"state":"Pleven Province","name":"Obshtina Levski","lat":"43.43333000","lon":"25.10000000"},
{"state":"Pleven Province","name":"Obshtina Nikopol","lat":"43.60000000","lon":"24.93333000"},
{"state":"Pleven Province","name":"Obshtina Pleven","lat":"43.40000000","lon":"24.70000000"},
{"state":"Pleven Province","name":"Obshtina Pordim","lat":"43.38333000","lon":"24.90000000"},
{"state":"Pleven Province","name":"Pleven","lat":"43.41667000","lon":"24.61667000"},
{"state":"Pleven Province","name":"Pordim","lat":"43.38333000","lon":"24.85000000"},
{"state":"Pleven Province","name":"Slavyanovo","lat":"43.46667000","lon":"24.86667000"},
{"state":"Plovdiv Province","name":"Asenovgrad","lat":"42.01667000","lon":"24.86667000"},
{"state":"Plovdiv Province","name":"Brezovo","lat":"42.35000000","lon":"25.08333000"},
{"state":"Plovdiv Province","name":"Hisarya","lat":"42.50000000","lon":"24.70000000"},
{"state":"Plovdiv Province","name":"Kalofer","lat":"42.61667000","lon":"24.98333000"},
{"state":"Plovdiv Province","name":"Kaloyanovo","lat":"42.35000000","lon":"24.73333000"},
{"state":"Plovdiv Province","name":"Karlovo","lat":"42.63333000","lon":"24.80000000"},
{"state":"Plovdiv Province","name":"Klisura","lat":"42.70000000","lon":"24.45000000"},
{"state":"Plovdiv Province","name":"Krichim","lat":"42.05000000","lon":"24.46667000"},
{"state":"Plovdiv Province","name":"Laki","lat":"41.85000000","lon":"24.81667000"},
{"state":"Plovdiv Province","name":"Obshtina Asenovgrad","lat":"41.95000000","lon":"24.96667000"},
{"state":"Plovdiv Province","name":"Obshtina Hisarya","lat":"42.50000000","lon":"24.60000000"},
{"state":"Plovdiv Province","name":"Obshtina Kaloyanovo","lat":"42.38333000","lon":"24.81667000"},
{"state":"Plovdiv Province","name":"Obshtina Karlovo","lat":"42.68333000","lon":"24.66667000"},
{"state":"Plovdiv Province","name":"Obshtina Krichim","lat":"42.00439000","lon":"24.47235000"},
{"state":"Plovdiv Province","name":"Obshtina Kuklen","lat":"42.03725000","lon":"24.77949000"},
{"state":"Plovdiv Province","name":"Obshtina Laki","lat":"41.81667000","lon":"24.85000000"},
{"state":"Plovdiv Province","name":"Obshtina Maritsa","lat":"42.23333000","lon":"24.80000000"},
{"state":"Plovdiv Province","name":"Obshtina Parvomay","lat":"42.03333000","lon":"25.20000000"},
{"state":"Plovdiv Province","name":"Obshtina Perushtitsa","lat":"42.06667000","lon":"24.55000000"},
{"state":"Plovdiv Province","name":"Obshtina Plovdiv","lat":"42.15000000","lon":"24.75000000"},
{"state":"Plovdiv Province","name":"Obshtina Rakovski","lat":"42.26667000","lon":"24.98333000"},
{"state":"Plovdiv Province","name":"Obshtina Rodopi","lat":"42.03333000","lon":"24.68333000"},
{"state":"Plovdiv Province","name":"Obshtina Sadovo","lat":"42.13333000","lon":"25.00000000"},
{"state":"Plovdiv Province","name":"Obshtina Saedinenie","lat":"42.31667000","lon":"24.58333000"},
{"state":"Plovdiv Province","name":"Obshtina Sopot","lat":"42.65214000","lon":"24.74310000"},
{"state":"Plovdiv Province","name":"Obshtina Stamboliyski","lat":"42.11667000","lon":"24.51667000"},
{"state":"Plovdiv Province","name":"Parvomay","lat":"42.10000000","lon":"25.21667000"},
{"state":"Plovdiv Province","name":"Perushtitsa","lat":"42.05000000","lon":"24.55000000"},
{"state":"Plovdiv Province","name":"Plovdiv","lat":"42.15000000","lon":"24.75000000"},
{"state":"Plovdiv Province","name":"Rakovski","lat":"42.27408000","lon":"24.94083000"},
{"state":"Plovdiv Province","name":"Sadovo","lat":"42.13178000","lon":"24.93999000"},
{"state":"Plovdiv Province","name":"Saedinenie","lat":"42.26667000","lon":"24.55000000"},
{"state":"Plovdiv Province","name":"Stamboliyski","lat":"42.13333000","lon":"24.53333000"},
{"state":"Plovdiv Province","name":"Topolovo","lat":"41.90000000","lon":"25.00000000"},
{"state":"Razgrad Province","name":"Isperih","lat":"43.71667000","lon":"26.83333000"},
{"state":"Razgrad Province","name":"Kubrat","lat":"43.79658000","lon":"26.50063000"},
{"state":"Razgrad Province","name":"Loznitsa","lat":"43.36667000","lon":"26.60000000"},
{"state":"Razgrad Province","name":"Medovene","lat":"43.76667000","lon":"26.51667000"},
{"state":"Razgrad Province","name":"Obshtina Isperih","lat":"43.71667000","lon":"26.83333000"},
{"state":"Razgrad Province","name":"Obshtina Kubrat","lat":"43.86667000","lon":"26.48333000"},
{"state":"Razgrad Province","name":"Obshtina Loznitsa","lat":"43.41667000","lon":"26.58333000"},
{"state":"Razgrad Province","name":"Obshtina Razgrad","lat":"43.53333000","lon":"26.51667000"},
{"state":"Razgrad Province","name":"Obshtina Samuil","lat":"43.60000000","lon":"26.80000000"},
{"state":"Razgrad Province","name":"Obshtina Tsar Kaloyan","lat":"43.60000000","lon":"26.21667000"},
{"state":"Razgrad Province","name":"Obshtina Zavet","lat":"43.76667000","lon":"26.68333000"},
{"state":"Razgrad Province","name":"Razgrad","lat":"43.53333000","lon":"26.51667000"},
{"state":"Razgrad Province","name":"Samuil","lat":"43.51667000","lon":"26.75000000"},
{"state":"Razgrad Province","name":"Tsar Kaloyan","lat":"43.61667000","lon":"26.25000000"},
{"state":"Razgrad Province","name":"Zavet","lat":"43.76036000","lon":"26.68063000"},
{"state":"Ruse Province","name":"Borovo","lat":"43.50086000","lon":"25.80992000"},
{"state":"Ruse Province","name":"Dve Mogili","lat":"43.59258000","lon":"25.87486000"},
{"state":"Ruse Province","name":"Ivanovo","lat":"43.68568000","lon":"25.95565000"},
{"state":"Ruse Province","name":"Obshtina Borovo","lat":"43.60000000","lon":"25.80000000"},
{"state":"Ruse Province","name":"Obshtina Byala","lat":"43.41667000","lon":"25.83333000"},
{"state":"Ruse Province","name":"Obshtina Dve Mogili","lat":"43.51667000","lon":"25.96667000"},
{"state":"Ruse Province","name":"Obshtina Ivanovo","lat":"43.70000000","lon":"25.98333000"},
{"state":"Ruse Province","name":"Obshtina Ruse","lat":"43.85000000","lon":"26.08333000"},
{"state":"Ruse Province","name":"Obshtina Slivo Pole","lat":"43.96667000","lon":"26.30000000"},
{"state":"Ruse Province","name":"Obshtina Tsenovo","lat":"43.58333000","lon":"25.61667000"},
{"state":"Ruse Province","name":"Obshtina Vetovo","lat":"43.71667000","lon":"26.33333000"},
{"state":"Ruse Province","name":"Ruse","lat":"43.84872000","lon":"25.95340000"},
{"state":"Ruse Province","name":"Senovo","lat":"43.65000000","lon":"26.36667000"},
{"state":"Ruse Province","name":"Slivo Pole","lat":"43.94248000","lon":"26.20464000"},
{"state":"Ruse Province","name":"Tsenovo","lat":"43.53588000","lon":"25.65764000"},
{"state":"Ruse Province","name":"Vetovo","lat":"43.70000000","lon":"26.26667000"},
{"state":"Shumen","name":"Shumen","lat":"43.28333300","lon":"26.93333300"},
{"state":"Silistra Province","name":"Alfatar","lat":"43.94525000","lon":"27.28751000"},
{"state":"Silistra Province","name":"Dulovo","lat":"43.81667000","lon":"27.15000000"},
{"state":"Silistra Province","name":"Glavinitsa","lat":"43.91667000","lon":"26.83333000"},
{"state":"Silistra Province","name":"Kaynardzha","lat":"43.99278000","lon":"27.50713000"},
{"state":"Silistra Province","name":"Obshtina Alfatar","lat":"43.90000000","lon":"27.33333000"},
{"state":"Silistra Province","name":"Obshtina Dulovo","lat":"43.81667000","lon":"27.08333000"},
{"state":"Silistra Province","name":"Obshtina Glavinitsa","lat":"43.95000000","lon":"26.85000000"},
{"state":"Silistra Province","name":"Obshtina Kaynardzha","lat":"43.95000000","lon":"27.53333000"},
{"state":"Silistra Province","name":"Obshtina Silistra","lat":"44.03333000","lon":"27.20000000"},
{"state":"Silistra Province","name":"Obshtina Sitovo","lat":"44.01667000","lon":"27.00000000"},
{"state":"Silistra Province","name":"Obshtina Tutrakan","lat":"44.00000000","lon":"26.60000000"},
{"state":"Silistra Province","name":"Silistra","lat":"44.11710000","lon":"27.26056000"},
{"state":"Silistra Province","name":"Sitovo","lat":"44.02730000","lon":"27.01982000"},
{"state":"Silistra Province","name":"Tutrakan","lat":"44.04906000","lon":"26.61206000"},
{"state":"Sliven Province","name":"Kermen","lat":"42.50000000","lon":"26.25000000"},
{"state":"Sliven Province","name":"Kotel","lat":"42.88333000","lon":"26.45000000"},
{"state":"Sliven Province","name":"Nova Zagora","lat":"42.48333000","lon":"26.01667000"},
{"state":"Sliven Province","name":"Obshtina Kotel","lat":"42.88333000","lon":"26.45000000"},
{"state":"Sliven Province","name":"Obshtina Nova Zagora","lat":"42.45000000","lon":"26.05000000"},
{"state":"Sliven Province","name":"Obshtina Sliven","lat":"42.66667000","lon":"26.31667000"},
{"state":"Sliven Province","name":"Obshtina Tvarditsa","lat":"42.73333000","lon":"26.00000000"},
{"state":"Sliven Province","name":"Sliven","lat":"42.68583000","lon":"26.32917000"},
{"state":"Sliven Province","name":"Tvarditsa","lat":"42.70000000","lon":"25.90000000"},
{"state":"Smolyan Province","name":"Banite","lat":"41.61667000","lon":"25.01667000"},
{"state":"Smolyan Province","name":"Borino","lat":"41.68408000","lon":"24.29300000"},
{"state":"Smolyan Province","name":"Chepelare","lat":"41.73333000","lon":"24.68333000"},
{"state":"Smolyan Province","name":"Devin","lat":"41.74327000","lon":"24.40003000"},
{"state":"Smolyan Province","name":"Dospat","lat":"41.64462000","lon":"24.15857000"},
{"state":"Smolyan Province","name":"Gyovren","lat":"41.66326000","lon":"24.37557000"},
{"state":"Smolyan Province","name":"Madan","lat":"41.49869000","lon":"24.93973000"},
{"state":"Smolyan Province","name":"Nedelino","lat":"41.45602000","lon":"25.08008000"},
{"state":"Smolyan Province","name":"Obshtina Banite","lat":"41.70000000","lon":"25.00000000"},
{"state":"Smolyan Province","name":"Obshtina Borino","lat":"41.64834000","lon":"24.31694000"},
{"state":"Smolyan Province","name":"Obshtina Chepelare","lat":"41.80000000","lon":"24.68333000"},
{"state":"Smolyan Province","name":"Obshtina Devin","lat":"41.74346000","lon":"24.40192000"},
{"state":"Smolyan Province","name":"Obshtina Dospat","lat":"41.63228000","lon":"24.18765000"},
{"state":"Smolyan Province","name":"Obshtina Madan","lat":"41.53333000","lon":"24.96667000"},
{"state":"Smolyan Province","name":"Obshtina Nedelino","lat":"41.46894000","lon":"25.09481000"},
{"state":"Smolyan Province","name":"Obshtina Rudozem","lat":"41.45439000","lon":"24.83690000"},
{"state":"Smolyan Province","name":"Obshtina Smolyan","lat":"41.57516000","lon":"24.71302000"},
{"state":"Smolyan Province","name":"Obshtina Zlatograd","lat":"41.40028000","lon":"25.04591000"},
{"state":"Smolyan Province","name":"Rudozem","lat":"41.48751000","lon":"24.84945000"},
{"state":"Smolyan Province","name":"Smolyan","lat":"41.57439000","lon":"24.71204000"},
{"state":"Smolyan Province","name":"Zlatograd","lat":"41.37950000","lon":"25.09605000"},
{"state":"Sofia City Province","name":"Buhovo","lat":"42.76667000","lon":"23.56667000"},
{"state":"Sofia City Province","name":"Sofia","lat":"42.69751000","lon":"23.32415000"},
{"state":"Sofia City Province","name":"Stolichna Obshtina","lat":"42.68647000","lon":"23.30561000"},
{"state":"Sofia Province","name":"Anton","lat":"42.75000000","lon":"24.28333000"},
{"state":"Sofia Province","name":"Botevgrad","lat":"42.90000000","lon":"23.78333000"},
{"state":"Sofia Province","name":"Bozhurishte","lat":"42.75000000","lon":"23.20000000"},
{"state":"Sofia Province","name":"Chavdar","lat":"42.65000000","lon":"24.05000000"},
{"state":"Sofia Province","name":"Chelopech","lat":"42.70000000","lon":"24.08333000"},
{"state":"Sofia Province","name":"Dolna Banya","lat":"42.30000000","lon":"23.76667000"},
{"state":"Sofia Province","name":"Dragoman","lat":"42.92191000","lon":"22.93109000"},
{"state":"Sofia Province","name":"Elin Pelin","lat":"42.66667000","lon":"23.60000000"},
{"state":"Sofia Province","name":"Etropole","lat":"42.83333000","lon":"24.00000000"},
{"state":"Sofia Province","name":"Godech","lat":"43.01682000","lon":"23.04852000"},
{"state":"Sofia Province","name":"Gorna Malina","lat":"42.68333000","lon":"23.70000000"},
{"state":"Sofia Province","name":"Ihtiman","lat":"42.43333000","lon":"23.81667000"},
{"state":"Sofia Province","name":"Koprivshtitsa","lat":"42.63333000","lon":"24.35000000"},
{"state":"Sofia Province","name":"Kostinbrod","lat":"42.81667000","lon":"23.21667000"},
{"state":"Sofia Province","name":"Lakatnik","lat":"43.05000000","lon":"23.40000000"},
{"state":"Sofia Province","name":"Mirkovo","lat":"42.70000000","lon":"23.98333000"},
{"state":"Sofia Province","name":"Obshtina Anton","lat":"42.76667000","lon":"24.30000000"},
{"state":"Sofia Province","name":"Obshtina Botevgrad","lat":"42.95000000","lon":"23.75000000"},
{"state":"Sofia Province","name":"Obshtina Bozhurishte","lat":"42.78333000","lon":"23.11667000"},
{"state":"Sofia Province","name":"Obshtina Chavdar","lat":"42.61667000","lon":"24.08333000"},
{"state":"Sofia Province","name":"Obshtina Chelopech","lat":"42.71667000","lon":"24.06667000"},
{"state":"Sofia Province","name":"Obshtina Dolna Banya","lat":"42.30000000","lon":"23.76667000"},
{"state":"Sofia Province","name":"Obshtina Dragoman","lat":"42.93333000","lon":"22.93333000"},
{"state":"Sofia Province","name":"Obshtina Elin Pelin","lat":"42.66667000","lon":"23.60000000"},
{"state":"Sofia Province","name":"Obshtina Etropole","lat":"42.85000000","lon":"24.03333000"},
{"state":"Sofia Province","name":"Obshtina Gorna Malina","lat":"42.71667000","lon":"23.80000000"},
{"state":"Sofia Province","name":"Obshtina Koprivshtitsa","lat":"42.61667000","lon":"24.38333000"},
{"state":"Sofia Province","name":"Obshtina Kostenets","lat":"42.30000000","lon":"23.86667000"},
{"state":"Sofia Province","name":"Obshtina Kostinbrod","lat":"42.88333000","lon":"23.20000000"},
{"state":"Sofia Province","name":"Obshtina Mirkovo","lat":"42.66667000","lon":"23.96667000"},
{"state":"Sofia Province","name":"Obshtina Pirdop","lat":"42.70000000","lon":"24.23333000"},
{"state":"Sofia Province","name":"Obshtina Pravets","lat":"42.96667000","lon":"23.98333000"},
{"state":"Sofia Province","name":"Obshtina Samokov","lat":"42.33333000","lon":"23.55000000"},
{"state":"Sofia Province","name":"Obshtina Slivnitsa","lat":"42.85000000","lon":"22.98333000"},
{"state":"Sofia Province","name":"Obshtina Svoge","lat":"43.00000000","lon":"23.40000000"},
{"state":"Sofia Province","name":"Obshtina Zlatitsa","lat":"42.70000000","lon":"24.13333000"},
{"state":"Sofia Province","name":"Pirdop","lat":"42.70000000","lon":"24.18333000"},
{"state":"Sofia Province","name":"Pravets","lat":"42.88333000","lon":"23.91667000"},
{"state":"Sofia Province","name":"Samokov","lat":"42.33700000","lon":"23.55280000"},
{"state":"Sofia Province","name":"Slivnitsa","lat":"42.85182000","lon":"23.03792000"},
{"state":"Sofia Province","name":"Svoge","lat":"42.96667000","lon":"23.35000000"},
{"state":"Sofia Province","name":"Zlatitsa","lat":"42.71667000","lon":"24.13333000"},
{"state":"Stara Zagora Province","name":"Asen","lat":"42.65000000","lon":"25.20000000"},
{"state":"Stara Zagora Province","name":"Chirpan","lat":"42.20000000","lon":"25.33333000"},
{"state":"Stara Zagora Province","name":"Gŭlŭbovo","lat":"42.13333000","lon":"25.85000000"},
{"state":"Stara Zagora Province","name":"Gurkovo","lat":"42.66667000","lon":"25.80000000"},
{"state":"Stara Zagora Province","name":"Kazanlak","lat":"42.61667000","lon":"25.40000000"},
{"state":"Stara Zagora Province","name":"Maglizh","lat":"42.60000000","lon":"25.55000000"},
{"state":"Stara Zagora Province","name":"Nikolaevo","lat":"42.63333000","lon":"25.80000000"},
{"state":"Stara Zagora Province","name":"Obshtina Bratya Daskalovi","lat":"42.30000000","lon":"25.21667000"},
{"state":"Stara Zagora Province","name":"Obshtina Chirpan","lat":"42.23333000","lon":"25.38333000"},
{"state":"Stara Zagora Province","name":"Obshtina Galabovo","lat":"42.15000000","lon":"25.96667000"},
{"state":"Stara Zagora Province","name":"Obshtina Gurkovo","lat":"42.71667000","lon":"25.80000000"},
{"state":"Stara Zagora Province","name":"Obshtina Kazanlŭk","lat":"42.61943000","lon":"25.39885000"},
{"state":"Stara Zagora Province","name":"Obshtina Maglizh","lat":"42.63333000","lon":"25.61667000"},
{"state":"Stara Zagora Province","name":"Obshtina Nikolaevo","lat":"42.60000000","lon":"25.78333000"},
{"state":"Stara Zagora Province","name":"Obshtina Opan","lat":"42.21667000","lon":"25.70000000"},
{"state":"Stara Zagora Province","name":"Obshtina Pavel Banya","lat":"42.63333000","lon":"25.13333000"},
{"state":"Stara Zagora Province","name":"Obshtina Radnevo","lat":"42.30000000","lon":"25.93333000"},
{"state":"Stara Zagora Province","name":"Obshtina Stara Zagora","lat":"42.41667000","lon":"25.63333000"},
{"state":"Stara Zagora Province","name":"Pavel Banya","lat":"42.60000000","lon":"25.20000000"},
{"state":"Stara Zagora Province","name":"Radnevo","lat":"42.30000000","lon":"25.93333000"},
{"state":"Stara Zagora Province","name":"Shipka","lat":"42.71667000","lon":"25.33333000"},
{"state":"Stara Zagora Province","name":"Stara Zagora","lat":"42.43278000","lon":"25.64194000"},
{"state":"Targovishte Province","name":"Antonovo","lat":"43.15000000","lon":"26.16667000"},
{"state":"Targovishte Province","name":"Obshtina Antonovo","lat":"43.11667000","lon":"26.20000000"},
{"state":"Targovishte Province","name":"Obshtina Omurtag","lat":"43.08333000","lon":"26.48333000"},
{"state":"Targovishte Province","name":"Obshtina Opaka","lat":"43.46667000","lon":"26.15000000"},
{"state":"Targovishte Province","name":"Obshtina Popovo","lat":"43.35000000","lon":"26.23333000"},
{"state":"Targovishte Province","name":"Obshtina Targovishte","lat":"43.25000000","lon":"26.56667000"},
{"state":"Targovishte Province","name":"Omurtag","lat":"43.10000000","lon":"26.41667000"},
{"state":"Targovishte Province","name":"Opaka","lat":"43.45000000","lon":"26.16667000"},
{"state":"Targovishte Province","name":"Popovo","lat":"43.35000000","lon":"26.23333000"},
{"state":"Targovishte Province","name":"Targovishte","lat":"43.25120000","lon":"26.57215000"},
{"state":"Varna Province","name":"Aksakovo","lat":"43.25615000","lon":"27.82105000"},
{"state":"Varna Province","name":"Asparuhovo","lat":"43.18067000","lon":"27.88823000"},
{"state":"Varna Province","name":"Balgarevo","lat":"43.40296000","lon":"28.41189000"},
{"state":"Varna Province","name":"Beloslav","lat":"43.18960000","lon":"27.70429000"},
{"state":"Varna Province","name":"Byala","lat":"42.87426000","lon":"27.88865000"},
{"state":"Varna Province","name":"Dalgopol","lat":"43.05000000","lon":"27.35000000"},
{"state":"Varna Province","name":"Devnya","lat":"43.22222000","lon":"27.56944000"},
{"state":"Varna Province","name":"Dolni Chiflik","lat":"42.99296000","lon":"27.71596000"},
{"state":"Varna Province","name":"Kiten","lat":"43.08333000","lon":"27.31667000"},
{"state":"Varna Province","name":"Obshtina Aksakovo","lat":"43.31667000","lon":"27.85000000"},
{"state":"Varna Province","name":"Obshtina Avren","lat":"43.10000000","lon":"27.71667000"},
{"state":"Varna Province","name":"Obshtina Beloslav","lat":"43.20000000","lon":"27.73333000"},
{"state":"Varna Province","name":"Obshtina Byala","lat":"42.88333000","lon":"27.81667000"},
{"state":"Varna Province","name":"Obshtina Dalgopol","lat":"43.05000000","lon":"27.35000000"},
{"state":"Varna Province","name":"Obshtina Devnya","lat":"43.22056000","lon":"27.60052000"},
{"state":"Varna Province","name":"Obshtina Dolni Chiflik","lat":"42.96667000","lon":"27.68333000"},
{"state":"Varna Province","name":"Obshtina Provadia","lat":"43.18333000","lon":"27.40000000"},
{"state":"Varna Province","name":"Obshtina Suvorovo","lat":"43.33333000","lon":"27.65000000"},
{"state":"Varna Province","name":"Obshtina Valchidol","lat":"43.45000000","lon":"27.50000000"},
{"state":"Varna Province","name":"Obshtina Varna","lat":"43.21667000","lon":"27.91667000"},
{"state":"Varna Province","name":"Obshtina Vetrino","lat":"43.31667000","lon":"27.43333000"},
{"state":"Varna Province","name":"Provadia","lat":"43.18333000","lon":"27.43333000"},
{"state":"Varna Province","name":"Suvorovo","lat":"43.33058000","lon":"27.59908000"},
{"state":"Varna Province","name":"Valchidol","lat":"43.40000000","lon":"27.55000000"},
{"state":"Varna Province","name":"Varna","lat":"43.21667000","lon":"27.91667000"},
{"state":"Varna Province","name":"Vetrino","lat":"43.31667000","lon":"27.43333000"},
{"state":"Varna Province","name":"Zlatni Pyasatsi","lat":"43.28500000","lon":"28.04180000"},
{"state":"Veliko Tarnovo Province","name":"Byala Cherkva","lat":"43.20000000","lon":"25.30000000"},
{"state":"Veliko Tarnovo Province","name":"Debelets","lat":"43.03333000","lon":"25.61667000"},
{"state":"Veliko Tarnovo Province","name":"Elena","lat":"42.93333000","lon":"25.88333000"},
{"state":"Veliko Tarnovo Province","name":"Gorna Oryahovitsa","lat":"43.12778000","lon":"25.70167000"},
{"state":"Veliko Tarnovo Province","name":"Kilifarevo","lat":"42.98333000","lon":"25.63333000"},
{"state":"Veliko Tarnovo Province","name":"Lyaskovets","lat":"43.11111000","lon":"25.72833000"},
{"state":"Veliko Tarnovo Province","name":"Obshtina Elena","lat":"42.91667000","lon":"25.95000000"},
{"state":"Veliko Tarnovo Province","name":"Obshtina Gorna Oryahovitsa","lat":"43.21667000","lon":"25.75000000"},
{"state":"Veliko Tarnovo Province","name":"Obshtina Lyaskovets","lat":"43.13333000","lon":"25.85000000"},
{"state":"Veliko Tarnovo Province","name":"Obshtina Pavlikeni","lat":"43.28333000","lon":"25.35000000"},
{"state":"Veliko Tarnovo Province","name":"Obshtina Polski Trambesh","lat":"43.35000000","lon":"25.58333000"},
{"state":"Veliko Tarnovo Province","name":"Obshtina Strazhitsa","lat":"43.26667000","lon":"25.98333000"},
{"state":"Veliko Tarnovo Province","name":"Obshtina Suhindol","lat":"43.16667000","lon":"25.20000000"},
{"state":"Veliko Tarnovo Province","name":"Obshtina Svishtov","lat":"43.53333000","lon":"25.35000000"},
{"state":"Veliko Tarnovo Province","name":"Obshtina Veliko Tŭrnovo","lat":"43.08241000","lon":"25.63202000"},
{"state":"Veliko Tarnovo Province","name":"Obshtina Zlataritsa","lat":"43.06667000","lon":"25.98333000"},
{"state":"Veliko Tarnovo Province","name":"Parvomaytsi","lat":"43.15000000","lon":"25.65000000"},
{"state":"Veliko Tarnovo Province","name":"Pavlikeni","lat":"43.24278000","lon":"25.32194000"},
{"state":"Veliko Tarnovo Province","name":"Polski Trambesh","lat":"43.37233000","lon":"25.63525000"},
{"state":"Veliko Tarnovo Province","name":"Strazhitsa","lat":"43.23333000","lon":"25.96667000"},
{"state":"Veliko Tarnovo Province","name":"Suhindol","lat":"43.19167000","lon":"25.18111000"},
{"state":"Veliko Tarnovo Province","name":"Svishtov","lat":"43.61875000","lon":"25.35033000"},
{"state":"Veliko Tarnovo Province","name":"Veliko Tŭrnovo","lat":"43.08124000","lon":"25.62904000"},
{"state":"Veliko Tarnovo Province","name":"Zlataritsa","lat":"43.05000000","lon":"25.90000000"},
{"state":"Vidin Province","name":"Belogradchik","lat":"43.62722000","lon":"22.68361000"},
{"state":"Vidin Province","name":"Boynitsa","lat":"43.95650000","lon":"22.53255000"},
{"state":"Vidin Province","name":"Bregovo","lat":"44.15167000","lon":"22.64250000"},
{"state":"Vidin Province","name":"Chuprene","lat":"43.51806000","lon":"22.66611000"},
{"state":"Vidin Province","name":"Dimovo","lat":"43.74167000","lon":"22.72694000"},
{"state":"Vidin Province","name":"Drenovets","lat":"43.69134000","lon":"22.97365000"},
{"state":"Vidin Province","name":"Dunavtsi","lat":"43.92111000","lon":"22.82111000"},
{"state":"Vidin Province","name":"Gramada","lat":"43.83738000","lon":"22.65279000"},
{"state":"Vidin Province","name":"Kula","lat":"43.88833000","lon":"22.52139000"},
{"state":"Vidin Province","name":"Makresh","lat":"43.76794000","lon":"22.66406000"},
{"state":"Vidin Province","name":"Novo Selo","lat":"44.16214000","lon":"22.78376000"},
{"state":"Vidin Province","name":"Obshtina Belogradchik","lat":"43.65000000","lon":"22.60000000"},
{"state":"Vidin Province","name":"Obshtina Boynitsa","lat":"44.00000000","lon":"22.55000000"},
{"state":"Vidin Province","name":"Obshtina Dimovo","lat":"43.75000000","lon":"22.81667000"},
{"state":"Vidin Province","name":"Obshtina Gramada","lat":"43.83333000","lon":"22.65000000"},
{"state":"Vidin Province","name":"Obshtina Kula","lat":"43.90000000","lon":"22.56667000"},
{"state":"Vidin Province","name":"Obshtina Ruzhintsi","lat":"43.65000000","lon":"22.90000000"},
{"state":"Vidin Province","name":"Obshtina Vidin","lat":"44.00000000","lon":"22.83333000"},
{"state":"Vidin Province","name":"Ruzhintsi","lat":"43.62179000","lon":"22.83286000"},
{"state":"Vidin Province","name":"Vidin","lat":"43.99159000","lon":"22.88236000"},
{"state":"Vratsa Province","name":"Borovan","lat":"43.43333000","lon":"23.75000000"},
{"state":"Vratsa Province","name":"Byala Slatina","lat":"43.46667000","lon":"23.93333000"},
{"state":"Vratsa Province","name":"Hayredin","lat":"43.60193000","lon":"23.66135000"},
{"state":"Vratsa Province","name":"Kozloduy","lat":"43.77864000","lon":"23.72058000"},
{"state":"Vratsa Province","name":"Krivodol","lat":"43.37444000","lon":"23.48444000"},
{"state":"Vratsa Province","name":"Mezdra","lat":"43.15000000","lon":"23.70000000"},
{"state":"Vratsa Province","name":"Mizia","lat":"43.68623000","lon":"23.85371000"},
{"state":"Vratsa Province","name":"Obshtina Borovan","lat":"43.43333000","lon":"23.75000000"},
{"state":"Vratsa Province","name":"Obshtina Hayredin","lat":"43.58333000","lon":"23.66667000"},
{"state":"Vratsa Province","name":"Obshtina Kozloduy","lat":"43.71667000","lon":"23.73333000"},
{"state":"Vratsa Province","name":"Obshtina Krivodol","lat":"43.38333000","lon":"23.48333000"},
{"state":"Vratsa Province","name":"Obshtina Mezdra","lat":"43.13333000","lon":"23.73333000"},
{"state":"Vratsa Province","name":"Obshtina Mizia","lat":"43.63333000","lon":"23.85000000"},
{"state":"Vratsa Province","name":"Obshtina Oryahovo","lat":"43.69038000","lon":"23.98643000"},
{"state":"Vratsa Province","name":"Obshtina Roman","lat":"43.15000000","lon":"23.91667000"},
{"state":"Vratsa Province","name":"Obshtina Vratsa","lat":"43.28333000","lon":"23.60000000"},
{"state":"Vratsa Province","name":"Oryahovo","lat":"43.73618000","lon":"23.96052000"},
{"state":"Vratsa Province","name":"Roman","lat":"43.15000000","lon":"23.91667000"},
{"state":"Vratsa Province","name":"Vratsa","lat":"43.21000000","lon":"23.56250000"},
{"state":"Yambol Province","name":"Bolyarovo","lat":"42.14962000","lon":"26.81116000"},
{"state":"Yambol Province","name":"Elhovo","lat":"42.16667000","lon":"26.56667000"},
{"state":"Yambol Province","name":"Obshtina Bolyarovo","lat":"42.15000000","lon":"26.85000000"},
{"state":"Yambol Province","name":"Obshtina Elhovo","lat":"42.11667000","lon":"26.61667000"},
{"state":"Yambol Province","name":"Obshtina Straldzha","lat":"42.48333000","lon":"26.78333000"},
{"state":"Yambol Province","name":"Obshtina Tundzha","lat":"42.35000000","lon":"26.45000000"},
{"state":"Yambol Province","name":"Obshtina Yambol","lat":"42.48333000","lon":"26.50000000"},
{"state":"Yambol Province","name":"Straldzha","lat":"42.60000000","lon":"26.68333000"},
{"state":"Yambol Province","name":"Yambol","lat":"42.48333000","lon":"26.50000000"}]