[{"state":"Bubanza Province","name":"Bubanza","lat":"-3.08040000","lon":"29.39100000"},
{"state":"Bujumbura Mairie Province","name":"Bujumbura","lat":"-3.38193000","lon":"29.36142000"},
{"state":"Bururi Province","name":"Bururi","lat":"-3.94877000","lon":"29.62438000"},
{"state":"Cankuzo Province","name":"Cankuzo","lat":"-3.21860000","lon":"30.55280000"},
{"state":"Cibitoke Province","name":"Cibitoke","lat":"-2.88690000","lon":"29.12480000"},
{"state":"Gitega Province","name":"Gitega","lat":"-3.42708000","lon":"29.92463000"},
{"state":"Karuzi Province","name":"Karuzi","lat":"-3.10139000","lon":"30.16278000"},
{"state":"Kayanza Province","name":"Kayanza","lat":"-2.92210000","lon":"29.62930000"},
{"state":"Kirundo Province","name":"Kirundo","lat":"-2.58450000","lon":"30.09590000"},
{"state":"Makamba Province","name":"Makamba","lat":"-4.13480000","lon":"29.80400000"},
{"state":"Muramvya Province","name":"Muramvya","lat":"-3.26820000","lon":"29.60790000"},
{"state":"Muyinga Province","name":"Muyinga","lat":"-2.84510000","lon":"30.34140000"},
{"state":"Mwaro Province","name":"Mwaro","lat":"-3.51128000","lon":"29.70334000"},
{"state":"Ngozi Province","name":"Ngozi","lat":"-2.90750000","lon":"29.83060000"},
{"state":"Rumonge Province","name":"Rumonge","lat":"-3.97360000","lon":"29.43860000"},
{"state":"Rutana Province","name":"Rutana","lat":"-3.92790000","lon":"29.99200000"},
{"state":"Ruyigi Province","name":"Ruyigi","lat":"-3.47639000","lon":"30.24861000"}]