[{"state":"Alibori Department","name":"Banikoara","lat":"11.29845000","lon":"2.43856000"},
{"state":"Alibori Department","name":"Kandi","lat":"11.13417000","lon":"2.93861000"},
{"state":"Alibori Department","name":"Malanville","lat":"11.86819000","lon":"3.38327000"},
{"state":"Atakora Department","name":"Guilmaro","lat":"10.56583000","lon":"1.72444000"},
{"state":"Atakora Department","name":"Natitingou","lat":"10.30416000","lon":"1.37962000"},
{"state":"Atakora Department","name":"Tanguieta","lat":"11.03621000","lon":"1.41757000"},
{"state":"Atlantique Department","name":"Abomey-Calavi","lat":"6.44852000","lon":"2.35566000"},
{"state":"Atlantique Department","name":"Allada","lat":"6.66547000","lon":"2.15138000"},
{"state":"Atlantique Department","name":"Hévié","lat":"6.41667000","lon":"2.25000000"},
{"state":"Atlantique Department","name":"Hinvi","lat":"6.76667000","lon":"2.16667000"},
{"state":"Atlantique Department","name":"Ouidah","lat":"6.36307000","lon":"2.08506000"},
{"state":"Borgou Department","name":"Bembèrèkè","lat":"10.22827000","lon":"2.66335000"},
{"state":"Borgou Department","name":"Bétérou","lat":"9.19916000","lon":"2.25855000"},
{"state":"Borgou Department","name":"Nikki","lat":"9.94009000","lon":"3.21075000"},
{"state":"Borgou Department","name":"Parakou","lat":"9.33716000","lon":"2.63031000"},
{"state":"Borgou Department","name":"Tchaourou","lat":"8.88649000","lon":"2.59753000"},
{"state":"Collines Department","name":"Comé","lat":"6.40764000","lon":"1.88198000"},
{"state":"Collines Department","name":"Dassa-Zoumé","lat":"7.75000000","lon":"2.18333000"},
{"state":"Collines Department","name":"Savalou","lat":"7.92807000","lon":"1.97558000"},
{"state":"Collines Department","name":"Savé","lat":"8.03424000","lon":"2.48660000"},
{"state":"Donga Department","name":"Bassila","lat":"9.00814000","lon":"1.66540000"},
{"state":"Donga Department","name":"Commune of Djougou","lat":"9.64300000","lon":"1.89600000"},
{"state":"Donga Department","name":"Djougou","lat":"9.70853000","lon":"1.66598000"},
{"state":"Kouffo Department","name":"Djakotomey","lat":"6.90000000","lon":"1.71667000"},
{"state":"Kouffo Department","name":"Dogbo","lat":"6.79911000","lon":"1.78073000"},
{"state":"Littoral Department","name":"Cotonou","lat":"6.36536000","lon":"2.41833000"},
{"state":"Mono Department","name":"Commune of Athieme","lat":"6.56924000","lon":"1.70259000"},
{"state":"Mono Department","name":"Lokossa","lat":"6.63869000","lon":"1.71674000"},
{"state":"Ouémé Department","name":"Porto-Novo","lat":"6.49646000","lon":"2.60359000"},
{"state":"Plateau Department","name":"Kétou","lat":"7.36332000","lon":"2.59978000"},
{"state":"Plateau Department","name":"Pobé","lat":"6.98008000","lon":"2.66490000"},
{"state":"Plateau Department","name":"Sakété","lat":"6.73618000","lon":"2.65866000"},
{"state":"Zou Department","name":"Abomey","lat":"7.18286000","lon":"1.99119000"},
{"state":"Zou Department","name":"Bohicon","lat":"7.17826000","lon":"2.06670000"},
{"state":"Zou Department","name":"Commune of Agbangnizoun","lat":"7.07600000","lon":"1.96100000"},
{"state":"Zou Department","name":"Cové","lat":"7.22097000","lon":"2.34017000"}]