[{"state":"Beni Department","name":"Guayaramerín","lat":"-10.82580000","lon":"-65.35810000"},
{"state":"Beni Department","name":"Provincia Cercado","lat":"-14.50000000","lon":"-64.33333000"},
{"state":"Beni Department","name":"Provincia General José Ballivián","lat":"-14.00000000","lon":"-67.08333000"},
{"state":"Beni Department","name":"Provincia Iténez","lat":"-13.41667000","lon":"-63.50000000"},
{"state":"Beni Department","name":"Provincia Mamoré","lat":"-13.00000000","lon":"-64.91667000"},
{"state":"Beni Department","name":"Provincia Marbán","lat":"-15.66667000","lon":"-64.33333000"},
{"state":"Beni Department","name":"Provincia Moxos","lat":"-15.16667000","lon":"-65.50000000"},
{"state":"Beni Department","name":"Provincia Vaca Diez","lat":"-11.66667000","lon":"-66.00000000"},
{"state":"Beni Department","name":"Provincia Yacuma","lat":"-13.50000000","lon":"-66.00000000"},
{"state":"Beni Department","name":"Reyes","lat":"-14.29520000","lon":"-67.33624000"},
{"state":"Beni Department","name":"Riberalta","lat":"-11.00654000","lon":"-66.06312000"},
{"state":"Beni Department","name":"Rurrenabaque","lat":"-14.44125000","lon":"-67.52781000"},
{"state":"Beni Department","name":"San Borja","lat":"-14.81667000","lon":"-66.85000000"},
{"state":"Beni Department","name":"San Ramón","lat":"-13.28333000","lon":"-64.71667000"},
{"state":"Beni Department","name":"Santa Ana de Yacuma","lat":"-13.74406000","lon":"-65.42688000"},
{"state":"Beni Department","name":"Santa Rosa","lat":"-14.16667000","lon":"-66.88333000"},
{"state":"Beni Department","name":"Trinidad","lat":"-14.83333000","lon":"-64.90000000"},
{"state":"Chuquisaca Department","name":"Camargo","lat":"-20.64064000","lon":"-65.20893000"},
{"state":"Chuquisaca Department","name":"Monteagudo","lat":"-19.79989000","lon":"-63.95461000"},
{"state":"Chuquisaca Department","name":"Padilla","lat":"-19.30878000","lon":"-64.30273000"},
{"state":"Chuquisaca Department","name":"Provincia Azurduy","lat":"-20.00000000","lon":"-64.50000000"},
{"state":"Chuquisaca Department","name":"Provincia Belisario Boeto","lat":"-18.91667000","lon":"-64.33333000"},
{"state":"Chuquisaca Department","name":"Provincia Hernando Siles","lat":"-20.16667000","lon":"-64.25000000"},
{"state":"Chuquisaca Department","name":"Provincia Luis Calvo","lat":"-20.66667000","lon":"-63.50000000"},
{"state":"Chuquisaca Department","name":"Provincia Nor Cinti","lat":"-20.33333000","lon":"-65.00000000"},
{"state":"Chuquisaca Department","name":"Provincia Oropeza","lat":"-18.66667000","lon":"-65.16667000"},
{"state":"Chuquisaca Department","name":"Provincia Sud Cinti","lat":"-20.91667000","lon":"-64.91667000"},
{"state":"Chuquisaca Department","name":"Provincia Tomina","lat":"-19.50000000","lon":"-64.16667000"},
{"state":"Chuquisaca Department","name":"Provincia Yamparáez","lat":"-19.16667000","lon":"-64.91667000"},
{"state":"Chuquisaca Department","name":"Provincia Zudáñez","lat":"-18.91667000","lon":"-64.83333000"},
{"state":"Chuquisaca Department","name":"Sucre","lat":"-19.03332000","lon":"-65.26274000"},
{"state":"Chuquisaca Department","name":"Tarabuco","lat":"-19.18168000","lon":"-64.91517000"},
{"state":"Cochabamba Department","name":"Aiquile","lat":"-18.20408000","lon":"-65.18068000"},
{"state":"Cochabamba Department","name":"Arani","lat":"-17.56854000","lon":"-65.76883000"},
{"state":"Cochabamba Department","name":"Bolivar","lat":"-17.96667000","lon":"-66.53333000"},
{"state":"Cochabamba Department","name":"Capinota","lat":"-17.71113000","lon":"-66.26082000"},
{"state":"Cochabamba Department","name":"Chimoré","lat":"-16.99417000","lon":"-65.15330000"},
{"state":"Cochabamba Department","name":"Cliza","lat":"-17.58777000","lon":"-65.93253000"},
{"state":"Cochabamba Department","name":"Cochabamba","lat":"-17.38950000","lon":"-66.15680000"},
{"state":"Cochabamba Department","name":"Colchani","lat":"-17.31667000","lon":"-66.71667000"},
{"state":"Cochabamba Department","name":"Colomi","lat":"-17.35000000","lon":"-65.86667000"},
{"state":"Cochabamba Department","name":"Independencia","lat":"-17.08389000","lon":"-66.81804000"},
{"state":"Cochabamba Department","name":"Irpa Irpa","lat":"-17.71667000","lon":"-66.26667000"},
{"state":"Cochabamba Department","name":"Mizque","lat":"-17.94101000","lon":"-65.34016000"},
{"state":"Cochabamba Department","name":"Provincia Arani","lat":"-17.50000000","lon":"-65.50000000"},
{"state":"Cochabamba Department","name":"Provincia Arque","lat":"-17.75000000","lon":"-66.66667000"},
{"state":"Cochabamba Department","name":"Provincia Ayopaya","lat":"-16.50000000","lon":"-66.58333000"},
{"state":"Cochabamba Department","name":"Provincia Campero","lat":"-18.33333000","lon":"-65.00000000"},
{"state":"Cochabamba Department","name":"Provincia Capinota","lat":"-17.83333000","lon":"-66.16667000"},
{"state":"Cochabamba Department","name":"Provincia Carrasco","lat":"-17.50000000","lon":"-65.00000000"},
{"state":"Cochabamba Department","name":"Provincia Cercado","lat":"-17.33333000","lon":"-66.16667000"},
{"state":"Cochabamba Department","name":"Provincia Chaparé","lat":"-16.50000000","lon":"-65.50000000"},
{"state":"Cochabamba Department","name":"Provincia Esteban Arce","lat":"-17.66667000","lon":"-66.00000000"},
{"state":"Cochabamba Department","name":"Provincia Germán Jordán","lat":"-17.58333000","lon":"-65.91667000"},
{"state":"Cochabamba Department","name":"Provincia Mizque","lat":"-17.90655000","lon":"-65.39440000"},
{"state":"Cochabamba Department","name":"Provincia Punata","lat":"-17.50000000","lon":"-65.91667000"},
{"state":"Cochabamba Department","name":"Provincia Quillacollo","lat":"-17.50000000","lon":"-66.50000000"},
{"state":"Cochabamba Department","name":"Provincia Tapacarí","lat":"-17.51146000","lon":"-66.61965000"},
{"state":"Cochabamba Department","name":"Punata","lat":"-17.54234000","lon":"-65.83472000"},
{"state":"Cochabamba Department","name":"Quillacollo","lat":"-17.39228000","lon":"-66.27838000"},
{"state":"Cochabamba Department","name":"Sacaba","lat":"-17.39799000","lon":"-66.03825000"},
{"state":"Cochabamba Department","name":"Sipe Sipe","lat":"-17.45000000","lon":"-66.38333000"},
{"state":"Cochabamba Department","name":"Tarata","lat":"-17.60898000","lon":"-66.02135000"},
{"state":"Cochabamba Department","name":"Tiquipaya","lat":"-17.33801000","lon":"-66.21579000"},
{"state":"Cochabamba Department","name":"Tiraque Province","lat":"-17.33333000","lon":"-65.91667000"},
{"state":"Cochabamba Department","name":"Totora","lat":"-17.72662000","lon":"-65.19320000"},
{"state":"La Paz Department","name":"Achacachi","lat":"-16.05000000","lon":"-68.68333000"},
{"state":"La Paz Department","name":"Amarete","lat":"-15.23675000","lon":"-68.98462000"},
{"state":"La Paz Department","name":"Batallas","lat":"-16.30000000","lon":"-68.53333000"},
{"state":"La Paz Department","name":"Caranavi","lat":"-15.83652000","lon":"-67.56901000"},
{"state":"La Paz Department","name":"Chulumani","lat":"-16.40855000","lon":"-67.52940000"},
{"state":"La Paz Department","name":"Colquiri","lat":"-17.38918000","lon":"-67.12671000"},
{"state":"La Paz Department","name":"Coripata","lat":"-16.30000000","lon":"-67.60000000"},
{"state":"La Paz Department","name":"Coroico","lat":"-16.19386000","lon":"-67.72998000"},
{"state":"La Paz Department","name":"Curahuara de Carangas","lat":"-17.86667000","lon":"-68.43333000"},
{"state":"La Paz Department","name":"Eucaliptus","lat":"-17.58333000","lon":"-67.51667000"},
{"state":"La Paz Department","name":"Guanay","lat":"-15.49756000","lon":"-67.88332000"},
{"state":"La Paz Department","name":"Huarina","lat":"-16.20000000","lon":"-68.63333000"},
{"state":"La Paz Department","name":"Huatajata","lat":"-16.20000000","lon":"-68.68333000"},
{"state":"La Paz Department","name":"José Manuel Pando","lat":"-16.18970000","lon":"-67.72664000"},
{"state":"La Paz Department","name":"La Paz","lat":"-16.50000000","lon":"-68.15000000"},
{"state":"La Paz Department","name":"Lahuachaca","lat":"-17.37054000","lon":"-67.67501000"},
{"state":"La Paz Department","name":"Mapiri","lat":"-15.25000000","lon":"-68.16667000"},
{"state":"La Paz Department","name":"Patacamaya","lat":"-17.23580000","lon":"-67.92169000"},
{"state":"La Paz Department","name":"Provincia Aroma","lat":"-17.50000000","lon":"-68.00000000"},
{"state":"La Paz Department","name":"Provincia Bautista Saavedra","lat":"-15.00000000","lon":"-68.91667000"},
{"state":"La Paz Department","name":"Provincia Camacho","lat":"-15.50000000","lon":"-69.00000000"},
{"state":"La Paz Department","name":"Provincia Franz Tamayo","lat":"-14.50000000","lon":"-68.33333000"},
{"state":"La Paz Department","name":"Provincia Gualberto Villarroel","lat":"-17.58333000","lon":"-68.00000000"},
{"state":"La Paz Department","name":"Provincia Ingavi","lat":"-16.83333000","lon":"-68.66667000"},
{"state":"La Paz Department","name":"Provincia Inquisivi","lat":"-17.00000000","lon":"-67.08333000"},
{"state":"La Paz Department","name":"Provincia Iturralde","lat":"-13.00000000","lon":"-68.00000000"},
{"state":"La Paz Department","name":"Provincia Larecaja","lat":"-15.50000000","lon":"-68.33333000"},
{"state":"La Paz Department","name":"Provincia Loayza","lat":"-17.00000000","lon":"-67.66667000"},
{"state":"La Paz Department","name":"Provincia Los Andes","lat":"-16.33333000","lon":"-68.50000000"},
{"state":"La Paz Department","name":"Provincia Manco Kapac","lat":"-16.00000000","lon":"-69.16667000"},
{"state":"La Paz Department","name":"Provincia Muñecas","lat":"-15.33333000","lon":"-68.66667000"},
{"state":"La Paz Department","name":"Provincia Murillo","lat":"-16.33333000","lon":"-68.00000000"},
{"state":"La Paz Department","name":"Provincia Nor Yungas","lat":"-16.00000000","lon":"-67.50000000"},
{"state":"La Paz Department","name":"Provincia Omasuyos","lat":"-15.91667000","lon":"-68.83333000"},
{"state":"La Paz Department","name":"Provincia Pacajes","lat":"-17.50000000","lon":"-69.00000000"},
{"state":"La Paz Department","name":"Provincia Sud Yungas","lat":"-16.50000000","lon":"-67.50000000"},
{"state":"La Paz Department","name":"Quime","lat":"-16.98333000","lon":"-67.21667000"},
{"state":"La Paz Department","name":"San Pablo","lat":"-16.21667000","lon":"-68.83333000"},
{"state":"La Paz Department","name":"San Pedro","lat":"-16.23717000","lon":"-68.85063000"},
{"state":"La Paz Department","name":"Sorata","lat":"-15.77305000","lon":"-68.64973000"},
{"state":"La Paz Department","name":"Tiahuanaco","lat":"-16.55228000","lon":"-68.67953000"},
{"state":"La Paz Department","name":"Viloco","lat":"-16.95000000","lon":"-67.55000000"},
{"state":"La Paz Department","name":"Yumani","lat":"-16.03574000","lon":"-69.14843000"},
{"state":"Oruro Department","name":"Challapata","lat":"-18.90208000","lon":"-66.77048000"},
{"state":"Oruro Department","name":"Huanuni","lat":"-18.28900000","lon":"-66.83583000"},
{"state":"Oruro Department","name":"Litoral de Atacama","lat":"-18.76071000","lon":"-68.24295000"},
{"state":"Oruro Department","name":"Machacamarca","lat":"-18.17251000","lon":"-67.02099000"},
{"state":"Oruro Department","name":"Nor Carangas Province","lat":"-17.83750000","lon":"-67.94330000"},
{"state":"Oruro Department","name":"Oruro","lat":"-17.98333000","lon":"-67.15000000"},
{"state":"Oruro Department","name":"Poopó","lat":"-18.38026000","lon":"-66.96695000"},
{"state":"Oruro Department","name":"Provincia Avaroa","lat":"-19.00000000","lon":"-66.66667000"},
{"state":"Oruro Department","name":"Provincia Carangas","lat":"-18.33333000","lon":"-67.75000000"},
{"state":"Oruro Department","name":"Provincia Cercado","lat":"-17.91667000","lon":"-67.08333000"},
{"state":"Oruro Department","name":"Provincia Ladislao Cabrera","lat":"-19.50000000","lon":"-67.66667000"},
{"state":"Oruro Department","name":"Provincia Pantaleón Dalence","lat":"-18.33333000","lon":"-66.91667000"},
{"state":"Oruro Department","name":"Provincia Poopó","lat":"-18.50000000","lon":"-66.91667000"},
{"state":"Oruro Department","name":"Provincia Sabaya","lat":"-19.00000000","lon":"-68.58333000"},
{"state":"Oruro Department","name":"Provincia Sajama","lat":"-18.20000000","lon":"-68.55000000"},
{"state":"Oruro Department","name":"Provincia San Pedro de Totora","lat":"-17.83333000","lon":"-68.20000000"},
{"state":"Oruro Department","name":"Provincia Saucari","lat":"-18.25000000","lon":"-67.41667000"},
{"state":"Oruro Department","name":"Provincia Tomás Barron","lat":"-17.83333000","lon":"-68.25000000"},
{"state":"Oruro Department","name":"Puerto de Mejillones","lat":"-18.99266000","lon":"-68.68446000"},
{"state":"Oruro Department","name":"Sebastian Pagador Province","lat":"-19.21667000","lon":"-66.21667000"},
{"state":"Oruro Department","name":"Sud Carangas Province","lat":"-18.50000000","lon":"-68.25000000"},
{"state":"Oruro Department","name":"Totoral","lat":"-18.49587000","lon":"-66.87380000"},
{"state":"Pando Department","name":"Cobija","lat":"-11.02671000","lon":"-68.76918000"},
{"state":"Pando Department","name":"Provincia Abuná","lat":"-10.50000000","lon":"-66.50000000"},
{"state":"Pando Department","name":"Provincia General Federico Román","lat":"-10.33333000","lon":"-65.88333000"},
{"state":"Pando Department","name":"Provincia Madre de Dios","lat":"-11.58333000","lon":"-67.00000000"},
{"state":"Pando Department","name":"Provincia Manuripi","lat":"-11.33333000","lon":"-67.50000000"},
{"state":"Pando Department","name":"Provincia Nicolás Suárez","lat":"-11.33333000","lon":"-68.50000000"},
{"state":"Potosí Department","name":"Atocha","lat":"-20.93515000","lon":"-66.22139000"},
{"state":"Potosí Department","name":"Betanzos","lat":"-19.55293000","lon":"-65.45395000"},
{"state":"Potosí Department","name":"Colchani","lat":"-20.30000000","lon":"-66.93333000"},
{"state":"Potosí Department","name":"Colquechaca","lat":"-18.70031000","lon":"-66.00397000"},
{"state":"Potosí Department","name":"Enrique Baldivieso","lat":"-21.38323000","lon":"-67.60368000"},
{"state":"Potosí Department","name":"Llallagua","lat":"-18.42426000","lon":"-66.58388000"},
{"state":"Potosí Department","name":"Potosí","lat":"-19.58361000","lon":"-65.75306000"},
{"state":"Potosí Department","name":"Provincia Alonzo de Ibáñez","lat":"-18.50000000","lon":"-66.33333000"},
{"state":"Potosí Department","name":"Provincia Charcas","lat":"-18.33333000","lon":"-65.83333000"},
{"state":"Potosí Department","name":"Provincia Chayanta","lat":"-18.91667000","lon":"-66.00000000"},
{"state":"Potosí Department","name":"Provincia Daniel Campos","lat":"-20.25000000","lon":"-68.25000000"},
{"state":"Potosí Department","name":"Provincia General Bilbao","lat":"-18.08333000","lon":"-66.00000000"},
{"state":"Potosí Department","name":"Provincia Linares","lat":"-19.83333000","lon":"-65.50000000"},
{"state":"Potosí Department","name":"Provincia Modesto Omiste","lat":"-21.91667000","lon":"-65.58333000"},
{"state":"Potosí Department","name":"Provincia Nor Chichas","lat":"-20.66667000","lon":"-66.00000000"},
{"state":"Potosí Department","name":"Provincia Nor Lípez","lat":"-20.50000000","lon":"-67.83333000"},
{"state":"Potosí Department","name":"Provincia Quijarro","lat":"-20.00000000","lon":"-66.33333000"},
{"state":"Potosí Department","name":"Provincia Rafael Bustillo","lat":"-18.33333000","lon":"-66.50000000"},
{"state":"Potosí Department","name":"Provincia Saavedra","lat":"-19.25000000","lon":"-65.50000000"},
{"state":"Potosí Department","name":"Provincia Sud Chichas","lat":"-21.50000000","lon":"-66.00000000"},
{"state":"Potosí Department","name":"Provincia Sud Lípez","lat":"-22.00000000","lon":"-67.50000000"},
{"state":"Potosí Department","name":"Provincia Tomás Frías","lat":"-19.33333000","lon":"-66.00000000"},
{"state":"Potosí Department","name":"Santa Bárbara","lat":"-20.91667000","lon":"-66.05000000"},
{"state":"Potosí Department","name":"Tupiza","lat":"-21.44345000","lon":"-65.71875000"},
{"state":"Potosí Department","name":"Uyuni","lat":"-20.45967000","lon":"-66.82503000"},
{"state":"Potosí Department","name":"Villazón","lat":"-22.08659000","lon":"-65.59422000"},
{"state":"Santa Cruz Department","name":"Abapó","lat":"-18.88279000","lon":"-63.38026000"},
{"state":"Santa Cruz Department","name":"Ascención de Guarayos","lat":"-15.89299000","lon":"-63.18855000"},
{"state":"Santa Cruz Department","name":"Ascensión","lat":"-15.70000000","lon":"-63.08333000"},
{"state":"Santa Cruz Department","name":"Boyuibe","lat":"-20.43227000","lon":"-63.28147000"},
{"state":"Santa Cruz Department","name":"Buena Vista","lat":"-17.45830000","lon":"-63.67126000"},
{"state":"Santa Cruz Department","name":"Camiri","lat":"-20.03849000","lon":"-63.51833000"},
{"state":"Santa Cruz Department","name":"Charagua","lat":"-19.79151000","lon":"-63.19864000"},
{"state":"Santa Cruz Department","name":"Comarapa","lat":"-17.91537000","lon":"-64.53163000"},
{"state":"Santa Cruz Department","name":"Concepción","lat":"-16.43333000","lon":"-60.90000000"},
{"state":"Santa Cruz Department","name":"Cotoca","lat":"-17.81667000","lon":"-63.05000000"},
{"state":"Santa Cruz Department","name":"German Busch","lat":"-17.77317000","lon":"-63.19087000"},
{"state":"Santa Cruz Department","name":"Guarayos","lat":"-15.82132000","lon":"-63.24280000"},
{"state":"Santa Cruz Department","name":"Jorochito","lat":"-18.05514000","lon":"-63.42821000"},
{"state":"Santa Cruz Department","name":"La Bélgica","lat":"-17.55000000","lon":"-63.21667000"},
{"state":"Santa Cruz Department","name":"Limoncito","lat":"-18.03104000","lon":"-63.40523000"},
{"state":"Santa Cruz Department","name":"Los Negros","lat":"-17.73333000","lon":"-63.43333000"},
{"state":"Santa Cruz Department","name":"Mairana","lat":"-18.11919000","lon":"-63.95965000"},
{"state":"Santa Cruz Department","name":"Mineros","lat":"-17.11876000","lon":"-63.23100000"},
{"state":"Santa Cruz Department","name":"Montero","lat":"-17.33866000","lon":"-63.25050000"},
{"state":"Santa Cruz Department","name":"Okinawa Número Uno","lat":"-17.23333000","lon":"-62.81667000"},
{"state":"Santa Cruz Department","name":"Pailón","lat":"-17.65000000","lon":"-62.75000000"},
{"state":"Santa Cruz Department","name":"Paurito","lat":"-17.88333000","lon":"-62.96667000"},
{"state":"Santa Cruz Department","name":"Portachuelo","lat":"-17.35168000","lon":"-63.39282000"},
{"state":"Santa Cruz Department","name":"Provincia Andrés Ibáñez","lat":"-17.75000000","lon":"-63.25000000"},
{"state":"Santa Cruz Department","name":"Provincia Ángel Sandoval","lat":"-17.50000000","lon":"-58.50000000"},
{"state":"Santa Cruz Department","name":"Provincia Chiquitos","lat":"-18.00000000","lon":"-60.00000000"},
{"state":"Santa Cruz Department","name":"Provincia Cordillera","lat":"-19.00000000","lon":"-61.50000000"},
{"state":"Santa Cruz Department","name":"Provincia Florida","lat":"-18.00000000","lon":"-63.91667000"},
{"state":"Santa Cruz Department","name":"Provincia Ichilo","lat":"-17.00000000","lon":"-64.00000000"},
{"state":"Santa Cruz Department","name":"Provincia Manuel María Caballero","lat":"-17.83333000","lon":"-64.41667000"},
{"state":"Santa Cruz Department","name":"Provincia Ñuflo de Chávez","lat":"-15.91667000","lon":"-62.50000000"},
{"state":"Santa Cruz Department","name":"Provincia Santiesteban","lat":"-16.50000000","lon":"-63.50000000"},
{"state":"Santa Cruz Department","name":"Provincia Sara","lat":"-16.83333000","lon":"-63.91667000"},
{"state":"Santa Cruz Department","name":"Provincia Vallegrande","lat":"-18.50000000","lon":"-64.16667000"},
{"state":"Santa Cruz Department","name":"Provincia Velasco","lat":"-15.50000000","lon":"-61.00000000"},
{"state":"Santa Cruz Department","name":"Provincia Warnes","lat":"-17.33333000","lon":"-63.00000000"},
{"state":"Santa Cruz Department","name":"Puerto Quijarro","lat":"-17.78333000","lon":"-57.76667000"},
{"state":"Santa Cruz Department","name":"Puesto de Pailas","lat":"-17.65000000","lon":"-62.80000000"},
{"state":"Santa Cruz Department","name":"Roboré","lat":"-18.33473000","lon":"-59.76142000"},
{"state":"Santa Cruz Department","name":"Samaipata","lat":"-18.18005000","lon":"-63.87552000"},
{"state":"Santa Cruz Department","name":"San Carlos","lat":"-17.40000000","lon":"-63.75000000"},
{"state":"Santa Cruz Department","name":"San Ignacio de Velasco","lat":"-16.36667000","lon":"-60.95000000"},
{"state":"Santa Cruz Department","name":"San Juan del Surutú","lat":"-17.48333000","lon":"-63.70000000"},
{"state":"Santa Cruz Department","name":"San Julian","lat":"-17.78333000","lon":"-62.86667000"},
{"state":"Santa Cruz Department","name":"San Matías","lat":"-16.36667000","lon":"-58.40000000"},
{"state":"Santa Cruz Department","name":"San Pedro","lat":"-18.28333000","lon":"-59.81667000"},
{"state":"Santa Cruz Department","name":"Santa Cruz de la Sierra","lat":"-17.78629000","lon":"-63.18117000"},
{"state":"Santa Cruz Department","name":"Santa Rita","lat":"-17.96667000","lon":"-63.35000000"},
{"state":"Santa Cruz Department","name":"Santa Rosa del Sara","lat":"-17.10916000","lon":"-63.59514000"},
{"state":"Santa Cruz Department","name":"Santiago del Torno","lat":"-17.98674000","lon":"-63.38118000"},
{"state":"Santa Cruz Department","name":"Urubichá","lat":"-15.39286000","lon":"-62.94661000"},
{"state":"Santa Cruz Department","name":"Vallegrande","lat":"-18.48923000","lon":"-64.10609000"},
{"state":"Santa Cruz Department","name":"Villa Yapacaní","lat":"-17.40000000","lon":"-63.83333000"},
{"state":"Santa Cruz Department","name":"Warnes","lat":"-17.51630000","lon":"-63.16778000"},
{"state":"Tarija Department","name":"Bermejo","lat":"-22.73206000","lon":"-64.33724000"},
{"state":"Tarija Department","name":"Entre Ríos","lat":"-21.52661000","lon":"-64.17299000"},
{"state":"Tarija Department","name":"Provincia Arce","lat":"-22.16667000","lon":"-64.33333000"},
{"state":"Tarija Department","name":"Provincia Avilez","lat":"-21.66667000","lon":"-65.00000000"},
{"state":"Tarija Department","name":"Provincia Cercado","lat":"-21.58333000","lon":"-64.58333000"},
{"state":"Tarija Department","name":"Provincia Gran Chaco","lat":"-21.66667000","lon":"-63.00000000"},
{"state":"Tarija Department","name":"Provincia Méndez","lat":"-21.16667000","lon":"-64.91667000"},
{"state":"Tarija Department","name":"Provincia O’Connor","lat":"-21.58333000","lon":"-64.16667000"},
{"state":"Tarija Department","name":"Tarija","lat":"-21.53549000","lon":"-64.72956000"},
{"state":"Tarija Department","name":"Villamontes","lat":"-21.26235000","lon":"-63.46903000"},
{"state":"Tarija Department","name":"Yacuiba","lat":"-22.01643000","lon":"-63.67753000"}]