[{"state":"Bimini","name":"Alice Town","lat":"25.72800000","lon":"-79.29721000"},
{"state":"Cat Island","name":"Arthur’s Town","lat":"24.62240000","lon":"-75.67151000"},
{"state":"Central Abaco","name":"Marsh Harbour","lat":"26.54124000","lon":"-77.06360000"},
{"state":"Crooked Island","name":"Colonel Hill","lat":"22.75450000","lon":"-74.20415000"},
{"state":"East Grand Bahama","name":"High Rock","lat":"26.60999000","lon":"-78.27863000"},
{"state":"Exuma","name":"George Town","lat":"23.51616000","lon":"-75.78665000"},
{"state":"Freeport","name":"Freeport","lat":"26.53333000","lon":"-78.70000000"},
{"state":"Freeport","name":"Lucaya","lat":"26.53333000","lon":"-78.66667000"},
{"state":"Harbour Island","name":"Dunmore Town","lat":"25.50216000","lon":"-76.63633000"},
{"state":"Inagua","name":"Matthew Town","lat":"20.94982000","lon":"-73.67346000"},
{"state":"Long Island","name":"Clarence Town","lat":"23.10000000","lon":"-74.98333000"},
{"state":"Mayaguana District","name":"Abraham’s Bay","lat":"22.36667000","lon":"-72.96667000"},
{"state":"New Providence","name":"Nassau","lat":"25.06666667","lon":"-77.33333333"},
{"state":"North Abaco","name":"Cooper’s Town","lat":"26.87137000","lon":"-77.51131000"},
{"state":"North Andros","name":"Andros Town","lat":"24.70502000","lon":"-77.76912000"},
{"state":"North Andros","name":"San Andros","lat":"25.06667000","lon":"-78.05000000"},
{"state":"Ragged Island","name":"Duncan Town","lat":"22.19083000","lon":"-75.72583000"},
{"state":"Rum Cay District","name":"Port Nelson","lat":"23.64967000","lon":"-74.84157000"},
{"state":"San Salvador Island","name":"Cockburn Town","lat":"24.05179000","lon":"-74.53138000"},
{"state":"Spanish Wells","name":"Spanish Wells","lat":"25.54717000","lon":"-76.76405000"},
{"state":"West Grand Bahama","name":"West End","lat":"26.68711000","lon":"-78.97702000"}]