[{"state":"Bumthang District","name":"Jakar","lat":"27.54918000","lon":"90.75250000"},
{"state":"Chukha District","name":"Daphu","lat":"26.96667000","lon":"89.38333000"},
{"state":"Chukha District","name":"Phuntsholing","lat":"26.85164000","lon":"89.38837000"},
{"state":"Chukha District","name":"Tsimasham","lat":"27.09890000","lon":"89.53604000"},
{"state":"Dagana District","name":"Daga","lat":"27.07529000","lon":"89.87688000"},
{"state":"Dagana District","name":"Wangdue Phodrang","lat":"27.48615000","lon":"89.89915000"},
{"state":"Gasa District","name":"Gasa","lat":"27.90372000","lon":"89.72689000"},
{"state":"Haa District","name":"Ha","lat":"27.38747000","lon":"89.28074000"},
{"state":"Lhuntse District","name":"Lhuentse","lat":"27.66787000","lon":"91.18393000"},
{"state":"Mongar District","name":"Mongar","lat":"27.27471000","lon":"91.23963000"},
{"state":"Paro District","name":"Paro","lat":"27.43050000","lon":"89.41334000"},
{"state":"Pemagatshel District","name":"Pemagatshel","lat":"27.03795000","lon":"91.40305000"},
{"state":"Punakha District","name":"Pajo","lat":"27.53333000","lon":"89.88333000"},
{"state":"Punakha District","name":"PunƒÅkha","lat":"27.59137000","lon":"89.87743000"},
{"state":"Samdrup Jongkhar District","name":"Samdrup Jongkhar","lat":"26.80069000","lon":"91.50519000"},
{"state":"Samtse District","name":"Samtse","lat":"26.89903000","lon":"89.09951000"},
{"state":"Sarpang District","name":"Sarpang","lat":"26.86395000","lon":"90.26745000"},
{"state":"Thimphu District","name":"Thimphu","lat":"27.46609000","lon":"89.64191000"},
{"state":"Trashigang District","name":"Trashigang","lat":"27.33310000","lon":"91.55424000"},
{"state":"Tsirang District","name":"Trongsa","lat":"27.50260000","lon":"90.50716000"},
{"state":"Tsirang District","name":"Tsirang","lat":"27.02190000","lon":"90.12291000"},
{"state":"Wangdue Phodrang District","name":"Trashi Yangtse","lat":"27.61160000","lon":"91.49800000"},
{"state":"Zhemgang District","name":"Panbang","lat":"26.86667000","lon":"90.98333000"},
{"state":"Zhemgang District","name":"Shemgang","lat":"27.21689000","lon":"90.65793000"}]