[{"state":"Central District","name":"Gobojango","lat":"-21.83270000","lon":"28.72882000"},
{"state":"Central District","name":"Gweta","lat":"-20.18333000","lon":"25.23333000"},
{"state":"Central District","name":"Kalamare","lat":"-22.93369000","lon":"26.57032000"},
{"state":"Central District","name":"Letlhakane","lat":"-21.41494000","lon":"25.59263000"},
{"state":"Central District","name":"Letsheng","lat":"-22.66384000","lon":"27.22390000"},
{"state":"Central District","name":"Maapi","lat":"-22.75785000","lon":"27.35001000"},
{"state":"Central District","name":"Machaneng","lat":"-23.18621000","lon":"27.48856000"},
{"state":"Central District","name":"Mahalapye","lat":"-23.10407000","lon":"26.81421000"},
{"state":"Central District","name":"Makobeng","lat":"-22.99637000","lon":"27.66766000"},
{"state":"Central District","name":"Makwata","lat":"-23.28333000","lon":"27.30000000"},
{"state":"Central District","name":"Mathakola","lat":"-22.72125000","lon":"27.31057000"},
{"state":"Central District","name":"Mathambgwane","lat":"-20.99075000","lon":"27.33158000"},
{"state":"Central District","name":"Mathathane","lat":"-22.26875000","lon":"28.74946000"},
{"state":"Central District","name":"Maunatlala","lat":"-22.59701000","lon":"27.63006000"},
{"state":"Central District","name":"Mogapi","lat":"-22.32301000","lon":"27.83492000"},
{"state":"Central District","name":"Moijabana","lat":"-22.43333000","lon":"26.41667000"},
{"state":"Central District","name":"Mookane","lat":"-23.68805000","lon":"26.65948000"},
{"state":"Central District","name":"Mopipi","lat":"-21.18333000","lon":"24.88333000"},
{"state":"Central District","name":"Mosetse","lat":"-20.75000000","lon":"26.65000000"},
{"state":"Central District","name":"Nata","lat":"-20.21667000","lon":"26.18333000"},
{"state":"Central District","name":"Orapa","lat":"-21.31150000","lon":"25.37642000"},
{"state":"Central District","name":"Palapye","lat":"-22.54605000","lon":"27.12507000"},
{"state":"Central District","name":"Pilikwe","lat":"-22.79904000","lon":"27.19376000"},
{"state":"Central District","name":"Rakops","lat":"-21.02257000","lon":"24.36052000"},
{"state":"Central District","name":"Ramokgonami","lat":"-22.86450000","lon":"27.42391000"},
{"state":"Central District","name":"Ratholo","lat":"-22.72454000","lon":"27.57199000"},
{"state":"Central District","name":"Sefophe","lat":"-22.18333000","lon":"27.96667000"},
{"state":"Central District","name":"Serowe","lat":"-22.38754000","lon":"26.71077000"},
{"state":"Central District","name":"Sua","lat":"-20.05000000","lon":"26.20000000"},
{"state":"Central District","name":"Tamasane","lat":"-22.41840000","lon":"27.40127000"},
{"state":"Central District","name":"Tobane","lat":"-21.95000000","lon":"27.90000000"},
{"state":"Central District","name":"Tonota","lat":"-21.44236000","lon":"27.46153000"},
{"state":"Ghanzi District","name":"Dekar","lat":"-21.53333000","lon":"21.93333000"},
{"state":"Ghanzi District","name":"Ghanzi","lat":"-21.69785000","lon":"21.64581000"},
{"state":"Kgalagadi District","name":"Hukuntsi","lat":"-23.99880000","lon":"21.77962000"},
{"state":"Kgalagadi District","name":"Kang","lat":"-23.67518000","lon":"22.78762000"},
{"state":"Kgalagadi District","name":"Lehututu","lat":"-23.96667000","lon":"21.86667000"},
{"state":"Kgalagadi District","name":"Manyana","lat":"-23.40000000","lon":"21.71667000"},
{"state":"Kgalagadi District","name":"Tshabong","lat":"-26.05000000","lon":"22.45000000"},
{"state":"Kgalagadi District","name":"Werda","lat":"-25.26667000","lon":"23.28333000"},
{"state":"Kgatleng District","name":"Bokaa","lat":"-24.45000000","lon":"26.01667000"},
{"state":"Kgatleng District","name":"Mmathubudukwane","lat":"-24.60000000","lon":"26.43333000"},
{"state":"Kgatleng District","name":"Mochudi","lat":"-24.41667000","lon":"26.15000000"},
{"state":"Kgatleng District","name":"Pilane","lat":"-24.45000000","lon":"26.13333000"},
{"state":"Kweneng District","name":"Botlhapatlou","lat":"-24.02591000","lon":"25.48976000"},
{"state":"Kweneng District","name":"Dutlwe","lat":"-23.98333000","lon":"23.90000000"},
{"state":"Kweneng District","name":"Gabane","lat":"-24.66667000","lon":"25.78222000"},
{"state":"Kweneng District","name":"Gaphatshwe","lat":"-24.57389000","lon":"25.83417000"},
{"state":"Kweneng District","name":"Khudumelapye","lat":"-23.88333000","lon":"24.75000000"},
{"state":"Kweneng District","name":"Lenchwe Le Tau","lat":"-24.38333000","lon":"25.85000000"},
{"state":"Kweneng District","name":"Letlhakeng","lat":"-24.09442000","lon":"25.02977000"},
{"state":"Kweneng District","name":"Metsemotlhaba","lat":"-24.55139000","lon":"25.80306000"},
{"state":"Kweneng District","name":"Mmopone","lat":"-24.56694000","lon":"25.87417000"},
{"state":"Kweneng District","name":"Mogoditshane","lat":"-24.62694000","lon":"25.86556000"},
{"state":"Kweneng District","name":"Molepolole","lat":"-24.40659000","lon":"25.49508000"},
{"state":"Kweneng District","name":"Nkoyaphiri","lat":"-24.63222000","lon":"25.83139000"},
{"state":"Kweneng District","name":"Thamaga","lat":"-24.67014000","lon":"25.53975000"},
{"state":"North-East District","name":"Dukwe","lat":"-20.58333000","lon":"26.41667000"},
{"state":"North-East District","name":"Makaleng","lat":"-20.90000000","lon":"27.28333000"},
{"state":"North-East District","name":"Masunga","lat":"-20.62455000","lon":"27.44875000"},
{"state":"North-East District","name":"Sebina","lat":"-20.86667000","lon":"27.25000000"},
{"state":"North-West District","name":"Maun","lat":"-19.98333000","lon":"23.41667000"},
{"state":"North-West District","name":"Nokaneng","lat":"-19.66667000","lon":"22.26667000"},
{"state":"North-West District","name":"Pandamatenga","lat":"-18.52779000","lon":"25.62698000"},
{"state":"North-West District","name":"Sehithwa","lat":"-20.46667000","lon":"22.71667000"},
{"state":"North-West District","name":"Shakawe","lat":"-18.36536000","lon":"21.84219000"},
{"state":"South-East District","name":"Gaborone","lat":"-24.76234000","lon":"25.79950000"},
{"state":"South-East District","name":"Janeng","lat":"-25.41667000","lon":"25.55000000"},
{"state":"South-East District","name":"Kopong","lat":"-24.48333000","lon":"25.88333000"},
{"state":"South-East District","name":"Otse","lat":"-25.01667000","lon":"25.73333000"},
{"state":"South-East District","name":"Ramotswa","lat":"-24.87158000","lon":"25.86989000"},
{"state":"Southern District","name":"Kanye","lat":"-24.96675000","lon":"25.33273000"},
{"state":"Southern District","name":"Khakhea","lat":"-24.68954000","lon":"23.49403000"},
{"state":"Southern District","name":"Mosopa","lat":"-24.77180000","lon":"25.42156000"},
{"state":"Southern District","name":"Sekoma","lat":"-24.40000000","lon":"23.88333000"}]