[{"name":"Brest Region","native":null,"cities":[{"name":"Antopal’","native":null,"lat":"52.20380000","lon":"24.78630000"},{"name":"Asnyezhytsy","native":null,"lat":"52.18910000","lon":"26.12990000"},{"name":"Baranovichi","native":null,"lat":"53.13270000","lon":"26.01390000"},{"name":"Baranovichskiy Rayon","native":null,"lat":"53.16667000","lon":"25.83333000"},{"name":"Brest","native":null,"lat":"52.09755000","lon":"23.68775000"},{"name":"Brestski Rayon","native":null,"lat":"52.00000000","lon":"23.75000000"},{"name":"Byaroza","native":null,"lat":"52.53140000","lon":"24.97860000"},{"name":"Byarozawski Rayon","native":null,"lat":"52.50000000","lon":"25.00000000"},{"name":"Byelaazyorsk","native":null,"lat":"52.47310000","lon":"25.17840000"},{"name":"Charnawchytsy","native":null,"lat":"52.21948000","lon":"23.74043000"},{"name":"Damachava","native":null,"lat":"51.75000000","lon":"23.60000000"},{"name":"Davyd-Haradok","native":null,"lat":"52.05660000","lon":"27.21610000"},{"name":"Drahichyn","native":null,"lat":"52.18740000","lon":"25.15970000"},{"name":"Drahichynski Rayon","native":null,"lat":"52.16667000","lon":"25.00000000"},{"name":"Hantsavichy","native":null,"lat":"52.75800000","lon":"26.43000000"},{"name":"Hantsavitski Rayon","native":null,"lat":"52.66667000","lon":"26.50000000"},{"name":"Haradzishcha","native":null,"lat":"53.32470000","lon":"26.01070000"},{"name":"Horad Baranavichy","native":null,"lat":"53.13333000","lon":"26.03333000"},{"name":"Horad Brest","native":null,"lat":"52.10000000","lon":"23.70000000"},{"name":"Ivanava","native":null,"lat":"52.14510000","lon":"25.53650000"},{"name":"Ivanawski Rayon","native":null,"lat":"52.16667000","lon":"25.58333000"},{"name":"Ivatsevichy","native":null,"lat":"52.70900000","lon":"25.34010000"},{"name":"Kamyanyets","native":null,"lat":"52.40013000","lon":"23.81000000"},{"name":"Kamyanyetski Rayon","native":null,"lat":"52.41667000","lon":"23.66667000"},{"name":"Kamyanyuki","native":null,"lat":"52.55757000","lon":"23.80525000"},{"name":"Kobryn","native":null,"lat":"52.21380000","lon":"24.35640000"},{"name":"Kosava","native":null,"lat":"52.75830000","lon":"25.15540000"},{"name":"Lahishyn","native":null,"lat":"52.33900000","lon":"25.98670000"},{"name":"Luninyets","native":null,"lat":"52.24720000","lon":"26.80470000"},{"name":"Lyakhavichy","native":null,"lat":"53.03880000","lon":"26.26560000"},{"name":"Malaryta","native":null,"lat":"51.79050000","lon":"24.07400000"},{"name":"Mikashevichy","native":null,"lat":"52.21730000","lon":"27.47600000"},{"name":"Motal’","native":null,"lat":"52.31380000","lon":"25.60720000"},{"name":"Nyakhachava","native":null,"lat":"52.64400000","lon":"25.20270000"},{"name":"Pinsk","native":null,"lat":"52.12290000","lon":"26.09510000"},{"name":"Pruzhanski Rayon","native":null,"lat":"52.66667000","lon":"24.58333000"},{"name":"Pruzhany","native":null,"lat":"52.55600000","lon":"24.45730000"},{"name":"Ruzhany","native":null,"lat":"52.86322000","lon":"24.89357000"},{"name":"Stolin","native":null,"lat":"51.89115000","lon":"26.84597000"},{"name":"Stolinski Rayon","native":null,"lat":"52.00000000","lon":"27.00000000"},{"name":"Tsyelyakhany","native":null,"lat":"52.51750000","lon":"25.84290000"},{"name":"Vysokaye","native":null,"lat":"52.37091000","lon":"23.37083000"},{"name":"Zhabinka","native":null,"lat":"52.19840000","lon":"24.01150000"},{"name":"Zhabinkawski Rayon","native":null,"lat":"52.16667000","lon":"24.08333000"},{"name":"Znamenka","native":null,"lat":"51.88168000","lon":"23.65545000"}]},{"name":"Gomel Region","native":null,"cities":[{"name":"Aktsyabrski","native":null,"lat":"52.64400000","lon":"28.88010000"},{"name":"Brahin","native":null,"lat":"51.78700000","lon":"30.26770000"},{"name":"Brahinski Rayon","native":null,"lat":"51.66667000","lon":"30.33333000"},{"name":"Buda-Kashalyova","native":null,"lat":"52.71790000","lon":"30.57010000"},{"name":"Chachersk","native":null,"lat":"52.91640000","lon":"30.91790000"},{"name":"Chacherski Rayon","native":null,"lat":"52.91667000","lon":"31.08333000"},{"name":"Dobrush","native":null,"lat":"52.40890000","lon":"31.32370000"},{"name":"Dowsk","native":null,"lat":"53.15710000","lon":"30.46010000"},{"name":"Homyel'","native":null,"lat":"52.43450000","lon":"30.97540000"},{"name":"Homyel’ski Rayon","native":null,"lat":"52.33333000","lon":"31.00000000"},{"name":"Kalinkavichy","native":null,"lat":"52.13230000","lon":"29.32570000"},{"name":"Karanyowka","native":null,"lat":"52.35060000","lon":"31.11210000"},{"name":"Karma","native":null,"lat":"53.13010000","lon":"30.80160000"},{"name":"Kastsyukowka","native":null,"lat":"52.53870000","lon":"30.91730000"},{"name":"Khal’ch","native":null,"lat":"52.56430000","lon":"31.13640000"},{"name":"Khoyniki","native":null,"lat":"51.89110000","lon":"29.95520000"},{"name":"Loyew","native":null,"lat":"51.94580000","lon":"30.79530000"},{"name":"Lyel’chytski Rayon","native":null,"lat":"51.83333000","lon":"28.25000000"},{"name":"Lyel’chytsy","native":null,"lat":"51.78620000","lon":"28.32880000"},{"name":"Mazyr","native":null,"lat":"52.04950000","lon":"29.24560000"},{"name":"Mazyrski Rayon","native":null,"lat":"52.00000000","lon":"29.00000000"},{"name":"Narowlya","native":null,"lat":"51.79610000","lon":"29.50040000"},{"name":"Novaya Huta","native":null,"lat":"52.10320000","lon":"30.98370000"},{"name":"Parychy","native":null,"lat":"52.80420000","lon":"29.41760000"},{"name":"Peramoga","native":null,"lat":"52.39730000","lon":"31.07100000"},{"name":"Pyetrykaw","native":null,"lat":"52.12890000","lon":"28.49210000"},{"name":"Rahachow","native":null,"lat":"53.09340000","lon":"30.04950000"},{"name":"Rahachowski Rayon","native":null,"lat":"53.16667000","lon":"30.16667000"},{"name":"Rechytsa","native":null,"lat":"52.36170000","lon":"30.39160000"},{"name":"Sasnovy Bor","native":null,"lat":"52.51940000","lon":"29.59880000"},{"name":"Svyetlahorsk","native":null,"lat":"52.63290000","lon":"29.73890000"},{"name":"Turaw","native":null,"lat":"52.06830000","lon":"27.73500000"},{"name":"Vasilyevichy","native":null,"lat":"52.25120000","lon":"29.82880000"},{"name":"Vyetka","native":null,"lat":"52.55910000","lon":"31.17940000"},{"name":"Vyetkawski Rayon","native":null,"lat":"52.66667000","lon":"31.25000000"},{"name":"Yel’sk","native":null,"lat":"51.81410000","lon":"29.15220000"},{"name":"Zhlobin","native":null,"lat":"52.89260000","lon":"30.02400000"},{"name":"Zhlobinski Rayon","native":null,"lat":"52.75000000","lon":"29.83333000"},{"name":"Zhytkavichy","native":null,"lat":"52.21680000","lon":"27.85610000"}]},{"name":"Grodno Region","native":null,"cities":[{"name":"Ashmyanski Rayon","native":null,"lat":"54.41667000","lon":"25.91667000"},{"name":"Ashmyany","native":null,"lat":"54.42100000","lon":"25.93600000"},{"name":"Astravyets","native":null,"lat":"54.61378000","lon":"25.95537000"},{"name":"Astravyetski Rayon","native":null,"lat":"54.66667000","lon":"26.00000000"},{"name":"Baruny","native":null,"lat":"54.31710000","lon":"26.13760000"},{"name":"Byarozawka","native":null,"lat":"53.72406000","lon":"25.49709000"},{"name":"Dyatlovo","native":null,"lat":"53.46310000","lon":"25.40680000"},{"name":"Grodnenskiy Rayon","native":null,"lat":"53.66667000","lon":"24.00000000"},{"name":"Hal’shany","native":null,"lat":"54.25850000","lon":"26.01440000"},{"name":"Horad Hrodna","native":null,"lat":"53.68333000","lon":"23.83333000"},{"name":"Hrodna","native":null,"lat":"53.68840000","lon":"23.82580000"},{"name":"Hyeranyony","native":null,"lat":"54.11590000","lon":"25.57730000"},{"name":"Indura","native":null,"lat":"53.46050000","lon":"23.88230000"},{"name":"Iwye","native":null,"lat":"53.92990000","lon":"25.77270000"},{"name":"Karelichy","native":null,"lat":"53.56480000","lon":"26.14060000"},{"name":"Karelitski Rayon","native":null,"lat":"53.50000000","lon":"26.25000000"},{"name":"Krasnosel’skiy","native":null,"lat":"53.26450000","lon":"24.43010000"},{"name":"Kreva","native":null,"lat":"54.31180000","lon":"26.29160000"},{"name":"Lida","native":null,"lat":"53.88333000","lon":"25.29972000"},{"name":"Lidski Rayon","native":null,"lat":"53.66667000","lon":"25.25000000"},{"name":"Lyubcha","native":null,"lat":"53.75220000","lon":"26.06030000"},{"name":"Mir","native":null,"lat":"53.45440000","lon":"26.46700000"},{"name":"Mosty","native":null,"lat":"53.41220000","lon":"24.53870000"},{"name":"Novogrudok","native":null,"lat":"53.59420000","lon":"25.81910000"},{"name":"Ross’","native":null,"lat":"53.28451000","lon":"24.40335000"},{"name":"Sapotskin","native":null,"lat":"53.83290000","lon":"23.65980000"},{"name":"Shchuchyn","native":null,"lat":"53.60140000","lon":"24.74650000"},{"name":"Shchuchynski Rayon","native":null,"lat":"53.58333000","lon":"24.66667000"},{"name":"Skidel’","native":null,"lat":"53.59040000","lon":"24.24780000"},{"name":"Slonim","native":null,"lat":"53.08690000","lon":"25.31630000"},{"name":"Smarhon’","native":null,"lat":"54.47980000","lon":"26.39570000"},{"name":"Soly","native":null,"lat":"54.51301000","lon":"26.19381000"},{"name":"Svislach","native":null,"lat":"53.03474000","lon":"24.09829000"},{"name":"Vishnyeva","native":null,"lat":"54.71020000","lon":"26.52280000"},{"name":"Volkovysk","native":null,"lat":"53.15610000","lon":"24.45130000"},{"name":"Voranava","native":null,"lat":"54.14920000","lon":"25.31120000"},{"name":"Vyalikaya Byerastavitsa","native":null,"lat":"53.19600000","lon":"24.01660000"},{"name":"Zel’va","native":null,"lat":"53.15040000","lon":"24.81530000"},{"name":"Zhaludok","native":null,"lat":"53.59740000","lon":"24.98280000"},{"name":"Zhirovichi","native":null,"lat":"53.01310000","lon":"25.34430000"}]},{"name":"Minsk","native":null,"cities":[{"name":"Frunzyenski Rayon","native":null,"lat":"53.90056000","lon":"27.49500000"},{"name":"Kastrychnitski Rayon","native":null,"lat":"53.85667000","lon":"27.54139000"},{"name":"Lyeninski Rayon","native":null,"lat":"53.85944000","lon":"27.58778000"},{"name":"Maskowski Rayon","native":null,"lat":"53.87417000","lon":"27.50278000"},{"name":"Minsk","native":null,"lat":"53.90000000","lon":"27.56667000"},{"name":"Partyzanski Rayon","native":null,"lat":"53.88028000","lon":"27.67000000"},{"name":"Savyetski Rayon","native":null,"lat":"53.91778000","lon":"27.59417000"},{"name":"Tsentral’ny Rayon","native":null,"lat":"53.91778000","lon":"27.56333000"},{"name":"Zavodski Rayon","native":null,"lat":"53.86194000","lon":"27.66222000"}]},{"name":"Minsk Region","native":null,"cities":[{"name":"Astrashytski Haradok","native":null,"lat":"54.06510000","lon":"27.69500000"},{"name":"Atolina","native":null,"lat":"53.78170000","lon":"27.43460000"},{"name":"Azyartso","native":null,"lat":"53.83970000","lon":"27.39170000"},{"name":"Bal’shavik","native":null,"lat":"54.00360000","lon":"27.56690000"},{"name":"Barysaw","native":null,"lat":"54.22790000","lon":"28.50500000"},{"name":"Barysawski Rayon","native":null,"lat":"54.33333000","lon":"28.58333000"},{"name":"Blon’","native":null,"lat":"53.52690000","lon":"28.17320000"},{"name":"Bobr","native":null,"lat":"54.34200000","lon":"29.27360000"},{"name":"Borovlyany","native":null,"lat":"54.00220000","lon":"27.67540000"},{"name":"Byarezinski Rayon","native":null,"lat":"53.83333000","lon":"29.00000000"},{"name":"Byerazino","native":null,"lat":"53.83910000","lon":"28.98790000"},{"name":"Chervyen’","native":null,"lat":"53.70590000","lon":"28.43130000"},{"name":"Chervyen’ski Rayon","native":null,"lat":"53.75000000","lon":"28.50000000"},{"name":"Chyrvonaya Slabada","native":null,"lat":"52.85220000","lon":"27.16980000"},{"name":"Chyst’","native":null,"lat":"54.26980000","lon":"27.10670000"},{"name":"Druzhny","native":null,"lat":"53.62380000","lon":"27.89770000"},{"name":"Dukora","native":null,"lat":"53.67860000","lon":"27.94000000"},{"name":"Dzyarzhynsk","native":null,"lat":"53.68320000","lon":"27.13800000"},{"name":"Enyerhyetykaw","native":null,"lat":"53.58710000","lon":"27.05350000"},{"name":"Fanipol","native":null,"lat":"53.74998000","lon":"27.33338000"},{"name":"Haradzyeya","native":null,"lat":"53.31210000","lon":"26.53800000"},{"name":"Hatava","native":null,"lat":"53.78290000","lon":"27.64070000"},{"name":"Horad Smalyavichy","native":null,"lat":"54.02490000","lon":"28.08940000"},{"name":"Horad Zhodzina","native":null,"lat":"54.09850000","lon":"28.33310000"},{"name":"Hotsk","native":null,"lat":"52.52150000","lon":"27.13850000"},{"name":"Il’ya","native":null,"lat":"54.41670000","lon":"27.29580000"},{"name":"Ivyanyets","native":null,"lat":"53.88640000","lon":"26.74320000"},{"name":"Kalodzishchy","native":null,"lat":"53.94400000","lon":"27.78230000"},{"name":"Kapyl’","native":null,"lat":"53.15160000","lon":"27.09130000"},{"name":"Kapyl’ski Rayon","native":null,"lat":"53.16667000","lon":"27.08333000"},{"name":"Khatsyezhyna","native":null,"lat":"53.90940000","lon":"27.30690000"},{"name":"Kholopenichi","native":null,"lat":"54.51746000","lon":"28.95645000"},{"name":"Klyetsk","native":null,"lat":"53.06350000","lon":"26.63210000"},{"name":"Klyetski Rayon","native":null,"lat":"53.00000000","lon":"26.66667000"},{"name":"Korolëv Stan","native":null,"lat":"53.98650000","lon":"27.79820000"},{"name":"Krasnaye","native":null,"lat":"54.24380000","lon":"27.07580000"},{"name":"Krupki","native":null,"lat":"54.31780000","lon":"29.13740000"},{"name":"Kryvichy","native":null,"lat":"54.71320000","lon":"27.28860000"},{"name":"Lahoysk","native":null,"lat":"54.20640000","lon":"27.85120000"},{"name":"Loshnitsa","native":null,"lat":"54.27960000","lon":"28.76490000"},{"name":"Luhavaya Slabada","native":null,"lat":"53.78230000","lon":"27.84340000"},{"name":"Lyasny","native":null,"lat":"54.00720000","lon":"27.69630000"},{"name":"Lyeskawka","native":null,"lat":"54.00240000","lon":"27.71080000"},{"name":"Lyuban’","native":null,"lat":"52.79850000","lon":"28.00480000"},{"name":"Machulishchy","native":null,"lat":"53.77880000","lon":"27.59480000"},{"name":"Maladzyechna","native":null,"lat":"54.31670000","lon":"26.85400000"},{"name":"Mar’’ina Horka","native":null,"lat":"53.50900000","lon":"28.14700000"},{"name":"Michanovichi","native":null,"lat":"53.73937000","lon":"27.69276000"},{"name":"Myadzyel","native":null,"lat":"54.87890000","lon":"26.93710000"},{"name":"Myadzyel’ski Rayon","native":null,"lat":"54.83333000","lon":"27.00000000"},{"name":"Narach","native":null,"lat":"54.91020000","lon":"26.70800000"},{"name":"Nasilava","native":null,"lat":"54.30441000","lon":"26.78209000"},{"name":"Novosel’ye","native":null,"lat":"53.91620000","lon":"27.20090000"},{"name":"Novy Svyerzhan’","native":null,"lat":"53.45420000","lon":"26.73010000"},{"name":"Nyasvizh","native":null,"lat":"53.21890000","lon":"26.67790000"},{"name":"Nyasvizhski Rayon","native":null,"lat":"53.25000000","lon":"26.66667000"},{"name":"Plyeshchanitsy","native":null,"lat":"54.42350000","lon":"27.83010000"},{"name":"Prawdzinski","native":null,"lat":"53.52480000","lon":"27.83030000"},{"name":"Pryvol’ny","native":null,"lat":"53.79690000","lon":"27.79670000"},{"name":"Pukhavichy","native":null,"lat":"53.52970000","lon":"28.24670000"},{"name":"Pukhavichy Raion","native":null,"lat":"53.50000000","lon":"28.00000000"},{"name":"Pyatryshki","native":null,"lat":"54.06860000","lon":"27.21790000"},{"name":"Radashkovichy","native":null,"lat":"54.15540000","lon":"27.24120000"},{"name":"Rakaw","native":null,"lat":"53.96740000","lon":"27.05620000"},{"name":"Rudzyensk","native":null,"lat":"53.59830000","lon":"27.86210000"},{"name":"Salihorsk","native":null,"lat":"52.78760000","lon":"27.54150000"},{"name":"Samakhvalavichy","native":null,"lat":"53.73960000","lon":"27.50370000"},{"name":"Sarachy","native":null,"lat":"52.78670000","lon":"28.01860000"},{"name":"Schomyslitsa","native":null,"lat":"53.82110000","lon":"27.45220000"},{"name":"Slabada","native":null,"lat":"54.00870000","lon":"27.88660000"},{"name":"Slutsk","native":null,"lat":"53.02740000","lon":"27.55970000"},{"name":"Slutski Rayon","native":null,"lat":"53.00000000","lon":"27.66667000"},{"name":"Smalyavitski Rayon","native":null,"lat":"54.00000000","lon":"28.16667000"},{"name":"Smilavichy","native":null,"lat":"53.74960000","lon":"28.01150000"},{"name":"Snow","native":null,"lat":"53.22010000","lon":"26.40100000"},{"name":"Stan’kava","native":null,"lat":"53.62920000","lon":"27.22900000"},{"name":"Staradarozhski Rayon","native":null,"lat":"53.00000000","lon":"28.16667000"},{"name":"Starobin","native":null,"lat":"52.72670000","lon":"27.46060000"},{"name":"Staryya Darohi","native":null,"lat":"53.04020000","lon":"28.26700000"},{"name":"Stawbtsowski Rayon","native":null,"lat":"53.58333000","lon":"26.66667000"},{"name":"Stowbtsy","native":null,"lat":"53.47850000","lon":"26.74340000"},{"name":"Svir","native":null,"lat":"54.85170000","lon":"26.39500000"},{"name":"Svislach","native":null,"lat":"53.64040000","lon":"27.91990000"},{"name":"Syenitsa","native":null,"lat":"53.83130000","lon":"27.53430000"},{"name":"Syomkava","native":null,"lat":"54.01010000","lon":"27.44100000"},{"name":"Tsimkavichy","native":null,"lat":"53.06720000","lon":"26.99020000"},{"name":"Turets-Bayary","native":null,"lat":"54.37850000","lon":"26.65810000"},{"name":"Urechcha","native":null,"lat":"52.94790000","lon":"27.89300000"},{"name":"Usiazh","native":null,"lat":"54.07598000","lon":"28.00698000"},{"name":"Uzda","native":null,"lat":"53.46270000","lon":"27.21370000"},{"name":"Uzdzyenski Rayon","native":null,"lat":"53.41667000","lon":"27.33333000"},{"name":"Valozhyn","native":null,"lat":"54.08920000","lon":"26.52660000"},{"name":"Vilyeyka","native":null,"lat":"54.49140000","lon":"26.91110000"},{"name":"Vilyeyski Rayon","native":null,"lat":"54.50000000","lon":"27.08333000"},{"name":"Vyaliki Trastsyanets","native":null,"lat":"53.85100000","lon":"27.71390000"},{"name":"Yubilyeyny","native":null,"lat":"53.81910000","lon":"27.52150000"},{"name":"Zamostochye","native":null,"lat":"53.81980000","lon":"27.86850000"},{"name":"Zaslawye","native":null,"lat":"54.01140000","lon":"27.26950000"},{"name":"Zhdanovichy","native":null,"lat":"53.94320000","lon":"27.42500000"},{"name":"Zyembin","native":null,"lat":"54.35790000","lon":"28.22070000"},{"name":"Октябрьский","native":null,"lat":"54.04059000","lon":"28.19813000"}]},{"name":"Mogilev Region","native":null,"cities":[{"name":"Asipovichy","native":null,"lat":"53.30110000","lon":"28.63860000"},{"name":"Asipovitski Rayon","native":null,"lat":"53.33333000","lon":"28.75000000"},{"name":"Babruysk","native":null,"lat":"53.13840000","lon":"29.22140000"},{"name":"Babruyski Rayon","native":null,"lat":"53.08333000","lon":"29.16667000"},{"name":"Buynichy","native":null,"lat":"53.85360000","lon":"30.26710000"},{"name":"Byalynichy","native":null,"lat":"53.99940000","lon":"29.71410000"},{"name":"Byalynitski Rayon","native":null,"lat":"54.00000000","lon":"29.75000000"},{"name":"Bykhaw","native":null,"lat":"53.52100000","lon":"30.24540000"},{"name":"Chavuski Rayon","native":null,"lat":"53.83333000","lon":"30.91667000"},{"name":"Chavusy","native":null,"lat":"53.80980000","lon":"30.97170000"},{"name":"Cherykaw","native":null,"lat":"53.56890000","lon":"31.38310000"},{"name":"Cherykawski Rayon","native":null,"lat":"53.66667000","lon":"31.33333000"},{"name":"Dashkawka","native":null,"lat":"53.73520000","lon":"30.26250000"},{"name":"Drybin","native":null,"lat":"54.11920000","lon":"31.09390000"},{"name":"Drybinski Rayon","native":null,"lat":"54.08333000","lon":"31.00000000"},{"name":"Hlusha","native":null,"lat":"53.08680000","lon":"28.85670000"},{"name":"Hlusk","native":null,"lat":"52.90300000","lon":"28.68450000"},{"name":"Horatski Rayon","native":null,"lat":"54.33333000","lon":"31.00000000"},{"name":"Horki","native":null,"lat":"54.28620000","lon":"30.98630000"},{"name":"Kadino","native":null,"lat":"53.88389000","lon":"30.52028000"},{"name":"Kamyennyya Lavy","native":null,"lat":"54.08980000","lon":"30.29620000"},{"name":"Kastsyukovichy","native":null,"lat":"53.35250000","lon":"32.05140000"},{"name":"Khodasy","native":null,"lat":"53.92660000","lon":"31.47790000"},{"name":"Khotsimsk","native":null,"lat":"53.40860000","lon":"32.57800000"},{"name":"Khotsimski Rayon","native":null,"lat":"53.41667000","lon":"32.50000000"},{"name":"Kirawsk","native":null,"lat":"53.26930000","lon":"29.47520000"},{"name":"Klichaw","native":null,"lat":"53.49230000","lon":"29.33560000"},{"name":"Klimavichy","native":null,"lat":"53.60790000","lon":"31.95860000"},{"name":"Krasnapol’ski Rayon","native":null,"lat":"53.33333000","lon":"31.41667000"},{"name":"Krasnapollye","native":null,"lat":"53.33530000","lon":"31.39990000"},{"name":"Krasnyy Bereg","native":null,"lat":"53.32910000","lon":"30.19290000"},{"name":"Kruhlaye","native":null,"lat":"54.24970000","lon":"29.79680000"},{"name":"Krychaw","native":null,"lat":"53.71250000","lon":"31.71700000"},{"name":"Mahilyow","native":null,"lat":"53.91680000","lon":"30.34490000"},{"name":"Mahilyowski Rayon","native":null,"lat":"53.83333000","lon":"30.25000000"},{"name":"Mstsislaw","native":null,"lat":"54.01850000","lon":"31.72170000"},{"name":"Myazhysyatki","native":null,"lat":"53.77760000","lon":"30.17650000"},{"name":"Myshkavichy","native":null,"lat":"53.21720000","lon":"29.51200000"},{"name":"Palykavichy Pyershyya","native":null,"lat":"53.98540000","lon":"30.36000000"},{"name":"Posëlok Voskhod","native":null,"lat":"53.77660000","lon":"30.34970000"},{"name":"Ramanavichy","native":null,"lat":"53.86530000","lon":"30.55970000"},{"name":"Shklow","native":null,"lat":"54.21310000","lon":"30.28770000"},{"name":"Shklowski Rayon","native":null,"lat":"54.16667000","lon":"30.33333000"},{"name":"Slawharad","native":null,"lat":"53.44290000","lon":"31.00140000"},{"name":"Veyno","native":null,"lat":"53.83333000","lon":"30.38333000"},{"name":"Vishow","native":null,"lat":"53.98050000","lon":"29.99250000"},{"name":"Yalizava","native":null,"lat":"53.39940000","lon":"29.00480000"}]},{"name":"Vitebsk Region","native":null,"cities":[{"name":"Balbasava","native":null,"lat":"54.42070000","lon":"30.29090000"},{"name":"Baran’","native":null,"lat":"54.47840000","lon":"30.31590000"},{"name":"Braslaw","native":null,"lat":"55.64130000","lon":"27.04180000"},{"name":"Braslawski Rayon","native":null,"lat":"55.55972000","lon":"27.00000000"},{"name":"Byahoml’","native":null,"lat":"54.73160000","lon":"28.05770000"},{"name":"Byeshankovitski Rayon","native":null,"lat":"55.00000000","lon":"29.50000000"},{"name":"Chashniki","native":null,"lat":"54.85840000","lon":"29.16080000"},{"name":"Chashnitski Rayon","native":null,"lat":"54.75000000","lon":"29.25000000"},{"name":"Dokshytski Rayon","native":null,"lat":"54.83333000","lon":"27.91667000"},{"name":"Dokshytsy","native":null,"lat":"54.89180000","lon":"27.76670000"},{"name":"Druya","native":null,"lat":"55.79060000","lon":"27.45050000"},{"name":"Dubrowna","native":null,"lat":"54.57160000","lon":"30.69100000"},{"name":"Dzisna","native":null,"lat":"55.56760000","lon":"28.20760000"},{"name":"Haradok","native":null,"lat":"55.46240000","lon":"29.98450000"},{"name":"Haradotski Rayon","native":null,"lat":"55.66667000","lon":"30.16667000"},{"name":"Hlybokaye","native":null,"lat":"55.13840000","lon":"27.69050000"},{"name":"Hlybotski Rayon","native":null,"lat":"55.16667000","lon":"27.83333000"},{"name":"Kokhanava","native":null,"lat":"54.46110000","lon":"30.00180000"},{"name":"Konstantinovo","native":null,"lat":"54.65930000","lon":"29.26840000"},{"name":"Lyepyel’","native":null,"lat":"54.88140000","lon":"28.69900000"},{"name":"Lyepyel’ski Rayon","native":null,"lat":"54.83333000","lon":"28.66667000"},{"name":"Lyntupy","native":null,"lat":"55.05160000","lon":"26.31030000"},{"name":"Lyozna","native":null,"lat":"55.02470000","lon":"30.79700000"},{"name":"Lyoznyenski Rayon","native":null,"lat":"55.00000000","lon":"30.66667000"},{"name":"Mosar","native":null,"lat":"55.22320000","lon":"27.46090000"},{"name":"Myorski Rayon","native":null,"lat":"55.58333000","lon":"27.83333000"},{"name":"Myory","native":null,"lat":"55.62220000","lon":"27.62810000"},{"name":"Navapolatsk","native":null,"lat":"55.53180000","lon":"28.59870000"},{"name":"Novolukoml’","native":null,"lat":"54.66192000","lon":"29.15016000"},{"name":"Orsha","native":null,"lat":"54.50810000","lon":"30.41720000"},{"name":"Osveya","native":null,"lat":"56.01470000","lon":"28.11049000"},{"name":"Pastavy","native":null,"lat":"55.11676000","lon":"26.83263000"},{"name":"Pastawski Rayon","native":null,"lat":"55.08333000","lon":"26.91667000"},{"name":"Polatsk","native":null,"lat":"55.48790000","lon":"28.78560000"},{"name":"Polatski Rayon","native":null,"lat":"55.58333000","lon":"29.00000000"},{"name":"Rasonski Rayon","native":null,"lat":"55.83333000","lon":"28.91667000"},{"name":"Rasony","native":null,"lat":"55.90580000","lon":"28.81350000"},{"name":"Sharkawshchyna","native":null,"lat":"55.36890000","lon":"27.46860000"},{"name":"Sharkawshchynski Rayon","native":null,"lat":"55.41667000","lon":"27.41667000"},{"name":"Shumilinski Rayon","native":null,"lat":"55.33333000","lon":"29.50000000"},{"name":"Syanno","native":null,"lat":"54.81080000","lon":"29.70860000"},{"name":"Syennyenski Rayon","native":null,"lat":"54.83333000","lon":"29.83333000"},{"name":"Talachyn","native":null,"lat":"54.40870000","lon":"29.69550000"},{"name":"Ushachy","native":null,"lat":"55.17900000","lon":"28.61580000"},{"name":"Vidzy","native":null,"lat":"55.39450000","lon":"26.63050000"},{"name":"Vitebsk","native":null,"lat":"55.19040000","lon":"30.20490000"},{"name":"Vyerkhnyadzvinsk","native":null,"lat":"55.77770000","lon":"27.93890000"},{"name":"Vyerkhnyadzvinski Rayon","native":null,"lat":"55.75000000","lon":"28.16667000"}]}]