[{"state":"Brest Region","name":"Antopal’","lat":"52.20380000","lon":"24.78630000"},
{"state":"Brest Region","name":"Asnyezhytsy","lat":"52.18910000","lon":"26.12990000"},
{"state":"Brest Region","name":"Baranovichi","lat":"53.13270000","lon":"26.01390000"},
{"state":"Brest Region","name":"Baranovichskiy Rayon","lat":"53.16667000","lon":"25.83333000"},
{"state":"Brest Region","name":"Brest","lat":"52.09755000","lon":"23.68775000"},
{"state":"Brest Region","name":"Brestski Rayon","lat":"52.00000000","lon":"23.75000000"},
{"state":"Brest Region","name":"Byaroza","lat":"52.53140000","lon":"24.97860000"},
{"state":"Brest Region","name":"Byarozawski Rayon","lat":"52.50000000","lon":"25.00000000"},
{"state":"Brest Region","name":"Byelaazyorsk","lat":"52.47310000","lon":"25.17840000"},
{"state":"Brest Region","name":"Charnawchytsy","lat":"52.21948000","lon":"23.74043000"},
{"state":"Brest Region","name":"Damachava","lat":"51.75000000","lon":"23.60000000"},
{"state":"Brest Region","name":"Davyd-Haradok","lat":"52.05660000","lon":"27.21610000"},
{"state":"Brest Region","name":"Drahichyn","lat":"52.18740000","lon":"25.15970000"},
{"state":"Brest Region","name":"Drahichynski Rayon","lat":"52.16667000","lon":"25.00000000"},
{"state":"Brest Region","name":"Hantsavichy","lat":"52.75800000","lon":"26.43000000"},
{"state":"Brest Region","name":"Hantsavitski Rayon","lat":"52.66667000","lon":"26.50000000"},
{"state":"Brest Region","name":"Haradzishcha","lat":"53.32470000","lon":"26.01070000"},
{"state":"Brest Region","name":"Horad Baranavichy","lat":"53.13333000","lon":"26.03333000"},
{"state":"Brest Region","name":"Horad Brest","lat":"52.10000000","lon":"23.70000000"},
{"state":"Brest Region","name":"Ivanava","lat":"52.14510000","lon":"25.53650000"},
{"state":"Brest Region","name":"Ivanawski Rayon","lat":"52.16667000","lon":"25.58333000"},
{"state":"Brest Region","name":"Ivatsevichy","lat":"52.70900000","lon":"25.34010000"},
{"state":"Brest Region","name":"Kamyanyets","lat":"52.40013000","lon":"23.81000000"},
{"state":"Brest Region","name":"Kamyanyetski Rayon","lat":"52.41667000","lon":"23.66667000"},
{"state":"Brest Region","name":"Kamyanyuki","lat":"52.55757000","lon":"23.80525000"},
{"state":"Brest Region","name":"Kobryn","lat":"52.21380000","lon":"24.35640000"},
{"state":"Brest Region","name":"Kosava","lat":"52.75830000","lon":"25.15540000"},
{"state":"Brest Region","name":"Lahishyn","lat":"52.33900000","lon":"25.98670000"},
{"state":"Brest Region","name":"Luninyets","lat":"52.24720000","lon":"26.80470000"},
{"state":"Brest Region","name":"Lyakhavichy","lat":"53.03880000","lon":"26.26560000"},
{"state":"Brest Region","name":"Malaryta","lat":"51.79050000","lon":"24.07400000"},
{"state":"Brest Region","name":"Mikashevichy","lat":"52.21730000","lon":"27.47600000"},
{"state":"Brest Region","name":"Motal’","lat":"52.31380000","lon":"25.60720000"},
{"state":"Brest Region","name":"Nyakhachava","lat":"52.64400000","lon":"25.20270000"},
{"state":"Brest Region","name":"Pinsk","lat":"52.12290000","lon":"26.09510000"},
{"state":"Brest Region","name":"Pruzhanski Rayon","lat":"52.66667000","lon":"24.58333000"},
{"state":"Brest Region","name":"Pruzhany","lat":"52.55600000","lon":"24.45730000"},
{"state":"Brest Region","name":"Ruzhany","lat":"52.86322000","lon":"24.89357000"},
{"state":"Brest Region","name":"Stolin","lat":"51.89115000","lon":"26.84597000"},
{"state":"Brest Region","name":"Stolinski Rayon","lat":"52.00000000","lon":"27.00000000"},
{"state":"Brest Region","name":"Tsyelyakhany","lat":"52.51750000","lon":"25.84290000"},
{"state":"Brest Region","name":"Vysokaye","lat":"52.37091000","lon":"23.37083000"},
{"state":"Brest Region","name":"Zhabinka","lat":"52.19840000","lon":"24.01150000"},
{"state":"Brest Region","name":"Zhabinkawski Rayon","lat":"52.16667000","lon":"24.08333000"},
{"state":"Brest Region","name":"Znamenka","lat":"51.88168000","lon":"23.65545000"},
{"state":"Gomel Region","name":"Aktsyabrski","lat":"52.64400000","lon":"28.88010000"},
{"state":"Gomel Region","name":"Brahin","lat":"51.78700000","lon":"30.26770000"},
{"state":"Gomel Region","name":"Brahinski Rayon","lat":"51.66667000","lon":"30.33333000"},
{"state":"Gomel Region","name":"Buda-Kashalyova","lat":"52.71790000","lon":"30.57010000"},
{"state":"Gomel Region","name":"Chachersk","lat":"52.91640000","lon":"30.91790000"},
{"state":"Gomel Region","name":"Chacherski Rayon","lat":"52.91667000","lon":"31.08333000"},
{"state":"Gomel Region","name":"Dobrush","lat":"52.40890000","lon":"31.32370000"},
{"state":"Gomel Region","name":"Dowsk","lat":"53.15710000","lon":"30.46010000"},
{"state":"Gomel Region","name":"Homyel'","lat":"52.43450000","lon":"30.97540000"},
{"state":"Gomel Region","name":"Homyel’ski Rayon","lat":"52.33333000","lon":"31.00000000"},
{"state":"Gomel Region","name":"Kalinkavichy","lat":"52.13230000","lon":"29.32570000"},
{"state":"Gomel Region","name":"Karanyowka","lat":"52.35060000","lon":"31.11210000"},
{"state":"Gomel Region","name":"Karma","lat":"53.13010000","lon":"30.80160000"},
{"state":"Gomel Region","name":"Kastsyukowka","lat":"52.53870000","lon":"30.91730000"},
{"state":"Gomel Region","name":"Khal’ch","lat":"52.56430000","lon":"31.13640000"},
{"state":"Gomel Region","name":"Khoyniki","lat":"51.89110000","lon":"29.95520000"},
{"state":"Gomel Region","name":"Loyew","lat":"51.94580000","lon":"30.79530000"},
{"state":"Gomel Region","name":"Lyel’chytski Rayon","lat":"51.83333000","lon":"28.25000000"},
{"state":"Gomel Region","name":"Lyel’chytsy","lat":"51.78620000","lon":"28.32880000"},
{"state":"Gomel Region","name":"Mazyr","lat":"52.04950000","lon":"29.24560000"},
{"state":"Gomel Region","name":"Mazyrski Rayon","lat":"52.00000000","lon":"29.00000000"},
{"state":"Gomel Region","name":"Narowlya","lat":"51.79610000","lon":"29.50040000"},
{"state":"Gomel Region","name":"Novaya Huta","lat":"52.10320000","lon":"30.98370000"},
{"state":"Gomel Region","name":"Parychy","lat":"52.80420000","lon":"29.41760000"},
{"state":"Gomel Region","name":"Peramoga","lat":"52.39730000","lon":"31.07100000"},
{"state":"Gomel Region","name":"Pyetrykaw","lat":"52.12890000","lon":"28.49210000"},
{"state":"Gomel Region","name":"Rahachow","lat":"53.09340000","lon":"30.04950000"},
{"state":"Gomel Region","name":"Rahachowski Rayon","lat":"53.16667000","lon":"30.16667000"},
{"state":"Gomel Region","name":"Rechytsa","lat":"52.36170000","lon":"30.39160000"},
{"state":"Gomel Region","name":"Sasnovy Bor","lat":"52.51940000","lon":"29.59880000"},
{"state":"Gomel Region","name":"Svyetlahorsk","lat":"52.63290000","lon":"29.73890000"},
{"state":"Gomel Region","name":"Turaw","lat":"52.06830000","lon":"27.73500000"},
{"state":"Gomel Region","name":"Vasilyevichy","lat":"52.25120000","lon":"29.82880000"},
{"state":"Gomel Region","name":"Vyetka","lat":"52.55910000","lon":"31.17940000"},
{"state":"Gomel Region","name":"Vyetkawski Rayon","lat":"52.66667000","lon":"31.25000000"},
{"state":"Gomel Region","name":"Yel’sk","lat":"51.81410000","lon":"29.15220000"},
{"state":"Gomel Region","name":"Zhlobin","lat":"52.89260000","lon":"30.02400000"},
{"state":"Gomel Region","name":"Zhlobinski Rayon","lat":"52.75000000","lon":"29.83333000"},
{"state":"Gomel Region","name":"Zhytkavichy","lat":"52.21680000","lon":"27.85610000"},
{"state":"Grodno Region","name":"Ashmyanski Rayon","lat":"54.41667000","lon":"25.91667000"},
{"state":"Grodno Region","name":"Ashmyany","lat":"54.42100000","lon":"25.93600000"},
{"state":"Grodno Region","name":"Astravyets","lat":"54.61378000","lon":"25.95537000"},
{"state":"Grodno Region","name":"Astravyetski Rayon","lat":"54.66667000","lon":"26.00000000"},
{"state":"Grodno Region","name":"Baruny","lat":"54.31710000","lon":"26.13760000"},
{"state":"Grodno Region","name":"Byarozawka","lat":"53.72406000","lon":"25.49709000"},
{"state":"Grodno Region","name":"Dyatlovo","lat":"53.46310000","lon":"25.40680000"},
{"state":"Grodno Region","name":"Grodnenskiy Rayon","lat":"53.66667000","lon":"24.00000000"},
{"state":"Grodno Region","name":"Hal’shany","lat":"54.25850000","lon":"26.01440000"},
{"state":"Grodno Region","name":"Horad Hrodna","lat":"53.68333000","lon":"23.83333000"},
{"state":"Grodno Region","name":"Hrodna","lat":"53.68840000","lon":"23.82580000"},
{"state":"Grodno Region","name":"Hyeranyony","lat":"54.11590000","lon":"25.57730000"},
{"state":"Grodno Region","name":"Indura","lat":"53.46050000","lon":"23.88230000"},
{"state":"Grodno Region","name":"Iwye","lat":"53.92990000","lon":"25.77270000"},
{"state":"Grodno Region","name":"Karelichy","lat":"53.56480000","lon":"26.14060000"},
{"state":"Grodno Region","name":"Karelitski Rayon","lat":"53.50000000","lon":"26.25000000"},
{"state":"Grodno Region","name":"Krasnosel’skiy","lat":"53.26450000","lon":"24.43010000"},
{"state":"Grodno Region","name":"Kreva","lat":"54.31180000","lon":"26.29160000"},
{"state":"Grodno Region","name":"Lida","lat":"53.88333000","lon":"25.29972000"},
{"state":"Grodno Region","name":"Lidski Rayon","lat":"53.66667000","lon":"25.25000000"},
{"state":"Grodno Region","name":"Lyubcha","lat":"53.75220000","lon":"26.06030000"},
{"state":"Grodno Region","name":"Mir","lat":"53.45440000","lon":"26.46700000"},
{"state":"Grodno Region","name":"Mosty","lat":"53.41220000","lon":"24.53870000"},
{"state":"Grodno Region","name":"Novogrudok","lat":"53.59420000","lon":"25.81910000"},
{"state":"Grodno Region","name":"Ross’","lat":"53.28451000","lon":"24.40335000"},
{"state":"Grodno Region","name":"Sapotskin","lat":"53.83290000","lon":"23.65980000"},
{"state":"Grodno Region","name":"Shchuchyn","lat":"53.60140000","lon":"24.74650000"},
{"state":"Grodno Region","name":"Shchuchynski Rayon","lat":"53.58333000","lon":"24.66667000"},
{"state":"Grodno Region","name":"Skidel’","lat":"53.59040000","lon":"24.24780000"},
{"state":"Grodno Region","name":"Slonim","lat":"53.08690000","lon":"25.31630000"},
{"state":"Grodno Region","name":"Smarhon’","lat":"54.47980000","lon":"26.39570000"},
{"state":"Grodno Region","name":"Soly","lat":"54.51301000","lon":"26.19381000"},
{"state":"Grodno Region","name":"Svislach","lat":"53.03474000","lon":"24.09829000"},
{"state":"Grodno Region","name":"Vishnyeva","lat":"54.71020000","lon":"26.52280000"},
{"state":"Grodno Region","name":"Volkovysk","lat":"53.15610000","lon":"24.45130000"},
{"state":"Grodno Region","name":"Voranava","lat":"54.14920000","lon":"25.31120000"},
{"state":"Grodno Region","name":"Vyalikaya Byerastavitsa","lat":"53.19600000","lon":"24.01660000"},
{"state":"Grodno Region","name":"Zel’va","lat":"53.15040000","lon":"24.81530000"},
{"state":"Grodno Region","name":"Zhaludok","lat":"53.59740000","lon":"24.98280000"},
{"state":"Grodno Region","name":"Zhirovichi","lat":"53.01310000","lon":"25.34430000"},
{"state":"Minsk","name":"Frunzyenski Rayon","lat":"53.90056000","lon":"27.49500000"},
{"state":"Minsk","name":"Kastrychnitski Rayon","lat":"53.85667000","lon":"27.54139000"},
{"state":"Minsk","name":"Lyeninski Rayon","lat":"53.85944000","lon":"27.58778000"},
{"state":"Minsk","name":"Maskowski Rayon","lat":"53.87417000","lon":"27.50278000"},
{"state":"Minsk","name":"Minsk","lat":"53.90000000","lon":"27.56667000"},
{"state":"Minsk","name":"Partyzanski Rayon","lat":"53.88028000","lon":"27.67000000"},
{"state":"Minsk","name":"Savyetski Rayon","lat":"53.91778000","lon":"27.59417000"},
{"state":"Minsk","name":"Tsentral’ny Rayon","lat":"53.91778000","lon":"27.56333000"},
{"state":"Minsk","name":"Zavodski Rayon","lat":"53.86194000","lon":"27.66222000"},
{"state":"Minsk Region","name":"Astrashytski Haradok","lat":"54.06510000","lon":"27.69500000"},
{"state":"Minsk Region","name":"Atolina","lat":"53.78170000","lon":"27.43460000"},
{"state":"Minsk Region","name":"Azyartso","lat":"53.83970000","lon":"27.39170000"},
{"state":"Minsk Region","name":"Bal’shavik","lat":"54.00360000","lon":"27.56690000"},
{"state":"Minsk Region","name":"Barysaw","lat":"54.22790000","lon":"28.50500000"},
{"state":"Minsk Region","name":"Barysawski Rayon","lat":"54.33333000","lon":"28.58333000"},
{"state":"Minsk Region","name":"Blon’","lat":"53.52690000","lon":"28.17320000"},
{"state":"Minsk Region","name":"Bobr","lat":"54.34200000","lon":"29.27360000"},
{"state":"Minsk Region","name":"Borovlyany","lat":"54.00220000","lon":"27.67540000"},
{"state":"Minsk Region","name":"Byarezinski Rayon","lat":"53.83333000","lon":"29.00000000"},
{"state":"Minsk Region","name":"Byerazino","lat":"53.83910000","lon":"28.98790000"},
{"state":"Minsk Region","name":"Chervyen’","lat":"53.70590000","lon":"28.43130000"},
{"state":"Minsk Region","name":"Chervyen’ski Rayon","lat":"53.75000000","lon":"28.50000000"},
{"state":"Minsk Region","name":"Chyrvonaya Slabada","lat":"52.85220000","lon":"27.16980000"},
{"state":"Minsk Region","name":"Chyst’","lat":"54.26980000","lon":"27.10670000"},
{"state":"Minsk Region","name":"Druzhny","lat":"53.62380000","lon":"27.89770000"},
{"state":"Minsk Region","name":"Dukora","lat":"53.67860000","lon":"27.94000000"},
{"state":"Minsk Region","name":"Dzyarzhynsk","lat":"53.68320000","lon":"27.13800000"},
{"state":"Minsk Region","name":"Enyerhyetykaw","lat":"53.58710000","lon":"27.05350000"},
{"state":"Minsk Region","name":"Fanipol","lat":"53.74998000","lon":"27.33338000"},
{"state":"Minsk Region","name":"Haradzyeya","lat":"53.31210000","lon":"26.53800000"},
{"state":"Minsk Region","name":"Hatava","lat":"53.78290000","lon":"27.64070000"},
{"state":"Minsk Region","name":"Horad Smalyavichy","lat":"54.02490000","lon":"28.08940000"},
{"state":"Minsk Region","name":"Horad Zhodzina","lat":"54.09850000","lon":"28.33310000"},
{"state":"Minsk Region","name":"Hotsk","lat":"52.52150000","lon":"27.13850000"},
{"state":"Minsk Region","name":"Il’ya","lat":"54.41670000","lon":"27.29580000"},
{"state":"Minsk Region","name":"Ivyanyets","lat":"53.88640000","lon":"26.74320000"},
{"state":"Minsk Region","name":"Kalodzishchy","lat":"53.94400000","lon":"27.78230000"},
{"state":"Minsk Region","name":"Kapyl’","lat":"53.15160000","lon":"27.09130000"},
{"state":"Minsk Region","name":"Kapyl’ski Rayon","lat":"53.16667000","lon":"27.08333000"},
{"state":"Minsk Region","name":"Khatsyezhyna","lat":"53.90940000","lon":"27.30690000"},
{"state":"Minsk Region","name":"Kholopenichi","lat":"54.51746000","lon":"28.95645000"},
{"state":"Minsk Region","name":"Klyetsk","lat":"53.06350000","lon":"26.63210000"},
{"state":"Minsk Region","name":"Klyetski Rayon","lat":"53.00000000","lon":"26.66667000"},
{"state":"Minsk Region","name":"Korolëv Stan","lat":"53.98650000","lon":"27.79820000"},
{"state":"Minsk Region","name":"Krasnaye","lat":"54.24380000","lon":"27.07580000"},
{"state":"Minsk Region","name":"Krupki","lat":"54.31780000","lon":"29.13740000"},
{"state":"Minsk Region","name":"Kryvichy","lat":"54.71320000","lon":"27.28860000"},
{"state":"Minsk Region","name":"Lahoysk","lat":"54.20640000","lon":"27.85120000"},
{"state":"Minsk Region","name":"Loshnitsa","lat":"54.27960000","lon":"28.76490000"},
{"state":"Minsk Region","name":"Luhavaya Slabada","lat":"53.78230000","lon":"27.84340000"},
{"state":"Minsk Region","name":"Lyasny","lat":"54.00720000","lon":"27.69630000"},
{"state":"Minsk Region","name":"Lyeskawka","lat":"54.00240000","lon":"27.71080000"},
{"state":"Minsk Region","name":"Lyuban’","lat":"52.79850000","lon":"28.00480000"},
{"state":"Minsk Region","name":"Machulishchy","lat":"53.77880000","lon":"27.59480000"},
{"state":"Minsk Region","name":"Maladzyechna","lat":"54.31670000","lon":"26.85400000"},
{"state":"Minsk Region","name":"Mar’’ina Horka","lat":"53.50900000","lon":"28.14700000"},
{"state":"Minsk Region","name":"Michanovichi","lat":"53.73937000","lon":"27.69276000"},
{"state":"Minsk Region","name":"Myadzyel","lat":"54.87890000","lon":"26.93710000"},
{"state":"Minsk Region","name":"Myadzyel’ski Rayon","lat":"54.83333000","lon":"27.00000000"},
{"state":"Minsk Region","name":"Narach","lat":"54.91020000","lon":"26.70800000"},
{"state":"Minsk Region","name":"Nasilava","lat":"54.30441000","lon":"26.78209000"},
{"state":"Minsk Region","name":"Novosel’ye","lat":"53.91620000","lon":"27.20090000"},
{"state":"Minsk Region","name":"Novy Svyerzhan’","lat":"53.45420000","lon":"26.73010000"},
{"state":"Minsk Region","name":"Nyasvizh","lat":"53.21890000","lon":"26.67790000"},
{"state":"Minsk Region","name":"Nyasvizhski Rayon","lat":"53.25000000","lon":"26.66667000"},
{"state":"Minsk Region","name":"Plyeshchanitsy","lat":"54.42350000","lon":"27.83010000"},
{"state":"Minsk Region","name":"Prawdzinski","lat":"53.52480000","lon":"27.83030000"},
{"state":"Minsk Region","name":"Pryvol’ny","lat":"53.79690000","lon":"27.79670000"},
{"state":"Minsk Region","name":"Pukhavichy","lat":"53.52970000","lon":"28.24670000"},
{"state":"Minsk Region","name":"Pukhavichy Raion","lat":"53.50000000","lon":"28.00000000"},
{"state":"Minsk Region","name":"Pyatryshki","lat":"54.06860000","lon":"27.21790000"},
{"state":"Minsk Region","name":"Radashkovichy","lat":"54.15540000","lon":"27.24120000"},
{"state":"Minsk Region","name":"Rakaw","lat":"53.96740000","lon":"27.05620000"},
{"state":"Minsk Region","name":"Rudzyensk","lat":"53.59830000","lon":"27.86210000"},
{"state":"Minsk Region","name":"Salihorsk","lat":"52.78760000","lon":"27.54150000"},
{"state":"Minsk Region","name":"Samakhvalavichy","lat":"53.73960000","lon":"27.50370000"},
{"state":"Minsk Region","name":"Sarachy","lat":"52.78670000","lon":"28.01860000"},
{"state":"Minsk Region","name":"Schomyslitsa","lat":"53.82110000","lon":"27.45220000"},
{"state":"Minsk Region","name":"Slabada","lat":"54.00870000","lon":"27.88660000"},
{"state":"Minsk Region","name":"Slutsk","lat":"53.02740000","lon":"27.55970000"},
{"state":"Minsk Region","name":"Slutski Rayon","lat":"53.00000000","lon":"27.66667000"},
{"state":"Minsk Region","name":"Smalyavitski Rayon","lat":"54.00000000","lon":"28.16667000"},
{"state":"Minsk Region","name":"Smilavichy","lat":"53.74960000","lon":"28.01150000"},
{"state":"Minsk Region","name":"Snow","lat":"53.22010000","lon":"26.40100000"},
{"state":"Minsk Region","name":"Stan’kava","lat":"53.62920000","lon":"27.22900000"},
{"state":"Minsk Region","name":"Staradarozhski Rayon","lat":"53.00000000","lon":"28.16667000"},
{"state":"Minsk Region","name":"Starobin","lat":"52.72670000","lon":"27.46060000"},
{"state":"Minsk Region","name":"Staryya Darohi","lat":"53.04020000","lon":"28.26700000"},
{"state":"Minsk Region","name":"Stawbtsowski Rayon","lat":"53.58333000","lon":"26.66667000"},
{"state":"Minsk Region","name":"Stowbtsy","lat":"53.47850000","lon":"26.74340000"},
{"state":"Minsk Region","name":"Svir","lat":"54.85170000","lon":"26.39500000"},
{"state":"Minsk Region","name":"Svislach","lat":"53.64040000","lon":"27.91990000"},
{"state":"Minsk Region","name":"Syenitsa","lat":"53.83130000","lon":"27.53430000"},
{"state":"Minsk Region","name":"Syomkava","lat":"54.01010000","lon":"27.44100000"},
{"state":"Minsk Region","name":"Tsimkavichy","lat":"53.06720000","lon":"26.99020000"},
{"state":"Minsk Region","name":"Turets-Bayary","lat":"54.37850000","lon":"26.65810000"},
{"state":"Minsk Region","name":"Urechcha","lat":"52.94790000","lon":"27.89300000"},
{"state":"Minsk Region","name":"Usiazh","lat":"54.07598000","lon":"28.00698000"},
{"state":"Minsk Region","name":"Uzda","lat":"53.46270000","lon":"27.21370000"},
{"state":"Minsk Region","name":"Uzdzyenski Rayon","lat":"53.41667000","lon":"27.33333000"},
{"state":"Minsk Region","name":"Valozhyn","lat":"54.08920000","lon":"26.52660000"},
{"state":"Minsk Region","name":"Vilyeyka","lat":"54.49140000","lon":"26.91110000"},
{"state":"Minsk Region","name":"Vilyeyski Rayon","lat":"54.50000000","lon":"27.08333000"},
{"state":"Minsk Region","name":"Vyaliki Trastsyanets","lat":"53.85100000","lon":"27.71390000"},
{"state":"Minsk Region","name":"Yubilyeyny","lat":"53.81910000","lon":"27.52150000"},
{"state":"Minsk Region","name":"Zamostochye","lat":"53.81980000","lon":"27.86850000"},
{"state":"Minsk Region","name":"Zaslawye","lat":"54.01140000","lon":"27.26950000"},
{"state":"Minsk Region","name":"Zhdanovichy","lat":"53.94320000","lon":"27.42500000"},
{"state":"Minsk Region","name":"Zyembin","lat":"54.35790000","lon":"28.22070000"},
{"state":"Minsk Region","name":"Октябрьский","lat":"54.04059000","lon":"28.19813000"},
{"state":"Mogilev Region","name":"Asipovichy","lat":"53.30110000","lon":"28.63860000"},
{"state":"Mogilev Region","name":"Asipovitski Rayon","lat":"53.33333000","lon":"28.75000000"},
{"state":"Mogilev Region","name":"Babruysk","lat":"53.13840000","lon":"29.22140000"},
{"state":"Mogilev Region","name":"Babruyski Rayon","lat":"53.08333000","lon":"29.16667000"},
{"state":"Mogilev Region","name":"Buynichy","lat":"53.85360000","lon":"30.26710000"},
{"state":"Mogilev Region","name":"Byalynichy","lat":"53.99940000","lon":"29.71410000"},
{"state":"Mogilev Region","name":"Byalynitski Rayon","lat":"54.00000000","lon":"29.75000000"},
{"state":"Mogilev Region","name":"Bykhaw","lat":"53.52100000","lon":"30.24540000"},
{"state":"Mogilev Region","name":"Chavuski Rayon","lat":"53.83333000","lon":"30.91667000"},
{"state":"Mogilev Region","name":"Chavusy","lat":"53.80980000","lon":"30.97170000"},
{"state":"Mogilev Region","name":"Cherykaw","lat":"53.56890000","lon":"31.38310000"},
{"state":"Mogilev Region","name":"Cherykawski Rayon","lat":"53.66667000","lon":"31.33333000"},
{"state":"Mogilev Region","name":"Dashkawka","lat":"53.73520000","lon":"30.26250000"},
{"state":"Mogilev Region","name":"Drybin","lat":"54.11920000","lon":"31.09390000"},
{"state":"Mogilev Region","name":"Drybinski Rayon","lat":"54.08333000","lon":"31.00000000"},
{"state":"Mogilev Region","name":"Hlusha","lat":"53.08680000","lon":"28.85670000"},
{"state":"Mogilev Region","name":"Hlusk","lat":"52.90300000","lon":"28.68450000"},
{"state":"Mogilev Region","name":"Horatski Rayon","lat":"54.33333000","lon":"31.00000000"},
{"state":"Mogilev Region","name":"Horki","lat":"54.28620000","lon":"30.98630000"},
{"state":"Mogilev Region","name":"Kadino","lat":"53.88389000","lon":"30.52028000"},
{"state":"Mogilev Region","name":"Kamyennyya Lavy","lat":"54.08980000","lon":"30.29620000"},
{"state":"Mogilev Region","name":"Kastsyukovichy","lat":"53.35250000","lon":"32.05140000"},
{"state":"Mogilev Region","name":"Khodasy","lat":"53.92660000","lon":"31.47790000"},
{"state":"Mogilev Region","name":"Khotsimsk","lat":"53.40860000","lon":"32.57800000"},
{"state":"Mogilev Region","name":"Khotsimski Rayon","lat":"53.41667000","lon":"32.50000000"},
{"state":"Mogilev Region","name":"Kirawsk","lat":"53.26930000","lon":"29.47520000"},
{"state":"Mogilev Region","name":"Klichaw","lat":"53.49230000","lon":"29.33560000"},
{"state":"Mogilev Region","name":"Klimavichy","lat":"53.60790000","lon":"31.95860000"},
{"state":"Mogilev Region","name":"Krasnapol’ski Rayon","lat":"53.33333000","lon":"31.41667000"},
{"state":"Mogilev Region","name":"Krasnapollye","lat":"53.33530000","lon":"31.39990000"},
{"state":"Mogilev Region","name":"Krasnyy Bereg","lat":"53.32910000","lon":"30.19290000"},
{"state":"Mogilev Region","name":"Kruhlaye","lat":"54.24970000","lon":"29.79680000"},
{"state":"Mogilev Region","name":"Krychaw","lat":"53.71250000","lon":"31.71700000"},
{"state":"Mogilev Region","name":"Mahilyow","lat":"53.91680000","lon":"30.34490000"},
{"state":"Mogilev Region","name":"Mahilyowski Rayon","lat":"53.83333000","lon":"30.25000000"},
{"state":"Mogilev Region","name":"Mstsislaw","lat":"54.01850000","lon":"31.72170000"},
{"state":"Mogilev Region","name":"Myazhysyatki","lat":"53.77760000","lon":"30.17650000"},
{"state":"Mogilev Region","name":"Myshkavichy","lat":"53.21720000","lon":"29.51200000"},
{"state":"Mogilev Region","name":"Palykavichy Pyershyya","lat":"53.98540000","lon":"30.36000000"},
{"state":"Mogilev Region","name":"Posëlok Voskhod","lat":"53.77660000","lon":"30.34970000"},
{"state":"Mogilev Region","name":"Ramanavichy","lat":"53.86530000","lon":"30.55970000"},
{"state":"Mogilev Region","name":"Shklow","lat":"54.21310000","lon":"30.28770000"},
{"state":"Mogilev Region","name":"Shklowski Rayon","lat":"54.16667000","lon":"30.33333000"},
{"state":"Mogilev Region","name":"Slawharad","lat":"53.44290000","lon":"31.00140000"},
{"state":"Mogilev Region","name":"Veyno","lat":"53.83333000","lon":"30.38333000"},
{"state":"Mogilev Region","name":"Vishow","lat":"53.98050000","lon":"29.99250000"},
{"state":"Mogilev Region","name":"Yalizava","lat":"53.39940000","lon":"29.00480000"},
{"state":"Vitebsk Region","name":"Balbasava","lat":"54.42070000","lon":"30.29090000"},
{"state":"Vitebsk Region","name":"Baran’","lat":"54.47840000","lon":"30.31590000"},
{"state":"Vitebsk Region","name":"Braslaw","lat":"55.64130000","lon":"27.04180000"},
{"state":"Vitebsk Region","name":"Braslawski Rayon","lat":"55.55972000","lon":"27.00000000"},
{"state":"Vitebsk Region","name":"Byahoml’","lat":"54.73160000","lon":"28.05770000"},
{"state":"Vitebsk Region","name":"Byeshankovitski Rayon","lat":"55.00000000","lon":"29.50000000"},
{"state":"Vitebsk Region","name":"Chashniki","lat":"54.85840000","lon":"29.16080000"},
{"state":"Vitebsk Region","name":"Chashnitski Rayon","lat":"54.75000000","lon":"29.25000000"},
{"state":"Vitebsk Region","name":"Dokshytski Rayon","lat":"54.83333000","lon":"27.91667000"},
{"state":"Vitebsk Region","name":"Dokshytsy","lat":"54.89180000","lon":"27.76670000"},
{"state":"Vitebsk Region","name":"Druya","lat":"55.79060000","lon":"27.45050000"},
{"state":"Vitebsk Region","name":"Dubrowna","lat":"54.57160000","lon":"30.69100000"},
{"state":"Vitebsk Region","name":"Dzisna","lat":"55.56760000","lon":"28.20760000"},
{"state":"Vitebsk Region","name":"Haradok","lat":"55.46240000","lon":"29.98450000"},
{"state":"Vitebsk Region","name":"Haradotski Rayon","lat":"55.66667000","lon":"30.16667000"},
{"state":"Vitebsk Region","name":"Hlybokaye","lat":"55.13840000","lon":"27.69050000"},
{"state":"Vitebsk Region","name":"Hlybotski Rayon","lat":"55.16667000","lon":"27.83333000"},
{"state":"Vitebsk Region","name":"Kokhanava","lat":"54.46110000","lon":"30.00180000"},
{"state":"Vitebsk Region","name":"Konstantinovo","lat":"54.65930000","lon":"29.26840000"},
{"state":"Vitebsk Region","name":"Lyepyel’","lat":"54.88140000","lon":"28.69900000"},
{"state":"Vitebsk Region","name":"Lyepyel’ski Rayon","lat":"54.83333000","lon":"28.66667000"},
{"state":"Vitebsk Region","name":"Lyntupy","lat":"55.05160000","lon":"26.31030000"},
{"state":"Vitebsk Region","name":"Lyozna","lat":"55.02470000","lon":"30.79700000"},
{"state":"Vitebsk Region","name":"Lyoznyenski Rayon","lat":"55.00000000","lon":"30.66667000"},
{"state":"Vitebsk Region","name":"Mosar","lat":"55.22320000","lon":"27.46090000"},
{"state":"Vitebsk Region","name":"Myorski Rayon","lat":"55.58333000","lon":"27.83333000"},
{"state":"Vitebsk Region","name":"Myory","lat":"55.62220000","lon":"27.62810000"},
{"state":"Vitebsk Region","name":"Navapolatsk","lat":"55.53180000","lon":"28.59870000"},
{"state":"Vitebsk Region","name":"Novolukoml’","lat":"54.66192000","lon":"29.15016000"},
{"state":"Vitebsk Region","name":"Orsha","lat":"54.50810000","lon":"30.41720000"},
{"state":"Vitebsk Region","name":"Osveya","lat":"56.01470000","lon":"28.11049000"},
{"state":"Vitebsk Region","name":"Pastavy","lat":"55.11676000","lon":"26.83263000"},
{"state":"Vitebsk Region","name":"Pastawski Rayon","lat":"55.08333000","lon":"26.91667000"},
{"state":"Vitebsk Region","name":"Polatsk","lat":"55.48790000","lon":"28.78560000"},
{"state":"Vitebsk Region","name":"Polatski Rayon","lat":"55.58333000","lon":"29.00000000"},
{"state":"Vitebsk Region","name":"Rasonski Rayon","lat":"55.83333000","lon":"28.91667000"},
{"state":"Vitebsk Region","name":"Rasony","lat":"55.90580000","lon":"28.81350000"},
{"state":"Vitebsk Region","name":"Sharkawshchyna","lat":"55.36890000","lon":"27.46860000"},
{"state":"Vitebsk Region","name":"Sharkawshchynski Rayon","lat":"55.41667000","lon":"27.41667000"},
{"state":"Vitebsk Region","name":"Shumilinski Rayon","lat":"55.33333000","lon":"29.50000000"},
{"state":"Vitebsk Region","name":"Syanno","lat":"54.81080000","lon":"29.70860000"},
{"state":"Vitebsk Region","name":"Syennyenski Rayon","lat":"54.83333000","lon":"29.83333000"},
{"state":"Vitebsk Region","name":"Talachyn","lat":"54.40870000","lon":"29.69550000"},
{"state":"Vitebsk Region","name":"Ushachy","lat":"55.17900000","lon":"28.61580000"},
{"state":"Vitebsk Region","name":"Vidzy","lat":"55.39450000","lon":"26.63050000"},
{"state":"Vitebsk Region","name":"Vitebsk","lat":"55.19040000","lon":"30.20490000"},
{"state":"Vitebsk Region","name":"Vyerkhnyadzvinsk","lat":"55.77770000","lon":"27.93890000"},
{"state":"Vitebsk Region","name":"Vyerkhnyadzvinski Rayon","lat":"55.75000000","lon":"28.16667000"}]