[{"name":"Alberta","native":null,"cities":[{"name":"Airdrie","native":null,"lat":"51.30011000","lon":"-114.03528000"},{"name":"Athabasca","native":null,"lat":"54.71687000","lon":"-113.28537000"},{"name":"Banff","native":null,"lat":"51.17622000","lon":"-115.56982000"},{"name":"Barrhead","native":null,"lat":"54.13345000","lon":"-114.40211000"},{"name":"Bassano","native":null,"lat":"50.78342000","lon":"-112.46854000"},{"name":"Beaumont","native":null,"lat":"53.35013000","lon":"-113.41871000"},{"name":"Beaverlodge","native":null,"lat":"55.21664000","lon":"-119.43605000"},{"name":"Black Diamond","native":null,"lat":"50.70011000","lon":"-114.23530000"},{"name":"Blackfalds","native":null,"lat":"52.38342000","lon":"-113.78530000"},{"name":"Bon Accord","native":null,"lat":"53.83345000","lon":"-113.41872000"},{"name":"Bonnyville","native":null,"lat":"54.26684000","lon":"-110.73505000"},{"name":"Bow Island","native":null,"lat":"49.86676000","lon":"-111.36843000"},{"name":"Brooks","native":null,"lat":"50.58341000","lon":"-111.88509000"},{"name":"Calgary","native":null,"lat":"51.05011000","lon":"-114.08529000"},{"name":"Calmar","native":null,"lat":"53.26683000","lon":"-113.81874000"},{"name":"Camrose","native":null,"lat":"53.01684000","lon":"-112.83525000"},{"name":"Canmore","native":null,"lat":"51.08335000","lon":"-115.35206000"},{"name":"Cardston","native":null,"lat":"49.19998000","lon":"-113.30190000"},{"name":"Carstairs","native":null,"lat":"51.56681000","lon":"-114.10200000"},{"name":"Chestermere","native":null,"lat":"51.03341000","lon":"-113.81867000"},{"name":"Claresholm","native":null,"lat":"50.03332000","lon":"-113.58524000"},{"name":"Coaldale","native":null,"lat":"49.71670000","lon":"-112.61854000"},{"name":"Coalhurst","native":null,"lat":"49.74640000","lon":"-112.93246000"},{"name":"Cochrane","native":null,"lat":"51.18341000","lon":"-114.46871000"},{"name":"Cold Lake","native":null,"lat":"54.46525000","lon":"-110.18154000"},{"name":"Crossfield","native":null,"lat":"51.43341000","lon":"-114.03528000"},{"name":"Devon","native":null,"lat":"53.36683000","lon":"-113.73533000"},{"name":"Didsbury","native":null,"lat":"51.66681000","lon":"-114.13529000"},{"name":"Drayton Valley","native":null,"lat":"53.21682000","lon":"-114.98544000"},{"name":"Edmonton","native":null,"lat":"53.55014000","lon":"-113.46871000"},{"name":"Edson","native":null,"lat":"53.58345000","lon":"-116.43559000"},{"name":"Elk Point","native":null,"lat":"53.90017000","lon":"-110.90170000"},{"name":"Fairview","native":null,"lat":"56.06675000","lon":"-118.38606000"},{"name":"Falher","native":null,"lat":"55.73339000","lon":"-117.20262000"},{"name":"Fort Macleod","native":null,"lat":"49.71671000","lon":"-113.41857000"},{"name":"Fort McMurray","native":null,"lat":"56.72676000","lon":"-111.38103000"},{"name":"Fort Saskatchewan","native":null,"lat":"53.71684000","lon":"-113.21870000"},{"name":"Fox Creek","native":null,"lat":"54.40007000","lon":"-116.80238000"},{"name":"Gibbons","native":null,"lat":"53.83345000","lon":"-113.33531000"},{"name":"Grand Centre","native":null,"lat":"54.41628000","lon":"-110.21304000"},{"name":"Grande Cache","native":null,"lat":"53.88335000","lon":"-119.13585000"},{"name":"Grande Prairie","native":null,"lat":"55.16667000","lon":"-118.80271000"},{"name":"Grimshaw","native":null,"lat":"56.18339000","lon":"-117.60270000"},{"name":"Hanna","native":null,"lat":"51.63343000","lon":"-111.90181000"},{"name":"Heritage Pointe","native":null,"lat":"50.84213000","lon":"-114.00493000"},{"name":"High Level","native":null,"lat":"58.51688000","lon":"-117.13605000"},{"name":"High Prairie","native":null,"lat":"55.43340000","lon":"-116.48580000"},{"name":"High River","native":null,"lat":"50.58341000","lon":"-113.86867000"},{"name":"Hinton","native":null,"lat":"53.40009000","lon":"-117.58567000"},{"name":"Irricana","native":null,"lat":"51.32372000","lon":"-113.60475000"},{"name":"Jasper Park Lodge","native":null,"lat":"52.88633000","lon":"-118.05625000"},{"name":"Killam","native":null,"lat":"52.78344000","lon":"-111.85175000"},{"name":"Lac La Biche","native":null,"lat":"54.76690000","lon":"-111.96861000"},{"name":"Lacombe","native":null,"lat":"52.46681000","lon":"-113.73530000"},{"name":"Lamont","native":null,"lat":"53.76686000","lon":"-112.80195000"},{"name":"Larkspur","native":null,"lat":"53.47942000","lon":"-113.38142000"},{"name":"Laurel","native":null,"lat":"53.44667000","lon":"-113.38197000"},{"name":"Leduc","native":null,"lat":"53.26682000","lon":"-113.55201000"},{"name":"Lethbridge","native":null,"lat":"49.69999000","lon":"-112.81856000"},{"name":"Lloydminster","native":null,"lat":"53.27237000","lon":"-110.02256000"},{"name":"Magrath","native":null,"lat":"49.41668000","lon":"-112.86856000"},{"name":"Manning","native":null,"lat":"56.91683000","lon":"-117.61945000"},{"name":"Mannville","native":null,"lat":"53.33764000","lon":"-111.17750000"},{"name":"Maple Ridge","native":null,"lat":"53.50172000","lon":"-113.36274000"},{"name":"Mayerthorpe","native":null,"lat":"53.95015000","lon":"-115.13547000"},{"name":"Medicine Hat","native":null,"lat":"50.03928000","lon":"-110.67661000"},{"name":"Mill Woods Town Centre","native":null,"lat":"53.45639000","lon":"-113.42751000"},{"name":"Millet","native":null,"lat":"53.10013000","lon":"-113.46870000"},{"name":"Morinville","native":null,"lat":"53.80014000","lon":"-113.65203000"},{"name":"Nanton","native":null,"lat":"50.35008000","lon":"-113.76866000"},{"name":"Okotoks","native":null,"lat":"50.72885000","lon":"-113.98281000"},{"name":"Olds","native":null,"lat":"51.78341000","lon":"-114.10199000"},{"name":"Peace River","native":null,"lat":"56.23715000","lon":"-117.29176000"},{"name":"Penhold","native":null,"lat":"52.13342000","lon":"-113.86870000"},{"name":"Picture Butte","native":null,"lat":"49.88330000","lon":"-112.78516000"},{"name":"Pincher Creek","native":null,"lat":"49.48328000","lon":"-113.95195000"},{"name":"Ponoka","native":null,"lat":"52.67680000","lon":"-113.58147000"},{"name":"Provost","native":null,"lat":"52.35014000","lon":"-110.26828000"},{"name":"Raymond","native":null,"lat":"49.44998000","lon":"-112.65185000"},{"name":"Red Deer","native":null,"lat":"52.26682000","lon":"-113.80200000"},{"name":"Rideau Park","native":null,"lat":"53.47899000","lon":"-113.50470000"},{"name":"Rimbey","native":null,"lat":"52.63340000","lon":"-114.23532000"},{"name":"Rocky Mountain House","native":null,"lat":"52.36683000","lon":"-114.91880000"},{"name":"Sexsmith","native":null,"lat":"55.34998000","lon":"-118.78602000"},{"name":"Sherwood Park","native":null,"lat":"53.51684000","lon":"-113.31870000"},{"name":"Silver Berry","native":null,"lat":"53.45787000","lon":"-113.38170000"},{"name":"Slave Lake","native":null,"lat":"55.28344000","lon":"-114.76896000"},{"name":"Smoky Lake","native":null,"lat":"54.11687000","lon":"-112.46863000"},{"name":"Spirit River","native":null,"lat":"55.78327000","lon":"-118.83607000"},{"name":"Springbrook","native":null,"lat":"52.17920000","lon":"-113.87981000"},{"name":"Spruce Grove","native":null,"lat":"53.53344000","lon":"-113.91874000"},{"name":"St. Albert","native":null,"lat":"53.63344000","lon":"-113.63533000"},{"name":"Stettler","native":null,"lat":"52.31683000","lon":"-112.71861000"},{"name":"Stony Plain","native":null,"lat":"53.53343000","lon":"-114.00205000"},{"name":"Strathmore","native":null,"lat":"51.05011000","lon":"-113.38523000"},{"name":"Sundre","native":null,"lat":"51.80010000","lon":"-114.63532000"},{"name":"Swan Hills","native":null,"lat":"54.71681000","lon":"-115.40226000"},{"name":"Sylvan Lake","native":null,"lat":"52.31100000","lon":"-114.08375000"},{"name":"Taber","native":null,"lat":"49.78703000","lon":"-112.14603000"},{"name":"Tamarack","native":null,"lat":"53.46441000","lon":"-113.36235000"},{"name":"Three Hills","native":null,"lat":"51.70012000","lon":"-113.26863000"},{"name":"Tofield","native":null,"lat":"53.36684000","lon":"-112.66862000"},{"name":"Two Hills","native":null,"lat":"53.71686000","lon":"-111.75181000"},{"name":"Valleyview","native":null,"lat":"55.06673000","lon":"-117.28585000"},{"name":"Vegreville","native":null,"lat":"53.50015000","lon":"-112.05182000"},{"name":"Vermilion","native":null,"lat":"53.35409000","lon":"-110.85849000"},{"name":"Viking","native":null,"lat":"53.10014000","lon":"-111.76844000"},{"name":"Vulcan","native":null,"lat":"50.40008000","lon":"-113.25189000"},{"name":"Wainwright","native":null,"lat":"52.83482000","lon":"-110.85342000"},{"name":"Wembley","native":null,"lat":"55.14995000","lon":"-119.13602000"},{"name":"Westlake","native":null,"lat":"55.22228000","lon":"-118.80415000"},{"name":"Westlock","native":null,"lat":"54.15016000","lon":"-113.86876000"},{"name":"Wetaskiwin","native":null,"lat":"52.96683000","lon":"-113.36869000"},{"name":"Whitecourt","native":null,"lat":"54.15015000","lon":"-115.68548000"},{"name":"Wild Rose","native":null,"lat":"53.47080000","lon":"-113.38119000"}]},{"name":"British Columbia","native":null,"cities":[{"name":"Abbotsford","native":null,"lat":"49.05798000","lon":"-122.25257000"},{"name":"Agassiz","native":null,"lat":"49.23298000","lon":"-121.76926000"},{"name":"Aldergrove","native":null,"lat":"49.05801000","lon":"-122.47087000"},{"name":"Aldergrove East","native":null,"lat":"49.05593000","lon":"-122.42299000"},{"name":"Anmore","native":null,"lat":"49.31637000","lon":"-122.85263000"},{"name":"Arbutus Ridge","native":null,"lat":"49.24966000","lon":"-123.16934000"},{"name":"Armstrong","native":null,"lat":"50.44979000","lon":"-119.20235000"},{"name":"Ashcroft","native":null,"lat":"50.72372000","lon":"-121.28207000"},{"name":"Barrière","native":null,"lat":"51.18308000","lon":"-120.11920000"},{"name":"Bowen Island","native":null,"lat":"49.38470000","lon":"-123.33622000"},{"name":"Burnaby","native":null,"lat":"49.26636000","lon":"-122.95263000"},{"name":"Burns Lake","native":null,"lat":"54.22972000","lon":"-125.76084000"},{"name":"Cache Creek","native":null,"lat":"50.81011000","lon":"-121.32460000"},{"name":"Campbell River","native":null,"lat":"50.01634000","lon":"-125.24459000"},{"name":"Castlegar","native":null,"lat":"49.32317000","lon":"-117.65831000"},{"name":"Cedar","native":null,"lat":"49.11633000","lon":"-123.85270000"},{"name":"Central Coast Regional District","native":null,"lat":"52.16638000","lon":"-127.00323000"},{"name":"Chase","native":null,"lat":"50.81650000","lon":"-119.68571000"},{"name":"Chemainus","native":null,"lat":"48.91633000","lon":"-123.71937000"},{"name":"Chetwynd","native":null,"lat":"55.69988000","lon":"-121.63627000"},{"name":"Chilliwack","native":null,"lat":"49.16638000","lon":"-121.95257000"},{"name":"Colwood","native":null,"lat":"48.43293000","lon":"-123.48591000"},{"name":"Coombs","native":null,"lat":"49.29963000","lon":"-124.41946000"},{"name":"Coquitlam","native":null,"lat":"49.28460000","lon":"-122.78217000"},{"name":"Courtenay","native":null,"lat":"49.68657000","lon":"-124.99360000"},{"name":"Cowichan Bay","native":null,"lat":"48.73366000","lon":"-123.61739000"},{"name":"Cranbrook","native":null,"lat":"49.49991000","lon":"-115.76879000"},{"name":"Creston","native":null,"lat":"49.09987000","lon":"-116.50211000"},{"name":"Cumberland","native":null,"lat":"49.61634000","lon":"-125.03613000"},{"name":"Dawson Creek","native":null,"lat":"55.75984000","lon":"-120.24030000"},{"name":"Delta","native":null,"lat":"49.14399000","lon":"-122.90680000"},{"name":"Denman Island","native":null,"lat":"49.53294000","lon":"-124.81950000"},{"name":"Denman Island Trust Area","native":null,"lat":"49.55189000","lon":"-124.79881000"},{"name":"Duck Lake","native":null,"lat":"50.00880000","lon":"-119.39672000"},{"name":"Duncan","native":null,"lat":"48.78293000","lon":"-123.70266000"},{"name":"East Wellington","native":null,"lat":"49.17385000","lon":"-124.01745000"},{"name":"Elkford","native":null,"lat":"50.05007000","lon":"-114.88540000"},{"name":"Ellison","native":null,"lat":"49.93307000","lon":"-119.36907000"},{"name":"Enderby","native":null,"lat":"50.54980000","lon":"-119.15234000"},{"name":"Fairwinds","native":null,"lat":"49.27588000","lon":"-124.12782000"},{"name":"Fernie","native":null,"lat":"49.49996000","lon":"-115.06871000"},{"name":"Fort Nelson","native":null,"lat":"58.80533000","lon":"-122.70020000"},{"name":"Fort St. John","native":null,"lat":"56.24988000","lon":"-120.85292000"},{"name":"Fraser Valley Regional District","native":null,"lat":"49.58299000","lon":"-121.83587000"},{"name":"French Creek","native":null,"lat":"49.34123000","lon":"-124.35541000"},{"name":"Fruitvale","native":null,"lat":"49.11654000","lon":"-117.55222000"},{"name":"Gibsons","native":null,"lat":"49.39539000","lon":"-123.50555000"},{"name":"Golden","native":null,"lat":"51.29995000","lon":"-116.96890000"},{"name":"Grand Forks","native":null,"lat":"49.03309000","lon":"-118.43560000"},{"name":"Hanceville","native":null,"lat":"51.91922000","lon":"-123.04458000"},{"name":"Hope","native":null,"lat":"49.38299000","lon":"-121.44144000"},{"name":"Hornby Island","native":null,"lat":"49.53448000","lon":"-124.66923000"},{"name":"Houston","native":null,"lat":"54.39976000","lon":"-126.67008000"},{"name":"Invermere","native":null,"lat":"50.51666000","lon":"-116.03538000"},{"name":"Kamloops","native":null,"lat":"50.66648000","lon":"-120.31920000"},{"name":"Kelowna","native":null,"lat":"49.88307000","lon":"-119.48568000"},{"name":"Kimberley","native":null,"lat":"49.67071000","lon":"-115.97760000"},{"name":"Kitimat","native":null,"lat":"54.05244000","lon":"-128.65342000"},{"name":"Ladner","native":null,"lat":"49.08938000","lon":"-123.08241000"},{"name":"Ladysmith","native":null,"lat":"48.99016000","lon":"-123.81699000"},{"name":"Lake Cowichan","native":null,"lat":"48.82495000","lon":"-124.05461000"},{"name":"Langford","native":null,"lat":"48.44963000","lon":"-123.50261000"},{"name":"Langley","native":null,"lat":"49.10107000","lon":"-122.65883000"},{"name":"Lillooet","native":null,"lat":"50.68560000","lon":"-121.94200000"},{"name":"Lions Bay","native":null,"lat":"49.45218000","lon":"-123.23760000"},{"name":"Logan Lake","native":null,"lat":"50.49976000","lon":"-120.80253000"},{"name":"Lumby","native":null,"lat":"50.24979000","lon":"-118.96904000"},{"name":"Mackenzie","native":null,"lat":"55.33637000","lon":"-123.09374000"},{"name":"Maple Ridge","native":null,"lat":"49.21939000","lon":"-122.60193000"},{"name":"Merritt","native":null,"lat":"50.11225000","lon":"-120.79420000"},{"name":"Metchosin","native":null,"lat":"48.38293000","lon":"-123.53591000"},{"name":"Metro Vancouver Regional District","native":null,"lat":"49.33296000","lon":"-123.00264000"},{"name":"Mission","native":null,"lat":"49.13298000","lon":"-122.30258000"},{"name":"Nakusp","native":null,"lat":"50.24987000","lon":"-117.80226000"},{"name":"Nanaimo","native":null,"lat":"49.16638000","lon":"-123.94003000"},{"name":"Nelson","native":null,"lat":"49.49985000","lon":"-117.28553000"},{"name":"New Westminster","native":null,"lat":"49.20678000","lon":"-122.91092000"},{"name":"North Cowichan","native":null,"lat":"48.84133000","lon":"-123.68596000"},{"name":"North Oyster/Yellow Point","native":null,"lat":"49.04807000","lon":"-123.83395000"},{"name":"North Saanich","native":null,"lat":"48.66634000","lon":"-123.41933000"},{"name":"North Vancouver","native":null,"lat":"49.31636000","lon":"-123.06934000"},{"name":"Oak Bay","native":null,"lat":"48.44964000","lon":"-123.30260000"},{"name":"Okanagan","native":null,"lat":"50.36386000","lon":"-119.34997000"},{"name":"Okanagan Falls","native":null,"lat":"49.35000000","lon":"-119.56667000"},{"name":"Oliver","native":null,"lat":"49.18306000","lon":"-119.55240000"},{"name":"Osoyoos","native":null,"lat":"49.03306000","lon":"-119.45237000"},{"name":"Parksville","native":null,"lat":"49.31947000","lon":"-124.31575000"},{"name":"Peace River Regional District","native":null,"lat":"56.66650000","lon":"-122.75302000"},{"name":"Peachland","native":null,"lat":"49.76647000","lon":"-119.73568000"},{"name":"Pemberton","native":null,"lat":"50.31641000","lon":"-122.80273000"},{"name":"Penticton","native":null,"lat":"49.48062000","lon":"-119.58584000"},{"name":"Pitt Meadows","native":null,"lat":"49.22119000","lon":"-122.68965000"},{"name":"Port Alberni","native":null,"lat":"49.24133000","lon":"-124.80280000"},{"name":"Port Coquitlam","native":null,"lat":"49.26637000","lon":"-122.76932000"},{"name":"Port McNeill","native":null,"lat":"50.58716000","lon":"-127.08053000"},{"name":"Port Moody","native":null,"lat":"49.28124000","lon":"-122.82457000"},{"name":"Powell River","native":null,"lat":"49.83278000","lon":"-124.52368000"},{"name":"Prince George","native":null,"lat":"53.91660000","lon":"-122.75301000"},{"name":"Prince Rupert","native":null,"lat":"54.31507000","lon":"-130.32098000"},{"name":"Princeton","native":null,"lat":"49.45802000","lon":"-120.51076000"},{"name":"Puntledge","native":null,"lat":"49.66168000","lon":"-125.05686000"},{"name":"Quesnel","native":null,"lat":"52.97842000","lon":"-122.49310000"},{"name":"Regional District of Alberni-Clayoquot","native":null,"lat":"49.24962000","lon":"-125.33615000"},{"name":"Regional District of Central Okanagan","native":null,"lat":"49.99978000","lon":"-119.41908000"},{"name":"Revelstoke","native":null,"lat":"50.99712000","lon":"-118.19530000"},{"name":"Richmond","native":null,"lat":"49.17003000","lon":"-123.13683000"},{"name":"Rossland","native":null,"lat":"49.08313000","lon":"-117.80224000"},{"name":"Royston","native":null,"lat":"49.64703000","lon":"-124.94670000"},{"name":"Salmo","native":null,"lat":"49.19986000","lon":"-117.26890000"},{"name":"Salmon Arm","native":null,"lat":"50.69980000","lon":"-119.30237000"},{"name":"Salt Spring Island","native":null,"lat":"48.81852000","lon":"-123.49061000"},{"name":"Saltair","native":null,"lat":"48.94963000","lon":"-123.76939000"},{"name":"Sechelt","native":null,"lat":"49.47512000","lon":"-123.75903000"},{"name":"Sicamous","native":null,"lat":"50.83312000","lon":"-118.98565000"},{"name":"Six Mile","native":null,"lat":"48.45767000","lon":"-123.46088000"},{"name":"Smithers","native":null,"lat":"54.78036000","lon":"-127.17428000"},{"name":"Sooke","native":null,"lat":"48.37463000","lon":"-123.72762000"},{"name":"South Pender Harbour","native":null,"lat":"49.62202000","lon":"-124.02484000"},{"name":"Sparwood","native":null,"lat":"49.73332000","lon":"-114.88532000"},{"name":"Summerland","native":null,"lat":"49.59977000","lon":"-119.66911000"},{"name":"Surrey","native":null,"lat":"49.10635000","lon":"-122.82509000"},{"name":"Terrace","native":null,"lat":"54.51634000","lon":"-128.60345000"},{"name":"Tofino","native":null,"lat":"49.15314000","lon":"-125.90744000"},{"name":"Trail","native":null,"lat":"49.09983000","lon":"-117.70223000"},{"name":"Tsawwassen","native":null,"lat":"49.01667000","lon":"-123.08333000"},{"name":"Tumbler Ridge","native":null,"lat":"55.13027000","lon":"-120.99415000"},{"name":"Ucluelet","native":null,"lat":"48.94153000","lon":"-125.54635000"},{"name":"Vancouver","native":null,"lat":"49.24966000","lon":"-123.11934000"},{"name":"Vanderhoof","native":null,"lat":"54.01657000","lon":"-124.01982000"},{"name":"Vernon","native":null,"lat":"50.26729000","lon":"-119.27337000"},{"name":"Victoria","native":null,"lat":"48.43590000","lon":"-123.35155000"},{"name":"Walnut Grove","native":null,"lat":"49.16473000","lon":"-122.64042000"},{"name":"Welcome Beach","native":null,"lat":"49.47959000","lon":"-123.89239000"},{"name":"West End","native":null,"lat":"49.28333000","lon":"-123.13333000"},{"name":"West Kelowna","native":null,"lat":"49.86250000","lon":"-119.58333000"},{"name":"West Vancouver","native":null,"lat":"49.36672000","lon":"-123.16652000"},{"name":"Whistler","native":null,"lat":"50.11817000","lon":"-122.95396000"},{"name":"White Rock","native":null,"lat":"49.01636000","lon":"-122.80260000"},{"name":"Williams Lake","native":null,"lat":"52.14153000","lon":"-122.14451000"}]},{"name":"Manitoba","native":null,"cities":[{"name":"Altona","native":null,"lat":"49.10469000","lon":"-97.55961000"},{"name":"Beausejour","native":null,"lat":"50.06220000","lon":"-96.51669000"},{"name":"Boissevain","native":null,"lat":"49.23062000","lon":"-100.05586000"},{"name":"Brandon","native":null,"lat":"49.84692000","lon":"-99.95306000"},{"name":"Carberry","native":null,"lat":"49.86893000","lon":"-99.36021000"},{"name":"Carman","native":null,"lat":"49.49920000","lon":"-98.00156000"},{"name":"Cross Lake 19A","native":null,"lat":"54.65135000","lon":"-97.76848000"},{"name":"Dauphin","native":null,"lat":"51.14941000","lon":"-100.05023000"},{"name":"De Salaberry","native":null,"lat":"49.39999000","lon":"-97.00894000"},{"name":"Deloraine","native":null,"lat":"49.19082000","lon":"-100.49477000"},{"name":"Flin Flon","native":null,"lat":"54.76703000","lon":"-101.87433000"},{"name":"Gimli","native":null,"lat":"50.63362000","lon":"-96.99066000"},{"name":"Grunthal","native":null,"lat":"49.40668000","lon":"-96.85873000"},{"name":"Headingley","native":null,"lat":"49.87530000","lon":"-97.40896000"},{"name":"Ile des Chênes","native":null,"lat":"49.71060000","lon":"-96.98893000"},{"name":"Killarney","native":null,"lat":"49.18332000","lon":"-99.66364000"},{"name":"La Broquerie","native":null,"lat":"49.51688000","lon":"-96.50029000"},{"name":"Lac du Bonnet","native":null,"lat":"50.25360000","lon":"-96.06116000"},{"name":"Landmark","native":null,"lat":"49.67169000","lon":"-96.82232000"},{"name":"Lorette","native":null,"lat":"49.73919000","lon":"-96.87232000"},{"name":"Melita","native":null,"lat":"49.26811000","lon":"-100.99669000"},{"name":"Minnedosa","native":null,"lat":"50.24532000","lon":"-99.84364000"},{"name":"Moose Lake","native":null,"lat":"49.20559000","lon":"-95.30629000"},{"name":"Morden","native":null,"lat":"49.19190000","lon":"-98.10136000"},{"name":"Morris","native":null,"lat":"49.35499000","lon":"-97.36567000"},{"name":"Neepawa","native":null,"lat":"50.22892000","lon":"-99.46642000"},{"name":"Niverville","native":null,"lat":"49.60559000","lon":"-97.04234000"},{"name":"Portage la Prairie","native":null,"lat":"49.97282000","lon":"-98.29263000"},{"name":"Rivers","native":null,"lat":"50.03081000","lon":"-100.24029000"},{"name":"Roblin","native":null,"lat":"51.22999000","lon":"-101.35650000"},{"name":"Selkirk","native":null,"lat":"50.14360000","lon":"-96.88452000"},{"name":"Shilo","native":null,"lat":"49.80509000","lon":"-99.63175000"},{"name":"Souris","native":null,"lat":"49.61720000","lon":"-100.26120000"},{"name":"St. Adolphe","native":null,"lat":"49.67440000","lon":"-97.11124000"},{"name":"Steinbach","native":null,"lat":"49.52579000","lon":"-96.68451000"},{"name":"Stonewall","native":null,"lat":"50.13441000","lon":"-97.32676000"},{"name":"Swan River","native":null,"lat":"52.10580000","lon":"-101.26759000"},{"name":"The Pas","native":null,"lat":"53.82509000","lon":"-101.25413000"},{"name":"Thompson","native":null,"lat":"55.74350000","lon":"-97.85579000"},{"name":"Virden","native":null,"lat":"49.85080000","lon":"-100.93262000"},{"name":"West St. Paul","native":null,"lat":"49.99940000","lon":"-97.16284000"},{"name":"Winkler","native":null,"lat":"49.18170000","lon":"-97.94104000"},{"name":"Winnipeg","native":null,"lat":"49.88440000","lon":"-97.14704000"}]},{"name":"New Brunswick","native":null,"cities":[{"name":"Baie Ste. Anne","native":null,"lat":"47.05231000","lon":"-64.95355000"},{"name":"Bathurst","native":null,"lat":"47.61814000","lon":"-65.65112000"},{"name":"Bouctouche","native":null,"lat":"46.46844000","lon":"-64.73905000"},{"name":"Campbellton","native":null,"lat":"48.00751000","lon":"-66.67272000"},{"name":"Dieppe","native":null,"lat":"46.07844000","lon":"-64.68735000"},{"name":"Edmundston","native":null,"lat":"47.37370000","lon":"-68.32512000"},{"name":"Florenceville-Bristol","native":null,"lat":"46.44353000","lon":"-67.61536000"},{"name":"Fredericton","native":null,"lat":"45.94541000","lon":"-66.66558000"},{"name":"Fundy Bay","native":null,"lat":"44.74100000","lon":"-66.76041000"},{"name":"Grande-Digue","native":null,"lat":"46.30014000","lon":"-64.56546000"},{"name":"Greater Lakeburn","native":null,"lat":"46.07651000","lon":"-64.66818000"},{"name":"Hampton","native":null,"lat":"45.52876000","lon":"-65.85354000"},{"name":"Harrison Brook","native":null,"lat":"47.21304000","lon":"-67.92847000"},{"name":"Keswick Ridge","native":null,"lat":"46.00011000","lon":"-66.88218000"},{"name":"Lincoln","native":null,"lat":"45.90012000","lon":"-66.58218000"},{"name":"Lutes Mountain","native":null,"lat":"46.13544000","lon":"-64.90504000"},{"name":"McEwen","native":null,"lat":"46.14520000","lon":"-64.78615000"},{"name":"Miramichi","native":null,"lat":"47.02895000","lon":"-65.50186000"},{"name":"Moncton","native":null,"lat":"46.09454000","lon":"-64.79650000"},{"name":"Nackawic","native":null,"lat":"45.99666000","lon":"-67.24028000"},{"name":"New Maryland","native":null,"lat":"45.87932000","lon":"-66.66828000"},{"name":"Noonan","native":null,"lat":"45.96682000","lon":"-66.53218000"},{"name":"Oromocto","native":null,"lat":"45.83512000","lon":"-66.47917000"},{"name":"Richibucto","native":null,"lat":"46.68073000","lon":"-64.88044000"},{"name":"Sackville","native":null,"lat":"45.91875000","lon":"-64.38455000"},{"name":"Saint Andrews","native":null,"lat":"45.07370000","lon":"-67.05312000"},{"name":"Saint John","native":null,"lat":"45.27271000","lon":"-66.06766000"},{"name":"Saint-Antoine","native":null,"lat":"46.36294000","lon":"-64.74985000"},{"name":"Saint-Léonard","native":null,"lat":"47.16317000","lon":"-67.92460000"},{"name":"Salisbury","native":null,"lat":"46.03905000","lon":"-65.04628000"},{"name":"Shediac","native":null,"lat":"46.21981000","lon":"-64.54107000"},{"name":"Shediac Bridge-Shediac River","native":null,"lat":"46.26886000","lon":"-64.60047000"},{"name":"Shippagan","native":null,"lat":"47.74424000","lon":"-64.70804000"},{"name":"Starlight Village","native":null,"lat":"45.88308000","lon":"-66.76905000"},{"name":"Sussex","native":null,"lat":"45.72266000","lon":"-65.50663000"},{"name":"Tracadie-Sheila","native":null,"lat":"47.51444000","lon":"-64.91806000"},{"name":"Wells","native":null,"lat":"45.39274000","lon":"-65.92313000"}]},{"name":"Newfoundland and Labrador","native":null,"cities":[{"name":"Bay Roberts","native":null,"lat":"47.59989000","lon":"-53.26478000"},{"name":"Bay St. George South","native":null,"lat":"48.22781000","lon":"-58.84162000"},{"name":"Bonavista","native":null,"lat":"48.64989000","lon":"-53.11474000"},{"name":"Botwood","native":null,"lat":"49.14994000","lon":"-55.34819000"},{"name":"Burgeo","native":null,"lat":"47.61668000","lon":"-57.61516000"},{"name":"Carbonear","native":null,"lat":"47.73319000","lon":"-53.21478000"},{"name":"Catalina","native":null,"lat":"48.51659000","lon":"-53.08135000"},{"name":"Channel-Port aux Basques","native":null,"lat":"47.57286000","lon":"-59.13808000"},{"name":"Clarenville-Shoal Harbour","native":null,"lat":"48.18050000","lon":"-53.96982000"},{"name":"Conception Bay South","native":null,"lat":"47.49989000","lon":"-52.99806000"},{"name":"Corner Brook","native":null,"lat":"48.95001000","lon":"-57.95202000"},{"name":"Deer Lake","native":null,"lat":"49.16671000","lon":"-57.43163000"},{"name":"Fogo Island","native":null,"lat":"49.71649000","lon":"-54.16981000"},{"name":"Gambo","native":null,"lat":"48.78320000","lon":"-54.21482000"},{"name":"Goulds","native":null,"lat":"47.45532000","lon":"-52.77552000"},{"name":"Grand Bank","native":null,"lat":"47.09995000","lon":"-55.76504000"},{"name":"Grand Falls-Windsor","native":null,"lat":"48.93324000","lon":"-55.66492000"},{"name":"Happy Valley-Goose Bay","native":null,"lat":"53.30380000","lon":"-60.32576000"},{"name":"Harbour Breton","native":null,"lat":"47.48325000","lon":"-55.79833000"},{"name":"Labrador City","native":null,"lat":"52.94626000","lon":"-66.91137000"},{"name":"Lewisporte","native":null,"lat":"49.24993000","lon":"-55.04816000"},{"name":"Marystown","native":null,"lat":"47.16663000","lon":"-55.14829000"},{"name":"Mount Pearl","native":null,"lat":"47.51659000","lon":"-52.78135000"},{"name":"Pasadena","native":null,"lat":"49.01671000","lon":"-57.59837000"},{"name":"Springdale","native":null,"lat":"49.49995000","lon":"-56.06492000"},{"name":"St. Anthony","native":null,"lat":"51.37039000","lon":"-55.59743000"},{"name":"St. John's","native":null,"lat":"47.56494000","lon":"-52.70931000"},{"name":"Stephenville","native":null,"lat":"48.55001000","lon":"-58.58180000"},{"name":"Stephenville Crossing","native":null,"lat":"48.50001000","lon":"-58.43180000"},{"name":"Torbay","native":null,"lat":"47.66659000","lon":"-52.73135000"},{"name":"Upper Island Cove","native":null,"lat":"47.64989000","lon":"-53.21478000"},{"name":"Wabana","native":null,"lat":"47.63319000","lon":"-52.94806000"}]},{"name":"Northwest Territories","native":null,"cities":[{"name":"Behchokǫ̀","native":null,"lat":"62.80250000","lon":"-116.04639000"},{"name":"Fort McPherson","native":null,"lat":"67.43863000","lon":"-134.88543000"},{"name":"Fort Smith","native":null,"lat":"60.00439000","lon":"-111.88871000"},{"name":"Hay River","native":null,"lat":"60.81555000","lon":"-115.79993000"},{"name":"Inuvik","native":null,"lat":"68.34986000","lon":"-133.72181000"},{"name":"Norman Wells","native":null,"lat":"65.28201000","lon":"-126.83290000"},{"name":"Yellowknife","native":null,"lat":"62.45411000","lon":"-114.37248000"}]},{"name":"Nova Scotia","native":null,"cities":[{"name":"Amherst","native":null,"lat":"45.83345000","lon":"-64.19874000"},{"name":"Annapolis County","native":null,"lat":"44.58345000","lon":"-65.16551000"},{"name":"Antigonish","native":null,"lat":"45.61685000","lon":"-61.99858000"},{"name":"Berwick","native":null,"lat":"45.05015000","lon":"-64.73208000"},{"name":"Bridgewater","native":null,"lat":"44.37856000","lon":"-64.51882000"},{"name":"Cape Breton County","native":null,"lat":"46.00014000","lon":"-60.31516000"},{"name":"Chester","native":null,"lat":"44.54225000","lon":"-64.23891000"},{"name":"Colchester","native":null,"lat":"45.33345000","lon":"-63.24868000"},{"name":"Cole Harbour","native":null,"lat":"44.67244000","lon":"-63.47506000"},{"name":"Cow Bay","native":null,"lat":"44.63141000","lon":"-63.43218000"},{"name":"Dartmouth","native":null,"lat":"44.67134000","lon":"-63.57719000"},{"name":"Digby","native":null,"lat":"44.62188000","lon":"-65.75860000"},{"name":"Digby County","native":null,"lat":"44.36685000","lon":"-65.69884000"},{"name":"English Corner","native":null,"lat":"44.73345000","lon":"-63.78201000"},{"name":"Eskasoni 3","native":null,"lat":"45.94522000","lon":"-60.61617000"},{"name":"Fall River","native":null,"lat":"44.81685000","lon":"-63.61540000"},{"name":"Glace Bay","native":null,"lat":"46.19695000","lon":"-59.95698000"},{"name":"Greenwood","native":null,"lat":"44.97413000","lon":"-64.93169000"},{"name":"Halifax","native":null,"lat":"44.64533000","lon":"-63.57239000"},{"name":"Hantsport","native":null,"lat":"45.06685000","lon":"-64.16544000"},{"name":"Hayes Subdivision","native":null,"lat":"45.05519000","lon":"-64.58795000"},{"name":"Kentville","native":null,"lat":"45.07710000","lon":"-64.49605000"},{"name":"Lake Echo","native":null,"lat":"44.73345000","lon":"-63.38198000"},{"name":"Lantz","native":null,"lat":"44.98345000","lon":"-63.48199000"},{"name":"Lower Sackville","native":null,"lat":"44.77599000","lon":"-63.67865000"},{"name":"Lunenburg","native":null,"lat":"44.37847000","lon":"-64.31658000"},{"name":"Middleton","native":null,"lat":"44.94284000","lon":"-65.07022000"},{"name":"New Glasgow","native":null,"lat":"45.58344000","lon":"-62.64863000"},{"name":"Oxford","native":null,"lat":"45.73345000","lon":"-63.86542000"},{"name":"Parrsboro","native":null,"lat":"45.40567000","lon":"-64.32585000"},{"name":"Pictou","native":null,"lat":"45.67875000","lon":"-62.70936000"},{"name":"Pictou County","native":null,"lat":"45.50015000","lon":"-62.58193000"},{"name":"Port Hawkesbury","native":null,"lat":"45.61685000","lon":"-61.34853000"},{"name":"Port Williams","native":null,"lat":"45.10015000","lon":"-64.41546000"},{"name":"Princeville","native":null,"lat":"45.76684000","lon":"-61.29853000"},{"name":"Shelburne","native":null,"lat":"43.76325000","lon":"-65.32355000"},{"name":"Springhill","native":null,"lat":"45.65015000","lon":"-64.04873000"},{"name":"Sydney","native":null,"lat":"46.13510000","lon":"-60.18310000"},{"name":"Sydney Mines","native":null,"lat":"46.23669000","lon":"-60.21767000"},{"name":"Truro","native":null,"lat":"45.36685000","lon":"-63.26538000"},{"name":"Windsor","native":null,"lat":"44.98345000","lon":"-64.13204000"},{"name":"Wolfville","native":null,"lat":"45.08345000","lon":"-64.36546000"},{"name":"Yarmouth","native":null,"lat":"43.83345000","lon":"-66.11557000"}]},{"name":"Nunavut","native":null,"cities":[{"name":"Clyde River","native":null,"lat":"70.47233000","lon":"-68.58987000"},{"name":"Gjoa Haven","native":null,"lat":"68.62602000","lon":"-95.87836000"},{"name":"Iqaluit","native":null,"lat":"63.74697000","lon":"-68.51727000"},{"name":"Kugluktuk","native":null,"lat":"67.82743000","lon":"-115.09649000"},{"name":"Pangnirtung","native":null,"lat":"66.14642000","lon":"-65.69996000"},{"name":"Rankin Inlet","native":null,"lat":"62.80906000","lon":"-92.08534000"}]},{"name":"Ontario","native":null,"cities":[{"name":"Ajax","native":null,"lat":"43.85012000","lon":"-79.03288000"},{"name":"Algoma","native":null,"lat":"47.88364000","lon":"-84.42406000"},{"name":"Alliston","native":null,"lat":"44.15011000","lon":"-79.86635000"},{"name":"Amherstburg","native":null,"lat":"42.10009000","lon":"-83.09985000"},{"name":"Amigo Beach","native":null,"lat":"44.70011000","lon":"-79.39963000"},{"name":"Ancaster","native":null,"lat":"43.21806000","lon":"-79.98716000"},{"name":"Angus","native":null,"lat":"44.31681000","lon":"-79.88295000"},{"name":"Arnprior","native":null,"lat":"45.43341000","lon":"-76.34939000"},{"name":"Atikokan","native":null,"lat":"48.75667000","lon":"-91.62409000"},{"name":"Attawapiskat","native":null,"lat":"52.92774000","lon":"-82.41669000"},{"name":"Aurora","native":null,"lat":"44.00011000","lon":"-79.46632000"},{"name":"Aylmer","native":null,"lat":"42.76679000","lon":"-80.98302000"},{"name":"Azilda","native":null,"lat":"46.55008000","lon":"-81.09975000"},{"name":"Ballantrae","native":null,"lat":"44.03342000","lon":"-79.29960000"},{"name":"Bancroft","native":null,"lat":"45.05752000","lon":"-77.85702000"},{"name":"Barrie","native":null,"lat":"44.40011000","lon":"-79.66634000"},{"name":"Bath","native":null,"lat":"44.18342000","lon":"-76.78273000"},{"name":"Belleville","native":null,"lat":"44.16682000","lon":"-77.38277000"},{"name":"Bells Corners","native":null,"lat":"45.31588000","lon":"-75.83012000"},{"name":"Belmont","native":null,"lat":"42.88339000","lon":"-81.08303000"},{"name":"Binbrook","native":null,"lat":"43.12135000","lon":"-79.81104000"},{"name":"Bluewater","native":null,"lat":"43.46679000","lon":"-81.59977000"},{"name":"Bourget","native":null,"lat":"45.43340000","lon":"-75.14930000"},{"name":"Bracebridge","native":null,"lat":"45.03341000","lon":"-79.31633000"},{"name":"Brampton","native":null,"lat":"43.68341000","lon":"-79.76633000"},{"name":"Brant","native":null,"lat":"43.13340000","lon":"-80.34967000"},{"name":"Brantford","native":null,"lat":"43.13340000","lon":"-80.26636000"},{"name":"Brockville","native":null,"lat":"44.59132000","lon":"-75.68705000"},{"name":"Brussels","native":null,"lat":"43.73339000","lon":"-81.24975000"},{"name":"Burford","native":null,"lat":"43.10292000","lon":"-80.42869000"},{"name":"Burlington","native":null,"lat":"43.38621000","lon":"-79.83713000"},{"name":"Cambridge","native":null,"lat":"43.36010000","lon":"-80.31269000"},{"name":"Camlachie","native":null,"lat":"43.03596000","lon":"-82.16160000"},{"name":"Capreol","native":null,"lat":"46.70626000","lon":"-80.92109000"},{"name":"Carleton Place","native":null,"lat":"45.13341000","lon":"-76.14938000"},{"name":"Casselman","native":null,"lat":"45.31680000","lon":"-75.08260000"},{"name":"Chatham","native":null,"lat":"42.41224000","lon":"-82.18494000"},{"name":"Chatham-Kent","native":null,"lat":"42.40009000","lon":"-82.18310000"},{"name":"Clarence-Rockland","native":null,"lat":"45.55010000","lon":"-75.29101000"},{"name":"Cobourg","native":null,"lat":"43.95977000","lon":"-78.16515000"},{"name":"Cochrane District","native":null,"lat":"50.00022000","lon":"-82.99979000"},{"name":"Collingwood","native":null,"lat":"44.48340000","lon":"-80.21638000"},{"name":"Concord","native":null,"lat":"43.80011000","lon":"-79.48291000"},{"name":"Constance Bay","native":null,"lat":"45.50011000","lon":"-76.08267000"},{"name":"Cookstown","native":null,"lat":"44.18341000","lon":"-79.69964000"},{"name":"Cornwall","native":null,"lat":"45.01809000","lon":"-74.72815000"},{"name":"Corunna","native":null,"lat":"42.88338000","lon":"-82.43313000"},{"name":"Deep River","native":null,"lat":"46.10012000","lon":"-77.49949000"},{"name":"Delaware","native":null,"lat":"42.91679000","lon":"-81.41646000"},{"name":"Deseronto","native":null,"lat":"44.20012000","lon":"-77.04944000"},{"name":"Dorchester","native":null,"lat":"42.98339000","lon":"-81.06643000"},{"name":"Dowling","native":null,"lat":"46.59111000","lon":"-81.33917000"},{"name":"Dryden","native":null,"lat":"49.78334000","lon":"-92.75032000"},{"name":"Durham","native":null,"lat":"44.20012000","lon":"-78.99957000"},{"name":"Ear Falls","native":null,"lat":"50.63955000","lon":"-93.23526000"},{"name":"East Gwillimbury","native":null,"lat":"44.10087000","lon":"-79.43785000"},{"name":"East York","native":null,"lat":"43.69053000","lon":"-79.32794000"},{"name":"Elliot Lake","native":null,"lat":"46.38336000","lon":"-82.63315000"},{"name":"Elmvale","native":null,"lat":"44.58340000","lon":"-79.86636000"},{"name":"Englehart","native":null,"lat":"47.81686000","lon":"-79.86640000"},{"name":"Espanola","native":null,"lat":"46.25837000","lon":"-81.76649000"},{"name":"Essex","native":null,"lat":"42.17509000","lon":"-82.82483000"},{"name":"Etobicoke","native":null,"lat":"43.65421000","lon":"-79.56711000"},{"name":"Fort Erie","native":null,"lat":"42.90012000","lon":"-78.93286000"},{"name":"Fort Frances","native":null,"lat":"48.61667000","lon":"-93.40030000"},{"name":"Gananoque","native":null,"lat":"44.33342000","lon":"-76.16607000"},{"name":"Glencoe","native":null,"lat":"42.75009000","lon":"-81.71648000"},{"name":"Goderich","native":null,"lat":"43.74171000","lon":"-81.71339000"},{"name":"Golden","native":null,"lat":"51.05917000","lon":"-93.73568000"},{"name":"Gravenhurst","native":null,"lat":"44.91681000","lon":"-79.36633000"},{"name":"Greater Napanee","native":null,"lat":"44.25012000","lon":"-76.94944000"},{"name":"Greater Sudbury","native":null,"lat":"46.49000000","lon":"-80.99001000"},{"name":"Greenstone","native":null,"lat":"49.73343000","lon":"-87.16668000"},{"name":"Guelph","native":null,"lat":"43.54594000","lon":"-80.25599000"},{"name":"Haldimand County","native":null,"lat":"42.98341000","lon":"-79.86633000"},{"name":"Haliburton Village","native":null,"lat":"45.05154000","lon":"-78.52245000"},{"name":"Halton","native":null,"lat":"43.50011000","lon":"-79.88294000"},{"name":"Hamilton","native":null,"lat":"43.25011000","lon":"-79.84963000"},{"name":"Hanover","native":null,"lat":"44.15009000","lon":"-81.03303000"},{"name":"Harriston","native":null,"lat":"43.90009000","lon":"-80.88302000"},{"name":"Hawkesbury","native":null,"lat":"45.60009000","lon":"-74.61595000"},{"name":"Hearst","native":null,"lat":"49.68351000","lon":"-83.66654000"},{"name":"Hornepayne","native":null,"lat":"49.21451000","lon":"-84.77617000"},{"name":"Huntsville","native":null,"lat":"45.33341000","lon":"-79.21632000"},{"name":"Huron East","native":null,"lat":"43.61679000","lon":"-81.29975000"},{"name":"Ingersoll","native":null,"lat":"43.03339000","lon":"-80.88302000"},{"name":"Innisfil","native":null,"lat":"44.30011000","lon":"-79.64964000"},{"name":"Iroquois Falls","native":null,"lat":"48.76688000","lon":"-80.68307000"},{"name":"Jarvis","native":null,"lat":"42.88341000","lon":"-80.09965000"},{"name":"Kanata","native":null,"lat":"45.30010000","lon":"-75.91606000"},{"name":"Kapuskasing","native":null,"lat":"49.41694000","lon":"-82.43308000"},{"name":"Kawartha Lakes","native":null,"lat":"44.58342000","lon":"-78.83288000"},{"name":"Kenora","native":null,"lat":"49.76741000","lon":"-94.48985000"},{"name":"Keswick","native":null,"lat":"44.25011000","lon":"-79.46632000"},{"name":"Kincardine","native":null,"lat":"44.18339000","lon":"-81.63307000"},{"name":"King","native":null,"lat":"43.96514000","lon":"-79.59011000"},{"name":"Kingston","native":null,"lat":"44.22976000","lon":"-76.48098000"},{"name":"Kirkland Lake","native":null,"lat":"48.14461000","lon":"-80.03767000"},{"name":"Kitchener","native":null,"lat":"43.42537000","lon":"-80.51120000"},{"name":"L'Orignal","native":null,"lat":"45.61980000","lon":"-74.69150000"},{"name":"Lakefield","native":null,"lat":"44.43342000","lon":"-78.26623000"},{"name":"Lambton Shores","native":null,"lat":"43.16678000","lon":"-81.93309000"},{"name":"Lappe","native":null,"lat":"48.56680000","lon":"-89.35013000"},{"name":"Leamington","native":null,"lat":"42.05009000","lon":"-82.59981000"},{"name":"Limoges","native":null,"lat":"45.33340000","lon":"-75.24931000"},{"name":"Lindsay","native":null,"lat":"44.35012000","lon":"-78.73286000"},{"name":"Listowel","native":null,"lat":"43.73340000","lon":"-80.94973000"},{"name":"Little Current","native":null,"lat":"45.97927000","lon":"-81.92480000"},{"name":"Lively","native":null,"lat":"46.43338000","lon":"-81.14975000"},{"name":"London","native":null,"lat":"42.98339000","lon":"-81.23304000"},{"name":"Lucan","native":null,"lat":"43.18339000","lon":"-81.39976000"},{"name":"Madoc","native":null,"lat":"44.50842000","lon":"-77.47448000"},{"name":"Manitoulin District","native":null,"lat":"45.75007000","lon":"-82.49985000"},{"name":"Manitouwadge","native":null,"lat":"49.12152000","lon":"-85.84030000"},{"name":"Marathon","native":null,"lat":"48.75010000","lon":"-86.43322000"},{"name":"Markdale","native":null,"lat":"44.31680000","lon":"-80.64971000"},{"name":"Markham","native":null,"lat":"43.86682000","lon":"-79.26630000"},{"name":"Mattawa","native":null,"lat":"46.31681000","lon":"-78.69957000"},{"name":"Meaford","native":null,"lat":"44.60725000","lon":"-80.61081000"},{"name":"Metcalfe","native":null,"lat":"45.23340000","lon":"-75.46603000"},{"name":"Midland","native":null,"lat":"44.75010000","lon":"-79.88296000"},{"name":"Mildmay","native":null,"lat":"44.05009000","lon":"-81.11644000"},{"name":"Millbrook","native":null,"lat":"44.15012000","lon":"-78.44954000"},{"name":"Milton","native":null,"lat":"43.51681000","lon":"-79.88294000"},{"name":"Mississauga","native":null,"lat":"43.57890000","lon":"-79.65830000"},{"name":"Mississauga Beach","native":null,"lat":"43.26682000","lon":"-79.08287000"},{"name":"Moose Factory","native":null,"lat":"51.26689000","lon":"-80.61624000"},{"name":"Moosonee","native":null,"lat":"51.27931000","lon":"-80.63450000"},{"name":"Morrisburg","native":null,"lat":"44.90010000","lon":"-75.18261000"},{"name":"Mount Albert","native":null,"lat":"44.13341000","lon":"-79.31630000"},{"name":"Mount Brydges","native":null,"lat":"42.90009000","lon":"-81.48306000"},{"name":"Napanee","native":null,"lat":"44.25012000","lon":"-76.94944000"},{"name":"Napanee Downtown","native":null,"lat":"44.24832000","lon":"-76.95069000"},{"name":"Neebing","native":null,"lat":"48.16680000","lon":"-89.41683000"},{"name":"Nepean","native":null,"lat":"45.35215000","lon":"-75.73975000"},{"name":"New Hamburg","native":null,"lat":"43.38339000","lon":"-80.69970000"},{"name":"Newmarket","native":null,"lat":"44.05011000","lon":"-79.46631000"},{"name":"Niagara Falls","native":null,"lat":"43.10012000","lon":"-79.06627000"},{"name":"Nipissing District","native":null,"lat":"46.00010000","lon":"-78.99959000"},{"name":"Norfolk County","native":null,"lat":"42.83340000","lon":"-80.38297000"},{"name":"North Bay","native":null,"lat":"46.31680000","lon":"-79.46633000"},{"name":"North Perth","native":null,"lat":"43.72510000","lon":"-80.96723000"},{"name":"North York","native":null,"lat":"43.76681000","lon":"-79.41630000"},{"name":"Norwood","native":null,"lat":"44.38342000","lon":"-77.98281000"},{"name":"Oakville","native":null,"lat":"43.45011000","lon":"-79.68292000"},{"name":"Omemee","native":null,"lat":"44.29897000","lon":"-78.55989000"},{"name":"Orangeville","native":null,"lat":"43.91680000","lon":"-80.09967000"},{"name":"Orillia","native":null,"lat":"44.60868000","lon":"-79.42068000"},{"name":"Osgoode","native":null,"lat":"45.14887000","lon":"-75.59778000"},{"name":"Oshawa","native":null,"lat":"43.90012000","lon":"-78.84957000"},{"name":"Ottawa","native":null,"lat":"45.41117000","lon":"-75.69812000"},{"name":"Owen Sound","native":null,"lat":"44.56717000","lon":"-80.94349000"},{"name":"Paisley","native":null,"lat":"44.30641000","lon":"-81.27265000"},{"name":"Paris","native":null,"lat":"43.20000000","lon":"-80.38333000"},{"name":"Parkhill","native":null,"lat":"43.15993000","lon":"-81.68464000"},{"name":"Parry Sound","native":null,"lat":"45.34732000","lon":"-80.03527000"},{"name":"Parry Sound District","native":null,"lat":"45.75011000","lon":"-79.83297000"},{"name":"Peel","native":null,"lat":"43.75011000","lon":"-79.78293000"},{"name":"Pembroke","native":null,"lat":"45.81681000","lon":"-77.11616000"},{"name":"Perth","native":null,"lat":"44.90011000","lon":"-76.24939000"},{"name":"Petawawa","native":null,"lat":"45.89452000","lon":"-77.28007000"},{"name":"Peterborough","native":null,"lat":"44.30012000","lon":"-78.31623000"},{"name":"Petrolia","native":null,"lat":"42.86678000","lon":"-82.14981000"},{"name":"Pickering","native":null,"lat":"43.90012000","lon":"-79.13289000"},{"name":"Picton","native":null,"lat":"44.00012000","lon":"-77.13275000"},{"name":"Plantagenet","native":null,"lat":"45.53260000","lon":"-74.99369000"},{"name":"Plattsville","native":null,"lat":"43.30010000","lon":"-80.61639000"},{"name":"Port Colborne","native":null,"lat":"42.90012000","lon":"-79.23288000"},{"name":"Port Hope","native":null,"lat":"44.01682000","lon":"-78.39953000"},{"name":"Port Rowan","native":null,"lat":"42.61680000","lon":"-80.46638000"},{"name":"Port Stanley","native":null,"lat":"42.66679000","lon":"-81.21644000"},{"name":"Powassan","native":null,"lat":"46.03340000","lon":"-79.34961000"},{"name":"Prescott","native":null,"lat":"44.71681000","lon":"-75.51604000"},{"name":"Prince Edward","native":null,"lat":"44.00012000","lon":"-77.24946000"},{"name":"Queenswood Heights","native":null,"lat":"45.47083000","lon":"-75.50556000"},{"name":"Quinte West","native":null,"lat":"44.18342000","lon":"-77.56618000"},{"name":"Rainy River District","native":null,"lat":"48.49981000","lon":"-92.50031000"},{"name":"Rayside-Balfour","native":null,"lat":"46.60873000","lon":"-81.20763000"},{"name":"Red Lake","native":null,"lat":"51.01678000","lon":"-93.82736000"},{"name":"Regional Municipality of Waterloo","native":null,"lat":"43.50010000","lon":"-80.49969000"},{"name":"Renfrew","native":null,"lat":"45.46681000","lon":"-76.68272000"},{"name":"Richmond","native":null,"lat":"45.18340000","lon":"-75.83266000"},{"name":"Richmond Hill","native":null,"lat":"43.87111000","lon":"-79.43725000"},{"name":"Ridgetown","native":null,"lat":"42.43339000","lon":"-81.89978000"},{"name":"Rockwood","native":null,"lat":"43.61899000","lon":"-80.14441000"},{"name":"Russell","native":null,"lat":"45.25010000","lon":"-75.36602000"},{"name":"Sarnia","native":null,"lat":"42.97866000","lon":"-82.40407000"},{"name":"Sault Ste. Marie","native":null,"lat":"46.51677000","lon":"-84.33325000"},{"name":"Scarborough","native":null,"lat":"43.77223000","lon":"-79.25666000"},{"name":"Seaforth","native":null,"lat":"43.55009000","lon":"-81.39976000"},{"name":"Shelburne","native":null,"lat":"44.07870000","lon":"-80.20408000"},{"name":"Simcoe","native":null,"lat":"42.83340000","lon":"-80.29967000"},{"name":"Sioux Lookout","native":null,"lat":"50.06676000","lon":"-91.98358000"},{"name":"Skatepark","native":null,"lat":"44.25122000","lon":"-76.94424000"},{"name":"Smiths Falls","native":null,"lat":"44.90452000","lon":"-76.02333000"},{"name":"South Huron","native":null,"lat":"43.31679000","lon":"-81.51647000"},{"name":"South River","native":null,"lat":"45.83340000","lon":"-79.38293000"},{"name":"St. Catharines","native":null,"lat":"43.17126000","lon":"-79.24267000"},{"name":"St. George","native":null,"lat":"43.24495000","lon":"-80.25144000"},{"name":"St. Thomas","native":null,"lat":"42.77361000","lon":"-81.18038000"},{"name":"Stirling","native":null,"lat":"44.30012000","lon":"-77.54948000"},{"name":"Stoney Point","native":null,"lat":"44.26681000","lon":"-79.53292000"},{"name":"Stratford","native":null,"lat":"43.36679000","lon":"-80.94972000"},{"name":"Sudbury","native":null,"lat":"47.16679000","lon":"-81.99980000"},{"name":"Tavistock","native":null,"lat":"43.31679000","lon":"-80.83302000"},{"name":"Temiskaming Shores","native":null,"lat":"47.49376000","lon":"-79.71529000"},{"name":"Thessalon","native":null,"lat":"46.25006000","lon":"-83.56660000"},{"name":"Thornhill","native":null,"lat":"43.81708480","lon":"-79.45011940"},{"name":"Thorold","native":null,"lat":"43.11682000","lon":"-79.19958000"},{"name":"Thunder Bay","native":null,"lat":"48.38202000","lon":"-89.25018000"},{"name":"Thunder Bay District","native":null,"lat":"49.50011000","lon":"-88.50004000"},{"name":"Timiskaming District","native":null,"lat":"47.75016000","lon":"-80.33303000"},{"name":"Timmins","native":null,"lat":"48.46686000","lon":"-81.33312000"},{"name":"Tobermory","native":null,"lat":"45.25007000","lon":"-81.66647000"},{"name":"Toronto","native":null,"lat":"43.70011000","lon":"-79.41630000"},{"name":"Toronto county","native":null,"lat":"43.69655000","lon":"-79.42909000"},{"name":"Tottenham","native":null,"lat":"44.02437000","lon":"-79.80553000"},{"name":"Tweed","native":null,"lat":"44.47512000","lon":"-77.31616000"},{"name":"Uxbridge","native":null,"lat":"44.10012000","lon":"-79.11628000"},{"name":"Valley East","native":null,"lat":"46.66773000","lon":"-81.00028000"},{"name":"Vanier","native":null,"lat":"45.43990000","lon":"-75.66498000"},{"name":"Vaughan","native":null,"lat":"43.83610000","lon":"-79.49827000"},{"name":"Vineland","native":null,"lat":"43.15012000","lon":"-79.39960000"},{"name":"Virgil","native":null,"lat":"43.21682000","lon":"-79.13288000"},{"name":"Walpole Island","native":null,"lat":"42.61520000","lon":"-82.51398000"},{"name":"Wasaga Beach","native":null,"lat":"44.51680000","lon":"-80.01637000"},{"name":"Waterford","native":null,"lat":"42.93340000","lon":"-80.28296000"},{"name":"Waterloo","native":null,"lat":"43.46680000","lon":"-80.51639000"},{"name":"Watford","native":null,"lat":"42.95008000","lon":"-81.88309000"},{"name":"Wawa","native":null,"lat":"47.98877000","lon":"-84.77411000"},{"name":"Welland","native":null,"lat":"42.98342000","lon":"-79.24958000"},{"name":"Wellesley","native":null,"lat":"43.47691000","lon":"-80.76209000"},{"name":"Wendover","native":null,"lat":"45.57275000","lon":"-75.12757000"},{"name":"West Lorne","native":null,"lat":"42.60009000","lon":"-81.59976000"},{"name":"Willowdale","native":null,"lat":"43.76672000","lon":"-79.39909000"},{"name":"Winchester","native":null,"lat":"45.08340000","lon":"-75.34933000"},{"name":"Windsor","native":null,"lat":"42.30008000","lon":"-83.01654000"},{"name":"Wingham","native":null,"lat":"43.88793000","lon":"-81.31145000"},{"name":"Woodstock","native":null,"lat":"43.13339000","lon":"-80.74970000"},{"name":"York","native":null,"lat":"44.00011000","lon":"-79.46632000"}]},{"name":"Prince Edward Island","native":null,"cities":[{"name":"Alberton","native":null,"lat":"46.81685000","lon":"-64.06542000"},{"name":"Belfast","native":null,"lat":"46.08341000","lon":"-62.88197000"},{"name":"Charlottetown","native":null,"lat":"46.23899000","lon":"-63.13414000"},{"name":"Cornwall","native":null,"lat":"46.22652000","lon":"-63.21809000"},{"name":"Fallingbrook","native":null,"lat":"45.47558000","lon":"-75.48401000"},{"name":"Kensington","native":null,"lat":"46.43343000","lon":"-63.64871000"},{"name":"Montague","native":null,"lat":"46.16681000","lon":"-62.64866000"},{"name":"Souris","native":null,"lat":"46.35010000","lon":"-62.24862000"},{"name":"Summerside","native":null,"lat":"46.39593000","lon":"-63.78762000"}]},{"name":"Quebec","native":null,"cities":[{"name":"Abitibi-Témiscamingue","native":null,"lat":"48.10018000","lon":"-77.78280000"},{"name":"Acton Vale","native":null,"lat":"45.65007000","lon":"-72.56582000"},{"name":"Adstock","native":null,"lat":"46.05007000","lon":"-71.08235000"},{"name":"Albanel","native":null,"lat":"48.88324000","lon":"-72.44867000"},{"name":"Alma","native":null,"lat":"48.55009000","lon":"-71.64910000"},{"name":"Amos","native":null,"lat":"48.56688000","lon":"-78.11624000"},{"name":"Amqui","native":null,"lat":"48.46382000","lon":"-67.43134000"},{"name":"Ange-Gardien","native":null,"lat":"45.35008000","lon":"-72.93244000"},{"name":"Asbestos","native":null,"lat":"45.76678000","lon":"-71.93240000"},{"name":"Baie-Comeau","native":null,"lat":"49.21679000","lon":"-68.14894000"},{"name":"Baie-D'Urfé","native":null,"lat":"45.41397000","lon":"-73.91586000"},{"name":"Baie-Saint-Paul","native":null,"lat":"47.44109000","lon":"-70.49858000"},{"name":"Barraute","native":null,"lat":"48.43349000","lon":"-77.63279000"},{"name":"Bas-Saint-Laurent","native":null,"lat":"48.05030000","lon":"-68.02266000"},{"name":"Beaconsfield","native":null,"lat":"45.43341000","lon":"-73.86586000"},{"name":"Beauceville","native":null,"lat":"46.21785000","lon":"-70.77873000"},{"name":"Beauharnois","native":null,"lat":"45.31341000","lon":"-73.87250000"},{"name":"Beaupré","native":null,"lat":"47.04428000","lon":"-70.89529000"},{"name":"Bécancour","native":null,"lat":"46.34106000","lon":"-72.43224000"},{"name":"Bedford","native":null,"lat":"45.11678000","lon":"-72.98244000"},{"name":"Beloeil","native":null,"lat":"45.56839000","lon":"-73.20568000"},{"name":"Berthierville","native":null,"lat":"46.08336000","lon":"-73.18245000"},{"name":"Blainville","native":null,"lat":"45.66678000","lon":"-73.88249000"},{"name":"Bois-des-Filion","native":null,"lat":"45.66678000","lon":"-73.74918000"},{"name":"Boisbriand","native":null,"lat":"45.61678000","lon":"-73.83249000"},{"name":"Bonaventure","native":null,"lat":"48.04573000","lon":"-65.49259000"},{"name":"Boucherville","native":null,"lat":"45.59104000","lon":"-73.43605000"},{"name":"Breakeyville","native":null,"lat":"46.68037000","lon":"-71.22327000"},{"name":"Bromont","native":null,"lat":"45.31678000","lon":"-72.64912000"},{"name":"Brossard","native":null,"lat":"45.45008000","lon":"-73.46583000"},{"name":"Brownsburg-Chatham","native":null,"lat":"45.68342000","lon":"-74.41590000"},{"name":"Buckingham","native":null,"lat":"45.58563000","lon":"-75.42080000"},{"name":"Cabano","native":null,"lat":"47.68065000","lon":"-68.87810000"},{"name":"Cacouna","native":null,"lat":"47.91657000","lon":"-69.50054000"},{"name":"Candiac","native":null,"lat":"45.38338000","lon":"-73.51587000"},{"name":"Cantley","native":null,"lat":"45.56680000","lon":"-75.78265000"},{"name":"Cap-Chat","native":null,"lat":"49.10009000","lon":"-66.68212000"},{"name":"Cap-Santé","native":null,"lat":"46.67159000","lon":"-71.78812000"},{"name":"Capitale-Nationale","native":null,"lat":"47.37600000","lon":"-71.12337000"},{"name":"Carignan","native":null,"lat":"45.45008000","lon":"-73.29916000"},{"name":"Carleton","native":null,"lat":"48.09838000","lon":"-66.10036000"},{"name":"Carleton-sur-Mer","native":null,"lat":"48.10749000","lon":"-66.12800000"},{"name":"Centre-du-Québec","native":null,"lat":"46.01985000","lon":"-71.98242000"},{"name":"Chambly","native":null,"lat":"45.45008000","lon":"-73.28246000"},{"name":"Chambord","native":null,"lat":"48.43339000","lon":"-72.06583000"},{"name":"Chandler","native":null,"lat":"48.34935000","lon":"-64.67926000"},{"name":"Chapais","native":null,"lat":"49.78344000","lon":"-74.84919000"},{"name":"Charlemagne","native":null,"lat":"45.71678000","lon":"-73.48247000"},{"name":"Château-Richer","native":null,"lat":"46.96031000","lon":"-71.03219000"},{"name":"Châteauguay","native":null,"lat":"45.38338000","lon":"-73.74919000"},{"name":"Chaudière-Appalaches","native":null,"lat":"46.55500000","lon":"-70.83080000"},{"name":"Chertsey","native":null,"lat":"46.07109000","lon":"-73.89095000"},{"name":"Chibougamau","native":null,"lat":"49.91684000","lon":"-74.36586000"},{"name":"Chute-aux-Outardes","native":null,"lat":"49.11679000","lon":"-68.39896000"},{"name":"Coaticook","native":null,"lat":"45.13339000","lon":"-71.79907000"},{"name":"Contrecoeur","native":null,"lat":"45.85008000","lon":"-73.23245000"},{"name":"Cookshire","native":null,"lat":"45.41536000","lon":"-71.62962000"},{"name":"Cookshire-Eaton","native":null,"lat":"45.41675000","lon":"-71.63240000"},{"name":"Côte-Nord","native":null,"lat":"50.86683000","lon":"-65.81541000"},{"name":"Côte-Saint-Luc","native":null,"lat":"45.46536000","lon":"-73.66585000"},{"name":"Coteau-du-Lac","native":null,"lat":"45.30008000","lon":"-74.18253000"},{"name":"Cowansville","native":null,"lat":"45.20008000","lon":"-72.74913000"},{"name":"Crabtree","native":null,"lat":"45.96677000","lon":"-73.46586000"},{"name":"Danville","native":null,"lat":"45.78337000","lon":"-72.01580000"},{"name":"Daveluyville","native":null,"lat":"46.20006000","lon":"-72.13239000"},{"name":"Delson","native":null,"lat":"45.36678000","lon":"-73.54917000"},{"name":"Deux-Montagnes","native":null,"lat":"45.53455000","lon":"-73.90168000"},{"name":"Disraeli","native":null,"lat":"45.90007000","lon":"-71.34907000"},{"name":"Dolbeau-Mistassini","native":null,"lat":"48.87860000","lon":"-72.23142000"},{"name":"Dollard-Des Ormeaux","native":null,"lat":"45.49452000","lon":"-73.82419000"},{"name":"Donnacona","native":null,"lat":"46.68042000","lon":"-71.72390000"},{"name":"Dorval","native":null,"lat":"45.44730000","lon":"-73.75335000"},{"name":"Drummondville","native":null,"lat":"45.88336000","lon":"-72.48241000"},{"name":"Dunham","native":null,"lat":"45.13338000","lon":"-72.79913000"},{"name":"East Angus","native":null,"lat":"45.48338000","lon":"-71.66577000"},{"name":"East Broughton","native":null,"lat":"46.21358000","lon":"-71.07674000"},{"name":"Farnham","native":null,"lat":"45.28338000","lon":"-72.98244000"},{"name":"Ferme-Neuve","native":null,"lat":"46.70011000","lon":"-75.44929000"},{"name":"Fermont","native":null,"lat":"52.78345000","lon":"-67.08204000"},{"name":"Forestville","native":null,"lat":"48.73808000","lon":"-69.08478000"},{"name":"Fort-Coulonge","native":null,"lat":"45.85011000","lon":"-76.73272000"},{"name":"Fossambault-sur-le-Lac","native":null,"lat":"46.87662000","lon":"-71.61541000"},{"name":"Franklin","native":null,"lat":"45.03338000","lon":"-73.91591000"},{"name":"Gaspé","native":null,"lat":"48.83341000","lon":"-64.48194000"},{"name":"Gaspésie-Îles-de-la-Madeleine","native":null,"lat":"48.87555000","lon":"-65.40710000"},{"name":"Gatineau","native":null,"lat":"45.47723000","lon":"-75.70164000"},{"name":"Godefroy","native":null,"lat":"51.75012000","lon":"-68.08213000"},{"name":"Granby","native":null,"lat":"45.40008000","lon":"-72.73243000"},{"name":"Hampstead","native":null,"lat":"45.48064000","lon":"-73.66307000"},{"name":"Hauterive","native":null,"lat":"49.19572000","lon":"-68.25813000"},{"name":"Havre-Saint-Pierre","native":null,"lat":"50.24342000","lon":"-63.60264000"},{"name":"Hérouxville","native":null,"lat":"46.66617000","lon":"-72.62512000"},{"name":"Hudson","native":null,"lat":"45.45008000","lon":"-74.14922000"},{"name":"Huntingdon","native":null,"lat":"45.08339000","lon":"-74.16593000"},{"name":"Joliette","native":null,"lat":"46.01640000","lon":"-73.42360000"},{"name":"Jonquière","native":null,"lat":"48.41648000","lon":"-71.24884000"},{"name":"Kingsey Falls","native":null,"lat":"45.85007000","lon":"-72.06580000"},{"name":"Kirkland","native":null,"lat":"45.45008000","lon":"-73.86586000"},{"name":"L'Ancienne-Lorette","native":null,"lat":"46.79392000","lon":"-71.35191000"},{"name":"L'Ange-Gardien","native":null,"lat":"46.91976000","lon":"-71.08253000"},{"name":"L'Ascension-de-Notre-Seigneur","native":null,"lat":"48.68339000","lon":"-71.66580000"},{"name":"L'Assomption","native":null,"lat":"45.82318000","lon":"-73.42940000"},{"name":"L'Épiphanie","native":null,"lat":"45.85008000","lon":"-73.48246000"},{"name":"L'Île-Perrot","native":null,"lat":"45.38338000","lon":"-73.94920000"},{"name":"La Conception","native":null,"lat":"46.15009000","lon":"-74.69925000"},{"name":"La Haute-Saint-Charles","native":null,"lat":"46.89028000","lon":"-71.37222000"},{"name":"La Malbaie","native":null,"lat":"47.65400000","lon":"-70.15268000"},{"name":"La Minerve","native":null,"lat":"46.25009000","lon":"-74.93257000"},{"name":"La Pocatière","native":null,"lat":"47.36733000","lon":"-70.03484000"},{"name":"La Prairie","native":null,"lat":"45.41678000","lon":"-73.49917000"},{"name":"La Sarre","native":null,"lat":"48.80019000","lon":"-79.19964000"},{"name":"La Tuque","native":null,"lat":"47.43337000","lon":"-72.78240000"},{"name":"Labelle","native":null,"lat":"46.28339000","lon":"-74.73255000"},{"name":"Lac-Alouette","native":null,"lat":"45.81698000","lon":"-73.95920000"},{"name":"Lac-Brome","native":null,"lat":"45.21678000","lon":"-72.51581000"},{"name":"Lac-Connelly","native":null,"lat":"45.89788000","lon":"-73.97230000"},{"name":"Lac-Lapierre","native":null,"lat":"45.89837000","lon":"-73.77308000"},{"name":"Lac-Mégantic","native":null,"lat":"45.58338000","lon":"-70.88234000"},{"name":"Lac-Simon","native":null,"lat":"46.15699000","lon":"-74.74129000"},{"name":"Lachute","native":null,"lat":"45.65008000","lon":"-74.33253000"},{"name":"Lacolle","native":null,"lat":"45.08338000","lon":"-73.36585000"},{"name":"Lanoraie","native":null,"lat":"45.96677000","lon":"-73.21585000"},{"name":"Laval","native":null,"lat":"45.56995000","lon":"-73.69200000"},{"name":"Lavaltrie","native":null,"lat":"45.88338000","lon":"-73.28245000"},{"name":"Le Bic","native":null,"lat":"48.37549000","lon":"-68.69415000"},{"name":"le Plateau","native":null,"lat":"45.43514000","lon":"-75.78030000"},{"name":"Lebel-sur-Quévillon","native":null,"lat":"49.05018000","lon":"-76.98273000"},{"name":"Leblanc","native":null,"lat":"48.26683000","lon":"-74.34914000"},{"name":"Les Cèdres","native":null,"lat":"45.30008000","lon":"-74.04922000"},{"name":"Les Coteaux","native":null,"lat":"45.28338000","lon":"-74.23254000"},{"name":"Les Escoumins","native":null,"lat":"48.35191000","lon":"-69.40724000"},{"name":"Lévis","native":null,"lat":"46.80326000","lon":"-71.17793000"},{"name":"Linière","native":null,"lat":"46.00007000","lon":"-70.41572000"},{"name":"Longueuil","native":null,"lat":"45.53121000","lon":"-73.51806000"},{"name":"Lorraine","native":null,"lat":"45.68338000","lon":"-73.78249000"},{"name":"Louiseville","native":null,"lat":"46.25594000","lon":"-72.94145000"},{"name":"Luceville","native":null,"lat":"48.54498000","lon":"-68.39658000"},{"name":"Macamic","native":null,"lat":"48.75018000","lon":"-78.99962000"},{"name":"Magog","native":null,"lat":"45.26678000","lon":"-72.14909000"},{"name":"Malartic","native":null,"lat":"48.13348000","lon":"-78.13283000"},{"name":"Maliotenam","native":null,"lat":"50.21119000","lon":"-66.18164000"},{"name":"Manawan","native":null,"lat":"47.22029000","lon":"-74.38606000"},{"name":"Mandeville","native":null,"lat":"46.36677000","lon":"-73.34915000"},{"name":"Maniwaki","native":null,"lat":"46.38341000","lon":"-75.96605000"},{"name":"Maria","native":null,"lat":"48.17490000","lon":"-65.98595000"},{"name":"Marieville","native":null,"lat":"45.43338000","lon":"-73.16585000"},{"name":"Mascouche","native":null,"lat":"45.74965000","lon":"-73.59956000"},{"name":"Maskinongé","native":null,"lat":"46.22860000","lon":"-73.01917000"},{"name":"Matagami","native":null,"lat":"49.75018000","lon":"-77.63277000"},{"name":"Matane","native":null,"lat":"48.82857000","lon":"-67.52197000"},{"name":"Mauricie","native":null,"lat":"47.55009000","lon":"-73.41583000"},{"name":"Melocheville","native":null,"lat":"45.31726000","lon":"-73.93710000"},{"name":"Mercier","native":null,"lat":"45.31678000","lon":"-73.74919000"},{"name":"Métabetchouan","native":null,"lat":"48.36679000","lon":"-72.01583000"},{"name":"Metabetchouan-Lac-a-la-Croix","native":null,"lat":"48.41000000","lon":"-71.78000000"},{"name":"Mirabel","native":null,"lat":"45.65008000","lon":"-74.08251000"},{"name":"Mistissini","native":null,"lat":"50.41667000","lon":"-73.88333000"},{"name":"Mont-Joli","native":null,"lat":"48.58388000","lon":"-68.19214000"},{"name":"Mont-Laurier","native":null,"lat":"46.55011000","lon":"-75.49930000"},{"name":"Mont-Royal","native":null,"lat":"45.51675000","lon":"-73.64918000"},{"name":"Mont-Saint-Grégoire","native":null,"lat":"45.33338000","lon":"-73.16585000"},{"name":"Mont-Saint-Hilaire","native":null,"lat":"45.56515000","lon":"-73.18680000"},{"name":"Mont-Tremblant","native":null,"lat":"46.21274000","lon":"-74.58438000"},{"name":"Montmagny","native":null,"lat":"46.98043000","lon":"-70.55493000"},{"name":"Montréal","native":null,"lat":"45.50008000","lon":"-73.68248000"},{"name":"Montréal-Est","native":null,"lat":"45.63202000","lon":"-73.50750000"},{"name":"Montréal-Ouest","native":null,"lat":"45.45286000","lon":"-73.64918000"},{"name":"Morin-Heights","native":null,"lat":"45.90009000","lon":"-74.24922000"},{"name":"Napierville","native":null,"lat":"45.18648000","lon":"-73.40468000"},{"name":"Neuville","native":null,"lat":"46.69823000","lon":"-71.58275000"},{"name":"New Carlisle","native":null,"lat":"48.00956000","lon":"-65.33621000"},{"name":"New-Richmond","native":null,"lat":"48.16059000","lon":"-65.85823000"},{"name":"Nicolet","native":null,"lat":"46.21676000","lon":"-72.61582000"},{"name":"Nord-du-Québec","native":null,"lat":"51.96200000","lon":"-74.89610000"},{"name":"Normandin","native":null,"lat":"48.83328000","lon":"-72.53209000"},{"name":"Notre-Dame-de-Grâce","native":null,"lat":"45.47675000","lon":"-73.61432000"},{"name":"Notre-Dame-de-l'Île-Perrot","native":null,"lat":"45.36678000","lon":"-73.93250000"},{"name":"Notre-Dame-des-Prairies","native":null,"lat":"46.05007000","lon":"-73.43245000"},{"name":"Notre-Dame-du-Lac","native":null,"lat":"46.75012000","lon":"-79.04961000"},{"name":"Notre-Dame-du-Mont-Carmel","native":null,"lat":"46.01680000","lon":"-75.08259000"},{"name":"Oka","native":null,"lat":"45.46489000","lon":"-74.08892000"},{"name":"Ormstown","native":null,"lat":"45.13338000","lon":"-73.99922000"},{"name":"Otterburn Park","native":null,"lat":"45.53338000","lon":"-73.21585000"},{"name":"Outaouais","native":null,"lat":"46.26681000","lon":"-76.31606000"},{"name":"Papineauville","native":null,"lat":"45.61680000","lon":"-75.01599000"},{"name":"Parc-Boutin","native":null,"lat":"45.29209000","lon":"-73.26154000"},{"name":"Piedmont","native":null,"lat":"45.90008000","lon":"-74.13251000"},{"name":"Pierreville","native":null,"lat":"46.07034000","lon":"-72.81125000"},{"name":"Pincourt","native":null,"lat":"45.38338000","lon":"-73.98250000"},{"name":"Plessisville","native":null,"lat":"46.21856000","lon":"-71.76201000"},{"name":"Pohénégamook","native":null,"lat":"47.46315000","lon":"-69.22666000"},{"name":"Pointe-Calumet","native":null,"lat":"45.50008000","lon":"-73.96590000"},{"name":"Pointe-Claire","native":null,"lat":"45.44868000","lon":"-73.81669000"},{"name":"Pointe-du-Lac","native":null,"lat":"48.50009000","lon":"-71.78241000"},{"name":"Pont Rouge","native":null,"lat":"48.88332000","lon":"-72.08247000"},{"name":"Pont-Rouge","native":null,"lat":"46.75468000","lon":"-71.69566000"},{"name":"Port-Cartier","native":null,"lat":"50.03339000","lon":"-66.86545000"},{"name":"Portneuf","native":null,"lat":"46.69058000","lon":"-71.89011000"},{"name":"Prévost","native":null,"lat":"45.86678000","lon":"-74.08251000"},{"name":"Princeville","native":null,"lat":"46.17163000","lon":"-71.87462000"},{"name":"Québec","native":null,"lat":"46.81228000","lon":"-71.21454000"},{"name":"Rawdon","native":null,"lat":"46.05007000","lon":"-73.71587000"},{"name":"Repentigny","native":null,"lat":"45.74222000","lon":"-73.45008000"},{"name":"Richelieu","native":null,"lat":"45.44336000","lon":"-73.24602000"},{"name":"Richmond","native":null,"lat":"45.66677000","lon":"-72.14910000"},{"name":"Rigaud","native":null,"lat":"45.47927000","lon":"-74.30238000"},{"name":"Rimouski","native":null,"lat":"48.44879000","lon":"-68.52396000"},{"name":"Rivière-du-Loup","native":null,"lat":"47.82699000","lon":"-69.54243000"},{"name":"Rivière-Rouge","native":null,"lat":"46.41679000","lon":"-74.86596000"},{"name":"Roberval","native":null,"lat":"48.51680000","lon":"-72.23244000"},{"name":"Rock Forest","native":null,"lat":"45.35699000","lon":"-71.99676000"},{"name":"Rosemère","native":null,"lat":"45.63338000","lon":"-73.79919000"},{"name":"Rougemont","native":null,"lat":"45.43338000","lon":"-73.04914000"},{"name":"Rouyn-Noranda","native":null,"lat":"48.23656000","lon":"-79.02311000"},{"name":"Sacré-Coeur","native":null,"lat":"48.22970000","lon":"-69.80061000"},{"name":"Saguenay","native":null,"lat":"48.41675000","lon":"-71.06573000"},{"name":"Saint-Adolphe-d'Howard","native":null,"lat":"45.96679000","lon":"-74.33253000"},{"name":"Saint-Alexandre","native":null,"lat":"45.50010000","lon":"-75.74935000"},{"name":"Saint-Amable","native":null,"lat":"45.65008000","lon":"-73.29916000"},{"name":"Saint-Ambroise","native":null,"lat":"48.55009000","lon":"-71.33238000"},{"name":"Saint-André-Avellin","native":null,"lat":"45.71680000","lon":"-75.06599000"},{"name":"Saint-Anselme","native":null,"lat":"46.62922000","lon":"-70.97340000"},{"name":"Saint-Antoine-de-Tilly","native":null,"lat":"46.66346000","lon":"-71.57335000"},{"name":"Saint-Augustin","native":null,"lat":"51.22602000","lon":"-58.65017000"},{"name":"Saint-Augustin-de-Desmaures","native":null,"lat":"46.74064000","lon":"-71.45131000"},{"name":"Saint-Barnabé-Sud","native":null,"lat":"45.72977000","lon":"-72.92244000"},{"name":"Saint-Basile-le-Grand","native":null,"lat":"45.53338000","lon":"-73.28246000"},{"name":"Saint-Boniface","native":null,"lat":"46.50011000","lon":"-75.98264000"},{"name":"Saint-Bruno","native":null,"lat":"48.46679000","lon":"-71.64910000"},{"name":"Saint-Bruno-de-Guigues","native":null,"lat":"47.46685000","lon":"-79.43296000"},{"name":"Saint-Bruno-de-Montarville","native":null,"lat":"45.53341000","lon":"-73.34916000"},{"name":"Saint-Canut","native":null,"lat":"45.71502000","lon":"-74.08376000"},{"name":"Saint-Césaire","native":null,"lat":"45.41678000","lon":"-72.99914000"},{"name":"Saint-Charles","native":null,"lat":"45.70288000","lon":"-73.55417000"},{"name":"Saint-Côme-Linière","native":null,"lat":"46.06677000","lon":"-70.51573000"},{"name":"Saint-Constant","native":null,"lat":"45.36678000","lon":"-73.56588000"},{"name":"Saint-Cyrille-de-Wendover","native":null,"lat":"45.93336000","lon":"-72.43241000"},{"name":"Saint-Damase","native":null,"lat":"45.53341000","lon":"-72.99914000"},{"name":"Saint-Denis-sur-Richelieu","native":null,"lat":"45.78338000","lon":"-73.14915000"},{"name":"Saint-Donat-de-Montcalm","native":null,"lat":"46.31868000","lon":"-74.22171000"},{"name":"Saint-Édouard","native":null,"lat":"45.23338000","lon":"-73.51588000"},{"name":"Saint-Elzéar","native":null,"lat":"45.60338000","lon":"-73.72698000"},{"name":"Saint-Éphrem-de-Beauce","native":null,"lat":"46.06677000","lon":"-70.94905000"},{"name":"Saint-Eustache","native":null,"lat":"45.56500000","lon":"-73.90554000"},{"name":"Saint-Félicien","native":null,"lat":"48.65007000","lon":"-72.44906000"},{"name":"Saint-Félix-de-Valois","native":null,"lat":"46.16977000","lon":"-73.42525000"},{"name":"Saint-Gabriel","native":null,"lat":"46.30007000","lon":"-73.38245000"},{"name":"Saint-Gédéon","native":null,"lat":"48.50009000","lon":"-71.76581000"},{"name":"Saint-Georges","native":null,"lat":"46.11353000","lon":"-70.66526000"},{"name":"Saint-Germain-de-Grantham","native":null,"lat":"45.83337000","lon":"-72.56582000"},{"name":"Saint-Henri","native":null,"lat":"46.69314000","lon":"-71.06927000"},{"name":"Saint-Hippolyte","native":null,"lat":"45.93338000","lon":"-74.01590000"},{"name":"Saint-Honoré","native":null,"lat":"48.53338000","lon":"-71.08236000"},{"name":"Saint-Hyacinthe","native":null,"lat":"45.63076000","lon":"-72.95699000"},{"name":"Saint-Isidore","native":null,"lat":"47.43345000","lon":"-79.29965000"},{"name":"Saint-Jacques-le-Mineur","native":null,"lat":"45.28338000","lon":"-73.41587000"},{"name":"Saint-Jean-Baptiste","native":null,"lat":"45.38060000","lon":"-74.01210000"},{"name":"Saint-Jean-sur-Richelieu","native":null,"lat":"45.30713000","lon":"-73.26259000"},{"name":"Saint-Jérôme","native":null,"lat":"45.78036000","lon":"-74.00365000"},{"name":"Saint-Joseph","native":null,"lat":"45.95817000","lon":"-73.22025000"},{"name":"Saint-Joseph-de-Beauce","native":null,"lat":"46.30000000","lon":"-70.86667000"},{"name":"Saint-Joseph-de-Coleraine","native":null,"lat":"45.96677000","lon":"-71.36577000"},{"name":"Saint-Joseph-du-Lac","native":null,"lat":"45.53338000","lon":"-73.99920000"},{"name":"Saint-Lambert-de-Lauzon","native":null,"lat":"46.58624000","lon":"-71.20892000"},{"name":"Saint-Laurent","native":null,"lat":"45.50008000","lon":"-73.66585000"},{"name":"Saint-Lazare","native":null,"lat":"45.40008000","lon":"-74.13256000"},{"name":"Saint-Léonard","native":null,"lat":"45.58773000","lon":"-73.59501000"},{"name":"Saint-Léonard-d'Aston","native":null,"lat":"46.10006000","lon":"-72.36580000"},{"name":"Saint-Liboire","native":null,"lat":"45.65068000","lon":"-72.76348000"},{"name":"Saint-Lin-Laurentides","native":null,"lat":"45.85008000","lon":"-73.76588000"},{"name":"Saint-Marc-des-Carrières","native":null,"lat":"46.68335000","lon":"-72.04910000"},{"name":"Saint-Mathieu","native":null,"lat":"45.31678000","lon":"-73.51587000"},{"name":"Saint-Michel","native":null,"lat":"45.56758000","lon":"-73.62168000"},{"name":"Saint-Michel-des-Saints","native":null,"lat":"46.67702000","lon":"-73.91881000"},{"name":"Saint-Nazaire","native":null,"lat":"48.58944000","lon":"-71.55247000"},{"name":"Saint-Norbert","native":null,"lat":"46.16949000","lon":"-73.31494000"},{"name":"Saint-Pacôme","native":null,"lat":"47.40457000","lon":"-69.95025000"},{"name":"Saint-Pascal","native":null,"lat":"47.51813000","lon":"-69.80301000"},{"name":"Saint-Philippe-de-La Prairie","native":null,"lat":"45.35723000","lon":"-73.47706000"},{"name":"Saint-Pie","native":null,"lat":"45.50277000","lon":"-72.90890000"},{"name":"Saint-Pierre-les-Becquets","native":null,"lat":"46.50005000","lon":"-72.19910000"},{"name":"Saint-Prime","native":null,"lat":"48.58339000","lon":"-72.33244000"},{"name":"Saint-Raphaël","native":null,"lat":"46.25011000","lon":"-76.01605000"},{"name":"Saint-Raymond","native":null,"lat":"45.46698000","lon":"-73.60948000"},{"name":"Saint-Rémi","native":null,"lat":"45.26678000","lon":"-73.61588000"},{"name":"Saint-Rémi-de-Tingwick","native":null,"lat":"45.86677000","lon":"-71.81581000"},{"name":"Saint-Sauveur","native":null,"lat":"45.88686000","lon":"-74.17943000"},{"name":"Saint-Sauveur-des-Monts","native":null,"lat":"45.90008000","lon":"-74.16591000"},{"name":"Saint-Siméon","native":null,"lat":"47.84431000","lon":"-69.87837000"},{"name":"Saint-Thomas","native":null,"lat":"46.01677000","lon":"-73.34915000"},{"name":"Saint-Tite","native":null,"lat":"46.73336000","lon":"-72.56581000"},{"name":"Saint-Victor","native":null,"lat":"45.61118000","lon":"-73.51527000"},{"name":"Saint-Zotique","native":null,"lat":"45.25009000","lon":"-74.24924000"},{"name":"Sainte Catherine de la Jacques Cartier","native":null,"lat":"46.85244000","lon":"-71.62056000"},{"name":"Sainte-Adèle","native":null,"lat":"45.95008000","lon":"-74.13251000"},{"name":"Sainte-Agathe-des-Monts","native":null,"lat":"46.05009000","lon":"-74.28252000"},{"name":"Sainte-Anne-de-Bellevue","native":null,"lat":"45.40618000","lon":"-73.94560000"},{"name":"Sainte-Anne-des-Monts","native":null,"lat":"49.12402000","lon":"-66.49243000"},{"name":"Sainte-Anne-des-Plaines","native":null,"lat":"45.76468000","lon":"-73.81156000"},{"name":"Sainte-Béatrix","native":null,"lat":"46.20007000","lon":"-73.61587000"},{"name":"Sainte-Catherine","native":null,"lat":"45.40008000","lon":"-73.58248000"},{"name":"Sainte-Croix","native":null,"lat":"45.13368000","lon":"-72.80083000"},{"name":"Sainte-Élisabeth","native":null,"lat":"46.09502000","lon":"-73.35176000"},{"name":"Sainte-Julie","native":null,"lat":"45.58338000","lon":"-73.33246000"},{"name":"Sainte-Julienne","native":null,"lat":"45.96677000","lon":"-73.71587000"},{"name":"Sainte-Madeleine","native":null,"lat":"45.60008000","lon":"-73.09914000"},{"name":"Sainte-Marie","native":null,"lat":"46.43401000","lon":"-71.01168000"},{"name":"Sainte-Marthe-sur-le-Lac","native":null,"lat":"45.53338000","lon":"-73.93250000"},{"name":"Sainte-Martine","native":null,"lat":"45.25008000","lon":"-73.79919000"},{"name":"Sainte-Sophie","native":null,"lat":"45.81678000","lon":"-73.89919000"},{"name":"Sainte-Thècle","native":null,"lat":"46.81676000","lon":"-72.49911000"},{"name":"Sainte-Thérèse","native":null,"lat":"45.63922000","lon":"-73.82757000"},{"name":"Salaberry-de-Valleyfield","native":null,"lat":"45.25008000","lon":"-74.13253000"},{"name":"Salluit","native":null,"lat":"62.20411000","lon":"-75.64344000"},{"name":"Senneterre","native":null,"lat":"48.39302000","lon":"-77.23951000"},{"name":"Sept-Îles","native":null,"lat":"50.20011000","lon":"-66.38208000"},{"name":"Shannon","native":null,"lat":"46.88026000","lon":"-71.51464000"},{"name":"Shawinigan","native":null,"lat":"46.56675000","lon":"-72.74913000"},{"name":"Shawville","native":null,"lat":"45.60011000","lon":"-76.48270000"},{"name":"Sherbrooke","native":null,"lat":"45.40008000","lon":"-71.89908000"},{"name":"Sorel-Tracy","native":null,"lat":"46.04178000","lon":"-73.11358000"},{"name":"St-Jean-Port-Joli","native":null,"lat":"47.21418000","lon":"-70.26969000"},{"name":"Sutton","native":null,"lat":"45.10008000","lon":"-72.61582000"},{"name":"Témiscaming","native":null,"lat":"46.72122000","lon":"-79.09712000"},{"name":"Terrasse-des-Pins","native":null,"lat":"45.86449000","lon":"-74.06627000"},{"name":"Terrebonne","native":null,"lat":"45.70004000","lon":"-73.64732000"},{"name":"Thetford-Mines","native":null,"lat":"46.09371000","lon":"-71.30539000"},{"name":"Thurso","native":null,"lat":"45.60010000","lon":"-75.24931000"},{"name":"Trois-Rivières","native":null,"lat":"46.34515000","lon":"-72.54770000"},{"name":"Val-d'Or","native":null,"lat":"48.09740000","lon":"-77.79737000"},{"name":"Val-David","native":null,"lat":"46.03338000","lon":"-74.21592000"},{"name":"Val-des-Monts","native":null,"lat":"45.65010000","lon":"-75.66604000"},{"name":"Val-Morin","native":null,"lat":"46.00008000","lon":"-74.18251000"},{"name":"Valcourt","native":null,"lat":"45.50008000","lon":"-72.31581000"},{"name":"Vallée-Jonction","native":null,"lat":"46.37441000","lon":"-70.91881000"},{"name":"Varennes","native":null,"lat":"45.68338000","lon":"-73.43246000"},{"name":"Vaudreuil-Dorion","native":null,"lat":"45.40008000","lon":"-74.03251000"},{"name":"Venise-en-Québec","native":null,"lat":"45.08338000","lon":"-73.13245000"},{"name":"Verchères","native":null,"lat":"45.78338000","lon":"-73.34916000"},{"name":"Victoriaville","native":null,"lat":"46.05007000","lon":"-71.96579000"},{"name":"Ville-Marie","native":null,"lat":"47.33345000","lon":"-79.43297000"},{"name":"Wakefield","native":null,"lat":"45.66680000","lon":"-75.83265000"},{"name":"Warwick","native":null,"lat":"45.95007000","lon":"-71.98240000"},{"name":"Waskaganish","native":null,"lat":"51.48333000","lon":"-78.75000000"},{"name":"Waswanipi","native":null,"lat":"49.73346000","lon":"-76.16604000"},{"name":"Waterloo","native":null,"lat":"45.35008000","lon":"-72.51582000"},{"name":"Weedon Centre","native":null,"lat":"45.70802000","lon":"-71.45986000"},{"name":"Westmount","native":null,"lat":"45.48341000","lon":"-73.59918000"},{"name":"Weymontachie","native":null,"lat":"47.89940000","lon":"-73.77720000"},{"name":"Windsor","native":null,"lat":"45.56678000","lon":"-71.99909000"},{"name":"Yamachiche","native":null,"lat":"46.26676000","lon":"-72.83243000"}]},{"name":"Saskatchewan","native":null,"cities":[{"name":"Assiniboia","native":null,"lat":"49.63336000","lon":"-105.98446000"},{"name":"Biggar","native":null,"lat":"52.06680000","lon":"-108.00135000"},{"name":"Canora","native":null,"lat":"51.63328000","lon":"-102.43425000"},{"name":"Carlyle","native":null,"lat":"49.63334000","lon":"-102.26765000"},{"name":"Dalmeny","native":null,"lat":"52.33339000","lon":"-106.76792000"},{"name":"Esterhazy","native":null,"lat":"50.65001000","lon":"-102.08426000"},{"name":"Estevan","native":null,"lat":"49.13337000","lon":"-102.98422000"},{"name":"Foam Lake","native":null,"lat":"51.65001000","lon":"-103.53431000"},{"name":"Gravelbourg","native":null,"lat":"49.88336000","lon":"-106.55122000"},{"name":"Hudson Bay","native":null,"lat":"52.85003000","lon":"-102.38425000"},{"name":"Humboldt","native":null,"lat":"52.20005000","lon":"-105.12550000"},{"name":"Indian Head","native":null,"lat":"50.53336000","lon":"-103.66775000"},{"name":"Kamsack","native":null,"lat":"51.56668000","lon":"-101.90093000"},{"name":"Kerrobert","native":null,"lat":"51.91682000","lon":"-109.13479000"},{"name":"Kindersley","native":null,"lat":"51.46681000","lon":"-109.16818000"},{"name":"La Ronge","native":null,"lat":"55.10013000","lon":"-105.28422000"},{"name":"Langenburg","native":null,"lat":"50.84999000","lon":"-101.71763000"},{"name":"Langham","native":null,"lat":"52.36680000","lon":"-106.96793000"},{"name":"Lanigan","native":null,"lat":"51.85006000","lon":"-105.03443000"},{"name":"Lumsden","native":null,"lat":"50.65009000","lon":"-104.86783000"},{"name":"Macklin","native":null,"lat":"52.33344000","lon":"-109.93484000"},{"name":"Maple Creek","native":null,"lat":"49.91678000","lon":"-109.48481000"},{"name":"Martensville","native":null,"lat":"52.28339000","lon":"-106.66792000"},{"name":"Meadow Lake","native":null,"lat":"54.13348000","lon":"-108.43471000"},{"name":"Melfort","native":null,"lat":"52.86673000","lon":"-104.61768000"},{"name":"Melville","native":null,"lat":"50.91671000","lon":"-102.80099000"},{"name":"Moose Jaw","native":null,"lat":"50.40005000","lon":"-105.53445000"},{"name":"Moosomin","native":null,"lat":"50.13332000","lon":"-101.66766000"},{"name":"Nipawin","native":null,"lat":"53.36678000","lon":"-104.00092000"},{"name":"North Battleford","native":null,"lat":"52.77972000","lon":"-108.29670000"},{"name":"Outlook","native":null,"lat":"51.50008000","lon":"-107.05128000"},{"name":"Oxbow","native":null,"lat":"49.23335000","lon":"-102.16760000"},{"name":"Pelican Narrows","native":null,"lat":"55.16685000","lon":"-102.93410000"},{"name":"Pilot Butte","native":null,"lat":"50.46678000","lon":"-104.41778000"},{"name":"Preeceville","native":null,"lat":"51.94998000","lon":"-102.66766000"},{"name":"Prince Albert","native":null,"lat":"53.20008000","lon":"-105.76772000"},{"name":"Regina","native":null,"lat":"50.45008000","lon":"-104.61780000"},{"name":"Regina Beach","native":null,"lat":"50.78338000","lon":"-105.00112000"},{"name":"Rosetown","native":null,"lat":"51.55010000","lon":"-108.00136000"},{"name":"Rosthern","native":null,"lat":"52.66679000","lon":"-106.33446000"},{"name":"Saskatoon","native":null,"lat":"52.13238000","lon":"-106.66892000"},{"name":"Shaunavon","native":null,"lat":"49.65005000","lon":"-108.41810000"},{"name":"Shellbrook","native":null,"lat":"53.21679000","lon":"-106.40109000"},{"name":"Swift Current","native":null,"lat":"50.28337000","lon":"-107.80135000"},{"name":"Tisdale","native":null,"lat":"52.85002000","lon":"-104.05096000"},{"name":"Unity","native":null,"lat":"52.45014000","lon":"-109.16816000"},{"name":"Wadena","native":null,"lat":"51.94999000","lon":"-103.80102000"},{"name":"Warman","native":null,"lat":"52.31679000","lon":"-106.56791000"},{"name":"Watrous","native":null,"lat":"51.66677000","lon":"-105.46788000"},{"name":"Weyburn","native":null,"lat":"49.66675000","lon":"-103.85109000"},{"name":"White City","native":null,"lat":"50.43338000","lon":"-104.36778000"},{"name":"Wilkie","native":null,"lat":"52.41683000","lon":"-108.70142000"},{"name":"Wynyard","native":null,"lat":"51.76674000","lon":"-104.18436000"},{"name":"Yorkton","native":null,"lat":"51.21670000","lon":"-102.46766000"}]},{"name":"Yukon","native":null,"cities":[{"name":"Dawson City","native":null,"lat":"64.06013000","lon":"-139.43328000"},{"name":"Haines Junction","native":null,"lat":"60.75216000","lon":"-137.51082000"},{"name":"Watson Lake","native":null,"lat":"60.06349000","lon":"-128.70893000"},{"name":"Whitehorse","native":null,"lat":"60.71611000","lon":"-135.05375000"}]}]