[{"state":"Alberta","name":"Airdrie","lat":"51.30011000","lon":"-114.03528000"},
{"state":"Alberta","name":"Athabasca","lat":"54.71687000","lon":"-113.28537000"},
{"state":"Alberta","name":"Banff","lat":"51.17622000","lon":"-115.56982000"},
{"state":"Alberta","name":"Barrhead","lat":"54.13345000","lon":"-114.40211000"},
{"state":"Alberta","name":"Bassano","lat":"50.78342000","lon":"-112.46854000"},
{"state":"Alberta","name":"Beaumont","lat":"53.35013000","lon":"-113.41871000"},
{"state":"Alberta","name":"Beaverlodge","lat":"55.21664000","lon":"-119.43605000"},
{"state":"Alberta","name":"Black Diamond","lat":"50.70011000","lon":"-114.23530000"},
{"state":"Alberta","name":"Blackfalds","lat":"52.38342000","lon":"-113.78530000"},
{"state":"Alberta","name":"Bon Accord","lat":"53.83345000","lon":"-113.41872000"},
{"state":"Alberta","name":"Bonnyville","lat":"54.26684000","lon":"-110.73505000"},
{"state":"Alberta","name":"Bow Island","lat":"49.86676000","lon":"-111.36843000"},
{"state":"Alberta","name":"Brooks","lat":"50.58341000","lon":"-111.88509000"},
{"state":"Alberta","name":"Calgary","lat":"51.05011000","lon":"-114.08529000"},
{"state":"Alberta","name":"Calmar","lat":"53.26683000","lon":"-113.81874000"},
{"state":"Alberta","name":"Camrose","lat":"53.01684000","lon":"-112.83525000"},
{"state":"Alberta","name":"Canmore","lat":"51.08335000","lon":"-115.35206000"},
{"state":"Alberta","name":"Cardston","lat":"49.19998000","lon":"-113.30190000"},
{"state":"Alberta","name":"Carstairs","lat":"51.56681000","lon":"-114.10200000"},
{"state":"Alberta","name":"Chestermere","lat":"51.03341000","lon":"-113.81867000"},
{"state":"Alberta","name":"Claresholm","lat":"50.03332000","lon":"-113.58524000"},
{"state":"Alberta","name":"Coaldale","lat":"49.71670000","lon":"-112.61854000"},
{"state":"Alberta","name":"Coalhurst","lat":"49.74640000","lon":"-112.93246000"},
{"state":"Alberta","name":"Cochrane","lat":"51.18341000","lon":"-114.46871000"},
{"state":"Alberta","name":"Cold Lake","lat":"54.46525000","lon":"-110.18154000"},
{"state":"Alberta","name":"Crossfield","lat":"51.43341000","lon":"-114.03528000"},
{"state":"Alberta","name":"Devon","lat":"53.36683000","lon":"-113.73533000"},
{"state":"Alberta","name":"Didsbury","lat":"51.66681000","lon":"-114.13529000"},
{"state":"Alberta","name":"Drayton Valley","lat":"53.21682000","lon":"-114.98544000"},
{"state":"Alberta","name":"Edmonton","lat":"53.55014000","lon":"-113.46871000"},
{"state":"Alberta","name":"Edson","lat":"53.58345000","lon":"-116.43559000"},
{"state":"Alberta","name":"Elk Point","lat":"53.90017000","lon":"-110.90170000"},
{"state":"Alberta","name":"Fairview","lat":"56.06675000","lon":"-118.38606000"},
{"state":"Alberta","name":"Falher","lat":"55.73339000","lon":"-117.20262000"},
{"state":"Alberta","name":"Fort Macleod","lat":"49.71671000","lon":"-113.41857000"},
{"state":"Alberta","name":"Fort McMurray","lat":"56.72676000","lon":"-111.38103000"},
{"state":"Alberta","name":"Fort Saskatchewan","lat":"53.71684000","lon":"-113.21870000"},
{"state":"Alberta","name":"Fox Creek","lat":"54.40007000","lon":"-116.80238000"},
{"state":"Alberta","name":"Gibbons","lat":"53.83345000","lon":"-113.33531000"},
{"state":"Alberta","name":"Grand Centre","lat":"54.41628000","lon":"-110.21304000"},
{"state":"Alberta","name":"Grande Cache","lat":"53.88335000","lon":"-119.13585000"},
{"state":"Alberta","name":"Grande Prairie","lat":"55.16667000","lon":"-118.80271000"},
{"state":"Alberta","name":"Grimshaw","lat":"56.18339000","lon":"-117.60270000"},
{"state":"Alberta","name":"Hanna","lat":"51.63343000","lon":"-111.90181000"},
{"state":"Alberta","name":"Heritage Pointe","lat":"50.84213000","lon":"-114.00493000"},
{"state":"Alberta","name":"High Level","lat":"58.51688000","lon":"-117.13605000"},
{"state":"Alberta","name":"High Prairie","lat":"55.43340000","lon":"-116.48580000"},
{"state":"Alberta","name":"High River","lat":"50.58341000","lon":"-113.86867000"},
{"state":"Alberta","name":"Hinton","lat":"53.40009000","lon":"-117.58567000"},
{"state":"Alberta","name":"Irricana","lat":"51.32372000","lon":"-113.60475000"},
{"state":"Alberta","name":"Jasper Park Lodge","lat":"52.88633000","lon":"-118.05625000"},
{"state":"Alberta","name":"Killam","lat":"52.78344000","lon":"-111.85175000"},
{"state":"Alberta","name":"Lac La Biche","lat":"54.76690000","lon":"-111.96861000"},
{"state":"Alberta","name":"Lacombe","lat":"52.46681000","lon":"-113.73530000"},
{"state":"Alberta","name":"Lamont","lat":"53.76686000","lon":"-112.80195000"},
{"state":"Alberta","name":"Larkspur","lat":"53.47942000","lon":"-113.38142000"},
{"state":"Alberta","name":"Laurel","lat":"53.44667000","lon":"-113.38197000"},
{"state":"Alberta","name":"Leduc","lat":"53.26682000","lon":"-113.55201000"},
{"state":"Alberta","name":"Lethbridge","lat":"49.69999000","lon":"-112.81856000"},
{"state":"Alberta","name":"Lloydminster","lat":"53.27237000","lon":"-110.02256000"},
{"state":"Alberta","name":"Magrath","lat":"49.41668000","lon":"-112.86856000"},
{"state":"Alberta","name":"Manning","lat":"56.91683000","lon":"-117.61945000"},
{"state":"Alberta","name":"Mannville","lat":"53.33764000","lon":"-111.17750000"},
{"state":"Alberta","name":"Maple Ridge","lat":"53.50172000","lon":"-113.36274000"},
{"state":"Alberta","name":"Mayerthorpe","lat":"53.95015000","lon":"-115.13547000"},
{"state":"Alberta","name":"Medicine Hat","lat":"50.03928000","lon":"-110.67661000"},
{"state":"Alberta","name":"Mill Woods Town Centre","lat":"53.45639000","lon":"-113.42751000"},
{"state":"Alberta","name":"Millet","lat":"53.10013000","lon":"-113.46870000"},
{"state":"Alberta","name":"Morinville","lat":"53.80014000","lon":"-113.65203000"},
{"state":"Alberta","name":"Nanton","lat":"50.35008000","lon":"-113.76866000"},
{"state":"Alberta","name":"Okotoks","lat":"50.72885000","lon":"-113.98281000"},
{"state":"Alberta","name":"Olds","lat":"51.78341000","lon":"-114.10199000"},
{"state":"Alberta","name":"Peace River","lat":"56.23715000","lon":"-117.29176000"},
{"state":"Alberta","name":"Penhold","lat":"52.13342000","lon":"-113.86870000"},
{"state":"Alberta","name":"Picture Butte","lat":"49.88330000","lon":"-112.78516000"},
{"state":"Alberta","name":"Pincher Creek","lat":"49.48328000","lon":"-113.95195000"},
{"state":"Alberta","name":"Ponoka","lat":"52.67680000","lon":"-113.58147000"},
{"state":"Alberta","name":"Provost","lat":"52.35014000","lon":"-110.26828000"},
{"state":"Alberta","name":"Raymond","lat":"49.44998000","lon":"-112.65185000"},
{"state":"Alberta","name":"Red Deer","lat":"52.26682000","lon":"-113.80200000"},
{"state":"Alberta","name":"Rideau Park","lat":"53.47899000","lon":"-113.50470000"},
{"state":"Alberta","name":"Rimbey","lat":"52.63340000","lon":"-114.23532000"},
{"state":"Alberta","name":"Rocky Mountain House","lat":"52.36683000","lon":"-114.91880000"},
{"state":"Alberta","name":"Sexsmith","lat":"55.34998000","lon":"-118.78602000"},
{"state":"Alberta","name":"Sherwood Park","lat":"53.51684000","lon":"-113.31870000"},
{"state":"Alberta","name":"Silver Berry","lat":"53.45787000","lon":"-113.38170000"},
{"state":"Alberta","name":"Slave Lake","lat":"55.28344000","lon":"-114.76896000"},
{"state":"Alberta","name":"Smoky Lake","lat":"54.11687000","lon":"-112.46863000"},
{"state":"Alberta","name":"Spirit River","lat":"55.78327000","lon":"-118.83607000"},
{"state":"Alberta","name":"Springbrook","lat":"52.17920000","lon":"-113.87981000"},
{"state":"Alberta","name":"Spruce Grove","lat":"53.53344000","lon":"-113.91874000"},
{"state":"Alberta","name":"St. Albert","lat":"53.63344000","lon":"-113.63533000"},
{"state":"Alberta","name":"Stettler","lat":"52.31683000","lon":"-112.71861000"},
{"state":"Alberta","name":"Stony Plain","lat":"53.53343000","lon":"-114.00205000"},
{"state":"Alberta","name":"Strathmore","lat":"51.05011000","lon":"-113.38523000"},
{"state":"Alberta","name":"Sundre","lat":"51.80010000","lon":"-114.63532000"},
{"state":"Alberta","name":"Swan Hills","lat":"54.71681000","lon":"-115.40226000"},
{"state":"Alberta","name":"Sylvan Lake","lat":"52.31100000","lon":"-114.08375000"},
{"state":"Alberta","name":"Taber","lat":"49.78703000","lon":"-112.14603000"},
{"state":"Alberta","name":"Tamarack","lat":"53.46441000","lon":"-113.36235000"},
{"state":"Alberta","name":"Three Hills","lat":"51.70012000","lon":"-113.26863000"},
{"state":"Alberta","name":"Tofield","lat":"53.36684000","lon":"-112.66862000"},
{"state":"Alberta","name":"Two Hills","lat":"53.71686000","lon":"-111.75181000"},
{"state":"Alberta","name":"Valleyview","lat":"55.06673000","lon":"-117.28585000"},
{"state":"Alberta","name":"Vegreville","lat":"53.50015000","lon":"-112.05182000"},
{"state":"Alberta","name":"Vermilion","lat":"53.35409000","lon":"-110.85849000"},
{"state":"Alberta","name":"Viking","lat":"53.10014000","lon":"-111.76844000"},
{"state":"Alberta","name":"Vulcan","lat":"50.40008000","lon":"-113.25189000"},
{"state":"Alberta","name":"Wainwright","lat":"52.83482000","lon":"-110.85342000"},
{"state":"Alberta","name":"Wembley","lat":"55.14995000","lon":"-119.13602000"},
{"state":"Alberta","name":"Westlake","lat":"55.22228000","lon":"-118.80415000"},
{"state":"Alberta","name":"Westlock","lat":"54.15016000","lon":"-113.86876000"},
{"state":"Alberta","name":"Wetaskiwin","lat":"52.96683000","lon":"-113.36869000"},
{"state":"Alberta","name":"Whitecourt","lat":"54.15015000","lon":"-115.68548000"},
{"state":"Alberta","name":"Wild Rose","lat":"53.47080000","lon":"-113.38119000"},
{"state":"British Columbia","name":"Abbotsford","lat":"49.05798000","lon":"-122.25257000"},
{"state":"British Columbia","name":"Agassiz","lat":"49.23298000","lon":"-121.76926000"},
{"state":"British Columbia","name":"Aldergrove","lat":"49.05801000","lon":"-122.47087000"},
{"state":"British Columbia","name":"Aldergrove East","lat":"49.05593000","lon":"-122.42299000"},
{"state":"British Columbia","name":"Anmore","lat":"49.31637000","lon":"-122.85263000"},
{"state":"British Columbia","name":"Arbutus Ridge","lat":"49.24966000","lon":"-123.16934000"},
{"state":"British Columbia","name":"Armstrong","lat":"50.44979000","lon":"-119.20235000"},
{"state":"British Columbia","name":"Ashcroft","lat":"50.72372000","lon":"-121.28207000"},
{"state":"British Columbia","name":"Barrière","lat":"51.18308000","lon":"-120.11920000"},
{"state":"British Columbia","name":"Bowen Island","lat":"49.38470000","lon":"-123.33622000"},
{"state":"British Columbia","name":"Burnaby","lat":"49.26636000","lon":"-122.95263000"},
{"state":"British Columbia","name":"Burns Lake","lat":"54.22972000","lon":"-125.76084000"},
{"state":"British Columbia","name":"Cache Creek","lat":"50.81011000","lon":"-121.32460000"},
{"state":"British Columbia","name":"Campbell River","lat":"50.01634000","lon":"-125.24459000"},
{"state":"British Columbia","name":"Castlegar","lat":"49.32317000","lon":"-117.65831000"},
{"state":"British Columbia","name":"Cedar","lat":"49.11633000","lon":"-123.85270000"},
{"state":"British Columbia","name":"Central Coast Regional District","lat":"52.16638000","lon":"-127.00323000"},
{"state":"British Columbia","name":"Chase","lat":"50.81650000","lon":"-119.68571000"},
{"state":"British Columbia","name":"Chemainus","lat":"48.91633000","lon":"-123.71937000"},
{"state":"British Columbia","name":"Chetwynd","lat":"55.69988000","lon":"-121.63627000"},
{"state":"British Columbia","name":"Chilliwack","lat":"49.16638000","lon":"-121.95257000"},
{"state":"British Columbia","name":"Colwood","lat":"48.43293000","lon":"-123.48591000"},
{"state":"British Columbia","name":"Coombs","lat":"49.29963000","lon":"-124.41946000"},
{"state":"British Columbia","name":"Coquitlam","lat":"49.28460000","lon":"-122.78217000"},
{"state":"British Columbia","name":"Courtenay","lat":"49.68657000","lon":"-124.99360000"},
{"state":"British Columbia","name":"Cowichan Bay","lat":"48.73366000","lon":"-123.61739000"},
{"state":"British Columbia","name":"Cranbrook","lat":"49.49991000","lon":"-115.76879000"},
{"state":"British Columbia","name":"Creston","lat":"49.09987000","lon":"-116.50211000"},
{"state":"British Columbia","name":"Cumberland","lat":"49.61634000","lon":"-125.03613000"},
{"state":"British Columbia","name":"Dawson Creek","lat":"55.75984000","lon":"-120.24030000"},
{"state":"British Columbia","name":"Delta","lat":"49.14399000","lon":"-122.90680000"},
{"state":"British Columbia","name":"Denman Island","lat":"49.53294000","lon":"-124.81950000"},
{"state":"British Columbia","name":"Denman Island Trust Area","lat":"49.55189000","lon":"-124.79881000"},
{"state":"British Columbia","name":"Duck Lake","lat":"50.00880000","lon":"-119.39672000"},
{"state":"British Columbia","name":"Duncan","lat":"48.78293000","lon":"-123.70266000"},
{"state":"British Columbia","name":"East Wellington","lat":"49.17385000","lon":"-124.01745000"},
{"state":"British Columbia","name":"Elkford","lat":"50.05007000","lon":"-114.88540000"},
{"state":"British Columbia","name":"Ellison","lat":"49.93307000","lon":"-119.36907000"},
{"state":"British Columbia","name":"Enderby","lat":"50.54980000","lon":"-119.15234000"},
{"state":"British Columbia","name":"Fairwinds","lat":"49.27588000","lon":"-124.12782000"},
{"state":"British Columbia","name":"Fernie","lat":"49.49996000","lon":"-115.06871000"},
{"state":"British Columbia","name":"Fort Nelson","lat":"58.80533000","lon":"-122.70020000"},
{"state":"British Columbia","name":"Fort St. John","lat":"56.24988000","lon":"-120.85292000"},
{"state":"British Columbia","name":"Fraser Valley Regional District","lat":"49.58299000","lon":"-121.83587000"},
{"state":"British Columbia","name":"French Creek","lat":"49.34123000","lon":"-124.35541000"},
{"state":"British Columbia","name":"Fruitvale","lat":"49.11654000","lon":"-117.55222000"},
{"state":"British Columbia","name":"Gibsons","lat":"49.39539000","lon":"-123.50555000"},
{"state":"British Columbia","name":"Golden","lat":"51.29995000","lon":"-116.96890000"},
{"state":"British Columbia","name":"Grand Forks","lat":"49.03309000","lon":"-118.43560000"},
{"state":"British Columbia","name":"Hanceville","lat":"51.91922000","lon":"-123.04458000"},
{"state":"British Columbia","name":"Hope","lat":"49.38299000","lon":"-121.44144000"},
{"state":"British Columbia","name":"Hornby Island","lat":"49.53448000","lon":"-124.66923000"},
{"state":"British Columbia","name":"Houston","lat":"54.39976000","lon":"-126.67008000"},
{"state":"British Columbia","name":"Invermere","lat":"50.51666000","lon":"-116.03538000"},
{"state":"British Columbia","name":"Kamloops","lat":"50.66648000","lon":"-120.31920000"},
{"state":"British Columbia","name":"Kelowna","lat":"49.88307000","lon":"-119.48568000"},
{"state":"British Columbia","name":"Kimberley","lat":"49.67071000","lon":"-115.97760000"},
{"state":"British Columbia","name":"Kitimat","lat":"54.05244000","lon":"-128.65342000"},
{"state":"British Columbia","name":"Ladner","lat":"49.08938000","lon":"-123.08241000"},
{"state":"British Columbia","name":"Ladysmith","lat":"48.99016000","lon":"-123.81699000"},
{"state":"British Columbia","name":"Lake Cowichan","lat":"48.82495000","lon":"-124.05461000"},
{"state":"British Columbia","name":"Langford","lat":"48.44963000","lon":"-123.50261000"},
{"state":"British Columbia","name":"Langley","lat":"49.10107000","lon":"-122.65883000"},
{"state":"British Columbia","name":"Lillooet","lat":"50.68560000","lon":"-121.94200000"},
{"state":"British Columbia","name":"Lions Bay","lat":"49.45218000","lon":"-123.23760000"},
{"state":"British Columbia","name":"Logan Lake","lat":"50.49976000","lon":"-120.80253000"},
{"state":"British Columbia","name":"Lumby","lat":"50.24979000","lon":"-118.96904000"},
{"state":"British Columbia","name":"Mackenzie","lat":"55.33637000","lon":"-123.09374000"},
{"state":"British Columbia","name":"Maple Ridge","lat":"49.21939000","lon":"-122.60193000"},
{"state":"British Columbia","name":"Merritt","lat":"50.11225000","lon":"-120.79420000"},
{"state":"British Columbia","name":"Metchosin","lat":"48.38293000","lon":"-123.53591000"},
{"state":"British Columbia","name":"Metro Vancouver Regional District","lat":"49.33296000","lon":"-123.00264000"},
{"state":"British Columbia","name":"Mission","lat":"49.13298000","lon":"-122.30258000"},
{"state":"British Columbia","name":"Nakusp","lat":"50.24987000","lon":"-117.80226000"},
{"state":"British Columbia","name":"Nanaimo","lat":"49.16638000","lon":"-123.94003000"},
{"state":"British Columbia","name":"Nelson","lat":"49.49985000","lon":"-117.28553000"},
{"state":"British Columbia","name":"New Westminster","lat":"49.20678000","lon":"-122.91092000"},
{"state":"British Columbia","name":"North Cowichan","lat":"48.84133000","lon":"-123.68596000"},
{"state":"British Columbia","name":"North Oyster/Yellow Point","lat":"49.04807000","lon":"-123.83395000"},
{"state":"British Columbia","name":"North Saanich","lat":"48.66634000","lon":"-123.41933000"},
{"state":"British Columbia","name":"North Vancouver","lat":"49.31636000","lon":"-123.06934000"},
{"state":"British Columbia","name":"Oak Bay","lat":"48.44964000","lon":"-123.30260000"},
{"state":"British Columbia","name":"Okanagan","lat":"50.36386000","lon":"-119.34997000"},
{"state":"British Columbia","name":"Okanagan Falls","lat":"49.35000000","lon":"-119.56667000"},
{"state":"British Columbia","name":"Oliver","lat":"49.18306000","lon":"-119.55240000"},
{"state":"British Columbia","name":"Osoyoos","lat":"49.03306000","lon":"-119.45237000"},
{"state":"British Columbia","name":"Parksville","lat":"49.31947000","lon":"-124.31575000"},
{"state":"British Columbia","name":"Peace River Regional District","lat":"56.66650000","lon":"-122.75302000"},
{"state":"British Columbia","name":"Peachland","lat":"49.76647000","lon":"-119.73568000"},
{"state":"British Columbia","name":"Pemberton","lat":"50.31641000","lon":"-122.80273000"},
{"state":"British Columbia","name":"Penticton","lat":"49.48062000","lon":"-119.58584000"},
{"state":"British Columbia","name":"Pitt Meadows","lat":"49.22119000","lon":"-122.68965000"},
{"state":"British Columbia","name":"Port Alberni","lat":"49.24133000","lon":"-124.80280000"},
{"state":"British Columbia","name":"Port Coquitlam","lat":"49.26637000","lon":"-122.76932000"},
{"state":"British Columbia","name":"Port McNeill","lat":"50.58716000","lon":"-127.08053000"},
{"state":"British Columbia","name":"Port Moody","lat":"49.28124000","lon":"-122.82457000"},
{"state":"British Columbia","name":"Powell River","lat":"49.83278000","lon":"-124.52368000"},
{"state":"British Columbia","name":"Prince George","lat":"53.91660000","lon":"-122.75301000"},
{"state":"British Columbia","name":"Prince Rupert","lat":"54.31507000","lon":"-130.32098000"},
{"state":"British Columbia","name":"Princeton","lat":"49.45802000","lon":"-120.51076000"},
{"state":"British Columbia","name":"Puntledge","lat":"49.66168000","lon":"-125.05686000"},
{"state":"British Columbia","name":"Quesnel","lat":"52.97842000","lon":"-122.49310000"},
{"state":"British Columbia","name":"Regional District of Alberni-Clayoquot","lat":"49.24962000","lon":"-125.33615000"},
{"state":"British Columbia","name":"Regional District of Central Okanagan","lat":"49.99978000","lon":"-119.41908000"},
{"state":"British Columbia","name":"Revelstoke","lat":"50.99712000","lon":"-118.19530000"},
{"state":"British Columbia","name":"Richmond","lat":"49.17003000","lon":"-123.13683000"},
{"state":"British Columbia","name":"Rossland","lat":"49.08313000","lon":"-117.80224000"},
{"state":"British Columbia","name":"Royston","lat":"49.64703000","lon":"-124.94670000"},
{"state":"British Columbia","name":"Salmo","lat":"49.19986000","lon":"-117.26890000"},
{"state":"British Columbia","name":"Salmon Arm","lat":"50.69980000","lon":"-119.30237000"},
{"state":"British Columbia","name":"Salt Spring Island","lat":"48.81852000","lon":"-123.49061000"},
{"state":"British Columbia","name":"Saltair","lat":"48.94963000","lon":"-123.76939000"},
{"state":"British Columbia","name":"Sechelt","lat":"49.47512000","lon":"-123.75903000"},
{"state":"British Columbia","name":"Sicamous","lat":"50.83312000","lon":"-118.98565000"},
{"state":"British Columbia","name":"Six Mile","lat":"48.45767000","lon":"-123.46088000"},
{"state":"British Columbia","name":"Smithers","lat":"54.78036000","lon":"-127.17428000"},
{"state":"British Columbia","name":"Sooke","lat":"48.37463000","lon":"-123.72762000"},
{"state":"British Columbia","name":"South Pender Harbour","lat":"49.62202000","lon":"-124.02484000"},
{"state":"British Columbia","name":"Sparwood","lat":"49.73332000","lon":"-114.88532000"},
{"state":"British Columbia","name":"Summerland","lat":"49.59977000","lon":"-119.66911000"},
{"state":"British Columbia","name":"Surrey","lat":"49.10635000","lon":"-122.82509000"},
{"state":"British Columbia","name":"Terrace","lat":"54.51634000","lon":"-128.60345000"},
{"state":"British Columbia","name":"Tofino","lat":"49.15314000","lon":"-125.90744000"},
{"state":"British Columbia","name":"Trail","lat":"49.09983000","lon":"-117.70223000"},
{"state":"British Columbia","name":"Tsawwassen","lat":"49.01667000","lon":"-123.08333000"},
{"state":"British Columbia","name":"Tumbler Ridge","lat":"55.13027000","lon":"-120.99415000"},
{"state":"British Columbia","name":"Ucluelet","lat":"48.94153000","lon":"-125.54635000"},
{"state":"British Columbia","name":"Vancouver","lat":"49.24966000","lon":"-123.11934000"},
{"state":"British Columbia","name":"Vanderhoof","lat":"54.01657000","lon":"-124.01982000"},
{"state":"British Columbia","name":"Vernon","lat":"50.26729000","lon":"-119.27337000"},
{"state":"British Columbia","name":"Victoria","lat":"48.43590000","lon":"-123.35155000"},
{"state":"British Columbia","name":"Walnut Grove","lat":"49.16473000","lon":"-122.64042000"},
{"state":"British Columbia","name":"Welcome Beach","lat":"49.47959000","lon":"-123.89239000"},
{"state":"British Columbia","name":"West End","lat":"49.28333000","lon":"-123.13333000"},
{"state":"British Columbia","name":"West Kelowna","lat":"49.86250000","lon":"-119.58333000"},
{"state":"British Columbia","name":"West Vancouver","lat":"49.36672000","lon":"-123.16652000"},
{"state":"British Columbia","name":"Whistler","lat":"50.11817000","lon":"-122.95396000"},
{"state":"British Columbia","name":"White Rock","lat":"49.01636000","lon":"-122.80260000"},
{"state":"British Columbia","name":"Williams Lake","lat":"52.14153000","lon":"-122.14451000"},
{"state":"Manitoba","name":"Altona","lat":"49.10469000","lon":"-97.55961000"},
{"state":"Manitoba","name":"Beausejour","lat":"50.06220000","lon":"-96.51669000"},
{"state":"Manitoba","name":"Boissevain","lat":"49.23062000","lon":"-100.05586000"},
{"state":"Manitoba","name":"Brandon","lat":"49.84692000","lon":"-99.95306000"},
{"state":"Manitoba","name":"Carberry","lat":"49.86893000","lon":"-99.36021000"},
{"state":"Manitoba","name":"Carman","lat":"49.49920000","lon":"-98.00156000"},
{"state":"Manitoba","name":"Cross Lake 19A","lat":"54.65135000","lon":"-97.76848000"},
{"state":"Manitoba","name":"Dauphin","lat":"51.14941000","lon":"-100.05023000"},
{"state":"Manitoba","name":"De Salaberry","lat":"49.39999000","lon":"-97.00894000"},
{"state":"Manitoba","name":"Deloraine","lat":"49.19082000","lon":"-100.49477000"},
{"state":"Manitoba","name":"Flin Flon","lat":"54.76703000","lon":"-101.87433000"},
{"state":"Manitoba","name":"Gimli","lat":"50.63362000","lon":"-96.99066000"},
{"state":"Manitoba","name":"Grunthal","lat":"49.40668000","lon":"-96.85873000"},
{"state":"Manitoba","name":"Headingley","lat":"49.87530000","lon":"-97.40896000"},
{"state":"Manitoba","name":"Ile des Chênes","lat":"49.71060000","lon":"-96.98893000"},
{"state":"Manitoba","name":"Killarney","lat":"49.18332000","lon":"-99.66364000"},
{"state":"Manitoba","name":"La Broquerie","lat":"49.51688000","lon":"-96.50029000"},
{"state":"Manitoba","name":"Lac du Bonnet","lat":"50.25360000","lon":"-96.06116000"},
{"state":"Manitoba","name":"Landmark","lat":"49.67169000","lon":"-96.82232000"},
{"state":"Manitoba","name":"Lorette","lat":"49.73919000","lon":"-96.87232000"},
{"state":"Manitoba","name":"Melita","lat":"49.26811000","lon":"-100.99669000"},
{"state":"Manitoba","name":"Minnedosa","lat":"50.24532000","lon":"-99.84364000"},
{"state":"Manitoba","name":"Moose Lake","lat":"49.20559000","lon":"-95.30629000"},
{"state":"Manitoba","name":"Morden","lat":"49.19190000","lon":"-98.10136000"},
{"state":"Manitoba","name":"Morris","lat":"49.35499000","lon":"-97.36567000"},
{"state":"Manitoba","name":"Neepawa","lat":"50.22892000","lon":"-99.46642000"},
{"state":"Manitoba","name":"Niverville","lat":"49.60559000","lon":"-97.04234000"},
{"state":"Manitoba","name":"Portage la Prairie","lat":"49.97282000","lon":"-98.29263000"},
{"state":"Manitoba","name":"Rivers","lat":"50.03081000","lon":"-100.24029000"},
{"state":"Manitoba","name":"Roblin","lat":"51.22999000","lon":"-101.35650000"},
{"state":"Manitoba","name":"Selkirk","lat":"50.14360000","lon":"-96.88452000"},
{"state":"Manitoba","name":"Shilo","lat":"49.80509000","lon":"-99.63175000"},
{"state":"Manitoba","name":"Souris","lat":"49.61720000","lon":"-100.26120000"},
{"state":"Manitoba","name":"St. Adolphe","lat":"49.67440000","lon":"-97.11124000"},
{"state":"Manitoba","name":"Steinbach","lat":"49.52579000","lon":"-96.68451000"},
{"state":"Manitoba","name":"Stonewall","lat":"50.13441000","lon":"-97.32676000"},
{"state":"Manitoba","name":"Swan River","lat":"52.10580000","lon":"-101.26759000"},
{"state":"Manitoba","name":"The Pas","lat":"53.82509000","lon":"-101.25413000"},
{"state":"Manitoba","name":"Thompson","lat":"55.74350000","lon":"-97.85579000"},
{"state":"Manitoba","name":"Virden","lat":"49.85080000","lon":"-100.93262000"},
{"state":"Manitoba","name":"West St. Paul","lat":"49.99940000","lon":"-97.16284000"},
{"state":"Manitoba","name":"Winkler","lat":"49.18170000","lon":"-97.94104000"},
{"state":"Manitoba","name":"Winnipeg","lat":"49.88440000","lon":"-97.14704000"},
{"state":"New Brunswick","name":"Baie Ste. Anne","lat":"47.05231000","lon":"-64.95355000"},
{"state":"New Brunswick","name":"Bathurst","lat":"47.61814000","lon":"-65.65112000"},
{"state":"New Brunswick","name":"Bouctouche","lat":"46.46844000","lon":"-64.73905000"},
{"state":"New Brunswick","name":"Campbellton","lat":"48.00751000","lon":"-66.67272000"},
{"state":"New Brunswick","name":"Dieppe","lat":"46.07844000","lon":"-64.68735000"},
{"state":"New Brunswick","name":"Edmundston","lat":"47.37370000","lon":"-68.32512000"},
{"state":"New Brunswick","name":"Florenceville-Bristol","lat":"46.44353000","lon":"-67.61536000"},
{"state":"New Brunswick","name":"Fredericton","lat":"45.94541000","lon":"-66.66558000"},
{"state":"New Brunswick","name":"Fundy Bay","lat":"44.74100000","lon":"-66.76041000"},
{"state":"New Brunswick","name":"Grande-Digue","lat":"46.30014000","lon":"-64.56546000"},
{"state":"New Brunswick","name":"Greater Lakeburn","lat":"46.07651000","lon":"-64.66818000"},
{"state":"New Brunswick","name":"Hampton","lat":"45.52876000","lon":"-65.85354000"},
{"state":"New Brunswick","name":"Harrison Brook","lat":"47.21304000","lon":"-67.92847000"},
{"state":"New Brunswick","name":"Keswick Ridge","lat":"46.00011000","lon":"-66.88218000"},
{"state":"New Brunswick","name":"Lincoln","lat":"45.90012000","lon":"-66.58218000"},
{"state":"New Brunswick","name":"Lutes Mountain","lat":"46.13544000","lon":"-64.90504000"},
{"state":"New Brunswick","name":"McEwen","lat":"46.14520000","lon":"-64.78615000"},
{"state":"New Brunswick","name":"Miramichi","lat":"47.02895000","lon":"-65.50186000"},
{"state":"New Brunswick","name":"Moncton","lat":"46.09454000","lon":"-64.79650000"},
{"state":"New Brunswick","name":"Nackawic","lat":"45.99666000","lon":"-67.24028000"},
{"state":"New Brunswick","name":"New Maryland","lat":"45.87932000","lon":"-66.66828000"},
{"state":"New Brunswick","name":"Noonan","lat":"45.96682000","lon":"-66.53218000"},
{"state":"New Brunswick","name":"Oromocto","lat":"45.83512000","lon":"-66.47917000"},
{"state":"New Brunswick","name":"Richibucto","lat":"46.68073000","lon":"-64.88044000"},
{"state":"New Brunswick","name":"Sackville","lat":"45.91875000","lon":"-64.38455000"},
{"state":"New Brunswick","name":"Saint Andrews","lat":"45.07370000","lon":"-67.05312000"},
{"state":"New Brunswick","name":"Saint John","lat":"45.27271000","lon":"-66.06766000"},
{"state":"New Brunswick","name":"Saint-Antoine","lat":"46.36294000","lon":"-64.74985000"},
{"state":"New Brunswick","name":"Saint-Léonard","lat":"47.16317000","lon":"-67.92460000"},
{"state":"New Brunswick","name":"Salisbury","lat":"46.03905000","lon":"-65.04628000"},
{"state":"New Brunswick","name":"Shediac","lat":"46.21981000","lon":"-64.54107000"},
{"state":"New Brunswick","name":"Shediac Bridge-Shediac River","lat":"46.26886000","lon":"-64.60047000"},
{"state":"New Brunswick","name":"Shippagan","lat":"47.74424000","lon":"-64.70804000"},
{"state":"New Brunswick","name":"Starlight Village","lat":"45.88308000","lon":"-66.76905000"},
{"state":"New Brunswick","name":"Sussex","lat":"45.72266000","lon":"-65.50663000"},
{"state":"New Brunswick","name":"Tracadie-Sheila","lat":"47.51444000","lon":"-64.91806000"},
{"state":"New Brunswick","name":"Wells","lat":"45.39274000","lon":"-65.92313000"},
{"state":"Newfoundland and Labrador","name":"Bay Roberts","lat":"47.59989000","lon":"-53.26478000"},
{"state":"Newfoundland and Labrador","name":"Bay St. George South","lat":"48.22781000","lon":"-58.84162000"},
{"state":"Newfoundland and Labrador","name":"Bonavista","lat":"48.64989000","lon":"-53.11474000"},
{"state":"Newfoundland and Labrador","name":"Botwood","lat":"49.14994000","lon":"-55.34819000"},
{"state":"Newfoundland and Labrador","name":"Burgeo","lat":"47.61668000","lon":"-57.61516000"},
{"state":"Newfoundland and Labrador","name":"Carbonear","lat":"47.73319000","lon":"-53.21478000"},
{"state":"Newfoundland and Labrador","name":"Catalina","lat":"48.51659000","lon":"-53.08135000"},
{"state":"Newfoundland and Labrador","name":"Channel-Port aux Basques","lat":"47.57286000","lon":"-59.13808000"},
{"state":"Newfoundland and Labrador","name":"Clarenville-Shoal Harbour","lat":"48.18050000","lon":"-53.96982000"},
{"state":"Newfoundland and Labrador","name":"Conception Bay South","lat":"47.49989000","lon":"-52.99806000"},
{"state":"Newfoundland and Labrador","name":"Corner Brook","lat":"48.95001000","lon":"-57.95202000"},
{"state":"Newfoundland and Labrador","name":"Deer Lake","lat":"49.16671000","lon":"-57.43163000"},
{"state":"Newfoundland and Labrador","name":"Fogo Island","lat":"49.71649000","lon":"-54.16981000"},
{"state":"Newfoundland and Labrador","name":"Gambo","lat":"48.78320000","lon":"-54.21482000"},
{"state":"Newfoundland and Labrador","name":"Goulds","lat":"47.45532000","lon":"-52.77552000"},
{"state":"Newfoundland and Labrador","name":"Grand Bank","lat":"47.09995000","lon":"-55.76504000"},
{"state":"Newfoundland and Labrador","name":"Grand Falls-Windsor","lat":"48.93324000","lon":"-55.66492000"},
{"state":"Newfoundland and Labrador","name":"Happy Valley-Goose Bay","lat":"53.30380000","lon":"-60.32576000"},
{"state":"Newfoundland and Labrador","name":"Harbour Breton","lat":"47.48325000","lon":"-55.79833000"},
{"state":"Newfoundland and Labrador","name":"Labrador City","lat":"52.94626000","lon":"-66.91137000"},
{"state":"Newfoundland and Labrador","name":"Lewisporte","lat":"49.24993000","lon":"-55.04816000"},
{"state":"Newfoundland and Labrador","name":"Marystown","lat":"47.16663000","lon":"-55.14829000"},
{"state":"Newfoundland and Labrador","name":"Mount Pearl","lat":"47.51659000","lon":"-52.78135000"},
{"state":"Newfoundland and Labrador","name":"Pasadena","lat":"49.01671000","lon":"-57.59837000"},
{"state":"Newfoundland and Labrador","name":"Springdale","lat":"49.49995000","lon":"-56.06492000"},
{"state":"Newfoundland and Labrador","name":"St. Anthony","lat":"51.37039000","lon":"-55.59743000"},
{"state":"Newfoundland and Labrador","name":"St. John's","lat":"47.56494000","lon":"-52.70931000"},
{"state":"Newfoundland and Labrador","name":"Stephenville","lat":"48.55001000","lon":"-58.58180000"},
{"state":"Newfoundland and Labrador","name":"Stephenville Crossing","lat":"48.50001000","lon":"-58.43180000"},
{"state":"Newfoundland and Labrador","name":"Torbay","lat":"47.66659000","lon":"-52.73135000"},
{"state":"Newfoundland and Labrador","name":"Upper Island Cove","lat":"47.64989000","lon":"-53.21478000"},
{"state":"Newfoundland and Labrador","name":"Wabana","lat":"47.63319000","lon":"-52.94806000"},
{"state":"Northwest Territories","name":"Behchokǫ̀","lat":"62.80250000","lon":"-116.04639000"},
{"state":"Northwest Territories","name":"Fort McPherson","lat":"67.43863000","lon":"-134.88543000"},
{"state":"Northwest Territories","name":"Fort Smith","lat":"60.00439000","lon":"-111.88871000"},
{"state":"Northwest Territories","name":"Hay River","lat":"60.81555000","lon":"-115.79993000"},
{"state":"Northwest Territories","name":"Inuvik","lat":"68.34986000","lon":"-133.72181000"},
{"state":"Northwest Territories","name":"Norman Wells","lat":"65.28201000","lon":"-126.83290000"},
{"state":"Northwest Territories","name":"Yellowknife","lat":"62.45411000","lon":"-114.37248000"},
{"state":"Nova Scotia","name":"Amherst","lat":"45.83345000","lon":"-64.19874000"},
{"state":"Nova Scotia","name":"Annapolis County","lat":"44.58345000","lon":"-65.16551000"},
{"state":"Nova Scotia","name":"Antigonish","lat":"45.61685000","lon":"-61.99858000"},
{"state":"Nova Scotia","name":"Berwick","lat":"45.05015000","lon":"-64.73208000"},
{"state":"Nova Scotia","name":"Bridgewater","lat":"44.37856000","lon":"-64.51882000"},
{"state":"Nova Scotia","name":"Cape Breton County","lat":"46.00014000","lon":"-60.31516000"},
{"state":"Nova Scotia","name":"Chester","lat":"44.54225000","lon":"-64.23891000"},
{"state":"Nova Scotia","name":"Colchester","lat":"45.33345000","lon":"-63.24868000"},
{"state":"Nova Scotia","name":"Cole Harbour","lat":"44.67244000","lon":"-63.47506000"},
{"state":"Nova Scotia","name":"Cow Bay","lat":"44.63141000","lon":"-63.43218000"},
{"state":"Nova Scotia","name":"Dartmouth","lat":"44.67134000","lon":"-63.57719000"},
{"state":"Nova Scotia","name":"Digby","lat":"44.62188000","lon":"-65.75860000"},
{"state":"Nova Scotia","name":"Digby County","lat":"44.36685000","lon":"-65.69884000"},
{"state":"Nova Scotia","name":"English Corner","lat":"44.73345000","lon":"-63.78201000"},
{"state":"Nova Scotia","name":"Eskasoni 3","lat":"45.94522000","lon":"-60.61617000"},
{"state":"Nova Scotia","name":"Fall River","lat":"44.81685000","lon":"-63.61540000"},
{"state":"Nova Scotia","name":"Glace Bay","lat":"46.19695000","lon":"-59.95698000"},
{"state":"Nova Scotia","name":"Greenwood","lat":"44.97413000","lon":"-64.93169000"},
{"state":"Nova Scotia","name":"Halifax","lat":"44.64533000","lon":"-63.57239000"},
{"state":"Nova Scotia","name":"Hantsport","lat":"45.06685000","lon":"-64.16544000"},
{"state":"Nova Scotia","name":"Hayes Subdivision","lat":"45.05519000","lon":"-64.58795000"},
{"state":"Nova Scotia","name":"Kentville","lat":"45.07710000","lon":"-64.49605000"},
{"state":"Nova Scotia","name":"Lake Echo","lat":"44.73345000","lon":"-63.38198000"},
{"state":"Nova Scotia","name":"Lantz","lat":"44.98345000","lon":"-63.48199000"},
{"state":"Nova Scotia","name":"Lower Sackville","lat":"44.77599000","lon":"-63.67865000"},
{"state":"Nova Scotia","name":"Lunenburg","lat":"44.37847000","lon":"-64.31658000"},
{"state":"Nova Scotia","name":"Middleton","lat":"44.94284000","lon":"-65.07022000"},
{"state":"Nova Scotia","name":"New Glasgow","lat":"45.58344000","lon":"-62.64863000"},
{"state":"Nova Scotia","name":"Oxford","lat":"45.73345000","lon":"-63.86542000"},
{"state":"Nova Scotia","name":"Parrsboro","lat":"45.40567000","lon":"-64.32585000"},
{"state":"Nova Scotia","name":"Pictou","lat":"45.67875000","lon":"-62.70936000"},
{"state":"Nova Scotia","name":"Pictou County","lat":"45.50015000","lon":"-62.58193000"},
{"state":"Nova Scotia","name":"Port Hawkesbury","lat":"45.61685000","lon":"-61.34853000"},
{"state":"Nova Scotia","name":"Port Williams","lat":"45.10015000","lon":"-64.41546000"},
{"state":"Nova Scotia","name":"Princeville","lat":"45.76684000","lon":"-61.29853000"},
{"state":"Nova Scotia","name":"Shelburne","lat":"43.76325000","lon":"-65.32355000"},
{"state":"Nova Scotia","name":"Springhill","lat":"45.65015000","lon":"-64.04873000"},
{"state":"Nova Scotia","name":"Sydney","lat":"46.13510000","lon":"-60.18310000"},
{"state":"Nova Scotia","name":"Sydney Mines","lat":"46.23669000","lon":"-60.21767000"},
{"state":"Nova Scotia","name":"Truro","lat":"45.36685000","lon":"-63.26538000"},
{"state":"Nova Scotia","name":"Windsor","lat":"44.98345000","lon":"-64.13204000"},
{"state":"Nova Scotia","name":"Wolfville","lat":"45.08345000","lon":"-64.36546000"},
{"state":"Nova Scotia","name":"Yarmouth","lat":"43.83345000","lon":"-66.11557000"},
{"state":"Nunavut","name":"Clyde River","lat":"70.47233000","lon":"-68.58987000"},
{"state":"Nunavut","name":"Gjoa Haven","lat":"68.62602000","lon":"-95.87836000"},
{"state":"Nunavut","name":"Iqaluit","lat":"63.74697000","lon":"-68.51727000"},
{"state":"Nunavut","name":"Kugluktuk","lat":"67.82743000","lon":"-115.09649000"},
{"state":"Nunavut","name":"Pangnirtung","lat":"66.14642000","lon":"-65.69996000"},
{"state":"Nunavut","name":"Rankin Inlet","lat":"62.80906000","lon":"-92.08534000"},
{"state":"Ontario","name":"Ajax","lat":"43.85012000","lon":"-79.03288000"},
{"state":"Ontario","name":"Algoma","lat":"47.88364000","lon":"-84.42406000"},
{"state":"Ontario","name":"Alliston","lat":"44.15011000","lon":"-79.86635000"},
{"state":"Ontario","name":"Amherstburg","lat":"42.10009000","lon":"-83.09985000"},
{"state":"Ontario","name":"Amigo Beach","lat":"44.70011000","lon":"-79.39963000"},
{"state":"Ontario","name":"Ancaster","lat":"43.21806000","lon":"-79.98716000"},
{"state":"Ontario","name":"Angus","lat":"44.31681000","lon":"-79.88295000"},
{"state":"Ontario","name":"Arnprior","lat":"45.43341000","lon":"-76.34939000"},
{"state":"Ontario","name":"Atikokan","lat":"48.75667000","lon":"-91.62409000"},
{"state":"Ontario","name":"Attawapiskat","lat":"52.92774000","lon":"-82.41669000"},
{"state":"Ontario","name":"Aurora","lat":"44.00011000","lon":"-79.46632000"},
{"state":"Ontario","name":"Aylmer","lat":"42.76679000","lon":"-80.98302000"},
{"state":"Ontario","name":"Azilda","lat":"46.55008000","lon":"-81.09975000"},
{"state":"Ontario","name":"Ballantrae","lat":"44.03342000","lon":"-79.29960000"},
{"state":"Ontario","name":"Bancroft","lat":"45.05752000","lon":"-77.85702000"},
{"state":"Ontario","name":"Barrie","lat":"44.40011000","lon":"-79.66634000"},
{"state":"Ontario","name":"Bath","lat":"44.18342000","lon":"-76.78273000"},
{"state":"Ontario","name":"Belleville","lat":"44.16682000","lon":"-77.38277000"},
{"state":"Ontario","name":"Bells Corners","lat":"45.31588000","lon":"-75.83012000"},
{"state":"Ontario","name":"Belmont","lat":"42.88339000","lon":"-81.08303000"},
{"state":"Ontario","name":"Binbrook","lat":"43.12135000","lon":"-79.81104000"},
{"state":"Ontario","name":"Bluewater","lat":"43.46679000","lon":"-81.59977000"},
{"state":"Ontario","name":"Bourget","lat":"45.43340000","lon":"-75.14930000"},
{"state":"Ontario","name":"Bracebridge","lat":"45.03341000","lon":"-79.31633000"},
{"state":"Ontario","name":"Brampton","lat":"43.68341000","lon":"-79.76633000"},
{"state":"Ontario","name":"Brant","lat":"43.13340000","lon":"-80.34967000"},
{"state":"Ontario","name":"Brantford","lat":"43.13340000","lon":"-80.26636000"},
{"state":"Ontario","name":"Brockville","lat":"44.59132000","lon":"-75.68705000"},
{"state":"Ontario","name":"Brussels","lat":"43.73339000","lon":"-81.24975000"},
{"state":"Ontario","name":"Burford","lat":"43.10292000","lon":"-80.42869000"},
{"state":"Ontario","name":"Burlington","lat":"43.38621000","lon":"-79.83713000"},
{"state":"Ontario","name":"Cambridge","lat":"43.36010000","lon":"-80.31269000"},
{"state":"Ontario","name":"Camlachie","lat":"43.03596000","lon":"-82.16160000"},
{"state":"Ontario","name":"Capreol","lat":"46.70626000","lon":"-80.92109000"},
{"state":"Ontario","name":"Carleton Place","lat":"45.13341000","lon":"-76.14938000"},
{"state":"Ontario","name":"Casselman","lat":"45.31680000","lon":"-75.08260000"},
{"state":"Ontario","name":"Chatham","lat":"42.41224000","lon":"-82.18494000"},
{"state":"Ontario","name":"Chatham-Kent","lat":"42.40009000","lon":"-82.18310000"},
{"state":"Ontario","name":"Clarence-Rockland","lat":"45.55010000","lon":"-75.29101000"},
{"state":"Ontario","name":"Cobourg","lat":"43.95977000","lon":"-78.16515000"},
{"state":"Ontario","name":"Cochrane District","lat":"50.00022000","lon":"-82.99979000"},
{"state":"Ontario","name":"Collingwood","lat":"44.48340000","lon":"-80.21638000"},
{"state":"Ontario","name":"Concord","lat":"43.80011000","lon":"-79.48291000"},
{"state":"Ontario","name":"Constance Bay","lat":"45.50011000","lon":"-76.08267000"},
{"state":"Ontario","name":"Cookstown","lat":"44.18341000","lon":"-79.69964000"},
{"state":"Ontario","name":"Cornwall","lat":"45.01809000","lon":"-74.72815000"},
{"state":"Ontario","name":"Corunna","lat":"42.88338000","lon":"-82.43313000"},
{"state":"Ontario","name":"Deep River","lat":"46.10012000","lon":"-77.49949000"},
{"state":"Ontario","name":"Delaware","lat":"42.91679000","lon":"-81.41646000"},
{"state":"Ontario","name":"Deseronto","lat":"44.20012000","lon":"-77.04944000"},
{"state":"Ontario","name":"Dorchester","lat":"42.98339000","lon":"-81.06643000"},
{"state":"Ontario","name":"Dowling","lat":"46.59111000","lon":"-81.33917000"},
{"state":"Ontario","name":"Dryden","lat":"49.78334000","lon":"-92.75032000"},
{"state":"Ontario","name":"Durham","lat":"44.20012000","lon":"-78.99957000"},
{"state":"Ontario","name":"Ear Falls","lat":"50.63955000","lon":"-93.23526000"},
{"state":"Ontario","name":"East Gwillimbury","lat":"44.10087000","lon":"-79.43785000"},
{"state":"Ontario","name":"East York","lat":"43.69053000","lon":"-79.32794000"},
{"state":"Ontario","name":"Elliot Lake","lat":"46.38336000","lon":"-82.63315000"},
{"state":"Ontario","name":"Elmvale","lat":"44.58340000","lon":"-79.86636000"},
{"state":"Ontario","name":"Englehart","lat":"47.81686000","lon":"-79.86640000"},
{"state":"Ontario","name":"Espanola","lat":"46.25837000","lon":"-81.76649000"},
{"state":"Ontario","name":"Essex","lat":"42.17509000","lon":"-82.82483000"},
{"state":"Ontario","name":"Etobicoke","lat":"43.65421000","lon":"-79.56711000"},
{"state":"Ontario","name":"Fort Erie","lat":"42.90012000","lon":"-78.93286000"},
{"state":"Ontario","name":"Fort Frances","lat":"48.61667000","lon":"-93.40030000"},
{"state":"Ontario","name":"Gananoque","lat":"44.33342000","lon":"-76.16607000"},
{"state":"Ontario","name":"Glencoe","lat":"42.75009000","lon":"-81.71648000"},
{"state":"Ontario","name":"Goderich","lat":"43.74171000","lon":"-81.71339000"},
{"state":"Ontario","name":"Golden","lat":"51.05917000","lon":"-93.73568000"},
{"state":"Ontario","name":"Gravenhurst","lat":"44.91681000","lon":"-79.36633000"},
{"state":"Ontario","name":"Greater Napanee","lat":"44.25012000","lon":"-76.94944000"},
{"state":"Ontario","name":"Greater Sudbury","lat":"46.49000000","lon":"-80.99001000"},
{"state":"Ontario","name":"Greenstone","lat":"49.73343000","lon":"-87.16668000"},
{"state":"Ontario","name":"Guelph","lat":"43.54594000","lon":"-80.25599000"},
{"state":"Ontario","name":"Haldimand County","lat":"42.98341000","lon":"-79.86633000"},
{"state":"Ontario","name":"Haliburton Village","lat":"45.05154000","lon":"-78.52245000"},
{"state":"Ontario","name":"Halton","lat":"43.50011000","lon":"-79.88294000"},
{"state":"Ontario","name":"Hamilton","lat":"43.25011000","lon":"-79.84963000"},
{"state":"Ontario","name":"Hanover","lat":"44.15009000","lon":"-81.03303000"},
{"state":"Ontario","name":"Harriston","lat":"43.90009000","lon":"-80.88302000"},
{"state":"Ontario","name":"Hawkesbury","lat":"45.60009000","lon":"-74.61595000"},
{"state":"Ontario","name":"Hearst","lat":"49.68351000","lon":"-83.66654000"},
{"state":"Ontario","name":"Hornepayne","lat":"49.21451000","lon":"-84.77617000"},
{"state":"Ontario","name":"Huntsville","lat":"45.33341000","lon":"-79.21632000"},
{"state":"Ontario","name":"Huron East","lat":"43.61679000","lon":"-81.29975000"},
{"state":"Ontario","name":"Ingersoll","lat":"43.03339000","lon":"-80.88302000"},
{"state":"Ontario","name":"Innisfil","lat":"44.30011000","lon":"-79.64964000"},
{"state":"Ontario","name":"Iroquois Falls","lat":"48.76688000","lon":"-80.68307000"},
{"state":"Ontario","name":"Jarvis","lat":"42.88341000","lon":"-80.09965000"},
{"state":"Ontario","name":"Kanata","lat":"45.30010000","lon":"-75.91606000"},
{"state":"Ontario","name":"Kapuskasing","lat":"49.41694000","lon":"-82.43308000"},
{"state":"Ontario","name":"Kawartha Lakes","lat":"44.58342000","lon":"-78.83288000"},
{"state":"Ontario","name":"Kenora","lat":"49.76741000","lon":"-94.48985000"},
{"state":"Ontario","name":"Keswick","lat":"44.25011000","lon":"-79.46632000"},
{"state":"Ontario","name":"Kincardine","lat":"44.18339000","lon":"-81.63307000"},
{"state":"Ontario","name":"King","lat":"43.96514000","lon":"-79.59011000"},
{"state":"Ontario","name":"Kingston","lat":"44.22976000","lon":"-76.48098000"},
{"state":"Ontario","name":"Kirkland Lake","lat":"48.14461000","lon":"-80.03767000"},
{"state":"Ontario","name":"Kitchener","lat":"43.42537000","lon":"-80.51120000"},
{"state":"Ontario","name":"L'Orignal","lat":"45.61980000","lon":"-74.69150000"},
{"state":"Ontario","name":"Lakefield","lat":"44.43342000","lon":"-78.26623000"},
{"state":"Ontario","name":"Lambton Shores","lat":"43.16678000","lon":"-81.93309000"},
{"state":"Ontario","name":"Lappe","lat":"48.56680000","lon":"-89.35013000"},
{"state":"Ontario","name":"Leamington","lat":"42.05009000","lon":"-82.59981000"},
{"state":"Ontario","name":"Limoges","lat":"45.33340000","lon":"-75.24931000"},
{"state":"Ontario","name":"Lindsay","lat":"44.35012000","lon":"-78.73286000"},
{"state":"Ontario","name":"Listowel","lat":"43.73340000","lon":"-80.94973000"},
{"state":"Ontario","name":"Little Current","lat":"45.97927000","lon":"-81.92480000"},
{"state":"Ontario","name":"Lively","lat":"46.43338000","lon":"-81.14975000"},
{"state":"Ontario","name":"London","lat":"42.98339000","lon":"-81.23304000"},
{"state":"Ontario","name":"Lucan","lat":"43.18339000","lon":"-81.39976000"},
{"state":"Ontario","name":"Madoc","lat":"44.50842000","lon":"-77.47448000"},
{"state":"Ontario","name":"Manitoulin District","lat":"45.75007000","lon":"-82.49985000"},
{"state":"Ontario","name":"Manitouwadge","lat":"49.12152000","lon":"-85.84030000"},
{"state":"Ontario","name":"Marathon","lat":"48.75010000","lon":"-86.43322000"},
{"state":"Ontario","name":"Markdale","lat":"44.31680000","lon":"-80.64971000"},
{"state":"Ontario","name":"Markham","lat":"43.86682000","lon":"-79.26630000"},
{"state":"Ontario","name":"Mattawa","lat":"46.31681000","lon":"-78.69957000"},
{"state":"Ontario","name":"Meaford","lat":"44.60725000","lon":"-80.61081000"},
{"state":"Ontario","name":"Metcalfe","lat":"45.23340000","lon":"-75.46603000"},
{"state":"Ontario","name":"Midland","lat":"44.75010000","lon":"-79.88296000"},
{"state":"Ontario","name":"Mildmay","lat":"44.05009000","lon":"-81.11644000"},
{"state":"Ontario","name":"Millbrook","lat":"44.15012000","lon":"-78.44954000"},
{"state":"Ontario","name":"Milton","lat":"43.51681000","lon":"-79.88294000"},
{"state":"Ontario","name":"Mississauga","lat":"43.57890000","lon":"-79.65830000"},
{"state":"Ontario","name":"Mississauga Beach","lat":"43.26682000","lon":"-79.08287000"},
{"state":"Ontario","name":"Moose Factory","lat":"51.26689000","lon":"-80.61624000"},
{"state":"Ontario","name":"Moosonee","lat":"51.27931000","lon":"-80.63450000"},
{"state":"Ontario","name":"Morrisburg","lat":"44.90010000","lon":"-75.18261000"},
{"state":"Ontario","name":"Mount Albert","lat":"44.13341000","lon":"-79.31630000"},
{"state":"Ontario","name":"Mount Brydges","lat":"42.90009000","lon":"-81.48306000"},
{"state":"Ontario","name":"Napanee","lat":"44.25012000","lon":"-76.94944000"},
{"state":"Ontario","name":"Napanee Downtown","lat":"44.24832000","lon":"-76.95069000"},
{"state":"Ontario","name":"Neebing","lat":"48.16680000","lon":"-89.41683000"},
{"state":"Ontario","name":"Nepean","lat":"45.35215000","lon":"-75.73975000"},
{"state":"Ontario","name":"New Hamburg","lat":"43.38339000","lon":"-80.69970000"},
{"state":"Ontario","name":"Newmarket","lat":"44.05011000","lon":"-79.46631000"},
{"state":"Ontario","name":"Niagara Falls","lat":"43.10012000","lon":"-79.06627000"},
{"state":"Ontario","name":"Nipissing District","lat":"46.00010000","lon":"-78.99959000"},
{"state":"Ontario","name":"Norfolk County","lat":"42.83340000","lon":"-80.38297000"},
{"state":"Ontario","name":"North Bay","lat":"46.31680000","lon":"-79.46633000"},
{"state":"Ontario","name":"North Perth","lat":"43.72510000","lon":"-80.96723000"},
{"state":"Ontario","name":"North York","lat":"43.76681000","lon":"-79.41630000"},
{"state":"Ontario","name":"Norwood","lat":"44.38342000","lon":"-77.98281000"},
{"state":"Ontario","name":"Oakville","lat":"43.45011000","lon":"-79.68292000"},
{"state":"Ontario","name":"Omemee","lat":"44.29897000","lon":"-78.55989000"},
{"state":"Ontario","name":"Orangeville","lat":"43.91680000","lon":"-80.09967000"},
{"state":"Ontario","name":"Orillia","lat":"44.60868000","lon":"-79.42068000"},
{"state":"Ontario","name":"Osgoode","lat":"45.14887000","lon":"-75.59778000"},
{"state":"Ontario","name":"Oshawa","lat":"43.90012000","lon":"-78.84957000"},
{"state":"Ontario","name":"Ottawa","lat":"45.41117000","lon":"-75.69812000"},
{"state":"Ontario","name":"Owen Sound","lat":"44.56717000","lon":"-80.94349000"},
{"state":"Ontario","name":"Paisley","lat":"44.30641000","lon":"-81.27265000"},
{"state":"Ontario","name":"Paris","lat":"43.20000000","lon":"-80.38333000"},
{"state":"Ontario","name":"Parkhill","lat":"43.15993000","lon":"-81.68464000"},
{"state":"Ontario","name":"Parry Sound","lat":"45.34732000","lon":"-80.03527000"},
{"state":"Ontario","name":"Parry Sound District","lat":"45.75011000","lon":"-79.83297000"},
{"state":"Ontario","name":"Peel","lat":"43.75011000","lon":"-79.78293000"},
{"state":"Ontario","name":"Pembroke","lat":"45.81681000","lon":"-77.11616000"},
{"state":"Ontario","name":"Perth","lat":"44.90011000","lon":"-76.24939000"},
{"state":"Ontario","name":"Petawawa","lat":"45.89452000","lon":"-77.28007000"},
{"state":"Ontario","name":"Peterborough","lat":"44.30012000","lon":"-78.31623000"},
{"state":"Ontario","name":"Petrolia","lat":"42.86678000","lon":"-82.14981000"},
{"state":"Ontario","name":"Pickering","lat":"43.90012000","lon":"-79.13289000"},
{"state":"Ontario","name":"Picton","lat":"44.00012000","lon":"-77.13275000"},
{"state":"Ontario","name":"Plantagenet","lat":"45.53260000","lon":"-74.99369000"},
{"state":"Ontario","name":"Plattsville","lat":"43.30010000","lon":"-80.61639000"},
{"state":"Ontario","name":"Port Colborne","lat":"42.90012000","lon":"-79.23288000"},
{"state":"Ontario","name":"Port Hope","lat":"44.01682000","lon":"-78.39953000"},
{"state":"Ontario","name":"Port Rowan","lat":"42.61680000","lon":"-80.46638000"},
{"state":"Ontario","name":"Port Stanley","lat":"42.66679000","lon":"-81.21644000"},
{"state":"Ontario","name":"Powassan","lat":"46.03340000","lon":"-79.34961000"},
{"state":"Ontario","name":"Prescott","lat":"44.71681000","lon":"-75.51604000"},
{"state":"Ontario","name":"Prince Edward","lat":"44.00012000","lon":"-77.24946000"},
{"state":"Ontario","name":"Queenswood Heights","lat":"45.47083000","lon":"-75.50556000"},
{"state":"Ontario","name":"Quinte West","lat":"44.18342000","lon":"-77.56618000"},
{"state":"Ontario","name":"Rainy River District","lat":"48.49981000","lon":"-92.50031000"},
{"state":"Ontario","name":"Rayside-Balfour","lat":"46.60873000","lon":"-81.20763000"},
{"state":"Ontario","name":"Red Lake","lat":"51.01678000","lon":"-93.82736000"},
{"state":"Ontario","name":"Regional Municipality of Waterloo","lat":"43.50010000","lon":"-80.49969000"},
{"state":"Ontario","name":"Renfrew","lat":"45.46681000","lon":"-76.68272000"},
{"state":"Ontario","name":"Richmond","lat":"45.18340000","lon":"-75.83266000"},
{"state":"Ontario","name":"Richmond Hill","lat":"43.87111000","lon":"-79.43725000"},
{"state":"Ontario","name":"Ridgetown","lat":"42.43339000","lon":"-81.89978000"},
{"state":"Ontario","name":"Rockwood","lat":"43.61899000","lon":"-80.14441000"},
{"state":"Ontario","name":"Russell","lat":"45.25010000","lon":"-75.36602000"},
{"state":"Ontario","name":"Sarnia","lat":"42.97866000","lon":"-82.40407000"},
{"state":"Ontario","name":"Sault Ste. Marie","lat":"46.51677000","lon":"-84.33325000"},
{"state":"Ontario","name":"Scarborough","lat":"43.77223000","lon":"-79.25666000"},
{"state":"Ontario","name":"Seaforth","lat":"43.55009000","lon":"-81.39976000"},
{"state":"Ontario","name":"Shelburne","lat":"44.07870000","lon":"-80.20408000"},
{"state":"Ontario","name":"Simcoe","lat":"42.83340000","lon":"-80.29967000"},
{"state":"Ontario","name":"Sioux Lookout","lat":"50.06676000","lon":"-91.98358000"},
{"state":"Ontario","name":"Skatepark","lat":"44.25122000","lon":"-76.94424000"},
{"state":"Ontario","name":"Smiths Falls","lat":"44.90452000","lon":"-76.02333000"},
{"state":"Ontario","name":"South Huron","lat":"43.31679000","lon":"-81.51647000"},
{"state":"Ontario","name":"South River","lat":"45.83340000","lon":"-79.38293000"},
{"state":"Ontario","name":"St. Catharines","lat":"43.17126000","lon":"-79.24267000"},
{"state":"Ontario","name":"St. George","lat":"43.24495000","lon":"-80.25144000"},
{"state":"Ontario","name":"St. Thomas","lat":"42.77361000","lon":"-81.18038000"},
{"state":"Ontario","name":"Stirling","lat":"44.30012000","lon":"-77.54948000"},
{"state":"Ontario","name":"Stoney Point","lat":"44.26681000","lon":"-79.53292000"},
{"state":"Ontario","name":"Stratford","lat":"43.36679000","lon":"-80.94972000"},
{"state":"Ontario","name":"Sudbury","lat":"47.16679000","lon":"-81.99980000"},
{"state":"Ontario","name":"Tavistock","lat":"43.31679000","lon":"-80.83302000"},
{"state":"Ontario","name":"Temiskaming Shores","lat":"47.49376000","lon":"-79.71529000"},
{"state":"Ontario","name":"Thessalon","lat":"46.25006000","lon":"-83.56660000"},
{"state":"Ontario","name":"Thornhill","lat":"43.81708480","lon":"-79.45011940"},
{"state":"Ontario","name":"Thorold","lat":"43.11682000","lon":"-79.19958000"},
{"state":"Ontario","name":"Thunder Bay","lat":"48.38202000","lon":"-89.25018000"},
{"state":"Ontario","name":"Thunder Bay District","lat":"49.50011000","lon":"-88.50004000"},
{"state":"Ontario","name":"Timiskaming District","lat":"47.75016000","lon":"-80.33303000"},
{"state":"Ontario","name":"Timmins","lat":"48.46686000","lon":"-81.33312000"},
{"state":"Ontario","name":"Tobermory","lat":"45.25007000","lon":"-81.66647000"},
{"state":"Ontario","name":"Toronto","lat":"43.70011000","lon":"-79.41630000"},
{"state":"Ontario","name":"Toronto county","lat":"43.69655000","lon":"-79.42909000"},
{"state":"Ontario","name":"Tottenham","lat":"44.02437000","lon":"-79.80553000"},
{"state":"Ontario","name":"Tweed","lat":"44.47512000","lon":"-77.31616000"},
{"state":"Ontario","name":"Uxbridge","lat":"44.10012000","lon":"-79.11628000"},
{"state":"Ontario","name":"Valley East","lat":"46.66773000","lon":"-81.00028000"},
{"state":"Ontario","name":"Vanier","lat":"45.43990000","lon":"-75.66498000"},
{"state":"Ontario","name":"Vaughan","lat":"43.83610000","lon":"-79.49827000"},
{"state":"Ontario","name":"Vineland","lat":"43.15012000","lon":"-79.39960000"},
{"state":"Ontario","name":"Virgil","lat":"43.21682000","lon":"-79.13288000"},
{"state":"Ontario","name":"Walpole Island","lat":"42.61520000","lon":"-82.51398000"},
{"state":"Ontario","name":"Wasaga Beach","lat":"44.51680000","lon":"-80.01637000"},
{"state":"Ontario","name":"Waterford","lat":"42.93340000","lon":"-80.28296000"},
{"state":"Ontario","name":"Waterloo","lat":"43.46680000","lon":"-80.51639000"},
{"state":"Ontario","name":"Watford","lat":"42.95008000","lon":"-81.88309000"},
{"state":"Ontario","name":"Wawa","lat":"47.98877000","lon":"-84.77411000"},
{"state":"Ontario","name":"Welland","lat":"42.98342000","lon":"-79.24958000"},
{"state":"Ontario","name":"Wellesley","lat":"43.47691000","lon":"-80.76209000"},
{"state":"Ontario","name":"Wendover","lat":"45.57275000","lon":"-75.12757000"},
{"state":"Ontario","name":"West Lorne","lat":"42.60009000","lon":"-81.59976000"},
{"state":"Ontario","name":"Willowdale","lat":"43.76672000","lon":"-79.39909000"},
{"state":"Ontario","name":"Winchester","lat":"45.08340000","lon":"-75.34933000"},
{"state":"Ontario","name":"Windsor","lat":"42.30008000","lon":"-83.01654000"},
{"state":"Ontario","name":"Wingham","lat":"43.88793000","lon":"-81.31145000"},
{"state":"Ontario","name":"Woodstock","lat":"43.13339000","lon":"-80.74970000"},
{"state":"Ontario","name":"York","lat":"44.00011000","lon":"-79.46632000"},
{"state":"Prince Edward Island","name":"Alberton","lat":"46.81685000","lon":"-64.06542000"},
{"state":"Prince Edward Island","name":"Belfast","lat":"46.08341000","lon":"-62.88197000"},
{"state":"Prince Edward Island","name":"Charlottetown","lat":"46.23899000","lon":"-63.13414000"},
{"state":"Prince Edward Island","name":"Cornwall","lat":"46.22652000","lon":"-63.21809000"},
{"state":"Prince Edward Island","name":"Fallingbrook","lat":"45.47558000","lon":"-75.48401000"},
{"state":"Prince Edward Island","name":"Kensington","lat":"46.43343000","lon":"-63.64871000"},
{"state":"Prince Edward Island","name":"Montague","lat":"46.16681000","lon":"-62.64866000"},
{"state":"Prince Edward Island","name":"Souris","lat":"46.35010000","lon":"-62.24862000"},
{"state":"Prince Edward Island","name":"Summerside","lat":"46.39593000","lon":"-63.78762000"},
{"state":"Quebec","name":"Abitibi-Témiscamingue","lat":"48.10018000","lon":"-77.78280000"},
{"state":"Quebec","name":"Acton Vale","lat":"45.65007000","lon":"-72.56582000"},
{"state":"Quebec","name":"Adstock","lat":"46.05007000","lon":"-71.08235000"},
{"state":"Quebec","name":"Albanel","lat":"48.88324000","lon":"-72.44867000"},
{"state":"Quebec","name":"Alma","lat":"48.55009000","lon":"-71.64910000"},
{"state":"Quebec","name":"Amos","lat":"48.56688000","lon":"-78.11624000"},
{"state":"Quebec","name":"Amqui","lat":"48.46382000","lon":"-67.43134000"},
{"state":"Quebec","name":"Ange-Gardien","lat":"45.35008000","lon":"-72.93244000"},
{"state":"Quebec","name":"Asbestos","lat":"45.76678000","lon":"-71.93240000"},
{"state":"Quebec","name":"Baie-Comeau","lat":"49.21679000","lon":"-68.14894000"},
{"state":"Quebec","name":"Baie-D'Urfé","lat":"45.41397000","lon":"-73.91586000"},
{"state":"Quebec","name":"Baie-Saint-Paul","lat":"47.44109000","lon":"-70.49858000"},
{"state":"Quebec","name":"Barraute","lat":"48.43349000","lon":"-77.63279000"},
{"state":"Quebec","name":"Bas-Saint-Laurent","lat":"48.05030000","lon":"-68.02266000"},
{"state":"Quebec","name":"Beaconsfield","lat":"45.43341000","lon":"-73.86586000"},
{"state":"Quebec","name":"Beauceville","lat":"46.21785000","lon":"-70.77873000"},
{"state":"Quebec","name":"Beauharnois","lat":"45.31341000","lon":"-73.87250000"},
{"state":"Quebec","name":"Beaupré","lat":"47.04428000","lon":"-70.89529000"},
{"state":"Quebec","name":"Bécancour","lat":"46.34106000","lon":"-72.43224000"},
{"state":"Quebec","name":"Bedford","lat":"45.11678000","lon":"-72.98244000"},
{"state":"Quebec","name":"Beloeil","lat":"45.56839000","lon":"-73.20568000"},
{"state":"Quebec","name":"Berthierville","lat":"46.08336000","lon":"-73.18245000"},
{"state":"Quebec","name":"Blainville","lat":"45.66678000","lon":"-73.88249000"},
{"state":"Quebec","name":"Bois-des-Filion","lat":"45.66678000","lon":"-73.74918000"},
{"state":"Quebec","name":"Boisbriand","lat":"45.61678000","lon":"-73.83249000"},
{"state":"Quebec","name":"Bonaventure","lat":"48.04573000","lon":"-65.49259000"},
{"state":"Quebec","name":"Boucherville","lat":"45.59104000","lon":"-73.43605000"},
{"state":"Quebec","name":"Breakeyville","lat":"46.68037000","lon":"-71.22327000"},
{"state":"Quebec","name":"Bromont","lat":"45.31678000","lon":"-72.64912000"},
{"state":"Quebec","name":"Brossard","lat":"45.45008000","lon":"-73.46583000"},
{"state":"Quebec","name":"Brownsburg-Chatham","lat":"45.68342000","lon":"-74.41590000"},
{"state":"Quebec","name":"Buckingham","lat":"45.58563000","lon":"-75.42080000"},
{"state":"Quebec","name":"Cabano","lat":"47.68065000","lon":"-68.87810000"},
{"state":"Quebec","name":"Cacouna","lat":"47.91657000","lon":"-69.50054000"},
{"state":"Quebec","name":"Candiac","lat":"45.38338000","lon":"-73.51587000"},
{"state":"Quebec","name":"Cantley","lat":"45.56680000","lon":"-75.78265000"},
{"state":"Quebec","name":"Cap-Chat","lat":"49.10009000","lon":"-66.68212000"},
{"state":"Quebec","name":"Cap-Santé","lat":"46.67159000","lon":"-71.78812000"},
{"state":"Quebec","name":"Capitale-Nationale","lat":"47.37600000","lon":"-71.12337000"},
{"state":"Quebec","name":"Carignan","lat":"45.45008000","lon":"-73.29916000"},
{"state":"Quebec","name":"Carleton","lat":"48.09838000","lon":"-66.10036000"},
{"state":"Quebec","name":"Carleton-sur-Mer","lat":"48.10749000","lon":"-66.12800000"},
{"state":"Quebec","name":"Centre-du-Québec","lat":"46.01985000","lon":"-71.98242000"},
{"state":"Quebec","name":"Chambly","lat":"45.45008000","lon":"-73.28246000"},
{"state":"Quebec","name":"Chambord","lat":"48.43339000","lon":"-72.06583000"},
{"state":"Quebec","name":"Chandler","lat":"48.34935000","lon":"-64.67926000"},
{"state":"Quebec","name":"Chapais","lat":"49.78344000","lon":"-74.84919000"},
{"state":"Quebec","name":"Charlemagne","lat":"45.71678000","lon":"-73.48247000"},
{"state":"Quebec","name":"Château-Richer","lat":"46.96031000","lon":"-71.03219000"},
{"state":"Quebec","name":"Châteauguay","lat":"45.38338000","lon":"-73.74919000"},
{"state":"Quebec","name":"Chaudière-Appalaches","lat":"46.55500000","lon":"-70.83080000"},
{"state":"Quebec","name":"Chertsey","lat":"46.07109000","lon":"-73.89095000"},
{"state":"Quebec","name":"Chibougamau","lat":"49.91684000","lon":"-74.36586000"},
{"state":"Quebec","name":"Chute-aux-Outardes","lat":"49.11679000","lon":"-68.39896000"},
{"state":"Quebec","name":"Coaticook","lat":"45.13339000","lon":"-71.79907000"},
{"state":"Quebec","name":"Contrecoeur","lat":"45.85008000","lon":"-73.23245000"},
{"state":"Quebec","name":"Cookshire","lat":"45.41536000","lon":"-71.62962000"},
{"state":"Quebec","name":"Cookshire-Eaton","lat":"45.41675000","lon":"-71.63240000"},
{"state":"Quebec","name":"Côte-Nord","lat":"50.86683000","lon":"-65.81541000"},
{"state":"Quebec","name":"Côte-Saint-Luc","lat":"45.46536000","lon":"-73.66585000"},
{"state":"Quebec","name":"Coteau-du-Lac","lat":"45.30008000","lon":"-74.18253000"},
{"state":"Quebec","name":"Cowansville","lat":"45.20008000","lon":"-72.74913000"},
{"state":"Quebec","name":"Crabtree","lat":"45.96677000","lon":"-73.46586000"},
{"state":"Quebec","name":"Danville","lat":"45.78337000","lon":"-72.01580000"},
{"state":"Quebec","name":"Daveluyville","lat":"46.20006000","lon":"-72.13239000"},
{"state":"Quebec","name":"Delson","lat":"45.36678000","lon":"-73.54917000"},
{"state":"Quebec","name":"Deux-Montagnes","lat":"45.53455000","lon":"-73.90168000"},
{"state":"Quebec","name":"Disraeli","lat":"45.90007000","lon":"-71.34907000"},
{"state":"Quebec","name":"Dolbeau-Mistassini","lat":"48.87860000","lon":"-72.23142000"},
{"state":"Quebec","name":"Dollard-Des Ormeaux","lat":"45.49452000","lon":"-73.82419000"},
{"state":"Quebec","name":"Donnacona","lat":"46.68042000","lon":"-71.72390000"},
{"state":"Quebec","name":"Dorval","lat":"45.44730000","lon":"-73.75335000"},
{"state":"Quebec","name":"Drummondville","lat":"45.88336000","lon":"-72.48241000"},
{"state":"Quebec","name":"Dunham","lat":"45.13338000","lon":"-72.79913000"},
{"state":"Quebec","name":"East Angus","lat":"45.48338000","lon":"-71.66577000"},
{"state":"Quebec","name":"East Broughton","lat":"46.21358000","lon":"-71.07674000"},
{"state":"Quebec","name":"Farnham","lat":"45.28338000","lon":"-72.98244000"},
{"state":"Quebec","name":"Ferme-Neuve","lat":"46.70011000","lon":"-75.44929000"},
{"state":"Quebec","name":"Fermont","lat":"52.78345000","lon":"-67.08204000"},
{"state":"Quebec","name":"Forestville","lat":"48.73808000","lon":"-69.08478000"},
{"state":"Quebec","name":"Fort-Coulonge","lat":"45.85011000","lon":"-76.73272000"},
{"state":"Quebec","name":"Fossambault-sur-le-Lac","lat":"46.87662000","lon":"-71.61541000"},
{"state":"Quebec","name":"Franklin","lat":"45.03338000","lon":"-73.91591000"},
{"state":"Quebec","name":"Gaspé","lat":"48.83341000","lon":"-64.48194000"},
{"state":"Quebec","name":"Gaspésie-Îles-de-la-Madeleine","lat":"48.87555000","lon":"-65.40710000"},
{"state":"Quebec","name":"Gatineau","lat":"45.47723000","lon":"-75.70164000"},
{"state":"Quebec","name":"Godefroy","lat":"51.75012000","lon":"-68.08213000"},
{"state":"Quebec","name":"Granby","lat":"45.40008000","lon":"-72.73243000"},
{"state":"Quebec","name":"Hampstead","lat":"45.48064000","lon":"-73.66307000"},
{"state":"Quebec","name":"Hauterive","lat":"49.19572000","lon":"-68.25813000"},
{"state":"Quebec","name":"Havre-Saint-Pierre","lat":"50.24342000","lon":"-63.60264000"},
{"state":"Quebec","name":"Hérouxville","lat":"46.66617000","lon":"-72.62512000"},
{"state":"Quebec","name":"Hudson","lat":"45.45008000","lon":"-74.14922000"},
{"state":"Quebec","name":"Huntingdon","lat":"45.08339000","lon":"-74.16593000"},
{"state":"Quebec","name":"Joliette","lat":"46.01640000","lon":"-73.42360000"},
{"state":"Quebec","name":"Jonquière","lat":"48.41648000","lon":"-71.24884000"},
{"state":"Quebec","name":"Kingsey Falls","lat":"45.85007000","lon":"-72.06580000"},
{"state":"Quebec","name":"Kirkland","lat":"45.45008000","lon":"-73.86586000"},
{"state":"Quebec","name":"L'Ancienne-Lorette","lat":"46.79392000","lon":"-71.35191000"},
{"state":"Quebec","name":"L'Ange-Gardien","lat":"46.91976000","lon":"-71.08253000"},
{"state":"Quebec","name":"L'Ascension-de-Notre-Seigneur","lat":"48.68339000","lon":"-71.66580000"},
{"state":"Quebec","name":"L'Assomption","lat":"45.82318000","lon":"-73.42940000"},
{"state":"Quebec","name":"L'Épiphanie","lat":"45.85008000","lon":"-73.48246000"},
{"state":"Quebec","name":"L'Île-Perrot","lat":"45.38338000","lon":"-73.94920000"},
{"state":"Quebec","name":"La Conception","lat":"46.15009000","lon":"-74.69925000"},
{"state":"Quebec","name":"La Haute-Saint-Charles","lat":"46.89028000","lon":"-71.37222000"},
{"state":"Quebec","name":"La Malbaie","lat":"47.65400000","lon":"-70.15268000"},
{"state":"Quebec","name":"La Minerve","lat":"46.25009000","lon":"-74.93257000"},
{"state":"Quebec","name":"La Pocatière","lat":"47.36733000","lon":"-70.03484000"},
{"state":"Quebec","name":"La Prairie","lat":"45.41678000","lon":"-73.49917000"},
{"state":"Quebec","name":"La Sarre","lat":"48.80019000","lon":"-79.19964000"},
{"state":"Quebec","name":"La Tuque","lat":"47.43337000","lon":"-72.78240000"},
{"state":"Quebec","name":"Labelle","lat":"46.28339000","lon":"-74.73255000"},
{"state":"Quebec","name":"Lac-Alouette","lat":"45.81698000","lon":"-73.95920000"},
{"state":"Quebec","name":"Lac-Brome","lat":"45.21678000","lon":"-72.51581000"},
{"state":"Quebec","name":"Lac-Connelly","lat":"45.89788000","lon":"-73.97230000"},
{"state":"Quebec","name":"Lac-Lapierre","lat":"45.89837000","lon":"-73.77308000"},
{"state":"Quebec","name":"Lac-Mégantic","lat":"45.58338000","lon":"-70.88234000"},
{"state":"Quebec","name":"Lac-Simon","lat":"46.15699000","lon":"-74.74129000"},
{"state":"Quebec","name":"Lachute","lat":"45.65008000","lon":"-74.33253000"},
{"state":"Quebec","name":"Lacolle","lat":"45.08338000","lon":"-73.36585000"},
{"state":"Quebec","name":"Lanoraie","lat":"45.96677000","lon":"-73.21585000"},
{"state":"Quebec","name":"Laval","lat":"45.56995000","lon":"-73.69200000"},
{"state":"Quebec","name":"Lavaltrie","lat":"45.88338000","lon":"-73.28245000"},
{"state":"Quebec","name":"Le Bic","lat":"48.37549000","lon":"-68.69415000"},
{"state":"Quebec","name":"le Plateau","lat":"45.43514000","lon":"-75.78030000"},
{"state":"Quebec","name":"Lebel-sur-Quévillon","lat":"49.05018000","lon":"-76.98273000"},
{"state":"Quebec","name":"Leblanc","lat":"48.26683000","lon":"-74.34914000"},
{"state":"Quebec","name":"Les Cèdres","lat":"45.30008000","lon":"-74.04922000"},
{"state":"Quebec","name":"Les Coteaux","lat":"45.28338000","lon":"-74.23254000"},
{"state":"Quebec","name":"Les Escoumins","lat":"48.35191000","lon":"-69.40724000"},
{"state":"Quebec","name":"Lévis","lat":"46.80326000","lon":"-71.17793000"},
{"state":"Quebec","name":"Linière","lat":"46.00007000","lon":"-70.41572000"},
{"state":"Quebec","name":"Longueuil","lat":"45.53121000","lon":"-73.51806000"},
{"state":"Quebec","name":"Lorraine","lat":"45.68338000","lon":"-73.78249000"},
{"state":"Quebec","name":"Louiseville","lat":"46.25594000","lon":"-72.94145000"},
{"state":"Quebec","name":"Luceville","lat":"48.54498000","lon":"-68.39658000"},
{"state":"Quebec","name":"Macamic","lat":"48.75018000","lon":"-78.99962000"},
{"state":"Quebec","name":"Magog","lat":"45.26678000","lon":"-72.14909000"},
{"state":"Quebec","name":"Malartic","lat":"48.13348000","lon":"-78.13283000"},
{"state":"Quebec","name":"Maliotenam","lat":"50.21119000","lon":"-66.18164000"},
{"state":"Quebec","name":"Manawan","lat":"47.22029000","lon":"-74.38606000"},
{"state":"Quebec","name":"Mandeville","lat":"46.36677000","lon":"-73.34915000"},
{"state":"Quebec","name":"Maniwaki","lat":"46.38341000","lon":"-75.96605000"},
{"state":"Quebec","name":"Maria","lat":"48.17490000","lon":"-65.98595000"},
{"state":"Quebec","name":"Marieville","lat":"45.43338000","lon":"-73.16585000"},
{"state":"Quebec","name":"Mascouche","lat":"45.74965000","lon":"-73.59956000"},
{"state":"Quebec","name":"Maskinongé","lat":"46.22860000","lon":"-73.01917000"},
{"state":"Quebec","name":"Matagami","lat":"49.75018000","lon":"-77.63277000"},
{"state":"Quebec","name":"Matane","lat":"48.82857000","lon":"-67.52197000"},
{"state":"Quebec","name":"Mauricie","lat":"47.55009000","lon":"-73.41583000"},
{"state":"Quebec","name":"Melocheville","lat":"45.31726000","lon":"-73.93710000"},
{"state":"Quebec","name":"Mercier","lat":"45.31678000","lon":"-73.74919000"},
{"state":"Quebec","name":"Métabetchouan","lat":"48.36679000","lon":"-72.01583000"},
{"state":"Quebec","name":"Metabetchouan-Lac-a-la-Croix","lat":"48.41000000","lon":"-71.78000000"},
{"state":"Quebec","name":"Mirabel","lat":"45.65008000","lon":"-74.08251000"},
{"state":"Quebec","name":"Mistissini","lat":"50.41667000","lon":"-73.88333000"},
{"state":"Quebec","name":"Mont-Joli","lat":"48.58388000","lon":"-68.19214000"},
{"state":"Quebec","name":"Mont-Laurier","lat":"46.55011000","lon":"-75.49930000"},
{"state":"Quebec","name":"Mont-Royal","lat":"45.51675000","lon":"-73.64918000"},
{"state":"Quebec","name":"Mont-Saint-Grégoire","lat":"45.33338000","lon":"-73.16585000"},
{"state":"Quebec","name":"Mont-Saint-Hilaire","lat":"45.56515000","lon":"-73.18680000"},
{"state":"Quebec","name":"Mont-Tremblant","lat":"46.21274000","lon":"-74.58438000"},
{"state":"Quebec","name":"Montmagny","lat":"46.98043000","lon":"-70.55493000"},
{"state":"Quebec","name":"Montréal","lat":"45.50008000","lon":"-73.68248000"},
{"state":"Quebec","name":"Montréal-Est","lat":"45.63202000","lon":"-73.50750000"},
{"state":"Quebec","name":"Montréal-Ouest","lat":"45.45286000","lon":"-73.64918000"},
{"state":"Quebec","name":"Morin-Heights","lat":"45.90009000","lon":"-74.24922000"},
{"state":"Quebec","name":"Napierville","lat":"45.18648000","lon":"-73.40468000"},
{"state":"Quebec","name":"Neuville","lat":"46.69823000","lon":"-71.58275000"},
{"state":"Quebec","name":"New Carlisle","lat":"48.00956000","lon":"-65.33621000"},
{"state":"Quebec","name":"New-Richmond","lat":"48.16059000","lon":"-65.85823000"},
{"state":"Quebec","name":"Nicolet","lat":"46.21676000","lon":"-72.61582000"},
{"state":"Quebec","name":"Nord-du-Québec","lat":"51.96200000","lon":"-74.89610000"},
{"state":"Quebec","name":"Normandin","lat":"48.83328000","lon":"-72.53209000"},
{"state":"Quebec","name":"Notre-Dame-de-Grâce","lat":"45.47675000","lon":"-73.61432000"},
{"state":"Quebec","name":"Notre-Dame-de-l'Île-Perrot","lat":"45.36678000","lon":"-73.93250000"},
{"state":"Quebec","name":"Notre-Dame-des-Prairies","lat":"46.05007000","lon":"-73.43245000"},
{"state":"Quebec","name":"Notre-Dame-du-Lac","lat":"46.75012000","lon":"-79.04961000"},
{"state":"Quebec","name":"Notre-Dame-du-Mont-Carmel","lat":"46.01680000","lon":"-75.08259000"},
{"state":"Quebec","name":"Oka","lat":"45.46489000","lon":"-74.08892000"},
{"state":"Quebec","name":"Ormstown","lat":"45.13338000","lon":"-73.99922000"},
{"state":"Quebec","name":"Otterburn Park","lat":"45.53338000","lon":"-73.21585000"},
{"state":"Quebec","name":"Outaouais","lat":"46.26681000","lon":"-76.31606000"},
{"state":"Quebec","name":"Papineauville","lat":"45.61680000","lon":"-75.01599000"},
{"state":"Quebec","name":"Parc-Boutin","lat":"45.29209000","lon":"-73.26154000"},
{"state":"Quebec","name":"Piedmont","lat":"45.90008000","lon":"-74.13251000"},
{"state":"Quebec","name":"Pierreville","lat":"46.07034000","lon":"-72.81125000"},
{"state":"Quebec","name":"Pincourt","lat":"45.38338000","lon":"-73.98250000"},
{"state":"Quebec","name":"Plessisville","lat":"46.21856000","lon":"-71.76201000"},
{"state":"Quebec","name":"Pohénégamook","lat":"47.46315000","lon":"-69.22666000"},
{"state":"Quebec","name":"Pointe-Calumet","lat":"45.50008000","lon":"-73.96590000"},
{"state":"Quebec","name":"Pointe-Claire","lat":"45.44868000","lon":"-73.81669000"},
{"state":"Quebec","name":"Pointe-du-Lac","lat":"48.50009000","lon":"-71.78241000"},
{"state":"Quebec","name":"Pont Rouge","lat":"48.88332000","lon":"-72.08247000"},
{"state":"Quebec","name":"Pont-Rouge","lat":"46.75468000","lon":"-71.69566000"},
{"state":"Quebec","name":"Port-Cartier","lat":"50.03339000","lon":"-66.86545000"},
{"state":"Quebec","name":"Portneuf","lat":"46.69058000","lon":"-71.89011000"},
{"state":"Quebec","name":"Prévost","lat":"45.86678000","lon":"-74.08251000"},
{"state":"Quebec","name":"Princeville","lat":"46.17163000","lon":"-71.87462000"},
{"state":"Quebec","name":"Québec","lat":"46.81228000","lon":"-71.21454000"},
{"state":"Quebec","name":"Rawdon","lat":"46.05007000","lon":"-73.71587000"},
{"state":"Quebec","name":"Repentigny","lat":"45.74222000","lon":"-73.45008000"},
{"state":"Quebec","name":"Richelieu","lat":"45.44336000","lon":"-73.24602000"},
{"state":"Quebec","name":"Richmond","lat":"45.66677000","lon":"-72.14910000"},
{"state":"Quebec","name":"Rigaud","lat":"45.47927000","lon":"-74.30238000"},
{"state":"Quebec","name":"Rimouski","lat":"48.44879000","lon":"-68.52396000"},
{"state":"Quebec","name":"Rivière-du-Loup","lat":"47.82699000","lon":"-69.54243000"},
{"state":"Quebec","name":"Rivière-Rouge","lat":"46.41679000","lon":"-74.86596000"},
{"state":"Quebec","name":"Roberval","lat":"48.51680000","lon":"-72.23244000"},
{"state":"Quebec","name":"Rock Forest","lat":"45.35699000","lon":"-71.99676000"},
{"state":"Quebec","name":"Rosemère","lat":"45.63338000","lon":"-73.79919000"},
{"state":"Quebec","name":"Rougemont","lat":"45.43338000","lon":"-73.04914000"},
{"state":"Quebec","name":"Rouyn-Noranda","lat":"48.23656000","lon":"-79.02311000"},
{"state":"Quebec","name":"Sacré-Coeur","lat":"48.22970000","lon":"-69.80061000"},
{"state":"Quebec","name":"Saguenay","lat":"48.41675000","lon":"-71.06573000"},
{"state":"Quebec","name":"Saint-Adolphe-d'Howard","lat":"45.96679000","lon":"-74.33253000"},
{"state":"Quebec","name":"Saint-Alexandre","lat":"45.50010000","lon":"-75.74935000"},
{"state":"Quebec","name":"Saint-Amable","lat":"45.65008000","lon":"-73.29916000"},
{"state":"Quebec","name":"Saint-Ambroise","lat":"48.55009000","lon":"-71.33238000"},
{"state":"Quebec","name":"Saint-André-Avellin","lat":"45.71680000","lon":"-75.06599000"},
{"state":"Quebec","name":"Saint-Anselme","lat":"46.62922000","lon":"-70.97340000"},
{"state":"Quebec","name":"Saint-Antoine-de-Tilly","lat":"46.66346000","lon":"-71.57335000"},
{"state":"Quebec","name":"Saint-Augustin","lat":"51.22602000","lon":"-58.65017000"},
{"state":"Quebec","name":"Saint-Augustin-de-Desmaures","lat":"46.74064000","lon":"-71.45131000"},
{"state":"Quebec","name":"Saint-Barnabé-Sud","lat":"45.72977000","lon":"-72.92244000"},
{"state":"Quebec","name":"Saint-Basile-le-Grand","lat":"45.53338000","lon":"-73.28246000"},
{"state":"Quebec","name":"Saint-Boniface","lat":"46.50011000","lon":"-75.98264000"},
{"state":"Quebec","name":"Saint-Bruno","lat":"48.46679000","lon":"-71.64910000"},
{"state":"Quebec","name":"Saint-Bruno-de-Guigues","lat":"47.46685000","lon":"-79.43296000"},
{"state":"Quebec","name":"Saint-Bruno-de-Montarville","lat":"45.53341000","lon":"-73.34916000"},
{"state":"Quebec","name":"Saint-Canut","lat":"45.71502000","lon":"-74.08376000"},
{"state":"Quebec","name":"Saint-Césaire","lat":"45.41678000","lon":"-72.99914000"},
{"state":"Quebec","name":"Saint-Charles","lat":"45.70288000","lon":"-73.55417000"},
{"state":"Quebec","name":"Saint-Côme-Linière","lat":"46.06677000","lon":"-70.51573000"},
{"state":"Quebec","name":"Saint-Constant","lat":"45.36678000","lon":"-73.56588000"},
{"state":"Quebec","name":"Saint-Cyrille-de-Wendover","lat":"45.93336000","lon":"-72.43241000"},
{"state":"Quebec","name":"Saint-Damase","lat":"45.53341000","lon":"-72.99914000"},
{"state":"Quebec","name":"Saint-Denis-sur-Richelieu","lat":"45.78338000","lon":"-73.14915000"},
{"state":"Quebec","name":"Saint-Donat-de-Montcalm","lat":"46.31868000","lon":"-74.22171000"},
{"state":"Quebec","name":"Saint-Édouard","lat":"45.23338000","lon":"-73.51588000"},
{"state":"Quebec","name":"Saint-Elzéar","lat":"45.60338000","lon":"-73.72698000"},
{"state":"Quebec","name":"Saint-Éphrem-de-Beauce","lat":"46.06677000","lon":"-70.94905000"},
{"state":"Quebec","name":"Saint-Eustache","lat":"45.56500000","lon":"-73.90554000"},
{"state":"Quebec","name":"Saint-Félicien","lat":"48.65007000","lon":"-72.44906000"},
{"state":"Quebec","name":"Saint-Félix-de-Valois","lat":"46.16977000","lon":"-73.42525000"},
{"state":"Quebec","name":"Saint-Gabriel","lat":"46.30007000","lon":"-73.38245000"},
{"state":"Quebec","name":"Saint-Gédéon","lat":"48.50009000","lon":"-71.76581000"},
{"state":"Quebec","name":"Saint-Georges","lat":"46.11353000","lon":"-70.66526000"},
{"state":"Quebec","name":"Saint-Germain-de-Grantham","lat":"45.83337000","lon":"-72.56582000"},
{"state":"Quebec","name":"Saint-Henri","lat":"46.69314000","lon":"-71.06927000"},
{"state":"Quebec","name":"Saint-Hippolyte","lat":"45.93338000","lon":"-74.01590000"},
{"state":"Quebec","name":"Saint-Honoré","lat":"48.53338000","lon":"-71.08236000"},
{"state":"Quebec","name":"Saint-Hyacinthe","lat":"45.63076000","lon":"-72.95699000"},
{"state":"Quebec","name":"Saint-Isidore","lat":"47.43345000","lon":"-79.29965000"},
{"state":"Quebec","name":"Saint-Jacques-le-Mineur","lat":"45.28338000","lon":"-73.41587000"},
{"state":"Quebec","name":"Saint-Jean-Baptiste","lat":"45.38060000","lon":"-74.01210000"},
{"state":"Quebec","name":"Saint-Jean-sur-Richelieu","lat":"45.30713000","lon":"-73.26259000"},
{"state":"Quebec","name":"Saint-Jérôme","lat":"45.78036000","lon":"-74.00365000"},
{"state":"Quebec","name":"Saint-Joseph","lat":"45.95817000","lon":"-73.22025000"},
{"state":"Quebec","name":"Saint-Joseph-de-Beauce","lat":"46.30000000","lon":"-70.86667000"},
{"state":"Quebec","name":"Saint-Joseph-de-Coleraine","lat":"45.96677000","lon":"-71.36577000"},
{"state":"Quebec","name":"Saint-Joseph-du-Lac","lat":"45.53338000","lon":"-73.99920000"},
{"state":"Quebec","name":"Saint-Lambert-de-Lauzon","lat":"46.58624000","lon":"-71.20892000"},
{"state":"Quebec","name":"Saint-Laurent","lat":"45.50008000","lon":"-73.66585000"},
{"state":"Quebec","name":"Saint-Lazare","lat":"45.40008000","lon":"-74.13256000"},
{"state":"Quebec","name":"Saint-Léonard","lat":"45.58773000","lon":"-73.59501000"},
{"state":"Quebec","name":"Saint-Léonard-d'Aston","lat":"46.10006000","lon":"-72.36580000"},
{"state":"Quebec","name":"Saint-Liboire","lat":"45.65068000","lon":"-72.76348000"},
{"state":"Quebec","name":"Saint-Lin-Laurentides","lat":"45.85008000","lon":"-73.76588000"},
{"state":"Quebec","name":"Saint-Marc-des-Carrières","lat":"46.68335000","lon":"-72.04910000"},
{"state":"Quebec","name":"Saint-Mathieu","lat":"45.31678000","lon":"-73.51587000"},
{"state":"Quebec","name":"Saint-Michel","lat":"45.56758000","lon":"-73.62168000"},
{"state":"Quebec","name":"Saint-Michel-des-Saints","lat":"46.67702000","lon":"-73.91881000"},
{"state":"Quebec","name":"Saint-Nazaire","lat":"48.58944000","lon":"-71.55247000"},
{"state":"Quebec","name":"Saint-Norbert","lat":"46.16949000","lon":"-73.31494000"},
{"state":"Quebec","name":"Saint-Pacôme","lat":"47.40457000","lon":"-69.95025000"},
{"state":"Quebec","name":"Saint-Pascal","lat":"47.51813000","lon":"-69.80301000"},
{"state":"Quebec","name":"Saint-Philippe-de-La Prairie","lat":"45.35723000","lon":"-73.47706000"},
{"state":"Quebec","name":"Saint-Pie","lat":"45.50277000","lon":"-72.90890000"},
{"state":"Quebec","name":"Saint-Pierre-les-Becquets","lat":"46.50005000","lon":"-72.19910000"},
{"state":"Quebec","name":"Saint-Prime","lat":"48.58339000","lon":"-72.33244000"},
{"state":"Quebec","name":"Saint-Raphaël","lat":"46.25011000","lon":"-76.01605000"},
{"state":"Quebec","name":"Saint-Raymond","lat":"45.46698000","lon":"-73.60948000"},
{"state":"Quebec","name":"Saint-Rémi","lat":"45.26678000","lon":"-73.61588000"},
{"state":"Quebec","name":"Saint-Rémi-de-Tingwick","lat":"45.86677000","lon":"-71.81581000"},
{"state":"Quebec","name":"Saint-Sauveur","lat":"45.88686000","lon":"-74.17943000"},
{"state":"Quebec","name":"Saint-Sauveur-des-Monts","lat":"45.90008000","lon":"-74.16591000"},
{"state":"Quebec","name":"Saint-Siméon","lat":"47.84431000","lon":"-69.87837000"},
{"state":"Quebec","name":"Saint-Thomas","lat":"46.01677000","lon":"-73.34915000"},
{"state":"Quebec","name":"Saint-Tite","lat":"46.73336000","lon":"-72.56581000"},
{"state":"Quebec","name":"Saint-Victor","lat":"45.61118000","lon":"-73.51527000"},
{"state":"Quebec","name":"Saint-Zotique","lat":"45.25009000","lon":"-74.24924000"},
{"state":"Quebec","name":"Sainte Catherine de la Jacques Cartier","lat":"46.85244000","lon":"-71.62056000"},
{"state":"Quebec","name":"Sainte-Adèle","lat":"45.95008000","lon":"-74.13251000"},
{"state":"Quebec","name":"Sainte-Agathe-des-Monts","lat":"46.05009000","lon":"-74.28252000"},
{"state":"Quebec","name":"Sainte-Anne-de-Bellevue","lat":"45.40618000","lon":"-73.94560000"},
{"state":"Quebec","name":"Sainte-Anne-des-Monts","lat":"49.12402000","lon":"-66.49243000"},
{"state":"Quebec","name":"Sainte-Anne-des-Plaines","lat":"45.76468000","lon":"-73.81156000"},
{"state":"Quebec","name":"Sainte-Béatrix","lat":"46.20007000","lon":"-73.61587000"},
{"state":"Quebec","name":"Sainte-Catherine","lat":"45.40008000","lon":"-73.58248000"},
{"state":"Quebec","name":"Sainte-Croix","lat":"45.13368000","lon":"-72.80083000"},
{"state":"Quebec","name":"Sainte-Élisabeth","lat":"46.09502000","lon":"-73.35176000"},
{"state":"Quebec","name":"Sainte-Julie","lat":"45.58338000","lon":"-73.33246000"},
{"state":"Quebec","name":"Sainte-Julienne","lat":"45.96677000","lon":"-73.71587000"},
{"state":"Quebec","name":"Sainte-Madeleine","lat":"45.60008000","lon":"-73.09914000"},
{"state":"Quebec","name":"Sainte-Marie","lat":"46.43401000","lon":"-71.01168000"},
{"state":"Quebec","name":"Sainte-Marthe-sur-le-Lac","lat":"45.53338000","lon":"-73.93250000"},
{"state":"Quebec","name":"Sainte-Martine","lat":"45.25008000","lon":"-73.79919000"},
{"state":"Quebec","name":"Sainte-Sophie","lat":"45.81678000","lon":"-73.89919000"},
{"state":"Quebec","name":"Sainte-Thècle","lat":"46.81676000","lon":"-72.49911000"},
{"state":"Quebec","name":"Sainte-Thérèse","lat":"45.63922000","lon":"-73.82757000"},
{"state":"Quebec","name":"Salaberry-de-Valleyfield","lat":"45.25008000","lon":"-74.13253000"},
{"state":"Quebec","name":"Salluit","lat":"62.20411000","lon":"-75.64344000"},
{"state":"Quebec","name":"Senneterre","lat":"48.39302000","lon":"-77.23951000"},
{"state":"Quebec","name":"Sept-Îles","lat":"50.20011000","lon":"-66.38208000"},
{"state":"Quebec","name":"Shannon","lat":"46.88026000","lon":"-71.51464000"},
{"state":"Quebec","name":"Shawinigan","lat":"46.56675000","lon":"-72.74913000"},
{"state":"Quebec","name":"Shawville","lat":"45.60011000","lon":"-76.48270000"},
{"state":"Quebec","name":"Sherbrooke","lat":"45.40008000","lon":"-71.89908000"},
{"state":"Quebec","name":"Sorel-Tracy","lat":"46.04178000","lon":"-73.11358000"},
{"state":"Quebec","name":"St-Jean-Port-Joli","lat":"47.21418000","lon":"-70.26969000"},
{"state":"Quebec","name":"Sutton","lat":"45.10008000","lon":"-72.61582000"},
{"state":"Quebec","name":"Témiscaming","lat":"46.72122000","lon":"-79.09712000"},
{"state":"Quebec","name":"Terrasse-des-Pins","lat":"45.86449000","lon":"-74.06627000"},
{"state":"Quebec","name":"Terrebonne","lat":"45.70004000","lon":"-73.64732000"},
{"state":"Quebec","name":"Thetford-Mines","lat":"46.09371000","lon":"-71.30539000"},
{"state":"Quebec","name":"Thurso","lat":"45.60010000","lon":"-75.24931000"},
{"state":"Quebec","name":"Trois-Rivières","lat":"46.34515000","lon":"-72.54770000"},
{"state":"Quebec","name":"Val-d'Or","lat":"48.09740000","lon":"-77.79737000"},
{"state":"Quebec","name":"Val-David","lat":"46.03338000","lon":"-74.21592000"},
{"state":"Quebec","name":"Val-des-Monts","lat":"45.65010000","lon":"-75.66604000"},
{"state":"Quebec","name":"Val-Morin","lat":"46.00008000","lon":"-74.18251000"},
{"state":"Quebec","name":"Valcourt","lat":"45.50008000","lon":"-72.31581000"},
{"state":"Quebec","name":"Vallée-Jonction","lat":"46.37441000","lon":"-70.91881000"},
{"state":"Quebec","name":"Varennes","lat":"45.68338000","lon":"-73.43246000"},
{"state":"Quebec","name":"Vaudreuil-Dorion","lat":"45.40008000","lon":"-74.03251000"},
{"state":"Quebec","name":"Venise-en-Québec","lat":"45.08338000","lon":"-73.13245000"},
{"state":"Quebec","name":"Verchères","lat":"45.78338000","lon":"-73.34916000"},
{"state":"Quebec","name":"Victoriaville","lat":"46.05007000","lon":"-71.96579000"},
{"state":"Quebec","name":"Ville-Marie","lat":"47.33345000","lon":"-79.43297000"},
{"state":"Quebec","name":"Wakefield","lat":"45.66680000","lon":"-75.83265000"},
{"state":"Quebec","name":"Warwick","lat":"45.95007000","lon":"-71.98240000"},
{"state":"Quebec","name":"Waskaganish","lat":"51.48333000","lon":"-78.75000000"},
{"state":"Quebec","name":"Waswanipi","lat":"49.73346000","lon":"-76.16604000"},
{"state":"Quebec","name":"Waterloo","lat":"45.35008000","lon":"-72.51582000"},
{"state":"Quebec","name":"Weedon Centre","lat":"45.70802000","lon":"-71.45986000"},
{"state":"Quebec","name":"Westmount","lat":"45.48341000","lon":"-73.59918000"},
{"state":"Quebec","name":"Weymontachie","lat":"47.89940000","lon":"-73.77720000"},
{"state":"Quebec","name":"Windsor","lat":"45.56678000","lon":"-71.99909000"},
{"state":"Quebec","name":"Yamachiche","lat":"46.26676000","lon":"-72.83243000"},
{"state":"Saskatchewan","name":"Assiniboia","lat":"49.63336000","lon":"-105.98446000"},
{"state":"Saskatchewan","name":"Biggar","lat":"52.06680000","lon":"-108.00135000"},
{"state":"Saskatchewan","name":"Canora","lat":"51.63328000","lon":"-102.43425000"},
{"state":"Saskatchewan","name":"Carlyle","lat":"49.63334000","lon":"-102.26765000"},
{"state":"Saskatchewan","name":"Dalmeny","lat":"52.33339000","lon":"-106.76792000"},
{"state":"Saskatchewan","name":"Esterhazy","lat":"50.65001000","lon":"-102.08426000"},
{"state":"Saskatchewan","name":"Estevan","lat":"49.13337000","lon":"-102.98422000"},
{"state":"Saskatchewan","name":"Foam Lake","lat":"51.65001000","lon":"-103.53431000"},
{"state":"Saskatchewan","name":"Gravelbourg","lat":"49.88336000","lon":"-106.55122000"},
{"state":"Saskatchewan","name":"Hudson Bay","lat":"52.85003000","lon":"-102.38425000"},
{"state":"Saskatchewan","name":"Humboldt","lat":"52.20005000","lon":"-105.12550000"},
{"state":"Saskatchewan","name":"Indian Head","lat":"50.53336000","lon":"-103.66775000"},
{"state":"Saskatchewan","name":"Kamsack","lat":"51.56668000","lon":"-101.90093000"},
{"state":"Saskatchewan","name":"Kerrobert","lat":"51.91682000","lon":"-109.13479000"},
{"state":"Saskatchewan","name":"Kindersley","lat":"51.46681000","lon":"-109.16818000"},
{"state":"Saskatchewan","name":"La Ronge","lat":"55.10013000","lon":"-105.28422000"},
{"state":"Saskatchewan","name":"Langenburg","lat":"50.84999000","lon":"-101.71763000"},
{"state":"Saskatchewan","name":"Langham","lat":"52.36680000","lon":"-106.96793000"},
{"state":"Saskatchewan","name":"Lanigan","lat":"51.85006000","lon":"-105.03443000"},
{"state":"Saskatchewan","name":"Lumsden","lat":"50.65009000","lon":"-104.86783000"},
{"state":"Saskatchewan","name":"Macklin","lat":"52.33344000","lon":"-109.93484000"},
{"state":"Saskatchewan","name":"Maple Creek","lat":"49.91678000","lon":"-109.48481000"},
{"state":"Saskatchewan","name":"Martensville","lat":"52.28339000","lon":"-106.66792000"},
{"state":"Saskatchewan","name":"Meadow Lake","lat":"54.13348000","lon":"-108.43471000"},
{"state":"Saskatchewan","name":"Melfort","lat":"52.86673000","lon":"-104.61768000"},
{"state":"Saskatchewan","name":"Melville","lat":"50.91671000","lon":"-102.80099000"},
{"state":"Saskatchewan","name":"Moose Jaw","lat":"50.40005000","lon":"-105.53445000"},
{"state":"Saskatchewan","name":"Moosomin","lat":"50.13332000","lon":"-101.66766000"},
{"state":"Saskatchewan","name":"Nipawin","lat":"53.36678000","lon":"-104.00092000"},
{"state":"Saskatchewan","name":"North Battleford","lat":"52.77972000","lon":"-108.29670000"},
{"state":"Saskatchewan","name":"Outlook","lat":"51.50008000","lon":"-107.05128000"},
{"state":"Saskatchewan","name":"Oxbow","lat":"49.23335000","lon":"-102.16760000"},
{"state":"Saskatchewan","name":"Pelican Narrows","lat":"55.16685000","lon":"-102.93410000"},
{"state":"Saskatchewan","name":"Pilot Butte","lat":"50.46678000","lon":"-104.41778000"},
{"state":"Saskatchewan","name":"Preeceville","lat":"51.94998000","lon":"-102.66766000"},
{"state":"Saskatchewan","name":"Prince Albert","lat":"53.20008000","lon":"-105.76772000"},
{"state":"Saskatchewan","name":"Regina","lat":"50.45008000","lon":"-104.61780000"},
{"state":"Saskatchewan","name":"Regina Beach","lat":"50.78338000","lon":"-105.00112000"},
{"state":"Saskatchewan","name":"Rosetown","lat":"51.55010000","lon":"-108.00136000"},
{"state":"Saskatchewan","name":"Rosthern","lat":"52.66679000","lon":"-106.33446000"},
{"state":"Saskatchewan","name":"Saskatoon","lat":"52.13238000","lon":"-106.66892000"},
{"state":"Saskatchewan","name":"Shaunavon","lat":"49.65005000","lon":"-108.41810000"},
{"state":"Saskatchewan","name":"Shellbrook","lat":"53.21679000","lon":"-106.40109000"},
{"state":"Saskatchewan","name":"Swift Current","lat":"50.28337000","lon":"-107.80135000"},
{"state":"Saskatchewan","name":"Tisdale","lat":"52.85002000","lon":"-104.05096000"},
{"state":"Saskatchewan","name":"Unity","lat":"52.45014000","lon":"-109.16816000"},
{"state":"Saskatchewan","name":"Wadena","lat":"51.94999000","lon":"-103.80102000"},
{"state":"Saskatchewan","name":"Warman","lat":"52.31679000","lon":"-106.56791000"},
{"state":"Saskatchewan","name":"Watrous","lat":"51.66677000","lon":"-105.46788000"},
{"state":"Saskatchewan","name":"Weyburn","lat":"49.66675000","lon":"-103.85109000"},
{"state":"Saskatchewan","name":"White City","lat":"50.43338000","lon":"-104.36778000"},
{"state":"Saskatchewan","name":"Wilkie","lat":"52.41683000","lon":"-108.70142000"},
{"state":"Saskatchewan","name":"Wynyard","lat":"51.76674000","lon":"-104.18436000"},
{"state":"Saskatchewan","name":"Yorkton","lat":"51.21670000","lon":"-102.46766000"},
{"state":"Yukon","name":"Dawson City","lat":"64.06013000","lon":"-139.43328000"},
{"state":"Yukon","name":"Haines Junction","lat":"60.75216000","lon":"-137.51082000"},
{"state":"Yukon","name":"Watson Lake","lat":"60.06349000","lon":"-128.70893000"},
{"state":"Yukon","name":"Whitehorse","lat":"60.71611000","lon":"-135.05375000"}]