[{"state":"Bas-Uélé","name":"Aketi","lat":"2.73877000","lon":"23.78326000"},
{"state":"Bas-Uélé","name":"Bondo","lat":"3.81461000","lon":"23.68665000"},
{"state":"Bas-Uélé","name":"Buta","lat":"2.78582000","lon":"24.72997000"},
{"state":"Équateur","name":"Gemena","lat":"3.25651000","lon":"19.77234000"},
{"state":"Équateur","name":"Lisala","lat":"2.15127000","lon":"21.51672000"},
{"state":"Équateur","name":"Lukolela","lat":"-1.06046000","lon":"17.18210000"},
{"state":"Équateur","name":"Mbandaka","lat":"0.04865000","lon":"18.26034000"},
{"state":"Haut-Katanga","name":"Haut Katanga","lat":"-10.46044000","lon":"27.94322000"},
{"state":"Haut-Katanga","name":"Kambove","lat":"-10.87352000","lon":"26.59746000"},
{"state":"Haut-Katanga","name":"Kipushi","lat":"-11.76097000","lon":"27.25135000"},
{"state":"Haut-Katanga","name":"Likasi","lat":"-10.98303000","lon":"26.73840000"},
{"state":"Haut-Katanga","name":"Lubumbashi","lat":"-11.66089000","lon":"27.47938000"},
{"state":"Haut-Lomami","name":"Bukama","lat":"-9.20443000","lon":"25.85475000"},
{"state":"Haut-Lomami","name":"Kamina","lat":"-8.73508000","lon":"24.99798000"},
{"state":"Haut-Uélé","name":"Isiro","lat":"2.77391000","lon":"27.61603000"},
{"state":"Haut-Uélé","name":"Wamba","lat":"2.14838000","lon":"27.99466000"},
{"state":"Haut-Uélé","name":"Watsa","lat":"3.03716000","lon":"29.53551000"},
{"state":"Ituri","name":"Bunia","lat":"1.55941000","lon":"30.25224000"},
{"state":"Kasaï","name":"Ilebo","lat":"-4.33111000","lon":"20.58638000"},
{"state":"Kasaï","name":"Luebo","lat":"-5.35218000","lon":"21.42192000"},
{"state":"Kasaï","name":"Mweka","lat":"-4.85187000","lon":"21.55950000"},
{"state":"Kasaï","name":"Tshikapa","lat":"-6.41621000","lon":"20.79995000"},
{"state":"Kasaï Oriental","name":"Gandajika","lat":"-6.74504000","lon":"23.95328000"},
{"state":"Kasaï Oriental","name":"Kabinda","lat":"-6.13791000","lon":"24.48179000"},
{"state":"Kasaï Oriental","name":"Mbuji-Mayi","lat":"-6.13603000","lon":"23.58979000"},
{"state":"Kinshasa","name":"Kinshasa","lat":"-4.32758000","lon":"15.31357000"},
{"state":"Kinshasa","name":"Masina","lat":"-4.38361000","lon":"15.39139000"},
{"state":"Kongo Central","name":"Boma","lat":"-5.85098000","lon":"13.05364000"},
{"state":"Kongo Central","name":"Kasangulu","lat":"-4.58330000","lon":"15.16554000"},
{"state":"Kongo Central","name":"Matadi","lat":"-5.83861000","lon":"13.46306000"},
{"state":"Kongo Central","name":"Mbanza-Ngungu","lat":"-5.25837000","lon":"14.85838000"},
{"state":"Kongo Central","name":"Moanda","lat":"-5.92753000","lon":"12.37148000"},
{"state":"Kongo Central","name":"Tshela","lat":"-4.99707000","lon":"12.94840000"},
{"state":"Kwango","name":"Kasongo-Lunda","lat":"-6.47833000","lon":"16.81735000"},
{"state":"Kwilu","name":"Bandundu","lat":"-3.31687000","lon":"17.38063000"},
{"state":"Kwilu","name":"Bulungu","lat":"-4.54437000","lon":"18.60364000"},
{"state":"Kwilu","name":"Kikwit","lat":"-5.04098000","lon":"18.81619000"},
{"state":"Kwilu","name":"Mangai","lat":"-4.02328000","lon":"19.53385000"},
{"state":"Lomami","name":"Lubao","lat":"-5.38771000","lon":"25.74885000"},
{"state":"Lomami","name":"Mwene-Ditu","lat":"-7.00906000","lon":"23.45278000"},
{"state":"Mai-Ndombe","name":"Bolobo","lat":"-2.15800000","lon":"16.23249000"},
{"state":"Mai-Ndombe","name":"Inongo","lat":"-1.92750000","lon":"18.28810000"},
{"state":"Mai-Ndombe","name":"Mushie","lat":"-3.01728000","lon":"16.92238000"},
{"state":"Mai-Ndombe","name":"Nioki","lat":"-2.72037000","lon":"17.69001000"},
{"state":"Maniema","name":"Kampene","lat":"-3.59678000","lon":"26.66715000"},
{"state":"Maniema","name":"Kasongo","lat":"-4.42741000","lon":"26.66656000"},
{"state":"Maniema","name":"Kindu","lat":"-2.94373000","lon":"25.92237000"},
{"state":"Mongala","name":"Bumba","lat":"2.18771000","lon":"22.46827000"},
{"state":"Nord-Kivu","name":"Beni","lat":"0.49113000","lon":"29.47306000"},
{"state":"Nord-Kivu","name":"Butembo","lat":"0.14164000","lon":"29.29117000"},
{"state":"Nord-Kivu","name":"Goma","lat":"-1.67409000","lon":"29.22845000"},
{"state":"Nord-Kivu","name":"Sake","lat":"-1.57386000","lon":"29.04339000"},
{"state":"Nord-Ubangi","name":"Bosobolo","lat":"4.18980000","lon":"19.88330000"},
{"state":"Nord-Ubangi","name":"Businga","lat":"3.33863000","lon":"20.88577000"},
{"state":"Nord-Ubangi","name":"Gbadolite","lat":"4.27900000","lon":"21.00284000"},
{"state":"Sankuru","name":"Lodja","lat":"-3.52105000","lon":"23.60050000"},
{"state":"Sankuru","name":"Lusambo","lat":"-4.97503000","lon":"23.44391000"},
{"state":"Sud-Kivu","name":"Bukavu","lat":"-2.49077000","lon":"28.84281000"},
{"state":"Sud-Kivu","name":"Kabare","lat":"-2.49682000","lon":"28.79081000"},
{"state":"Sud-Kivu","name":"Uvira","lat":"-3.39534000","lon":"29.13779000"},
{"state":"Sud-Ubangi","name":"Bongandanga","lat":"1.50695000","lon":"21.07260000"},
{"state":"Sud-Ubangi","name":"Libenge","lat":"3.65332000","lon":"18.63566000"},
{"state":"Tanganyika","name":"Kabalo","lat":"-6.05255000","lon":"26.91430000"},
{"state":"Tanganyika","name":"Kalemie","lat":"-5.94749000","lon":"29.19471000"},
{"state":"Tanganyika","name":"Kongolo","lat":"-5.38532000","lon":"27.00029000"},
{"state":"Tshopo","name":"Basoko","lat":"1.23909000","lon":"23.61598000"},
{"state":"Tshopo","name":"Kisangani","lat":"0.51528000","lon":"25.19099000"},
{"state":"Tshopo","name":"Yangambi","lat":"0.76755000","lon":"24.43973000"},
{"state":"Tshuapa","name":"Boende","lat":"-0.28163000","lon":"20.88053000"}]