[{"state":"Bamingui-Bangoran Prefecture","name":"Bamingui","lat":"7.88897000","lon":"20.04875000"},
{"state":"Bamingui-Bangoran Prefecture","name":"Ndélé","lat":"8.74287000","lon":"20.89108000"},
{"state":"Bangui","name":"Bangui","lat":"4.36122000","lon":"18.55496000"},
{"state":"Basse-Kotto Prefecture","name":"Alindao","lat":"5.02667000","lon":"21.20876000"},
{"state":"Basse-Kotto Prefecture","name":"Kembé","lat":"4.62275000","lon":"21.88645000"},
{"state":"Basse-Kotto Prefecture","name":"Mobaye","lat":"4.31902000","lon":"21.17861000"},
{"state":"Haut-Mbomou Prefecture","name":"Obo","lat":"5.39586000","lon":"26.49211000"},
{"state":"Haut-Mbomou Prefecture","name":"Zemio","lat":"5.03144000","lon":"25.13614000"},
{"state":"Haute-Kotto Prefecture","name":"Bria","lat":"6.54233000","lon":"21.98633000"},
{"state":"Haute-Kotto Prefecture","name":"Ouadda","lat":"8.07771000","lon":"22.40075000"},
{"state":"Kémo Prefecture","name":"Sibut","lat":"5.71801000","lon":"19.07389000"},
{"state":"Lobaye Prefecture","name":"Boda","lat":"4.31887000","lon":"17.46953000"},
{"state":"Lobaye Prefecture","name":"Boganangone","lat":"4.73558000","lon":"17.14047000"},
{"state":"Lobaye Prefecture","name":"Mbaiki","lat":"3.97145000","lon":"17.93352000"},
{"state":"Lobaye Prefecture","name":"Mongoumba","lat":"3.64153000","lon":"18.59364000"},
{"state":"Mambéré-Kadéï","name":"Berberati","lat":"4.31211000","lon":"15.88948000"},
{"state":"Mambéré-Kadéï","name":"Carnot","lat":"4.94273000","lon":"15.87735000"},
{"state":"Mambéré-Kadéï","name":"Gamboula","lat":"4.11775000","lon":"15.13926000"},
{"state":"Mbomou Prefecture","name":"Bangassou","lat":"4.74132000","lon":"22.81838000"},
{"state":"Mbomou Prefecture","name":"Gambo","lat":"4.64816000","lon":"22.26331000"},
{"state":"Mbomou Prefecture","name":"Ouango","lat":"4.31325000","lon":"22.55524000"},
{"state":"Mbomou Prefecture","name":"Rafai","lat":"5.81012000","lon":"24.20305000"},
{"state":"Nana-Grébizi Economic Prefecture","name":"Kaga Bandoro","lat":"6.98961000","lon":"19.18744000"},
{"state":"Nana-Grébizi Economic Prefecture","name":"Kaga-Bandoro","lat":"7.23774000","lon":"19.21819000"},
{"state":"Nana-Mambéré Prefecture","name":"Baoro","lat":"5.66667000","lon":"15.96667000"},
{"state":"Nana-Mambéré Prefecture","name":"Bouar","lat":"5.93404000","lon":"15.59599000"},
{"state":"Ombella-M'Poko Prefecture","name":"Bimbo","lat":"4.25671000","lon":"18.41583000"},
{"state":"Ombella-M'Poko Prefecture","name":"Boali","lat":"4.80048000","lon":"18.12747000"},
{"state":"Ombella-M'Poko Prefecture","name":"Damara","lat":"4.96075000","lon":"18.70350000"},
{"state":"Ouaka Prefecture","name":"Bambari","lat":"5.76795000","lon":"20.67565000"},
{"state":"Ouaka Prefecture","name":"Grimari","lat":"5.73549000","lon":"19.91209000"},
{"state":"Ouaka Prefecture","name":"Ippy","lat":"6.26793000","lon":"21.22468000"},
{"state":"Ouaka Prefecture","name":"Kouango","lat":"4.99337000","lon":"19.96186000"},
{"state":"Ouham Prefecture","name":"Batangafo","lat":"7.30082000","lon":"18.28330000"},
{"state":"Ouham Prefecture","name":"Bossangoa","lat":"6.49263000","lon":"17.45518000"},
{"state":"Ouham Prefecture","name":"Bouca","lat":"6.50734000","lon":"18.27670000"},
{"state":"Ouham Prefecture","name":"Kabo","lat":"7.69937000","lon":"18.62903000"},
{"state":"Ouham-Pendé Prefecture","name":"Bocaranga","lat":"6.76546000","lon":"15.77873000"},
{"state":"Ouham-Pendé Prefecture","name":"Bozoum","lat":"6.31933000","lon":"16.37992000"},
{"state":"Ouham-Pendé Prefecture","name":"Paoua","lat":"7.24269000","lon":"16.44059000"},
{"state":"Sangha-Mbaéré","name":"Nola","lat":"3.52494000","lon":"16.04583000"},
{"state":"Vakaga Prefecture","name":"Birao","lat":"10.28488000","lon":"22.78818000"},
{"state":"Vakaga Prefecture","name":"Ouanda-Djallé","lat":"9.05877000","lon":"22.42741000"}]