[{"state":"Bouenza Department","name":"Kayes","lat":"-4.20493000","lon":"13.28608000"},
{"state":"Bouenza Department","name":"Madingou","lat":"-4.15361000","lon":"13.55000000"},
{"state":"Brazzaville","name":"Brazzaville","lat":"-4.26613000","lon":"15.28318000"},
{"state":"Cuvette Department","name":"Makoua","lat":"0.00694000","lon":"15.63333000"},
{"state":"Cuvette Department","name":"Owando","lat":"-0.48193000","lon":"15.89988000"},
{"state":"Cuvette-Ouest Department","name":"Ewo","lat":"-0.87250000","lon":"14.82056000"},
{"state":"Lékoumou Department","name":"Sibiti","lat":"-3.68192000","lon":"13.34985000"},
{"state":"Likouala Department","name":"Impfondo","lat":"1.61804000","lon":"18.05981000"},
{"state":"Niari Department","name":"Dolisie","lat":"-4.19834000","lon":"12.66664000"},
{"state":"Niari Department","name":"Mossendjo","lat":"-2.94968000","lon":"12.70423000"},
{"state":"Plateaux Department","name":"Djambala","lat":"-2.54472000","lon":"14.75333000"},
{"state":"Plateaux Department","name":"Gamboma","lat":"-1.87639000","lon":"15.86444000"},
{"state":"Pointe-Noire","name":"Loandjili","lat":"-4.75611000","lon":"11.85778000"},
{"state":"Pointe-Noire","name":"Pointe-Noire","lat":"-4.77609000","lon":"11.86352000"},
{"state":"Pool Department","name":"Kinkala","lat":"-4.36139000","lon":"14.76444000"},
{"state":"Sangha Department","name":"Ouésso","lat":"1.61361000","lon":"16.05167000"},
{"state":"Sangha Department","name":"Sémbé","lat":"1.64806000","lon":"14.58056000"}]