[{"state":"Aargau","name":"Aarau","lat":"47.39254000","lon":"8.04422000"},
{"state":"Aargau","name":"Aarburg","lat":"47.32067000","lon":"7.89986000"},
{"state":"Aargau","name":"Aristau","lat":"47.28692000","lon":"8.36356000"},
{"state":"Aargau","name":"Auw","lat":"47.21082000","lon":"8.36583000"},
{"state":"Aargau","name":"Bad Zurzach","lat":"47.58764000","lon":"8.29365000"},
{"state":"Aargau","name":"Baden","lat":"47.47333000","lon":"8.30592000"},
{"state":"Aargau","name":"Berikon","lat":"47.35155000","lon":"8.37232000"},
{"state":"Aargau","name":"Besenbüren","lat":"47.31439000","lon":"8.34586000"},
{"state":"Aargau","name":"Bezirk Aarau","lat":"47.37706000","lon":"8.05235000"},
{"state":"Aargau","name":"Bezirk Baden","lat":"47.45660000","lon":"8.30059000"},
{"state":"Aargau","name":"Bezirk Bremgarten","lat":"47.34927000","lon":"8.33343000"},
{"state":"Aargau","name":"Bezirk Brugg","lat":"47.47776000","lon":"8.17798000"},
{"state":"Aargau","name":"Bezirk Kulm","lat":"47.28757000","lon":"8.13302000"},
{"state":"Aargau","name":"Bezirk Laufenburg","lat":"47.51844000","lon":"8.03878000"},
{"state":"Aargau","name":"Bezirk Lenzburg","lat":"47.37184000","lon":"8.18910000"},
{"state":"Aargau","name":"Bezirk Muri","lat":"47.25233000","lon":"8.35362000"},
{"state":"Aargau","name":"Bezirk Rheinfelden","lat":"47.54048000","lon":"7.83331000"},
{"state":"Aargau","name":"Bezirk Zofingen","lat":"47.28864000","lon":"7.95697000"},
{"state":"Aargau","name":"Bezirk Zurzach","lat":"47.56182000","lon":"8.28020000"},
{"state":"Aargau","name":"Birmenstorf","lat":"47.46152000","lon":"8.24816000"},
{"state":"Aargau","name":"Birr","lat":"47.43432000","lon":"8.20891000"},
{"state":"Aargau","name":"Boniswil","lat":"47.31725000","lon":"8.18963000"},
{"state":"Aargau","name":"Bremgarten","lat":"47.35109000","lon":"8.34214000"},
{"state":"Aargau","name":"Brittnau","lat":"47.25954000","lon":"7.94689000"},
{"state":"Aargau","name":"Brugg","lat":"47.48096000","lon":"8.20869000"},
{"state":"Aargau","name":"Buchs","lat":"47.39358000","lon":"8.08233000"},
{"state":"Aargau","name":"Buttwil","lat":"47.26828000","lon":"8.31064000"},
{"state":"Aargau","name":"Densbüren","lat":"47.45260000","lon":"8.05330000"},
{"state":"Aargau","name":"Dottikon","lat":"47.38437000","lon":"8.23981000"},
{"state":"Aargau","name":"Dürrenäsch","lat":"47.32094000","lon":"8.15874000"},
{"state":"Aargau","name":"Egliswil","lat":"47.34922000","lon":"8.18553000"},
{"state":"Aargau","name":"Ehrendingen","lat":"47.50250000","lon":"8.34729000"},
{"state":"Aargau","name":"Eiken","lat":"47.53361000","lon":"7.98801000"},
{"state":"Aargau","name":"Endingen","lat":"47.53742000","lon":"8.29036000"},
{"state":"Aargau","name":"Frick","lat":"47.51169000","lon":"8.02471000"},
{"state":"Aargau","name":"Gebenstorf","lat":"47.48136000","lon":"8.23949000"},
{"state":"Aargau","name":"Gipf-Oberfrick","lat":"47.49875000","lon":"8.00497000"},
{"state":"Aargau","name":"Gontenschwil","lat":"47.27166000","lon":"8.14396000"},
{"state":"Aargau","name":"Gränichen","lat":"47.35930000","lon":"8.10243000"},
{"state":"Aargau","name":"Hägglingen","lat":"47.38851000","lon":"8.25285000"},
{"state":"Aargau","name":"Hausen","lat":"47.46396000","lon":"8.20988000"},
{"state":"Aargau","name":"Jonen","lat":"47.29750000","lon":"8.39282000"},
{"state":"Aargau","name":"Kaiseraugst","lat":"47.53966000","lon":"7.72605000"},
{"state":"Aargau","name":"Kaisten","lat":"47.54160000","lon":"8.04337000"},
{"state":"Aargau","name":"Killwangen","lat":"47.43223000","lon":"8.35097000"},
{"state":"Aargau","name":"Klingnau","lat":"47.58361000","lon":"8.24880000"},
{"state":"Aargau","name":"Koblenz","lat":"47.60972000","lon":"8.23750000"},
{"state":"Aargau","name":"Kölliken","lat":"47.33337000","lon":"8.02237000"},
{"state":"Aargau","name":"Künten","lat":"47.38887000","lon":"8.33045000"},
{"state":"Aargau","name":"Küttigen","lat":"47.41484000","lon":"8.04979000"},
{"state":"Aargau","name":"Laufenburg","lat":"47.55985000","lon":"8.06225000"},
{"state":"Aargau","name":"Lauffohr (Brugg)","lat":"47.50154000","lon":"8.23122000"},
{"state":"Aargau","name":"Leibstadt","lat":"47.58790000","lon":"8.17611000"},
{"state":"Aargau","name":"Lenzburg","lat":"47.38853000","lon":"8.17503000"},
{"state":"Aargau","name":"Magden","lat":"47.52868000","lon":"7.81128000"},
{"state":"Aargau","name":"Meisterschwanden","lat":"47.29489000","lon":"8.22867000"},
{"state":"Aargau","name":"Mellingen","lat":"47.41903000","lon":"8.27331000"},
{"state":"Aargau","name":"Menziken","lat":"47.23965000","lon":"8.18996000"},
{"state":"Aargau","name":"Merenschwand","lat":"47.25944000","lon":"8.37633000"},
{"state":"Aargau","name":"Möhlin","lat":"47.55915000","lon":"7.84329000"},
{"state":"Aargau","name":"Muhen","lat":"47.33578000","lon":"8.05536000"},
{"state":"Aargau","name":"Mumpf","lat":"47.54563000","lon":"7.92123000"},
{"state":"Aargau","name":"Murgenthal","lat":"47.27145000","lon":"7.83935000"},
{"state":"Aargau","name":"Muri","lat":"47.27428000","lon":"8.33854000"},
{"state":"Aargau","name":"Neuenhof","lat":"47.44985000","lon":"8.32682000"},
{"state":"Aargau","name":"Niederlenz","lat":"47.40079000","lon":"8.17640000"},
{"state":"Aargau","name":"Niederrohrdorf","lat":"47.42409000","lon":"8.30404000"},
{"state":"Aargau","name":"Oberentfelden","lat":"47.35639000","lon":"8.04594000"},
{"state":"Aargau","name":"Oberlunkhofen","lat":"47.31244000","lon":"8.39242000"},
{"state":"Aargau","name":"Oberrohrdorf","lat":"47.41833000","lon":"8.31983000"},
{"state":"Aargau","name":"Oberrüti","lat":"47.16673000","lon":"8.39441000"},
{"state":"Aargau","name":"Obersiggenthal","lat":"47.48750000","lon":"8.29652000"},
{"state":"Aargau","name":"Oftringen","lat":"47.31382000","lon":"7.92533000"},
{"state":"Aargau","name":"Othmarsingen","lat":"47.40125000","lon":"8.21383000"},
{"state":"Aargau","name":"Reinach","lat":"47.25732000","lon":"8.18091000"},
{"state":"Aargau","name":"Rheinfelden","lat":"47.55437000","lon":"7.79403000"},
{"state":"Aargau","name":"Rothrist","lat":"47.30508000","lon":"7.89196000"},
{"state":"Aargau","name":"Rudolfstetten","lat":"47.37101000","lon":"8.38083000"},
{"state":"Aargau","name":"Rupperswil","lat":"47.40131000","lon":"8.12877000"},
{"state":"Aargau","name":"Safenwil","lat":"47.32163000","lon":"7.98254000"},
{"state":"Aargau","name":"Sarmenstorf","lat":"47.31109000","lon":"8.24950000"},
{"state":"Aargau","name":"Schafisheim","lat":"47.37664000","lon":"8.14263000"},
{"state":"Aargau","name":"Schinznach Bad","lat":"47.44992000","lon":"8.16833000"},
{"state":"Aargau","name":"Schinznach Dorf","lat":"47.44650000","lon":"8.14089000"},
{"state":"Aargau","name":"Schöftland","lat":"47.30590000","lon":"8.05119000"},
{"state":"Aargau","name":"Schwaderloch","lat":"47.58541000","lon":"8.14455000"},
{"state":"Aargau","name":"Seengen","lat":"47.32503000","lon":"8.20724000"},
{"state":"Aargau","name":"Seon","lat":"47.34848000","lon":"8.16072000"},
{"state":"Aargau","name":"Sins","lat":"47.19296000","lon":"8.39384000"},
{"state":"Aargau","name":"Spreitenbach","lat":"47.42285000","lon":"8.36792000"},
{"state":"Aargau","name":"Staffelbach","lat":"47.28395000","lon":"8.04208000"},
{"state":"Aargau","name":"Staufen","lat":"47.38197000","lon":"8.16681000"},
{"state":"Aargau","name":"Stein","lat":"47.54403000","lon":"7.95256000"},
{"state":"Aargau","name":"Strengelbach","lat":"47.27917000","lon":"7.92895000"},
{"state":"Aargau","name":"Suhr","lat":"47.37172000","lon":"8.07967000"},
{"state":"Aargau","name":"Sulz","lat":"47.53602000","lon":"8.09628000"},
{"state":"Aargau","name":"Tegerfelden","lat":"47.55809000","lon":"8.28914000"},
{"state":"Aargau","name":"Teufenthal","lat":"47.32896000","lon":"8.11777000"},
{"state":"Aargau","name":"Turgi","lat":"47.49201000","lon":"8.25412000"},
{"state":"Aargau","name":"Uerkheim","lat":"47.30353000","lon":"8.02320000"},
{"state":"Aargau","name":"Unterkulm","lat":"47.30998000","lon":"8.11371000"},
{"state":"Aargau","name":"Unterlunkhofen","lat":"47.32120000","lon":"8.38102000"},
{"state":"Aargau","name":"Untersiggenthal","lat":"47.50213000","lon":"8.25554000"},
{"state":"Aargau","name":"Veltheim","lat":"47.43796000","lon":"8.14722000"},
{"state":"Aargau","name":"Villigen","lat":"47.52682000","lon":"8.21486000"},
{"state":"Aargau","name":"Villmergen","lat":"47.35009000","lon":"8.24762000"},
{"state":"Aargau","name":"Villnachern","lat":"47.47098000","lon":"8.15975000"},
{"state":"Aargau","name":"Vordemwald","lat":"47.27585000","lon":"7.90114000"},
{"state":"Aargau","name":"Waltenschwil","lat":"47.33339000","lon":"8.29791000"},
{"state":"Aargau","name":"Wegenstetten","lat":"47.49797000","lon":"7.93141000"},
{"state":"Aargau","name":"Wettingen","lat":"47.47049000","lon":"8.31636000"},
{"state":"Aargau","name":"Windisch","lat":"47.47899000","lon":"8.21842000"},
{"state":"Aargau","name":"Wittnau","lat":"47.48139000","lon":"7.97577000"},
{"state":"Aargau","name":"Wohlen","lat":"47.35066000","lon":"8.27517000"},
{"state":"Aargau","name":"Wölflinswil","lat":"47.46070000","lon":"7.99835000"},
{"state":"Aargau","name":"Würenlingen","lat":"47.53356000","lon":"8.25666000"},
{"state":"Aargau","name":"Würenlos","lat":"47.44205000","lon":"8.36261000"},
{"state":"Aargau","name":"Zofingen","lat":"47.28779000","lon":"7.94586000"},
{"state":"Appenzell Ausserrhoden","name":"Bezirk Hinterland","lat":"47.36470000","lon":"9.27350000"},
{"state":"Appenzell Ausserrhoden","name":"Bezirk Mittelland","lat":"47.37700000","lon":"9.43469000"},
{"state":"Appenzell Ausserrhoden","name":"Bezirk Vorderland","lat":"47.44167000","lon":"9.53869000"},
{"state":"Appenzell Ausserrhoden","name":"Bühler","lat":"47.37348000","lon":"9.42507000"},
{"state":"Appenzell Ausserrhoden","name":"Gais","lat":"47.36150000","lon":"9.45356000"},
{"state":"Appenzell Ausserrhoden","name":"Heiden","lat":"47.44255000","lon":"9.53293000"},
{"state":"Appenzell Ausserrhoden","name":"Herisau","lat":"47.38615000","lon":"9.27916000"},
{"state":"Appenzell Ausserrhoden","name":"Rehetobel","lat":"47.42611000","lon":"9.48300000"},
{"state":"Appenzell Ausserrhoden","name":"Schwellbrunn","lat":"47.35255000","lon":"9.24894000"},
{"state":"Appenzell Ausserrhoden","name":"Speicher","lat":"47.41090000","lon":"9.44335000"},
{"state":"Appenzell Ausserrhoden","name":"Teufen","lat":"47.39080000","lon":"9.38644000"},
{"state":"Appenzell Ausserrhoden","name":"Trogen","lat":"47.40782000","lon":"9.46498000"},
{"state":"Appenzell Ausserrhoden","name":"Urnäsch","lat":"47.31669000","lon":"9.27950000"},
{"state":"Appenzell Ausserrhoden","name":"Waldstatt","lat":"47.35627000","lon":"9.28345000"},
{"state":"Appenzell Ausserrhoden","name":"Walzenhausen","lat":"47.44867000","lon":"9.60495000"},
{"state":"Appenzell Innerrhoden","name":"Appenzell","lat":"47.33103000","lon":"9.40996000"},
{"state":"Appenzell Innerrhoden","name":"Gonten","lat":"47.32725000","lon":"9.34705000"},
{"state":"Appenzell Innerrhoden","name":"Haslen","lat":"47.36931000","lon":"9.36752000"},
{"state":"Appenzell Innerrhoden","name":"Oberegg","lat":"47.42531000","lon":"9.55134000"},
{"state":"Basel-Land","name":"Aesch","lat":"47.47104000","lon":"7.59730000"},
{"state":"Basel-Land","name":"Allschwil","lat":"47.55074000","lon":"7.53599000"},
{"state":"Basel-Land","name":"Arisdorf","lat":"47.51323000","lon":"7.76515000"},
{"state":"Basel-Land","name":"Arlesheim","lat":"47.49412000","lon":"7.61979000"},
{"state":"Basel-Land","name":"Bezirk Arlesheim","lat":"47.51668000","lon":"7.58733000"},
{"state":"Basel-Land","name":"Bezirk Laufen","lat":"47.42324000","lon":"7.48750000"},
{"state":"Basel-Land","name":"Bezirk Liestal","lat":"47.48124000","lon":"7.72714000"},
{"state":"Basel-Land","name":"Bezirk Sissach","lat":"47.44237000","lon":"7.84871000"},
{"state":"Basel-Land","name":"Bezirk Waldenburg","lat":"47.39367000","lon":"7.74137000"},
{"state":"Basel-Land","name":"Binningen","lat":"47.54021000","lon":"7.56932000"},
{"state":"Basel-Land","name":"Birsfelden","lat":"47.55290000","lon":"7.62322000"},
{"state":"Basel-Land","name":"Bottmingen","lat":"47.52343000","lon":"7.57211000"},
{"state":"Basel-Land","name":"Brislach","lat":"47.41763000","lon":"7.54340000"},
{"state":"Basel-Land","name":"Bubendorf","lat":"47.44586000","lon":"7.73759000"},
{"state":"Basel-Land","name":"Buus","lat":"47.50635000","lon":"7.86414000"},
{"state":"Basel-Land","name":"Diegten","lat":"47.41380000","lon":"7.81085000"},
{"state":"Basel-Land","name":"Ettingen","lat":"47.48225000","lon":"7.54654000"},
{"state":"Basel-Land","name":"Frenkendorf","lat":"47.50686000","lon":"7.71648000"},
{"state":"Basel-Land","name":"Füllinsdorf","lat":"47.50688000","lon":"7.73129000"},
{"state":"Basel-Land","name":"Gelterkinden","lat":"47.46497000","lon":"7.85174000"},
{"state":"Basel-Land","name":"Grellingen","lat":"47.44231000","lon":"7.58906000"},
{"state":"Basel-Land","name":"Hölstein","lat":"47.42290000","lon":"7.77041000"},
{"state":"Basel-Land","name":"Itingen","lat":"47.46651000","lon":"7.78502000"},
{"state":"Basel-Land","name":"Langenbruck","lat":"47.34917000","lon":"7.76802000"},
{"state":"Basel-Land","name":"Läufelfingen","lat":"47.39457000","lon":"7.85578000"},
{"state":"Basel-Land","name":"Laufen","lat":"47.42193000","lon":"7.49946000"},
{"state":"Basel-Land","name":"Lausen","lat":"47.47139000","lon":"7.76030000"},
{"state":"Basel-Land","name":"Liesberg","lat":"47.40398000","lon":"7.42787000"},
{"state":"Basel-Land","name":"Liestal","lat":"47.48455000","lon":"7.73446000"},
{"state":"Basel-Land","name":"Münchenstein","lat":"47.51848000","lon":"7.60966000"},
{"state":"Basel-Land","name":"Muttenz","lat":"47.52271000","lon":"7.64511000"},
{"state":"Basel-Land","name":"Oberdorf","lat":"47.39353000","lon":"7.75169000"},
{"state":"Basel-Land","name":"Oberwil","lat":"47.51407000","lon":"7.55786000"},
{"state":"Basel-Land","name":"Ormalingen","lat":"47.46936000","lon":"7.87248000"},
{"state":"Basel-Land","name":"Pfeffingen","lat":"47.45984000","lon":"7.58975000"},
{"state":"Basel-Land","name":"Pratteln","lat":"47.52071000","lon":"7.69356000"},
{"state":"Basel-Land","name":"Reigoldswil","lat":"47.39824000","lon":"7.68718000"},
{"state":"Basel-Land","name":"Röschenz","lat":"47.42366000","lon":"7.48024000"},
{"state":"Basel-Land","name":"Schönenbuch","lat":"47.53853000","lon":"7.50572000"},
{"state":"Basel-Land","name":"Seltisberg","lat":"47.46249000","lon":"7.72039000"},
{"state":"Basel-Land","name":"Sissach","lat":"47.46408000","lon":"7.80888000"},
{"state":"Basel-Land","name":"Therwil","lat":"47.49941000","lon":"7.55669000"},
{"state":"Basel-Land","name":"Wahlen","lat":"47.40226000","lon":"7.51511000"},
{"state":"Basel-Land","name":"Waldenburg","lat":"47.38333000","lon":"7.75000000"},
{"state":"Basel-Land","name":"Zunzgen","lat":"47.44925000","lon":"7.80789000"},
{"state":"Basel-Land","name":"Zwingen","lat":"47.43825000","lon":"7.53027000"},
{"state":"Basel-Stadt","name":"Basel","lat":"47.55472200","lon":"7.59055600"},
{"state":"Basel-Stadt","name":"Bettingen","lat":"47.57138900","lon":"7.66416700"},
{"state":"Basel-Stadt","name":"Riehen","lat":"47.58333300","lon":"7.63333300"},
{"state":"Bern","name":"Aarberg","lat":"47.04439000","lon":"7.27578000"},
{"state":"Bern","name":"Aarwangen","lat":"47.23845000","lon":"7.76854000"},
{"state":"Bern","name":"Adelboden","lat":"46.49142000","lon":"7.56031000"},
{"state":"Bern","name":"Aeschi b. Spiez","lat":"46.65848000","lon":"7.69650000"},
{"state":"Bern","name":"Arch","lat":"47.16533000","lon":"7.43139000"},
{"state":"Bern","name":"Attiswil","lat":"47.24673000","lon":"7.61353000"},
{"state":"Bern","name":"Bäriswil","lat":"47.01947000","lon":"7.52709000"},
{"state":"Bern","name":"Bätterkinden","lat":"47.13164000","lon":"7.53817000"},
{"state":"Bern","name":"Beatenberg","lat":"46.69896000","lon":"7.79428000"},
{"state":"Bern","name":"Bellmund","lat":"47.10852000","lon":"7.24608000"},
{"state":"Bern","name":"Belp","lat":"46.89129000","lon":"7.49825000"},
{"state":"Bern","name":"Bern","lat":"46.94809000","lon":"7.44744000"},
{"state":"Bern","name":"Bern-Mittelland District","lat":"46.92526000","lon":"7.49024000"},
{"state":"Bern","name":"Bévilard","lat":"47.23711000","lon":"7.28325000"},
{"state":"Bern","name":"Biel/Bienne","lat":"47.13713000","lon":"7.24608000"},
{"state":"Bern","name":"Biel/Bienne District","lat":"47.12725000","lon":"7.26174000"},
{"state":"Bern","name":"Biglen","lat":"46.92629000","lon":"7.62508000"},
{"state":"Bern","name":"Blumenstein","lat":"46.74210000","lon":"7.52136000"},
{"state":"Bern","name":"Bolligen","lat":"46.97510000","lon":"7.49697000"},
{"state":"Bern","name":"Boltigen","lat":"46.62847000","lon":"7.39054000"},
{"state":"Bern","name":"Bönigen","lat":"46.68736000","lon":"7.89350000"},
{"state":"Bern","name":"Bowil","lat":"46.89304000","lon":"7.69757000"},
{"state":"Bern","name":"Brienz","lat":"46.75450000","lon":"8.03847000"},
{"state":"Bern","name":"Brügg","lat":"47.12370000","lon":"7.27887000"},
{"state":"Bern","name":"Buchholterberg","lat":"46.81351000","lon":"7.67463000"},
{"state":"Bern","name":"Burgdorf","lat":"47.05901000","lon":"7.62786000"},
{"state":"Bern","name":"Burgistein","lat":"46.78464000","lon":"7.49988000"},
{"state":"Bern","name":"Corgémont","lat":"47.19457000","lon":"7.14517000"},
{"state":"Bern","name":"Court","lat":"47.23956000","lon":"7.33655000"},
{"state":"Bern","name":"Courtelary","lat":"47.17822000","lon":"7.07236000"},
{"state":"Bern","name":"Därligen","lat":"46.66175000","lon":"7.80808000"},
{"state":"Bern","name":"Diemtigen","lat":"46.64928000","lon":"7.56477000"},
{"state":"Bern","name":"Dürrenroth","lat":"47.08953000","lon":"7.79170000"},
{"state":"Bern","name":"Eggiwil","lat":"46.87575000","lon":"7.79567000"},
{"state":"Bern","name":"Emmental District","lat":"47.04425000","lon":"7.66176000"},
{"state":"Bern","name":"Eriswil","lat":"47.07816000","lon":"7.85149000"},
{"state":"Bern","name":"Erlach","lat":"47.04220000","lon":"7.09728000"},
{"state":"Bern","name":"Erlenbach im Simmental","lat":"46.66021000","lon":"7.55445000"},
{"state":"Bern","name":"Ersigen","lat":"47.09368000","lon":"7.59507000"},
{"state":"Bern","name":"Evilard","lat":"47.15046000","lon":"7.23895000"},
{"state":"Bern","name":"Ferenbalm","lat":"46.94880000","lon":"7.21124000"},
{"state":"Bern","name":"Fraubrunnen","lat":"47.08620000","lon":"7.52727000"},
{"state":"Bern","name":"Frauenkappelen","lat":"46.95425000","lon":"7.33835000"},
{"state":"Bern","name":"Frutigen","lat":"46.58723000","lon":"7.64945000"},
{"state":"Bern","name":"Frutigen-Niedersimmental District","lat":"46.60236000","lon":"7.62292000"},
{"state":"Bern","name":"Grindelwald","lat":"46.62396000","lon":"8.03601000"},
{"state":"Bern","name":"Grossaffoltern","lat":"47.06534000","lon":"7.35689000"},
{"state":"Bern","name":"Gstaad","lat":"46.47215000","lon":"7.28685000"},
{"state":"Bern","name":"Guggisberg","lat":"46.76756000","lon":"7.32946000"},
{"state":"Bern","name":"Heimberg","lat":"46.79482000","lon":"7.60433000"},
{"state":"Bern","name":"Heimiswil","lat":"47.06755000","lon":"7.66665000"},
{"state":"Bern","name":"Hermiswil","lat":"46.83125000","lon":"7.47775000"},
{"state":"Bern","name":"Herzogenbuchsee","lat":"47.18795000","lon":"7.70620000"},
{"state":"Bern","name":"Hilterfingen","lat":"46.73521000","lon":"7.66185000"},
{"state":"Bern","name":"Hindelbank","lat":"47.04270000","lon":"7.54143000"},
{"state":"Bern","name":"Huttwil","lat":"47.11502000","lon":"7.86209000"},
{"state":"Bern","name":"Ins","lat":"47.00584000","lon":"7.10609000"},
{"state":"Bern","name":"Interlaken","lat":"46.68387000","lon":"7.86638000"},
{"state":"Bern","name":"Interlaken-Oberhasli District","lat":"46.68931000","lon":"7.98869000"},
{"state":"Bern","name":"Jegenstorf","lat":"47.04802000","lon":"7.50787000"},
{"state":"Bern","name":"Jura bernois","lat":"47.21892000","lon":"7.21981000"},
{"state":"Bern","name":"Kallnach","lat":"47.02032000","lon":"7.23545000"},
{"state":"Bern","name":"Kandersteg","lat":"46.49467000","lon":"7.67326000"},
{"state":"Bern","name":"Kappelen","lat":"47.06015000","lon":"7.26860000"},
{"state":"Bern","name":"Kehrsatz","lat":"46.91035000","lon":"7.47096000"},
{"state":"Bern","name":"Kirchberg","lat":"47.08538000","lon":"7.58288000"},
{"state":"Bern","name":"Kirchlindach","lat":"46.99965000","lon":"7.41735000"},
{"state":"Bern","name":"Köniz","lat":"46.92436000","lon":"7.41457000"},
{"state":"Bern","name":"Konolfingen","lat":"46.87909000","lon":"7.62013000"},
{"state":"Bern","name":"Koppigen","lat":"47.13125000","lon":"7.60525000"},
{"state":"Bern","name":"Krauchthal","lat":"47.00964000","lon":"7.56640000"},
{"state":"Bern","name":"La Neuveville","lat":"47.06592000","lon":"7.09717000"},
{"state":"Bern","name":"Langenthal","lat":"47.21526000","lon":"7.79607000"},
{"state":"Bern","name":"Langnau","lat":"46.93936000","lon":"7.78738000"},
{"state":"Bern","name":"Laupen","lat":"46.90214000","lon":"7.23973000"},
{"state":"Bern","name":"Lauperswil","lat":"46.96564000","lon":"7.74214000"},
{"state":"Bern","name":"Lauterbrunnen","lat":"46.59307000","lon":"7.90938000"},
{"state":"Bern","name":"Lengnau","lat":"47.18155000","lon":"7.36814000"},
{"state":"Bern","name":"Lenk","lat":"46.45826000","lon":"7.44298000"},
{"state":"Bern","name":"Leuzigen","lat":"47.17458000","lon":"7.45775000"},
{"state":"Bern","name":"Linden","lat":"46.84690000","lon":"7.67831000"},
{"state":"Bern","name":"Lotzwil","lat":"47.19135000","lon":"7.79102000"},
{"state":"Bern","name":"Lützelflüh","lat":"47.00757000","lon":"7.69165000"},
{"state":"Bern","name":"Lyss","lat":"47.07410000","lon":"7.30655000"},
{"state":"Bern","name":"Lyssach","lat":"47.06445000","lon":"7.58228000"},
{"state":"Bern","name":"Madiswil","lat":"47.16463000","lon":"7.79858000"},
{"state":"Bern","name":"Malleray","lat":"47.23839000","lon":"7.27286000"},
{"state":"Bern","name":"Matten","lat":"46.67833000","lon":"7.86889000"},
{"state":"Bern","name":"Meinisberg","lat":"47.15965000","lon":"7.34801000"},
{"state":"Bern","name":"Meiringen","lat":"46.72709000","lon":"8.18720000"},
{"state":"Bern","name":"Melchnau","lat":"47.18213000","lon":"7.85128000"},
{"state":"Bern","name":"Moutier","lat":"47.27818000","lon":"7.36951000"},
{"state":"Bern","name":"Mühleberg","lat":"46.95466000","lon":"7.26102000"},
{"state":"Bern","name":"Mühlethurnen","lat":"46.81345000","lon":"7.50881000"},
{"state":"Bern","name":"Münchenbuchsee","lat":"47.02175000","lon":"7.45036000"},
{"state":"Bern","name":"Münchenwiler","lat":"46.91334000","lon":"7.12556000"},
{"state":"Bern","name":"Münsingen","lat":"46.87298000","lon":"7.56100000"},
{"state":"Bern","name":"Müntschemier","lat":"46.99548000","lon":"7.14626000"},
{"state":"Bern","name":"Muri","lat":"46.93122000","lon":"7.48658000"},
{"state":"Bern","name":"Nidau","lat":"47.12545000","lon":"7.24033000"},
{"state":"Bern","name":"Niederbipp","lat":"47.27175000","lon":"7.69583000"},
{"state":"Bern","name":"Oberaargau","lat":"47.19202000","lon":"7.74553000"},
{"state":"Bern","name":"Oberbipp","lat":"47.26070000","lon":"7.66359000"},
{"state":"Bern","name":"Oberburg","lat":"47.03665000","lon":"7.62745000"},
{"state":"Bern","name":"Oberdiessbach","lat":"46.84117000","lon":"7.61730000"},
{"state":"Bern","name":"Obersimmental-Saanen District","lat":"46.47932000","lon":"7.35803000"},
{"state":"Bern","name":"Orpund","lat":"47.13891000","lon":"7.30775000"},
{"state":"Bern","name":"Orvin","lat":"47.16068000","lon":"7.21368000"},
{"state":"Bern","name":"Péry","lat":"47.19398000","lon":"7.24913000"},
{"state":"Bern","name":"Pieterlen","lat":"47.17501000","lon":"7.33791000"},
{"state":"Bern","name":"Radelfingen","lat":"47.02146000","lon":"7.27178000"},
{"state":"Bern","name":"Reconvilier","lat":"47.23431000","lon":"7.22239000"},
{"state":"Bern","name":"Riggisberg","lat":"46.81028000","lon":"7.48014000"},
{"state":"Bern","name":"Ringgenberg","lat":"46.70114000","lon":"7.89445000"},
{"state":"Bern","name":"Roggwil","lat":"47.24119000","lon":"7.82141000"},
{"state":"Bern","name":"Rohrbach","lat":"47.13521000","lon":"7.81334000"},
{"state":"Bern","name":"Rubigen","lat":"46.89868000","lon":"7.54460000"},
{"state":"Bern","name":"Rüderswil","lat":"46.98374000","lon":"7.72167000"},
{"state":"Bern","name":"Rüeggisberg","lat":"46.82216000","lon":"7.43890000"},
{"state":"Bern","name":"Rüschegg","lat":"46.77977000","lon":"7.39167000"},
{"state":"Bern","name":"Saanen","lat":"46.48945000","lon":"7.26003000"},
{"state":"Bern","name":"Saint-Imier","lat":"47.15284000","lon":"6.99692000"},
{"state":"Bern","name":"Sankt Stephan","lat":"46.50827000","lon":"7.39559000"},
{"state":"Bern","name":"Schüpfen","lat":"47.03661000","lon":"7.37723000"},
{"state":"Bern","name":"Seeberg","lat":"47.15585000","lon":"7.66567000"},
{"state":"Bern","name":"Seedorf","lat":"47.03445000","lon":"7.31249000"},
{"state":"Bern","name":"Seeland District","lat":"47.06635000","lon":"7.26333000"},
{"state":"Bern","name":"Seftigen","lat":"46.78765000","lon":"7.53937000"},
{"state":"Bern","name":"Signau","lat":"46.91944000","lon":"7.72418000"},
{"state":"Bern","name":"Sigriswil","lat":"46.71656000","lon":"7.71335000"},
{"state":"Bern","name":"Spiez","lat":"46.68473000","lon":"7.69111000"},
{"state":"Bern","name":"Steffisburg","lat":"46.77807000","lon":"7.63249000"},
{"state":"Bern","name":"Stettlen","lat":"46.95835000","lon":"7.52508000"},
{"state":"Bern","name":"Sumiswald","lat":"47.02747000","lon":"7.74526000"},
{"state":"Bern","name":"Täuffelen","lat":"47.06630000","lon":"7.19883000"},
{"state":"Bern","name":"Tavannes","lat":"47.22079000","lon":"7.19759000"},
{"state":"Bern","name":"Thierachern","lat":"46.75319000","lon":"7.57442000"},
{"state":"Bern","name":"Thun","lat":"46.75118000","lon":"7.62166000"},
{"state":"Bern","name":"Thun District","lat":"46.76290000","lon":"7.62503000"},
{"state":"Bern","name":"Toffen","lat":"46.86031000","lon":"7.49216000"},
{"state":"Bern","name":"Trachselwald","lat":"47.01699000","lon":"7.73639000"},
{"state":"Bern","name":"Tramelan","lat":"47.22298000","lon":"7.10287000"},
{"state":"Bern","name":"Trub","lat":"46.94168000","lon":"7.87996000"},
{"state":"Bern","name":"Trubschachen","lat":"46.92228000","lon":"7.84520000"},
{"state":"Bern","name":"Uetendorf","lat":"46.77392000","lon":"7.57251000"},
{"state":"Bern","name":"Unterseen","lat":"46.68530000","lon":"7.84722000"},
{"state":"Bern","name":"Urtenen","lat":"47.02667000","lon":"7.50081000"},
{"state":"Bern","name":"Uttigen","lat":"46.79435000","lon":"7.57789000"},
{"state":"Bern","name":"Utzenstorf","lat":"47.13248000","lon":"7.55355000"},
{"state":"Bern","name":"Vechigen","lat":"46.94616000","lon":"7.56065000"},
{"state":"Bern","name":"Walkringen","lat":"46.94856000","lon":"7.62040000"},
{"state":"Bern","name":"Wangen an der Aare","lat":"47.23208000","lon":"7.65253000"},
{"state":"Bern","name":"Wattenwil","lat":"46.76973000","lon":"7.50835000"},
{"state":"Bern","name":"Wichtrach","lat":"46.85010000","lon":"7.57748000"},
{"state":"Bern","name":"Wiedlisbach","lat":"47.25194000","lon":"7.64610000"},
{"state":"Bern","name":"Wilderswil","lat":"46.66369000","lon":"7.86175000"},
{"state":"Bern","name":"Wimmis","lat":"46.67587000","lon":"7.63972000"},
{"state":"Bern","name":"Wohlen","lat":"46.97118000","lon":"7.35685000"},
{"state":"Bern","name":"Worb","lat":"46.92984000","lon":"7.56306000"},
{"state":"Bern","name":"Worben","lat":"47.10279000","lon":"7.29518000"},
{"state":"Bern","name":"Wynau","lat":"47.25570000","lon":"7.81626000"},
{"state":"Bern","name":"Wynigen","lat":"47.10586000","lon":"7.66681000"},
{"state":"Bern","name":"Wyssachen","lat":"47.07851000","lon":"7.82922000"},
{"state":"Bern","name":"Zäziwil","lat":"46.90196000","lon":"7.66185000"},
{"state":"Bern","name":"Zollikofen","lat":"46.99905000","lon":"7.45809000"},
{"state":"Bern","name":"Zweisimmen","lat":"46.55539000","lon":"7.37302000"},
{"state":"Fribourg","name":"Alterswil","lat":"46.79587000","lon":"7.25877000"},
{"state":"Fribourg","name":"Attalens","lat":"46.50555000","lon":"6.85039000"},
{"state":"Fribourg","name":"Avry-sur-Matran","lat":"46.78753000","lon":"7.06735000"},
{"state":"Fribourg","name":"Bas-Vully","lat":"46.96194000","lon":"7.11251000"},
{"state":"Fribourg","name":"Belfaux","lat":"46.82171000","lon":"7.10674000"},
{"state":"Fribourg","name":"Bösingen","lat":"46.89229000","lon":"7.22770000"},
{"state":"Fribourg","name":"Broc","lat":"46.60513000","lon":"7.09891000"},
{"state":"Fribourg","name":"Broye District","lat":"46.82212000","lon":"6.90249000"},
{"state":"Fribourg","name":"Bulle","lat":"46.61797000","lon":"7.05690000"},
{"state":"Fribourg","name":"Charmey","lat":"46.61957000","lon":"7.16486000"},
{"state":"Fribourg","name":"Châtel-Saint-Denis","lat":"46.52691000","lon":"6.90083000"},
{"state":"Fribourg","name":"Corminboeuf","lat":"46.81029000","lon":"7.10535000"},
{"state":"Fribourg","name":"Courgevaux","lat":"46.90648000","lon":"7.11215000"},
{"state":"Fribourg","name":"Cugy","lat":"46.81479000","lon":"6.88888000"},
{"state":"Fribourg","name":"Domdidier","lat":"46.86716000","lon":"7.01337000"},
{"state":"Fribourg","name":"Düdingen","lat":"46.84916000","lon":"7.19150000"},
{"state":"Fribourg","name":"Ecublens","lat":"46.60735000","lon":"6.80895000"},
{"state":"Fribourg","name":"Ependes","lat":"46.75368000","lon":"7.14609000"},
{"state":"Fribourg","name":"Estavayer-le-Lac","lat":"46.84876000","lon":"6.84650000"},
{"state":"Fribourg","name":"Flamatt","lat":"46.88994000","lon":"7.32204000"},
{"state":"Fribourg","name":"Fribourg","lat":"46.80237000","lon":"7.15128000"},
{"state":"Fribourg","name":"Giffers","lat":"46.76230000","lon":"7.20845000"},
{"state":"Fribourg","name":"Givisiez","lat":"46.81201000","lon":"7.12639000"},
{"state":"Fribourg","name":"Glâne District","lat":"46.66667000","lon":"6.91667000"},
{"state":"Fribourg","name":"Grolley","lat":"46.83360000","lon":"7.07116000"},
{"state":"Fribourg","name":"Gruyère District","lat":"46.60753000","lon":"7.10741000"},
{"state":"Fribourg","name":"Gruyères","lat":"46.58338000","lon":"7.08207000"},
{"state":"Fribourg","name":"Heitenried","lat":"46.82762000","lon":"7.29944000"},
{"state":"Fribourg","name":"Kerzers","lat":"46.97586000","lon":"7.19570000"},
{"state":"Fribourg","name":"La Roche","lat":"46.69620000","lon":"7.13721000"},
{"state":"Fribourg","name":"La Tour-de-Trême","lat":"46.61061000","lon":"7.06496000"},
{"state":"Fribourg","name":"Lake District","lat":"46.91016000","lon":"7.14088000"},
{"state":"Fribourg","name":"Marly","lat":"46.77611000","lon":"7.16459000"},
{"state":"Fribourg","name":"Marsens","lat":"46.65644000","lon":"7.05948000"},
{"state":"Fribourg","name":"Mézières","lat":"46.67958000","lon":"6.92630000"},
{"state":"Fribourg","name":"Murten/Morat","lat":"46.92827000","lon":"7.11715000"},
{"state":"Fribourg","name":"Oberschrot","lat":"46.74126000","lon":"7.28149000"},
{"state":"Fribourg","name":"Plaffeien","lat":"46.74198000","lon":"7.28666000"},
{"state":"Fribourg","name":"Praroman","lat":"46.75145000","lon":"7.17778000"},
{"state":"Fribourg","name":"Rechthalten","lat":"46.76766000","lon":"7.24028000"},
{"state":"Fribourg","name":"Riaz","lat":"46.64224000","lon":"7.06183000"},
{"state":"Fribourg","name":"Romont","lat":"46.69652000","lon":"6.91898000"},
{"state":"Fribourg","name":"Rue","lat":"46.61916000","lon":"6.82225000"},
{"state":"Fribourg","name":"Sâles","lat":"46.63473000","lon":"6.97336000"},
{"state":"Fribourg","name":"Sankt Antoni","lat":"46.82207000","lon":"7.26091000"},
{"state":"Fribourg","name":"Sarine District","lat":"46.78435000","lon":"7.09993000"},
{"state":"Fribourg","name":"Schmitten","lat":"46.85750000","lon":"7.25031000"},
{"state":"Fribourg","name":"Sense District","lat":"46.80132000","lon":"7.26028000"},
{"state":"Fribourg","name":"Tafers","lat":"46.81483000","lon":"7.21852000"},
{"state":"Fribourg","name":"Treyvaux","lat":"46.72796000","lon":"7.13769000"},
{"state":"Fribourg","name":"Ueberstorf","lat":"46.86587000","lon":"7.30998000"},
{"state":"Fribourg","name":"Veveyse District","lat":"46.55083000","lon":"6.91085000"},
{"state":"Fribourg","name":"Villars-sur-Glâne","lat":"46.79054000","lon":"7.11717000"},
{"state":"Fribourg","name":"Villaz-Saint-Pierre","lat":"46.72074000","lon":"6.95638000"},
{"state":"Fribourg","name":"Vuadens","lat":"46.61545000","lon":"7.01732000"},
{"state":"Geneva","name":"Aire-la-Ville","lat":"46.19057000","lon":"6.04287000"},
{"state":"Geneva","name":"Anières","lat":"46.27673000","lon":"6.22204000"},
{"state":"Geneva","name":"Bellevue","lat":"46.25739000","lon":"6.15475000"},
{"state":"Geneva","name":"Bernex","lat":"46.17650000","lon":"6.07544000"},
{"state":"Geneva","name":"Carouge","lat":"46.18096000","lon":"6.13921000"},
{"state":"Geneva","name":"Chancy","lat":"46.15003000","lon":"5.97153000"},
{"state":"Geneva","name":"Chêne-Bougeries","lat":"46.19843000","lon":"6.18642000"},
{"state":"Geneva","name":"Chêne-Bourg","lat":"46.19534000","lon":"6.19406000"},
{"state":"Geneva","name":"Confignon","lat":"46.17341000","lon":"6.08437000"},
{"state":"Geneva","name":"Corsier","lat":"46.26297000","lon":"6.22461000"},
{"state":"Geneva","name":"Dardagny","lat":"46.19564000","lon":"5.99497000"},
{"state":"Geneva","name":"Genève","lat":"46.20222000","lon":"6.14569000"},
{"state":"Geneva","name":"Jussy","lat":"46.23590000","lon":"6.26701000"},
{"state":"Geneva","name":"Lancy","lat":"46.18981000","lon":"6.11441000"},
{"state":"Geneva","name":"Le Grand-Saconnex","lat":"46.23188000","lon":"6.12091000"},
{"state":"Geneva","name":"Les Avanchets","lat":"46.22168000","lon":"6.10814000"},
{"state":"Geneva","name":"Meinier","lat":"46.24706000","lon":"6.23423000"},
{"state":"Geneva","name":"Meyrin","lat":"46.23424000","lon":"6.08025000"},
{"state":"Geneva","name":"Onex","lat":"46.18396000","lon":"6.10237000"},
{"state":"Geneva","name":"Plan-les-Ouates","lat":"46.16789000","lon":"6.11664000"},
{"state":"Geneva","name":"Puplinge","lat":"46.21043000","lon":"6.23114000"},
{"state":"Geneva","name":"Satigny","lat":"46.21462000","lon":"6.03553000"},
{"state":"Geneva","name":"Thônex","lat":"46.18815000","lon":"6.19904000"},
{"state":"Geneva","name":"Troinex","lat":"46.16313000","lon":"6.14745000"},
{"state":"Geneva","name":"Vandœuvres","lat":"46.22179000","lon":"6.20285000"},
{"state":"Geneva","name":"Vernier","lat":"46.21702000","lon":"6.08497000"},
{"state":"Geneva","name":"Versoix","lat":"46.28382000","lon":"6.16214000"},
{"state":"Geneva","name":"Veyrier","lat":"46.16699000","lon":"6.18436000"},
{"state":"Glarus","name":"Bilten","lat":"47.14995000","lon":"9.02551000"},
{"state":"Glarus","name":"Ennenda","lat":"47.03363000","lon":"9.07888000"},
{"state":"Glarus","name":"Glarus","lat":"47.04057000","lon":"9.06804000"},
{"state":"Glarus","name":"Linthal","lat":"46.92127000","lon":"8.99799000"},
{"state":"Glarus","name":"Luchsingen","lat":"46.96640000","lon":"9.03715000"},
{"state":"Glarus","name":"Mollis","lat":"47.08878000","lon":"9.07242000"},
{"state":"Glarus","name":"Näfels","lat":"47.09775000","lon":"9.06361000"},
{"state":"Glarus","name":"Netstal","lat":"47.06337000","lon":"9.05734000"},
{"state":"Glarus","name":"Niederurnen","lat":"47.12598000","lon":"9.05428000"},
{"state":"Glarus","name":"Oberurnen","lat":"47.11412000","lon":"9.05866000"},
{"state":"Glarus","name":"Schwanden","lat":"46.99541000","lon":"9.07010000"},
{"state":"Graubünden","name":"Arosa","lat":"46.77793000","lon":"9.67621000"},
{"state":"Graubünden","name":"Arvigo","lat":"46.30211000","lon":"9.11300000"},
{"state":"Graubünden","name":"Bonaduz","lat":"46.81103000","lon":"9.39821000"},
{"state":"Graubünden","name":"Breíl","lat":"46.76986000","lon":"9.06036000"},
{"state":"Graubünden","name":"Brusio","lat":"46.25953000","lon":"10.12385000"},
{"state":"Graubünden","name":"Buseno","lat":"46.27381000","lon":"9.10735000"},
{"state":"Graubünden","name":"Cauco","lat":"46.33541000","lon":"9.12129000"},
{"state":"Graubünden","name":"Cazis","lat":"46.71940000","lon":"9.43271000"},
{"state":"Graubünden","name":"Celerina","lat":"46.51217000","lon":"9.85794000"},
{"state":"Graubünden","name":"Chur","lat":"46.84986000","lon":"9.53287000"},
{"state":"Graubünden","name":"Churwalden","lat":"46.78143000","lon":"9.54377000"},
{"state":"Graubünden","name":"Davos","lat":"46.80429000","lon":"9.83723000"},
{"state":"Graubünden","name":"Disentis","lat":"46.70341000","lon":"8.85090000"},
{"state":"Graubünden","name":"Domat","lat":"46.83483000","lon":"9.45075000"},
{"state":"Graubünden","name":"Felsberg","lat":"46.84566000","lon":"9.47588000"},
{"state":"Graubünden","name":"Flims","lat":"46.83705000","lon":"9.28458000"},
{"state":"Graubünden","name":"Grüsch","lat":"46.97965000","lon":"9.64639000"},
{"state":"Graubünden","name":"Hinterrhein","lat":"46.53333000","lon":"9.20000000"},
{"state":"Graubünden","name":"Igis","lat":"46.94531000","lon":"9.57218000"},
{"state":"Graubünden","name":"Ilanz","lat":"46.77413000","lon":"9.20461000"},
{"state":"Graubünden","name":"Jenaz","lat":"46.92892000","lon":"9.71275000"},
{"state":"Graubünden","name":"Klosters Serneus","lat":"46.88918000","lon":"9.83826000"},
{"state":"Graubünden","name":"La Punt Chamues-ch","lat":"46.57887000","lon":"9.92015000"},
{"state":"Graubünden","name":"Laax","lat":"46.80452000","lon":"9.25787000"},
{"state":"Graubünden","name":"Landquart","lat":"46.95000000","lon":"9.56667000"},
{"state":"Graubünden","name":"Lenzerheide","lat":"46.72215000","lon":"9.55905000"},
{"state":"Graubünden","name":"Luzein","lat":"46.91957000","lon":"9.76080000"},
{"state":"Graubünden","name":"Maienfeld","lat":"47.00472000","lon":"9.53115000"},
{"state":"Graubünden","name":"Malans","lat":"46.98096000","lon":"9.57527000"},
{"state":"Graubünden","name":"Mesocco","lat":"46.39390000","lon":"9.23333000"},
{"state":"Graubünden","name":"Pontresina","lat":"46.49550000","lon":"9.90126000"},
{"state":"Graubünden","name":"Poschiavo","lat":"46.32441000","lon":"10.05823000"},
{"state":"Graubünden","name":"Region Albula","lat":"46.60255000","lon":"9.65150000"},
{"state":"Graubünden","name":"Region Bernina","lat":"46.33488000","lon":"10.07349000"},
{"state":"Graubünden","name":"Region Engiadina Bassa / Val Müstair","lat":"46.75212000","lon":"10.26032000"},
{"state":"Graubünden","name":"Region Imboden","lat":"46.84876000","lon":"9.36225000"},
{"state":"Graubünden","name":"Region Landquart","lat":"46.96403000","lon":"9.56365000"},
{"state":"Graubünden","name":"Region Maloja","lat":"46.47448000","lon":"9.83138000"},
{"state":"Graubünden","name":"Region Moesa","lat":"46.35200000","lon":"9.17870000"},
{"state":"Graubünden","name":"Region Plessur","lat":"46.81819000","lon":"9.62542000"},
{"state":"Graubünden","name":"Region Prättigau / Davos","lat":"46.86727000","lon":"9.82014000"},
{"state":"Graubünden","name":"Region Surselva","lat":"46.69564000","lon":"9.04834000"},
{"state":"Graubünden","name":"Region Viamala","lat":"46.58762000","lon":"9.40035000"},
{"state":"Graubünden","name":"Rhäzüns","lat":"46.79891000","lon":"9.39764000"},
{"state":"Graubünden","name":"Samedan","lat":"46.53399000","lon":"9.87276000"},
{"state":"Graubünden","name":"Scharans","lat":"46.71814000","lon":"9.45903000"},
{"state":"Graubünden","name":"Schiers","lat":"46.96973000","lon":"9.68720000"},
{"state":"Graubünden","name":"Scuol","lat":"46.79671000","lon":"10.29804000"},
{"state":"Graubünden","name":"Silvaplana","lat":"46.45810000","lon":"9.79514000"},
{"state":"Graubünden","name":"St. Moritz","lat":"46.49937000","lon":"9.84327000"},
{"state":"Graubünden","name":"Tamins","lat":"46.82964000","lon":"9.40648000"},
{"state":"Graubünden","name":"Thusis","lat":"46.69724000","lon":"9.43938000"},
{"state":"Graubünden","name":"Tiefencastel","lat":"46.66014000","lon":"9.57883000"},
{"state":"Graubünden","name":"Trimmis","lat":"46.90075000","lon":"9.56120000"},
{"state":"Graubünden","name":"Trun","lat":"46.74292000","lon":"8.98716000"},
{"state":"Graubünden","name":"Untervaz","lat":"46.92750000","lon":"9.53422000"},
{"state":"Graubünden","name":"Vals Platz","lat":"46.61647000","lon":"9.18025000"},
{"state":"Graubünden","name":"Zernez","lat":"46.69862000","lon":"10.09268000"},
{"state":"Graubünden","name":"Zizers","lat":"46.93575000","lon":"9.56491000"},
{"state":"Graubünden","name":"Zuoz","lat":"46.60206000","lon":"9.95965000"},
{"state":"Jura","name":"Alle","lat":"47.42542000","lon":"7.13018000"},
{"state":"Jura","name":"Bassecourt","lat":"47.33808000","lon":"7.24373000"},
{"state":"Jura","name":"Boncourt","lat":"47.49493000","lon":"7.01297000"},
{"state":"Jura","name":"Courfaivre","lat":"47.33461000","lon":"7.28186000"},
{"state":"Jura","name":"Courgenay","lat":"47.40483000","lon":"7.12522000"},
{"state":"Jura","name":"Courrendlin","lat":"47.33853000","lon":"7.37243000"},
{"state":"Jura","name":"Courroux","lat":"47.36069000","lon":"7.37371000"},
{"state":"Jura","name":"Courtételle","lat":"47.34074000","lon":"7.31827000"},
{"state":"Jura","name":"Delémont","lat":"47.36493000","lon":"7.34453000"},
{"state":"Jura","name":"Delémont District","lat":"47.35434000","lon":"7.33053000"},
{"state":"Jura","name":"Fontenais","lat":"47.40292000","lon":"7.08108000"},
{"state":"Jura","name":"Franches-Montagnes District","lat":"47.24935000","lon":"7.04562000"},
{"state":"Jura","name":"Glovelier","lat":"47.33534000","lon":"7.20556000"},
{"state":"Jura","name":"Le Noirmont","lat":"47.22464000","lon":"6.95784000"},
{"state":"Jura","name":"Les Bois","lat":"47.17715000","lon":"6.90498000"},
{"state":"Jura","name":"Les Breuleux","lat":"47.21099000","lon":"7.00792000"},
{"state":"Jura","name":"Porrentruy","lat":"47.41728000","lon":"7.07573000"},
{"state":"Jura","name":"Porrentruy District","lat":"47.41475000","lon":"7.07638000"},
{"state":"Jura","name":"Saignelégier","lat":"47.25619000","lon":"6.99648000"},
{"state":"Jura","name":"Vicques","lat":"47.35000000","lon":"7.41342000"},
{"state":"Lucerne","name":"Adligenswil","lat":"47.06521000","lon":"8.36124000"},
{"state":"Lucerne","name":"Altishofen","lat":"47.19916000","lon":"7.96964000"},
{"state":"Lucerne","name":"Ballwil","lat":"47.15371000","lon":"8.32233000"},
{"state":"Lucerne","name":"Beromünster","lat":"47.20612000","lon":"8.19265000"},
{"state":"Lucerne","name":"Buchrain","lat":"47.09625000","lon":"8.34729000"},
{"state":"Lucerne","name":"Büron","lat":"47.21192000","lon":"8.09420000"},
{"state":"Lucerne","name":"Buttisholz","lat":"47.11442000","lon":"8.09425000"},
{"state":"Lucerne","name":"Dagmersellen","lat":"47.21405000","lon":"7.98519000"},
{"state":"Lucerne","name":"Ebikon","lat":"47.07937000","lon":"8.34041000"},
{"state":"Lucerne","name":"Eich","lat":"47.15116000","lon":"8.16695000"},
{"state":"Lucerne","name":"Emmen","lat":"47.07819000","lon":"8.27331000"},
{"state":"Lucerne","name":"Entlebuch","lat":"46.99559000","lon":"8.06354000"},
{"state":"Lucerne","name":"Entlebuch District","lat":"46.92590000","lon":"8.01427000"},
{"state":"Lucerne","name":"Escholzmatt","lat":"46.91350000","lon":"7.93426000"},
{"state":"Lucerne","name":"Ettiswil","lat":"47.15031000","lon":"8.01759000"},
{"state":"Lucerne","name":"Flühli","lat":"46.88391000","lon":"8.01558000"},
{"state":"Lucerne","name":"Geuensee","lat":"47.19970000","lon":"8.10689000"},
{"state":"Lucerne","name":"Grosswangen","lat":"47.13310000","lon":"8.05041000"},
{"state":"Lucerne","name":"Gunzwil","lat":"47.21072000","lon":"8.17932000"},
{"state":"Lucerne","name":"Hasle","lat":"46.97787000","lon":"8.05326000"},
{"state":"Lucerne","name":"Hildisrieden","lat":"47.15068000","lon":"8.22582000"},
{"state":"Lucerne","name":"Hitzkirch","lat":"47.22403000","lon":"8.26425000"},
{"state":"Lucerne","name":"Hochdorf","lat":"47.16841000","lon":"8.29179000"},
{"state":"Lucerne","name":"Hochdorf District","lat":"47.17062000","lon":"8.28702000"},
{"state":"Lucerne","name":"Hohenrain","lat":"47.18083000","lon":"8.31802000"},
{"state":"Lucerne","name":"Horw","lat":"47.01692000","lon":"8.30956000"},
{"state":"Lucerne","name":"Inwil","lat":"47.12530000","lon":"8.34885000"},
{"state":"Lucerne","name":"Knutwil","lat":"47.19953000","lon":"8.07315000"},
{"state":"Lucerne","name":"Kriens","lat":"47.03110000","lon":"8.28547000"},
{"state":"Lucerne","name":"Littau","lat":"47.05000000","lon":"8.26274000"},
{"state":"Lucerne","name":"Lucerne-Land District","lat":"47.04046000","lon":"8.29271000"},
{"state":"Lucerne","name":"Lucerne-Stadt District","lat":"47.05334000","lon":"8.31063000"},
{"state":"Lucerne","name":"Luthern","lat":"47.05753000","lon":"7.91692000"},
{"state":"Lucerne","name":"Luzern","lat":"47.05048000","lon":"8.30635000"},
{"state":"Lucerne","name":"Malters","lat":"47.03628000","lon":"8.18193000"},
{"state":"Lucerne","name":"Mauensee","lat":"47.16703000","lon":"8.06793000"},
{"state":"Lucerne","name":"Meggen","lat":"47.04691000","lon":"8.37467000"},
{"state":"Lucerne","name":"Meierskappel","lat":"47.12470000","lon":"8.44274000"},
{"state":"Lucerne","name":"Menznau","lat":"47.08364000","lon":"8.03971000"},
{"state":"Lucerne","name":"Nebikon","lat":"47.19185000","lon":"7.97769000"},
{"state":"Lucerne","name":"Neudorf","lat":"47.17699000","lon":"8.20911000"},
{"state":"Lucerne","name":"Neuenkirch","lat":"47.09989000","lon":"8.20416000"},
{"state":"Lucerne","name":"Nottwil","lat":"47.13469000","lon":"8.13774000"},
{"state":"Lucerne","name":"Oberkirch","lat":"47.15642000","lon":"8.11567000"},
{"state":"Lucerne","name":"Pfaffnau","lat":"47.22772000","lon":"7.89719000"},
{"state":"Lucerne","name":"Reiden","lat":"47.24719000","lon":"7.97135000"},
{"state":"Lucerne","name":"Römerswil","lat":"47.16881000","lon":"8.24528000"},
{"state":"Lucerne","name":"Root","lat":"47.11458000","lon":"8.39021000"},
{"state":"Lucerne","name":"Ruswil","lat":"47.08425000","lon":"8.12645000"},
{"state":"Lucerne","name":"Schenkon","lat":"47.17765000","lon":"8.13204000"},
{"state":"Lucerne","name":"Schötz","lat":"47.16896000","lon":"7.98870000"},
{"state":"Lucerne","name":"Schüpfheim","lat":"46.95161000","lon":"8.01723000"},
{"state":"Lucerne","name":"Schwarzenberg","lat":"47.01705000","lon":"8.17261000"},
{"state":"Lucerne","name":"Sempach","lat":"47.13577000","lon":"8.19149000"},
{"state":"Lucerne","name":"Sursee","lat":"47.17088000","lon":"8.11113000"},
{"state":"Lucerne","name":"Sursee District","lat":"47.15591000","lon":"8.13704000"},
{"state":"Lucerne","name":"Triengen","lat":"47.23573000","lon":"8.07652000"},
{"state":"Lucerne","name":"Udligenswil","lat":"47.09005000","lon":"8.40335000"},
{"state":"Lucerne","name":"Vitznau","lat":"47.01014000","lon":"8.48420000"},
{"state":"Lucerne","name":"Wauwil","lat":"47.18457000","lon":"8.02100000"},
{"state":"Lucerne","name":"Weggis","lat":"47.03208000","lon":"8.43219000"},
{"state":"Lucerne","name":"Werthenstein","lat":"47.05578000","lon":"8.10182000"},
{"state":"Lucerne","name":"Wikon","lat":"47.26339000","lon":"7.96801000"},
{"state":"Lucerne","name":"Willisau","lat":"47.12183000","lon":"7.99418000"},
{"state":"Lucerne","name":"Willisau District","lat":"47.14097000","lon":"7.95933000"},
{"state":"Lucerne","name":"Wolhusen","lat":"47.05983000","lon":"8.07389000"},
{"state":"Lucerne","name":"Zell","lat":"47.13673000","lon":"7.92495000"},
{"state":"Neuchâtel","name":"Auvernier","lat":"46.97545000","lon":"6.87903000"},
{"state":"Neuchâtel","name":"Bevaix","lat":"46.92958000","lon":"6.81470000"},
{"state":"Neuchâtel","name":"Boudry","lat":"46.94991000","lon":"6.83757000"},
{"state":"Neuchâtel","name":"Boudry District","lat":"46.94594000","lon":"6.82842000"},
{"state":"Neuchâtel","name":"Cernier","lat":"47.05878000","lon":"6.90040000"},
{"state":"Neuchâtel","name":"Chézard-Saint-Martin","lat":"47.06629000","lon":"6.93332000"},
{"state":"Neuchâtel","name":"Cornaux","lat":"47.03960000","lon":"7.01872000"},
{"state":"Neuchâtel","name":"Cortaillod","lat":"46.94306000","lon":"6.84440000"},
{"state":"Neuchâtel","name":"Couvet","lat":"46.92525000","lon":"6.63270000"},
{"state":"Neuchâtel","name":"Dombresson","lat":"47.07192000","lon":"6.95920000"},
{"state":"Neuchâtel","name":"Fleurier","lat":"46.90224000","lon":"6.58253000"},
{"state":"Neuchâtel","name":"Fontainemelon","lat":"47.05495000","lon":"6.88680000"},
{"state":"Neuchâtel","name":"Gorgier","lat":"46.90143000","lon":"6.77985000"},
{"state":"Neuchâtel","name":"Grand-Savagnier","lat":"47.05101000","lon":"6.95489000"},
{"state":"Neuchâtel","name":"La Chaux-de-Fonds","lat":"47.09993000","lon":"6.82586000"},
{"state":"Neuchâtel","name":"La Chaux-de-Fonds District","lat":"47.12159000","lon":"6.84064000"},
{"state":"Neuchâtel","name":"Le Landeron","lat":"47.05702000","lon":"7.07052000"},
{"state":"Neuchâtel","name":"Le Locle","lat":"47.05619000","lon":"6.74913000"},
{"state":"Neuchâtel","name":"Le Locle District","lat":"47.01927000","lon":"6.69635000"},
{"state":"Neuchâtel","name":"Les Brenets","lat":"47.06774000","lon":"6.70478000"},
{"state":"Neuchâtel","name":"Les Geneveys-sur-Coffrane","lat":"47.01528000","lon":"6.85130000"},
{"state":"Neuchâtel","name":"Les Ponts-de-Martel","lat":"46.99735000","lon":"6.73059000"},
{"state":"Neuchâtel","name":"Marin-Epagnier","lat":"47.01017000","lon":"6.99941000"},
{"state":"Neuchâtel","name":"Neuchâtel","lat":"46.99179000","lon":"6.93100000"},
{"state":"Neuchâtel","name":"Neuchâtel District","lat":"47.01799000","lon":"6.99337000"},
{"state":"Neuchâtel","name":"Peseux","lat":"46.98704000","lon":"6.88903000"},
{"state":"Neuchâtel","name":"Saint-Aubin-Sauges","lat":"46.89419000","lon":"6.77251000"},
{"state":"Neuchâtel","name":"Saint-Blaise","lat":"47.01511000","lon":"6.98832000"},
{"state":"Neuchâtel","name":"Travers","lat":"46.94018000","lon":"6.67595000"},
{"state":"Neuchâtel","name":"Val-de-Ruz District","lat":"47.04008000","lon":"6.90829000"},
{"state":"Neuchâtel","name":"Val-de-Travers District","lat":"46.90357000","lon":"6.56310000"},
{"state":"Nidwalden","name":"Beckenried","lat":"46.96653000","lon":"8.47575000"},
{"state":"Nidwalden","name":"Buochs","lat":"46.97398000","lon":"8.42279000"},
{"state":"Nidwalden","name":"Dallenwil","lat":"46.92420000","lon":"8.38785000"},
{"state":"Nidwalden","name":"Emmetten","lat":"46.95658000","lon":"8.51467000"},
{"state":"Nidwalden","name":"Ennetbürgen","lat":"46.98423000","lon":"8.41003000"},
{"state":"Nidwalden","name":"Hergiswil","lat":"46.98429000","lon":"8.30944000"},
{"state":"Nidwalden","name":"Stans","lat":"46.95805000","lon":"8.36609000"},
{"state":"Nidwalden","name":"Stansstad","lat":"46.97680000","lon":"8.33553000"},
{"state":"Nidwalden","name":"Wolfenschiessen","lat":"46.90322000","lon":"8.39423000"},
{"state":"Obwalden","name":"Alpnach","lat":"46.94227000","lon":"8.27180000"},
{"state":"Obwalden","name":"Engelberg","lat":"46.82107000","lon":"8.40133000"},
{"state":"Obwalden","name":"Giswil","lat":"46.83333000","lon":"8.18065000"},
{"state":"Obwalden","name":"Kerns","lat":"46.90121000","lon":"8.27514000"},
{"state":"Obwalden","name":"Lungern","lat":"46.78578000","lon":"8.15984000"},
{"state":"Obwalden","name":"Sachseln","lat":"46.86718000","lon":"8.23344000"},
{"state":"Obwalden","name":"Sarnen","lat":"46.89611000","lon":"8.24531000"},
{"state":"Schaffhausen","name":"Beringen","lat":"47.69763000","lon":"8.57431000"},
{"state":"Schaffhausen","name":"Bezirk Oberklettgau","lat":"47.69893000","lon":"8.51774000"},
{"state":"Schaffhausen","name":"Bezirk Reiat","lat":"47.74752000","lon":"8.70821000"},
{"state":"Schaffhausen","name":"Bezirk Schaffhausen","lat":"47.69440000","lon":"8.63525000"},
{"state":"Schaffhausen","name":"Bezirk Schleitheim","lat":"47.75000000","lon":"8.51111000"},
{"state":"Schaffhausen","name":"Bezirk Stein","lat":"47.66429000","lon":"8.84683000"},
{"state":"Schaffhausen","name":"Bezirk Unterklettgau","lat":"47.68000000","lon":"8.46333000"},
{"state":"Schaffhausen","name":"Hallau","lat":"47.69648000","lon":"8.45827000"},
{"state":"Schaffhausen","name":"Löhningen","lat":"47.70121000","lon":"8.55236000"},
{"state":"Schaffhausen","name":"Neuhausen","lat":"47.68579000","lon":"8.61474000"},
{"state":"Schaffhausen","name":"Neunkirch","lat":"47.69012000","lon":"8.49981000"},
{"state":"Schaffhausen","name":"Ramsen","lat":"47.70797000","lon":"8.80949000"},
{"state":"Schaffhausen","name":"Schaffhausen","lat":"47.69732000","lon":"8.63493000"},
{"state":"Schaffhausen","name":"Schleitheim","lat":"47.74818000","lon":"8.48213000"},
{"state":"Schaffhausen","name":"Stein am Rhein","lat":"47.65933000","lon":"8.85964000"},
{"state":"Schaffhausen","name":"Stetten","lat":"47.74025000","lon":"8.66298000"},
{"state":"Schaffhausen","name":"Thayngen","lat":"47.74717000","lon":"8.70724000"},
{"state":"Schaffhausen","name":"Wilchingen","lat":"47.66745000","lon":"8.46774000"},
{"state":"Schwyz","name":"Altendorf","lat":"47.18994000","lon":"8.83823000"},
{"state":"Schwyz","name":"Arth","lat":"47.06337000","lon":"8.52349000"},
{"state":"Schwyz","name":"Bäch","lat":"47.20388000","lon":"8.73224000"},
{"state":"Schwyz","name":"Bezirk Einsiedeln","lat":"47.10792000","lon":"8.76010000"},
{"state":"Schwyz","name":"Bezirk Gersau","lat":"47.00800000","lon":"8.51678000"},
{"state":"Schwyz","name":"Bezirk Höfe","lat":"47.19043000","lon":"8.73960000"},
{"state":"Schwyz","name":"Bezirk Küssnacht","lat":"47.08611000","lon":"8.44444000"},
{"state":"Schwyz","name":"Bezirk March","lat":"47.16128000","lon":"8.91103000"},
{"state":"Schwyz","name":"Bezirk Schwyz","lat":"47.02814000","lon":"8.63619000"},
{"state":"Schwyz","name":"Einsiedeln","lat":"47.12849000","lon":"8.74735000"},
{"state":"Schwyz","name":"Feusisberg","lat":"47.18707000","lon":"8.74724000"},
{"state":"Schwyz","name":"Freienbach","lat":"47.20534000","lon":"8.75842000"},
{"state":"Schwyz","name":"Gersau","lat":"46.99419000","lon":"8.52500000"},
{"state":"Schwyz","name":"Goldau","lat":"47.04761000","lon":"8.54616000"},
{"state":"Schwyz","name":"Ibach","lat":"47.01105000","lon":"8.64538000"},
{"state":"Schwyz","name":"Ingenbohl","lat":"46.99880000","lon":"8.61529000"},
{"state":"Schwyz","name":"Küssnacht","lat":"47.08557000","lon":"8.44206000"},
{"state":"Schwyz","name":"Lachen","lat":"47.19224000","lon":"8.85324000"},
{"state":"Schwyz","name":"Muotathal","lat":"46.97676000","lon":"8.76499000"},
{"state":"Schwyz","name":"Pfäffikon","lat":"47.20109000","lon":"8.77816000"},
{"state":"Schwyz","name":"Reichenburg","lat":"47.17097000","lon":"8.97704000"},
{"state":"Schwyz","name":"Rothenthurm","lat":"47.10420000","lon":"8.67585000"},
{"state":"Schwyz","name":"Sattel","lat":"47.08246000","lon":"8.63565000"},
{"state":"Schwyz","name":"Schindellegi","lat":"47.17460000","lon":"8.71345000"},
{"state":"Schwyz","name":"Schübelbach","lat":"47.17326000","lon":"8.92811000"},
{"state":"Schwyz","name":"Schwyz","lat":"47.02076000","lon":"8.65414000"},
{"state":"Schwyz","name":"Siebnen","lat":"47.17449000","lon":"8.89781000"},
{"state":"Schwyz","name":"Steinen","lat":"47.04975000","lon":"8.61214000"},
{"state":"Schwyz","name":"Tuggen","lat":"47.20291000","lon":"8.94896000"},
{"state":"Schwyz","name":"Unteriberg","lat":"47.06258000","lon":"8.80520000"},
{"state":"Schwyz","name":"Vorderthal","lat":"47.12172000","lon":"8.90225000"},
{"state":"Schwyz","name":"Wollerau","lat":"47.19478000","lon":"8.71903000"},
{"state":"Solothurn","name":"Balsthal","lat":"47.31613000","lon":"7.69318000"},
{"state":"Solothurn","name":"Bettlach","lat":"47.20062000","lon":"7.42405000"},
{"state":"Solothurn","name":"Bezirk Bucheggberg","lat":"47.13205000","lon":"7.47885000"},
{"state":"Solothurn","name":"Bezirk Dorneck","lat":"47.48032000","lon":"7.61816000"},
{"state":"Solothurn","name":"Bezirk Gäu","lat":"47.29606000","lon":"7.77503000"},
{"state":"Solothurn","name":"Bezirk Gösgen","lat":"47.37758000","lon":"7.92030000"},
{"state":"Solothurn","name":"Bezirk Lebern","lat":"47.21798000","lon":"7.48053000"},
{"state":"Solothurn","name":"Bezirk Olten","lat":"47.34426000","lon":"7.90755000"},
{"state":"Solothurn","name":"Bezirk Solothurn","lat":"47.20818000","lon":"7.53084000"},
{"state":"Solothurn","name":"Bezirk Thal","lat":"47.31095000","lon":"7.63592000"},
{"state":"Solothurn","name":"Bezirk Thierstein","lat":"47.38333000","lon":"7.55000000"},
{"state":"Solothurn","name":"Bezirk Wasseramt","lat":"47.18911000","lon":"7.59157000"},
{"state":"Solothurn","name":"Biberist","lat":"47.18009000","lon":"7.56246000"},
{"state":"Solothurn","name":"Breitenbach","lat":"47.40668000","lon":"7.54554000"},
{"state":"Solothurn","name":"Büsserach","lat":"47.39415000","lon":"7.54117000"},
{"state":"Solothurn","name":"Deitingen","lat":"47.21515000","lon":"7.61880000"},
{"state":"Solothurn","name":"Derendingen","lat":"47.19850000","lon":"7.58844000"},
{"state":"Solothurn","name":"Dornach","lat":"47.48038000","lon":"7.61644000"},
{"state":"Solothurn","name":"Egerkingen","lat":"47.31957000","lon":"7.78424000"},
{"state":"Solothurn","name":"Erlinsbach","lat":"47.39753000","lon":"8.00797000"},
{"state":"Solothurn","name":"Fulenbach","lat":"47.27103000","lon":"7.83136000"},
{"state":"Solothurn","name":"Gerlafingen","lat":"47.17087000","lon":"7.57249000"},
{"state":"Solothurn","name":"Grenchen","lat":"47.19210000","lon":"7.39586000"},
{"state":"Solothurn","name":"Gunzgen","lat":"47.31375000","lon":"7.83102000"},
{"state":"Solothurn","name":"Hägendorf","lat":"47.33497000","lon":"7.84133000"},
{"state":"Solothurn","name":"Himmelried","lat":"47.42136000","lon":"7.59985000"},
{"state":"Solothurn","name":"Hochwald","lat":"47.45389000","lon":"7.64459000"},
{"state":"Solothurn","name":"Kleinlützel","lat":"47.42518000","lon":"7.41607000"},
{"state":"Solothurn","name":"Kriegstetten","lat":"47.17449000","lon":"7.59799000"},
{"state":"Solothurn","name":"Langendorf","lat":"47.21974000","lon":"7.51469000"},
{"state":"Solothurn","name":"Laupersdorf","lat":"47.31260000","lon":"7.65465000"},
{"state":"Solothurn","name":"Lostorf","lat":"47.38372000","lon":"7.94655000"},
{"state":"Solothurn","name":"Luterbach","lat":"47.21426000","lon":"7.58463000"},
{"state":"Solothurn","name":"Matzendorf","lat":"47.30374000","lon":"7.62820000"},
{"state":"Solothurn","name":"Messen","lat":"47.09155000","lon":"7.44528000"},
{"state":"Solothurn","name":"Niedergösgen","lat":"47.37157000","lon":"7.98837000"},
{"state":"Solothurn","name":"Nunningen","lat":"47.39410000","lon":"7.61951000"},
{"state":"Solothurn","name":"Oberbuchsiten","lat":"47.31334000","lon":"7.76836000"},
{"state":"Solothurn","name":"Obergösgen","lat":"47.36538000","lon":"7.95173000"},
{"state":"Solothurn","name":"Oensingen","lat":"47.28764000","lon":"7.71612000"},
{"state":"Solothurn","name":"Olten","lat":"47.34999000","lon":"7.90329000"},
{"state":"Solothurn","name":"Riedholz","lat":"47.23158000","lon":"7.56829000"},
{"state":"Solothurn","name":"Rodersdorf","lat":"47.48082000","lon":"7.45767000"},
{"state":"Solothurn","name":"Rohr","lat":"47.41029000","lon":"7.95333000"},
{"state":"Solothurn","name":"Schönenwerd","lat":"47.36910000","lon":"8.00167000"},
{"state":"Solothurn","name":"Selzach","lat":"47.20531000","lon":"7.45521000"},
{"state":"Solothurn","name":"Solothurn","lat":"47.20791000","lon":"7.53714000"},
{"state":"Solothurn","name":"Subingen","lat":"47.19852000","lon":"7.61949000"},
{"state":"Solothurn","name":"Trimbach","lat":"47.36561000","lon":"7.88680000"},
{"state":"Solothurn","name":"Wangen","lat":"47.34365000","lon":"7.86982000"},
{"state":"Solothurn","name":"Welschenrohr","lat":"47.28052000","lon":"7.52664000"},
{"state":"Solothurn","name":"Wolfwil","lat":"47.26871000","lon":"7.79652000"},
{"state":"Solothurn","name":"Zuchwil","lat":"47.20173000","lon":"7.56649000"},
{"state":"St. Gallen","name":"Altstätten","lat":"47.37766000","lon":"9.54746000"},
{"state":"St. Gallen","name":"Amden","lat":"47.14888000","lon":"9.14233000"},
{"state":"St. Gallen","name":"Andwil","lat":"47.43855000","lon":"9.27436000"},
{"state":"St. Gallen","name":"Au","lat":"47.43093000","lon":"9.63448000"},
{"state":"St. Gallen","name":"Bad Ragaz","lat":"47.00601000","lon":"9.50266000"},
{"state":"St. Gallen","name":"Balgach","lat":"47.40556000","lon":"9.60702000"},
{"state":"St. Gallen","name":"Benken","lat":"47.19942000","lon":"9.00735000"},
{"state":"St. Gallen","name":"Bronschhofen","lat":"47.47835000","lon":"9.03454000"},
{"state":"St. Gallen","name":"Buchs","lat":"47.16743000","lon":"9.47794000"},
{"state":"St. Gallen","name":"Bütschwil","lat":"47.36022000","lon":"9.07213000"},
{"state":"St. Gallen","name":"Degersheim","lat":"47.37429000","lon":"9.20019000"},
{"state":"St. Gallen","name":"Diepoldsau","lat":"47.38600000","lon":"9.65558000"},
{"state":"St. Gallen","name":"Ebnat-Kappel","lat":"47.26195000","lon":"9.12473000"},
{"state":"St. Gallen","name":"Eggersriet","lat":"47.44202000","lon":"9.46901000"},
{"state":"St. Gallen","name":"Eichberg","lat":"47.34374000","lon":"9.53140000"},
{"state":"St. Gallen","name":"Eschenbach","lat":"47.23981000","lon":"8.92156000"},
{"state":"St. Gallen","name":"Flawil","lat":"47.41301000","lon":"9.18324000"},
{"state":"St. Gallen","name":"Flums","lat":"47.09058000","lon":"9.34301000"},
{"state":"St. Gallen","name":"Gams","lat":"47.20429000","lon":"9.44172000"},
{"state":"St. Gallen","name":"Ganterschwil","lat":"47.38103000","lon":"9.09239000"},
{"state":"St. Gallen","name":"Goldach","lat":"47.47401000","lon":"9.46711000"},
{"state":"St. Gallen","name":"Goldingen","lat":"47.26477000","lon":"8.96167000"},
{"state":"St. Gallen","name":"Gommiswald","lat":"47.23128000","lon":"9.02355000"},
{"state":"St. Gallen","name":"Gossau","lat":"47.41551000","lon":"9.25482000"},
{"state":"St. Gallen","name":"Grabs","lat":"47.18248000","lon":"9.44395000"},
{"state":"St. Gallen","name":"Haag (Rheintal)","lat":"47.20989000","lon":"9.48931000"},
{"state":"St. Gallen","name":"Häggenschwil","lat":"47.49462000","lon":"9.34487000"},
{"state":"St. Gallen","name":"Horn","lat":"47.49425000","lon":"9.46246000"},
{"state":"St. Gallen","name":"Jona","lat":"47.22983000","lon":"8.83884000"},
{"state":"St. Gallen","name":"Jonschwil","lat":"47.42402000","lon":"9.08689000"},
{"state":"St. Gallen","name":"Kaltbrunn","lat":"47.21367000","lon":"9.02590000"},
{"state":"St. Gallen","name":"Kirchberg","lat":"47.41159000","lon":"9.04020000"},
{"state":"St. Gallen","name":"Krummenau","lat":"47.24755000","lon":"9.17064000"},
{"state":"St. Gallen","name":"Lichtensteig","lat":"47.32381000","lon":"9.08758000"},
{"state":"St. Gallen","name":"Lütisburg","lat":"47.39451000","lon":"9.08312000"},
{"state":"St. Gallen","name":"Mogelsberg","lat":"47.36222000","lon":"9.13541000"},
{"state":"St. Gallen","name":"Mörschwil","lat":"47.47097000","lon":"9.42278000"},
{"state":"St. Gallen","name":"Mosnang","lat":"47.36252000","lon":"9.04296000"},
{"state":"St. Gallen","name":"Muolen","lat":"47.52102000","lon":"9.32484000"},
{"state":"St. Gallen","name":"Niederbüren","lat":"47.46547000","lon":"9.20568000"},
{"state":"St. Gallen","name":"Niederhelfenschwil","lat":"47.47487000","lon":"9.18543000"},
{"state":"St. Gallen","name":"Oberhelfenschwil","lat":"47.35673000","lon":"9.11076000"},
{"state":"St. Gallen","name":"Oberriet","lat":"47.32088000","lon":"9.56808000"},
{"state":"St. Gallen","name":"Oberuzwil","lat":"47.43076000","lon":"9.12724000"},
{"state":"St. Gallen","name":"Quarten","lat":"47.10700000","lon":"9.24199000"},
{"state":"St. Gallen","name":"Rapperswil","lat":"47.22557000","lon":"8.82228000"},
{"state":"St. Gallen","name":"Rebstein","lat":"47.39812000","lon":"9.58503000"},
{"state":"St. Gallen","name":"Rheineck","lat":"47.46630000","lon":"9.59028000"},
{"state":"St. Gallen","name":"Rorschach","lat":"47.47800000","lon":"9.49030000"},
{"state":"St. Gallen","name":"Rüthi","lat":"47.29480000","lon":"9.53857000"},
{"state":"St. Gallen","name":"Sankt Gallen","lat":"47.42391000","lon":"9.37477000"},
{"state":"St. Gallen","name":"Sankt Gallenkappel","lat":"47.24368000","lon":"8.96438000"},
{"state":"St. Gallen","name":"Sankt Margrethen","lat":"47.45253000","lon":"9.63741000"},
{"state":"St. Gallen","name":"Sankt Peterzell","lat":"47.31782000","lon":"9.17599000"},
{"state":"St. Gallen","name":"Sargans","lat":"47.04896000","lon":"9.44103000"},
{"state":"St. Gallen","name":"Schänis","lat":"47.15995000","lon":"9.04549000"},
{"state":"St. Gallen","name":"Schmerikon","lat":"47.22538000","lon":"8.94836000"},
{"state":"St. Gallen","name":"Sennwald","lat":"47.26063000","lon":"9.50268000"},
{"state":"St. Gallen","name":"Sevelen","lat":"47.12213000","lon":"9.48601000"},
{"state":"St. Gallen","name":"Thal","lat":"47.46677000","lon":"9.56643000"},
{"state":"St. Gallen","name":"Uznach","lat":"47.22421000","lon":"8.98263000"},
{"state":"St. Gallen","name":"Uzwil","lat":"47.43653000","lon":"9.13422000"},
{"state":"St. Gallen","name":"Wahlkreis Rheintal","lat":"47.37769000","lon":"9.57903000"},
{"state":"St. Gallen","name":"Wahlkreis Rorschach","lat":"47.46647000","lon":"9.44246000"},
{"state":"St. Gallen","name":"Wahlkreis Sarganserland","lat":"47.05000000","lon":"9.43333000"},
{"state":"St. Gallen","name":"Wahlkreis See-Gaster","lat":"47.22459000","lon":"9.01680000"},
{"state":"St. Gallen","name":"Wahlkreis St. Gallen","lat":"47.46342000","lon":"9.39052000"},
{"state":"St. Gallen","name":"Wahlkreis Toggenburg","lat":"47.29453000","lon":"9.17283000"},
{"state":"St. Gallen","name":"Wahlkreis Werdenberg","lat":"47.17743000","lon":"9.46299000"},
{"state":"St. Gallen","name":"Wahlkreis Wil","lat":"47.42591000","lon":"9.12451000"},
{"state":"St. Gallen","name":"Waldkirch","lat":"47.46859000","lon":"9.28665000"},
{"state":"St. Gallen","name":"Walenstadt","lat":"47.12411000","lon":"9.31194000"},
{"state":"St. Gallen","name":"Wattwil","lat":"47.29955000","lon":"9.08657000"},
{"state":"St. Gallen","name":"Weesen","lat":"47.13447000","lon":"9.09644000"},
{"state":"St. Gallen","name":"Wil","lat":"47.46152000","lon":"9.04552000"},
{"state":"St. Gallen","name":"Wildhaus","lat":"47.20583000","lon":"9.35402000"},
{"state":"St. Gallen","name":"Wittenbach","lat":"47.46108000","lon":"9.38601000"},
{"state":"St. Gallen","name":"Zuzwil","lat":"47.47452000","lon":"9.11196000"},
{"state":"Thurgau","name":"Aadorf","lat":"47.49204000","lon":"8.90099000"},
{"state":"Thurgau","name":"Affeltrangen","lat":"47.52581000","lon":"9.03307000"},
{"state":"Thurgau","name":"Altnau","lat":"47.61052000","lon":"9.26160000"},
{"state":"Thurgau","name":"Amriswil","lat":"47.54699000","lon":"9.29586000"},
{"state":"Thurgau","name":"Arbon","lat":"47.51667000","lon":"9.43333000"},
{"state":"Thurgau","name":"Arbon District","lat":"47.54867000","lon":"9.35159000"},
{"state":"Thurgau","name":"Berg","lat":"47.57879000","lon":"9.16635000"},
{"state":"Thurgau","name":"Bottighofen","lat":"47.63643000","lon":"9.20882000"},
{"state":"Thurgau","name":"Bürglen","lat":"47.54921000","lon":"9.14950000"},
{"state":"Thurgau","name":"Diessenhofen","lat":"47.68908000","lon":"8.74958000"},
{"state":"Thurgau","name":"Egnach","lat":"47.54268000","lon":"9.38048000"},
{"state":"Thurgau","name":"Erlen","lat":"47.54814000","lon":"9.23415000"},
{"state":"Thurgau","name":"Ermatingen","lat":"47.67057000","lon":"9.08573000"},
{"state":"Thurgau","name":"Eschenz","lat":"47.64793000","lon":"8.87472000"},
{"state":"Thurgau","name":"Eschlikon","lat":"47.46361000","lon":"8.96381000"},
{"state":"Thurgau","name":"Fischingen","lat":"47.41422000","lon":"8.96862000"},
{"state":"Thurgau","name":"Frauenfeld","lat":"47.55776000","lon":"8.89893000"},
{"state":"Thurgau","name":"Frauenfeld District","lat":"47.61115000","lon":"8.89444000"},
{"state":"Thurgau","name":"Gachnang","lat":"47.53935000","lon":"8.85311000"},
{"state":"Thurgau","name":"Gottlieben","lat":"47.66380000","lon":"9.13371000"},
{"state":"Thurgau","name":"Güttingen","lat":"47.60349000","lon":"9.28742000"},
{"state":"Thurgau","name":"Homburg","lat":"47.63469000","lon":"9.00756000"},
{"state":"Thurgau","name":"Hüttwilen","lat":"47.60674000","lon":"8.87343000"},
{"state":"Thurgau","name":"Kreuzlingen","lat":"47.65051000","lon":"9.17504000"},
{"state":"Thurgau","name":"Kreuzlingen District","lat":"47.63046000","lon":"9.16458000"},
{"state":"Thurgau","name":"Langrickenbach","lat":"47.59353000","lon":"9.24727000"},
{"state":"Thurgau","name":"Märstetten-Dorf","lat":"47.59252000","lon":"9.06851000"},
{"state":"Thurgau","name":"Matzingen","lat":"47.51957000","lon":"8.93365000"},
{"state":"Thurgau","name":"Müllheim","lat":"47.60195000","lon":"9.00357000"},
{"state":"Thurgau","name":"Münchwilen","lat":"47.47719000","lon":"8.99677000"},
{"state":"Thurgau","name":"Münchwilen District","lat":"47.47324000","lon":"8.98812000"},
{"state":"Thurgau","name":"Münsterlingen","lat":"47.63197000","lon":"9.23271000"},
{"state":"Thurgau","name":"Pfyn","lat":"47.59693000","lon":"8.95420000"},
{"state":"Thurgau","name":"Rickenbach bei Wil","lat":"47.44856000","lon":"9.04902000"},
{"state":"Thurgau","name":"Roggwil","lat":"47.49981000","lon":"9.39580000"},
{"state":"Thurgau","name":"Romanshorn","lat":"47.56586000","lon":"9.37869000"},
{"state":"Thurgau","name":"Salmsach","lat":"47.55433000","lon":"9.37229000"},
{"state":"Thurgau","name":"Sirnach","lat":"47.46222000","lon":"8.99763000"},
{"state":"Thurgau","name":"Steckborn","lat":"47.66667000","lon":"8.98333000"},
{"state":"Thurgau","name":"Stettfurt","lat":"47.52588000","lon":"8.95317000"},
{"state":"Thurgau","name":"Sulgen","lat":"47.53967000","lon":"9.18585000"},
{"state":"Thurgau","name":"Tägerwilen","lat":"47.65698000","lon":"9.13999000"},
{"state":"Thurgau","name":"Thundorf","lat":"47.54594000","lon":"8.96358000"},
{"state":"Thurgau","name":"Uttwil","lat":"47.58440000","lon":"9.34101000"},
{"state":"Thurgau","name":"Wagenhausen","lat":"47.66003000","lon":"8.84782000"},
{"state":"Thurgau","name":"Wängi","lat":"47.49654000","lon":"8.95325000"},
{"state":"Thurgau","name":"Weinfelden","lat":"47.56667000","lon":"9.10000000"},
{"state":"Thurgau","name":"Weinfelden District","lat":"47.54237000","lon":"9.15713000"},
{"state":"Thurgau","name":"Wigoltingen","lat":"47.59770000","lon":"9.03141000"},
{"state":"Ticino","name":"Acquarossa","lat":"46.45473000","lon":"8.94261000"},
{"state":"Ticino","name":"Agno","lat":"45.99863000","lon":"8.90030000"},
{"state":"Ticino","name":"Airolo","lat":"46.52855000","lon":"8.61189000"},
{"state":"Ticino","name":"Arzo","lat":"45.87606000","lon":"8.94103000"},
{"state":"Ticino","name":"Ascona","lat":"46.15451000","lon":"8.77327000"},
{"state":"Ticino","name":"Balerna","lat":"45.84638000","lon":"9.00724000"},
{"state":"Ticino","name":"Bellinzona","lat":"46.19278000","lon":"9.01703000"},
{"state":"Ticino","name":"Bellinzona District","lat":"46.18858000","lon":"9.00254000"},
{"state":"Ticino","name":"Biasca","lat":"46.35972000","lon":"8.96965000"},
{"state":"Ticino","name":"Bioggio","lat":"46.01357000","lon":"8.91103000"},
{"state":"Ticino","name":"Blenio District","lat":"46.47613000","lon":"8.94609000"},
{"state":"Ticino","name":"Bodio","lat":"46.37808000","lon":"8.90991000"},
{"state":"Ticino","name":"Brissago","lat":"46.12013000","lon":"8.71181000"},
{"state":"Ticino","name":"Cadempino","lat":"46.03672000","lon":"8.93403000"},
{"state":"Ticino","name":"Cadenazzo","lat":"46.15172000","lon":"8.94719000"},
{"state":"Ticino","name":"Cadro","lat":"46.04595000","lon":"8.98725000"},
{"state":"Ticino","name":"Camorino","lat":"46.16483000","lon":"9.00547000"},
{"state":"Ticino","name":"Canobbio","lat":"46.03592000","lon":"8.96605000"},
{"state":"Ticino","name":"Caslano","lat":"45.97364000","lon":"8.87739000"},
{"state":"Ticino","name":"Castel San Pietro","lat":"45.86211000","lon":"9.00843000"},
{"state":"Ticino","name":"Cevio","lat":"46.31479000","lon":"8.60332000"},
{"state":"Ticino","name":"Chiasso","lat":"45.83203000","lon":"9.03119000"},
{"state":"Ticino","name":"Claro","lat":"46.25763000","lon":"9.02252000"},
{"state":"Ticino","name":"Comano","lat":"46.03635000","lon":"8.95526000"},
{"state":"Ticino","name":"Cugnasco","lat":"46.17473000","lon":"8.91684000"},
{"state":"Ticino","name":"Faido","lat":"46.47700000","lon":"8.80125000"},
{"state":"Ticino","name":"Giubiasco","lat":"46.17246000","lon":"9.00793000"},
{"state":"Ticino","name":"Gordola","lat":"46.18256000","lon":"8.86657000"},
{"state":"Ticino","name":"Gravesano","lat":"46.04208000","lon":"8.91832000"},
{"state":"Ticino","name":"Lavertezzo","lat":"46.25893000","lon":"8.83756000"},
{"state":"Ticino","name":"Leventina District","lat":"46.46912000","lon":"8.75539000"},
{"state":"Ticino","name":"Ligornetto","lat":"45.86161000","lon":"8.95166000"},
{"state":"Ticino","name":"Locarno","lat":"46.17086000","lon":"8.79953000"},
{"state":"Ticino","name":"Locarno District","lat":"46.18033000","lon":"8.75991000"},
{"state":"Ticino","name":"Lodrino","lat":"46.30016000","lon":"8.97986000"},
{"state":"Ticino","name":"Losone","lat":"46.16866000","lon":"8.75928000"},
{"state":"Ticino","name":"Lugano","lat":"46.01008000","lon":"8.96004000"},
{"state":"Ticino","name":"Lugano District","lat":"46.02322000","lon":"8.93802000"},
{"state":"Ticino","name":"Lumino","lat":"46.23020000","lon":"9.06420000"},
{"state":"Ticino","name":"Magadino","lat":"46.14892000","lon":"8.85610000"},
{"state":"Ticino","name":"Malvaglia","lat":"46.40588000","lon":"8.98190000"},
{"state":"Ticino","name":"Massagno","lat":"46.01257000","lon":"8.94354000"},
{"state":"Ticino","name":"Melano","lat":"45.92202000","lon":"8.98435000"},
{"state":"Ticino","name":"Melide","lat":"45.95455000","lon":"8.94725000"},
{"state":"Ticino","name":"Mendrisio","lat":"45.87019000","lon":"8.98160000"},
{"state":"Ticino","name":"Mendrisio District","lat":"45.86592000","lon":"8.99931000"},
{"state":"Ticino","name":"Minusio","lat":"46.17769000","lon":"8.81473000"},
{"state":"Ticino","name":"Montagnola","lat":"45.98323000","lon":"8.91786000"},
{"state":"Ticino","name":"Monte Carasso","lat":"46.18649000","lon":"8.99892000"},
{"state":"Ticino","name":"Morbio Inferiore","lat":"45.84915000","lon":"9.01907000"},
{"state":"Ticino","name":"Muralto","lat":"46.17323000","lon":"8.80219000"},
{"state":"Ticino","name":"Novazzano","lat":"45.84073000","lon":"8.98236000"},
{"state":"Ticino","name":"Pregassona","lat":"46.02021000","lon":"8.97429000"},
{"state":"Ticino","name":"Pura","lat":"45.98647000","lon":"8.86877000"},
{"state":"Ticino","name":"Riva San Vitale","lat":"45.90123000","lon":"8.97167000"},
{"state":"Ticino","name":"Riviera District","lat":"46.30926000","lon":"8.98148000"},
{"state":"Ticino","name":"Sementina","lat":"46.18363000","lon":"8.99162000"},
{"state":"Ticino","name":"Sorengo","lat":"45.99766000","lon":"8.93783000"},
{"state":"Ticino","name":"Stabio","lat":"45.84846000","lon":"8.93642000"},
{"state":"Ticino","name":"Tesserete","lat":"46.06813000","lon":"8.96501000"},
{"state":"Ticino","name":"Vallemaggia District","lat":"46.35483000","lon":"8.60540000"},
{"state":"Ticino","name":"Verscio","lat":"46.18482000","lon":"8.73224000"},
{"state":"Ticino","name":"Viganello","lat":"46.01342000","lon":"8.96879000"},
{"state":"Uri","name":"Altdorf","lat":"46.88042000","lon":"8.64441000"},
{"state":"Uri","name":"Andermatt","lat":"46.63565000","lon":"8.59388000"},
{"state":"Uri","name":"Attinghausen","lat":"46.86255000","lon":"8.63036000"},
{"state":"Uri","name":"Bauen","lat":"46.93559000","lon":"8.57836000"},
{"state":"Uri","name":"Bürglen","lat":"46.87565000","lon":"8.66539000"},
{"state":"Uri","name":"Erstfeld","lat":"46.81885000","lon":"8.65052000"},
{"state":"Uri","name":"Flüelen","lat":"46.90478000","lon":"8.62396000"},
{"state":"Uri","name":"Schattdorf","lat":"46.86550000","lon":"8.65465000"},
{"state":"Uri","name":"Seedorf","lat":"46.88199000","lon":"8.61611000"},
{"state":"Uri","name":"Silenen","lat":"46.78910000","lon":"8.67325000"},
{"state":"Valais","name":"Ardon","lat":"46.20951000","lon":"7.26012000"},
{"state":"Valais","name":"Ayent","lat":"46.28249000","lon":"7.41028000"},
{"state":"Valais","name":"Bagnes","lat":"46.08333000","lon":"7.21667000"},
{"state":"Valais","name":"Baltschieder","lat":"46.30888000","lon":"7.86570000"},
{"state":"Valais","name":"Basse-Nendaz","lat":"46.18993000","lon":"7.31209000"},
{"state":"Valais","name":"Brig","lat":"46.31667000","lon":"7.98333000"},
{"state":"Valais","name":"Brig District","lat":"46.28255000","lon":"8.01185000"},
{"state":"Valais","name":"Chalais","lat":"46.26758000","lon":"7.51145000"},
{"state":"Valais","name":"Chamoson","lat":"46.20275000","lon":"7.22319000"},
{"state":"Valais","name":"Champéry","lat":"46.17543000","lon":"6.86903000"},
{"state":"Valais","name":"Charrat","lat":"46.12490000","lon":"7.13138000"},
{"state":"Valais","name":"Chermignon-d’en Haut","lat":"46.28844000","lon":"7.47487000"},
{"state":"Valais","name":"Chippis","lat":"46.28020000","lon":"7.53962000"},
{"state":"Valais","name":"Collombey","lat":"46.27385000","lon":"6.94789000"},
{"state":"Valais","name":"Conthey","lat":"46.22370000","lon":"7.30283000"},
{"state":"Valais","name":"Conthey District","lat":"46.20485000","lon":"7.27857000"},
{"state":"Valais","name":"Entremont District","lat":"46.02099000","lon":"7.21260000"},
{"state":"Valais","name":"Evionnaz","lat":"46.18096000","lon":"7.02232000"},
{"state":"Valais","name":"Evolène","lat":"46.11422000","lon":"7.49407000"},
{"state":"Valais","name":"Fiesch","lat":"46.39981000","lon":"8.13533000"},
{"state":"Valais","name":"Fully","lat":"46.13851000","lon":"7.11468000"},
{"state":"Valais","name":"Gampel","lat":"46.31599000","lon":"7.74210000"},
{"state":"Valais","name":"Goms District","lat":"46.46161000","lon":"8.22190000"},
{"state":"Valais","name":"Grächen","lat":"46.19529000","lon":"7.83745000"},
{"state":"Valais","name":"Grimisuat","lat":"46.25938000","lon":"7.38408000"},
{"state":"Valais","name":"Grône","lat":"46.25288000","lon":"7.45947000"},
{"state":"Valais","name":"Hérémence","lat":"46.18032000","lon":"7.40477000"},
{"state":"Valais","name":"Hérens District","lat":"46.19407000","lon":"7.42391000"},
{"state":"Valais","name":"Lens","lat":"46.28298000","lon":"7.44976000"},
{"state":"Valais","name":"Leuk","lat":"46.31736000","lon":"7.63412000"},
{"state":"Valais","name":"Leuk District","lat":"46.31439000","lon":"7.67291000"},
{"state":"Valais","name":"Leukerbad","lat":"46.37943000","lon":"7.62687000"},
{"state":"Valais","name":"Leytron","lat":"46.18660000","lon":"7.20780000"},
{"state":"Valais","name":"Martigny District","lat":"46.12386000","lon":"7.10354000"},
{"state":"Valais","name":"Martigny-Combe","lat":"46.07817000","lon":"7.05099000"},
{"state":"Valais","name":"Martigny-Ville","lat":"46.10276000","lon":"7.07245000"},
{"state":"Valais","name":"Montana","lat":"46.31338000","lon":"7.48839000"},
{"state":"Valais","name":"Monthey","lat":"46.25451000","lon":"6.95406000"},
{"state":"Valais","name":"Monthey District","lat":"46.27043000","lon":"6.90274000"},
{"state":"Valais","name":"Naters","lat":"46.32536000","lon":"7.98912000"},
{"state":"Valais","name":"Orsières","lat":"46.02903000","lon":"7.14437000"},
{"state":"Valais","name":"Randogne","lat":"46.30952000","lon":"7.50058000"},
{"state":"Valais","name":"Raron","lat":"46.31196000","lon":"7.80029000"},
{"state":"Valais","name":"Raron District","lat":"46.30000000","lon":"7.80000000"},
{"state":"Valais","name":"Riddes","lat":"46.17276000","lon":"7.22360000"},
{"state":"Valais","name":"Saas-Fee","lat":"46.10805000","lon":"7.92741000"},
{"state":"Valais","name":"Saas-Grund","lat":"46.12281000","lon":"7.93651000"},
{"state":"Valais","name":"Saillon","lat":"46.17035000","lon":"7.18771000"},
{"state":"Valais","name":"Saint-Léonard","lat":"46.25152000","lon":"7.41714000"},
{"state":"Valais","name":"Saint-Maurice","lat":"46.21826000","lon":"7.00320000"},
{"state":"Valais","name":"Saint-Maurice District","lat":"46.15384000","lon":"6.99823000"},
{"state":"Valais","name":"Salgesch","lat":"46.31155000","lon":"7.57120000"},
{"state":"Valais","name":"Salvan","lat":"46.11890000","lon":"7.02078000"},
{"state":"Valais","name":"Sankt Niklaus","lat":"46.17717000","lon":"7.80349000"},
{"state":"Valais","name":"Savièse","lat":"46.25115000","lon":"7.34558000"},
{"state":"Valais","name":"Saxon","lat":"46.14937000","lon":"7.17514000"},
{"state":"Valais","name":"Sierre","lat":"46.29192000","lon":"7.53559000"},
{"state":"Valais","name":"Sierre District","lat":"46.27052000","lon":"7.51570000"},
{"state":"Valais","name":"Sion District","lat":"46.23343000","lon":"7.34939000"},
{"state":"Valais","name":"Sitten","lat":"46.22739000","lon":"7.35559000"},
{"state":"Valais","name":"Stalden","lat":"46.23341000","lon":"7.87273000"},
{"state":"Valais","name":"Tanay","lat":"46.34503000","lon":"6.83041000"},
{"state":"Valais","name":"Troistorrents","lat":"46.22890000","lon":"6.91589000"},
{"state":"Valais","name":"Turtmann","lat":"46.30028000","lon":"7.70200000"},
{"state":"Valais","name":"Varen","lat":"46.31860000","lon":"7.60743000"},
{"state":"Valais","name":"Verbier","lat":"46.10020000","lon":"7.22651000"},
{"state":"Valais","name":"Vernayaz","lat":"46.13667000","lon":"7.03906000"},
{"state":"Valais","name":"Vétroz","lat":"46.22171000","lon":"7.27858000"},
{"state":"Valais","name":"Vex","lat":"46.21239000","lon":"7.39826000"},
{"state":"Valais","name":"Vionnaz","lat":"46.31101000","lon":"6.90062000"},
{"state":"Valais","name":"Visp","lat":"46.29370000","lon":"7.88149000"},
{"state":"Valais","name":"Visp District","lat":"46.17612000","lon":"7.85609000"},
{"state":"Valais","name":"Visperterminen","lat":"46.25899000","lon":"7.90192000"},
{"state":"Valais","name":"Vouvry","lat":"46.33746000","lon":"6.88950000"},
{"state":"Valais","name":"Zermatt","lat":"46.01998000","lon":"7.74863000"},
{"state":"Vaud","name":"Aigle","lat":"46.31810000","lon":"6.96457000"},
{"state":"Vaud","name":"Aigle District","lat":"46.30577000","lon":"7.02974000"},
{"state":"Vaud","name":"Apples","lat":"46.55237000","lon":"6.42889000"},
{"state":"Vaud","name":"Arzier","lat":"46.45962000","lon":"6.20813000"},
{"state":"Vaud","name":"Aubonne","lat":"46.49514000","lon":"6.39155000"},
{"state":"Vaud","name":"Avenches","lat":"46.88004000","lon":"7.04071000"},
{"state":"Vaud","name":"Ballens","lat":"46.55485000","lon":"6.37310000"},
{"state":"Vaud","name":"Bavois","lat":"46.68403000","lon":"6.56710000"},
{"state":"Vaud","name":"Begnins","lat":"46.44152000","lon":"6.24762000"},
{"state":"Vaud","name":"Belmont-sur-Lausanne","lat":"46.51891000","lon":"6.67636000"},
{"state":"Vaud","name":"Berolle","lat":"46.55798000","lon":"6.33551000"},
{"state":"Vaud","name":"Bex","lat":"46.24965000","lon":"7.00980000"},
{"state":"Vaud","name":"Bière","lat":"46.53761000","lon":"6.33362000"},
{"state":"Vaud","name":"Blécherette","lat":"46.53932000","lon":"6.62227000"},
{"state":"Vaud","name":"Blonay","lat":"46.46778000","lon":"6.89615000"},
{"state":"Vaud","name":"Bottens","lat":"46.61596000","lon":"6.66149000"},
{"state":"Vaud","name":"Broye-Vully District","lat":"46.78082000","lon":"6.90161000"},
{"state":"Vaud","name":"Bussigny","lat":"46.55110000","lon":"6.55597000"},
{"state":"Vaud","name":"Caux","lat":"46.43241000","lon":"6.93855000"},
{"state":"Vaud","name":"Chardonne","lat":"46.47676000","lon":"6.82680000"},
{"state":"Vaud","name":"Château-d'Oex","lat":"46.47455000","lon":"7.13155000"},
{"state":"Vaud","name":"Chavannes","lat":"46.53005000","lon":"6.57068000"},
{"state":"Vaud","name":"Chavannes-le-Veyron","lat":"46.60700000","lon":"6.45086000"},
{"state":"Vaud","name":"Chavornay","lat":"46.70244000","lon":"6.56940000"},
{"state":"Vaud","name":"Cheseaux","lat":"46.58624000","lon":"6.60587000"},
{"state":"Vaud","name":"Chevilly","lat":"46.64272000","lon":"6.47661000"},
{"state":"Vaud","name":"Chexbres","lat":"46.48208000","lon":"6.77805000"},
{"state":"Vaud","name":"Colombier","lat":"46.55709000","lon":"6.47284000"},
{"state":"Vaud","name":"Coppet","lat":"46.31682000","lon":"6.19114000"},
{"state":"Vaud","name":"Cossonay","lat":"46.61443000","lon":"6.50631000"},
{"state":"Vaud","name":"Crissier","lat":"46.54586000","lon":"6.57567000"},
{"state":"Vaud","name":"Cuarnens","lat":"46.62545000","lon":"6.43713000"},
{"state":"Vaud","name":"Cully","lat":"46.48892000","lon":"6.72945000"},
{"state":"Vaud","name":"Echallens","lat":"46.64130000","lon":"6.63317000"},
{"state":"Vaud","name":"Ecublens","lat":"46.52899000","lon":"6.56261000"},
{"state":"Vaud","name":"Epalinges","lat":"46.54896000","lon":"6.66831000"},
{"state":"Vaud","name":"Ferreyres","lat":"46.65804000","lon":"6.48520000"},
{"state":"Vaud","name":"Founex","lat":"46.33277000","lon":"6.19243000"},
{"state":"Vaud","name":"Froideville","lat":"46.60123000","lon":"6.68085000"},
{"state":"Vaud","name":"Genolier","lat":"46.43537000","lon":"6.21809000"},
{"state":"Vaud","name":"Gimel","lat":"46.50945000","lon":"6.30736000"},
{"state":"Vaud","name":"Gland","lat":"46.42082000","lon":"6.27010000"},
{"state":"Vaud","name":"Grancy","lat":"46.59214000","lon":"6.46391000"},
{"state":"Vaud","name":"Grandson","lat":"46.80946000","lon":"6.64600000"},
{"state":"Vaud","name":"Gros-de-Vaud District","lat":"46.65180000","lon":"6.65728000"},
{"state":"Vaud","name":"Gryon","lat":"46.27377000","lon":"7.05975000"},
{"state":"Vaud","name":"Jongny","lat":"46.47883000","lon":"6.84114000"},
{"state":"Vaud","name":"Jura-Nord vaudois District","lat":"46.72981000","lon":"6.45429000"},
{"state":"Vaud","name":"La Sarraz","lat":"46.65863000","lon":"6.51077000"},
{"state":"Vaud","name":"La Tour-de-Peilz","lat":"46.45312000","lon":"6.85856000"},
{"state":"Vaud","name":"Lausanne","lat":"46.51600000","lon":"6.63282000"},
{"state":"Vaud","name":"Lausanne District","lat":"46.52131000","lon":"6.63334000"},
{"state":"Vaud","name":"Lavaux-Oron District","lat":"46.53618000","lon":"6.77086000"},
{"state":"Vaud","name":"Le Chenit","lat":"46.60688000","lon":"6.23062000"},
{"state":"Vaud","name":"Le Mont-sur-Lausanne","lat":"46.55815000","lon":"6.63145000"},
{"state":"Vaud","name":"Le Vaud","lat":"46.47753000","lon":"6.23603000"},
{"state":"Vaud","name":"Leysin","lat":"46.34183000","lon":"7.01151000"},
{"state":"Vaud","name":"Lucens","lat":"46.70854000","lon":"6.83931000"},
{"state":"Vaud","name":"Lutry","lat":"46.50241000","lon":"6.68647000"},
{"state":"Vaud","name":"Mauraz","lat":"46.60558000","lon":"6.42074000"},
{"state":"Vaud","name":"Mollens","lat":"46.57760000","lon":"6.36320000"},
{"state":"Vaud","name":"Montagny","lat":"46.79289000","lon":"6.61222000"},
{"state":"Vaud","name":"Montreux","lat":"46.43301000","lon":"6.91143000"},
{"state":"Vaud","name":"Morges","lat":"46.51127000","lon":"6.49854000"},
{"state":"Vaud","name":"Morges District","lat":"46.53578000","lon":"6.48662000"},
{"state":"Vaud","name":"Moudon","lat":"46.66758000","lon":"6.79781000"},
{"state":"Vaud","name":"Nyon","lat":"46.38318000","lon":"6.23955000"},
{"state":"Vaud","name":"Nyon District","lat":"46.42004000","lon":"6.22177000"},
{"state":"Vaud","name":"Ollon","lat":"46.29524000","lon":"6.99314000"},
{"state":"Vaud","name":"Orbe","lat":"46.72504000","lon":"6.53069000"},
{"state":"Vaud","name":"Oron-la-Ville","lat":"46.57094000","lon":"6.82557000"},
{"state":"Vaud","name":"Ouest Lausannois District","lat":"46.54589000","lon":"6.56995000"},
{"state":"Vaud","name":"Pailly","lat":"46.70123000","lon":"6.67540000"},
{"state":"Vaud","name":"Palézieux","lat":"46.54191000","lon":"6.83989000"},
{"state":"Vaud","name":"Pampigny","lat":"46.58093000","lon":"6.42941000"},
{"state":"Vaud","name":"Paudex","lat":"46.50548000","lon":"6.66819000"},
{"state":"Vaud","name":"Payerne","lat":"46.82192000","lon":"6.93817000"},
{"state":"Vaud","name":"Penthalaz","lat":"46.61077000","lon":"6.52519000"},
{"state":"Vaud","name":"Penthéréaz","lat":"46.68171000","lon":"6.60390000"},
{"state":"Vaud","name":"Perroy","lat":"46.46690000","lon":"6.35349000"},
{"state":"Vaud","name":"Pompaples","lat":"46.66699000","lon":"6.50966000"},
{"state":"Vaud","name":"Prangins","lat":"46.39518000","lon":"6.24960000"},
{"state":"Vaud","name":"Préverenges","lat":"46.51854000","lon":"6.52682000"},
{"state":"Vaud","name":"Prilly","lat":"46.53698000","lon":"6.60456000"},
{"state":"Vaud","name":"Puidoux","lat":"46.50093000","lon":"6.78249000"},
{"state":"Vaud","name":"Pully","lat":"46.51027000","lon":"6.66183000"},
{"state":"Vaud","name":"Renens","lat":"46.53989000","lon":"6.58810000"},
{"state":"Vaud","name":"Riviera-Pays-d'Enhaut District","lat":"46.46459000","lon":"6.88499000"},
{"state":"Vaud","name":"Rolle","lat":"46.45820000","lon":"6.33499000"},
{"state":"Vaud","name":"Romanel-sur-Lausanne","lat":"46.56403000","lon":"6.60538000"},
{"state":"Vaud","name":"Saint-Cergue","lat":"46.44590000","lon":"6.15737000"},
{"state":"Vaud","name":"Saint-Livres","lat":"46.50794000","lon":"6.38753000"},
{"state":"Vaud","name":"Saint-Prex","lat":"46.47963000","lon":"6.45992000"},
{"state":"Vaud","name":"Sainte-Croix","lat":"46.82203000","lon":"6.50283000"},
{"state":"Vaud","name":"Saubraz","lat":"46.51606000","lon":"6.33018000"},
{"state":"Vaud","name":"Savigny","lat":"46.53844000","lon":"6.73222000"},
{"state":"Vaud","name":"Sottens","lat":"46.65521000","lon":"6.74197000"},
{"state":"Vaud","name":"Trélex","lat":"46.41538000","lon":"6.20813000"},
{"state":"Vaud","name":"Vallorbe","lat":"46.71256000","lon":"6.37894000"},
{"state":"Vaud","name":"Vevey","lat":"46.46299000","lon":"6.84345000"},
{"state":"Vaud","name":"Villars-sur-Ollon","lat":"46.29832000","lon":"7.05631000"},
{"state":"Vaud","name":"Villeneuve","lat":"46.39869000","lon":"6.92654000"},
{"state":"Vaud","name":"Vuarrens","lat":"46.68578000","lon":"6.64793000"},
{"state":"Vaud","name":"Yverdon-les-Bains","lat":"46.77852000","lon":"6.64115000"},
{"state":"Vaud","name":"Yvonand","lat":"46.80034000","lon":"6.74249000"},
{"state":"Zug","name":"Baar","lat":"47.19625000","lon":"8.52954000"},
{"state":"Zug","name":"Cham","lat":"47.18213000","lon":"8.46358000"},
{"state":"Zug","name":"Hünenberg","lat":"47.17536000","lon":"8.42497000"},
{"state":"Zug","name":"Menzingen","lat":"47.17764000","lon":"8.59215000"},
{"state":"Zug","name":"Rotkreuz","lat":"47.14283000","lon":"8.43140000"},
{"state":"Zug","name":"Steinhausen","lat":"47.19510000","lon":"8.48581000"},
{"state":"Zug","name":"Unterägeri","lat":"47.13645000","lon":"8.58530000"},
{"state":"Zug","name":"Walchwil","lat":"47.10169000","lon":"8.51693000"},
{"state":"Zug","name":"Zug","lat":"47.17242000","lon":"8.51745000"},
{"state":"Zürich","name":"Adliswil","lat":"47.30997000","lon":"8.52462000"},
{"state":"Zürich","name":"Adliswil / Adliswil (Stadtkern)","lat":"47.31128000","lon":"8.52675000"},
{"state":"Zürich","name":"Adliswil / Hündli-Zopf","lat":"47.31637000","lon":"8.51888000"},
{"state":"Zürich","name":"Adliswil / Oberleimbach","lat":"47.32020000","lon":"8.51508000"},
{"state":"Zürich","name":"Adliswil / Sonnenberg","lat":"47.30958000","lon":"8.52055000"},
{"state":"Zürich","name":"Adliswil / Sood","lat":"47.31870000","lon":"8.52425000"},
{"state":"Zürich","name":"Adliswil / Tal","lat":"47.31142000","lon":"8.53446000"},
{"state":"Zürich","name":"Aesch","lat":"47.32970000","lon":"8.65410000"},
{"state":"Zürich","name":"Affoltern / Hasenbüel","lat":"47.27324000","lon":"8.45218000"},
{"state":"Zürich","name":"Affoltern / Oberdorf","lat":"47.27852000","lon":"8.45651000"},
{"state":"Zürich","name":"Affoltern / Sonnenberg","lat":"47.28055000","lon":"8.46008000"},
{"state":"Zürich","name":"Affoltern / Unterdorf","lat":"47.28277000","lon":"8.45409000"},
{"state":"Zürich","name":"Affoltern am Albis","lat":"47.27743000","lon":"8.45128000"},
{"state":"Zürich","name":"Andelfingen","lat":"47.59447000","lon":"8.67826000"},
{"state":"Zürich","name":"Au","lat":"47.24185000","lon":"8.64406000"},
{"state":"Zürich","name":"Au / Mittel-Dorf","lat":"47.24303000","lon":"8.64591000"},
{"state":"Zürich","name":"Au / Unter-Dorf","lat":"47.24730000","lon":"8.63270000"},
{"state":"Zürich","name":"Bachenbülach","lat":"47.50317000","lon":"8.54556000"},
{"state":"Zürich","name":"Bäretswil","lat":"47.33709000","lon":"8.85645000"},
{"state":"Zürich","name":"Bassersdorf","lat":"47.44342000","lon":"8.62851000"},
{"state":"Zürich","name":"Bauma","lat":"47.36745000","lon":"8.87905000"},
{"state":"Zürich","name":"Benglen","lat":"47.36077000","lon":"8.63687000"},
{"state":"Zürich","name":"Bezirk Affoltern","lat":"47.27311000","lon":"8.47444000"},
{"state":"Zürich","name":"Bezirk Andelfingen","lat":"47.61328000","lon":"8.68124000"},
{"state":"Zürich","name":"Bezirk Bülach","lat":"47.49706000","lon":"8.56764000"},
{"state":"Zürich","name":"Bezirk Dielsdorf","lat":"47.47181000","lon":"8.45631000"},
{"state":"Zürich","name":"Bezirk Dietikon","lat":"47.38804000","lon":"8.44260000"},
{"state":"Zürich","name":"Bezirk Hinwil","lat":"47.29646000","lon":"8.83431000"},
{"state":"Zürich","name":"Bezirk Horgen","lat":"47.25767000","lon":"8.59702000"},
{"state":"Zürich","name":"Bezirk Meilen","lat":"47.27920000","lon":"8.66259000"},
{"state":"Zürich","name":"Bezirk Pfäffikon","lat":"47.40905000","lon":"8.77208000"},
{"state":"Zürich","name":"Bezirk Uster","lat":"47.34952000","lon":"8.71353000"},
{"state":"Zürich","name":"Bezirk Winterthur","lat":"47.50781000","lon":"8.76900000"},
{"state":"Zürich","name":"Bezirk Zürich","lat":"47.37110000","lon":"8.54323000"},
{"state":"Zürich","name":"Binz","lat":"47.35635000","lon":"8.62657000"},
{"state":"Zürich","name":"Binzikon","lat":"47.27632000","lon":"8.75851000"},
{"state":"Zürich","name":"Birchwil","lat":"47.45431000","lon":"8.63477000"},
{"state":"Zürich","name":"Birmensdorf","lat":"47.35515000","lon":"8.44256000"},
{"state":"Zürich","name":"Bonstetten","lat":"47.31505000","lon":"8.46836000"},
{"state":"Zürich","name":"Brütten","lat":"47.47318000","lon":"8.67569000"},
{"state":"Zürich","name":"Brüttisellen","lat":"47.42173000","lon":"8.63263000"},
{"state":"Zürich","name":"Bubikon","lat":"47.26698000","lon":"8.81790000"},
{"state":"Zürich","name":"Bülach","lat":"47.52197000","lon":"8.54049000"},
{"state":"Zürich","name":"Bülach / Gstückt","lat":"47.52337000","lon":"8.54879000"},
{"state":"Zürich","name":"Bülach / Seematt","lat":"47.51716000","lon":"8.54651000"},
{"state":"Zürich","name":"Bülach / Soligänter","lat":"47.52632000","lon":"8.54106000"},
{"state":"Zürich","name":"Dachsen","lat":"47.66515000","lon":"8.61790000"},
{"state":"Zürich","name":"Dällikon / Dällikon (Dorf)","lat":"47.43983000","lon":"8.43813000"},
{"state":"Zürich","name":"Dänikon","lat":"47.44674000","lon":"8.40648000"},
{"state":"Zürich","name":"Dielsdorf","lat":"47.48146000","lon":"8.45850000"},
{"state":"Zürich","name":"Dietikon","lat":"47.40165000","lon":"8.40015000"},
{"state":"Zürich","name":"Dietikon / Almend","lat":"47.40477000","lon":"8.39168000"},
{"state":"Zürich","name":"Dietikon / Guggenbühl","lat":"47.40009000","lon":"8.40818000"},
{"state":"Zürich","name":"Dietikon / Hofacker","lat":"47.39718000","lon":"8.41609000"},
{"state":"Zürich","name":"Dietikon / Kreuzacker","lat":"47.39919000","lon":"8.40146000"},
{"state":"Zürich","name":"Dietikon / Oberdorf","lat":"47.40065000","lon":"8.39416000"},
{"state":"Zürich","name":"Dietikon / Schönenwerd","lat":"47.39706000","lon":"8.42576000"},
{"state":"Zürich","name":"Dietikon / Vorstadt","lat":"47.40819000","lon":"8.39719000"},
{"state":"Zürich","name":"Dietlikon / Dietlikon (Dorf)","lat":"47.41827000","lon":"8.61880000"},
{"state":"Zürich","name":"Dietlikon / Eichwiesen","lat":"47.41910000","lon":"8.62078000"},
{"state":"Zürich","name":"Dorf","lat":"47.23900000","lon":"8.73567000"},
{"state":"Zürich","name":"Dübendorf","lat":"47.39724000","lon":"8.61872000"},
{"state":"Zürich","name":"Dübendorf / Kunklerstrasse","lat":"47.40109000","lon":"8.62724000"},
{"state":"Zürich","name":"Dübendorf / Sonnenberg","lat":"47.39469000","lon":"8.63162000"},
{"state":"Zürich","name":"Dübendorf / Vogelquartier","lat":"47.39502000","lon":"8.61184000"},
{"state":"Zürich","name":"Dübendorf / Wasserfurren","lat":"47.39352000","lon":"8.60850000"},
{"state":"Zürich","name":"Dürnten","lat":"47.27856000","lon":"8.84156000"},
{"state":"Zürich","name":"Ebmatingen","lat":"47.34987000","lon":"8.64013000"},
{"state":"Zürich","name":"Effretikon","lat":"47.42575000","lon":"8.69094000"},
{"state":"Zürich","name":"Effretikon / Rappenhalde-Bannhalde","lat":"47.42388000","lon":"8.69653000"},
{"state":"Zürich","name":"Effretikon / Rikon","lat":"47.43099000","lon":"8.68624000"},
{"state":"Zürich","name":"Effretikon / Watt","lat":"47.42797000","lon":"8.69822000"},
{"state":"Zürich","name":"Egg","lat":"47.29976000","lon":"8.69032000"},
{"state":"Zürich","name":"Elgg","lat":"47.49715000","lon":"8.86523000"},
{"state":"Zürich","name":"Elgg / Städtchen und Umgebung","lat":"47.49265000","lon":"8.86680000"},
{"state":"Zürich","name":"Elsau-Räterschen","lat":"47.50238000","lon":"8.79874000"},
{"state":"Zürich","name":"Elsau-Räterschen / Räterschen","lat":"47.49927000","lon":"8.79600000"},
{"state":"Zürich","name":"Embrach","lat":"47.50561000","lon":"8.59406000"},
{"state":"Zürich","name":"Embrach / Embrach (Dorfkern)","lat":"47.50400000","lon":"8.59477000"},
{"state":"Zürich","name":"Embrach / Kellersacker","lat":"47.51455000","lon":"8.59146000"},
{"state":"Zürich","name":"Erlenbach","lat":"47.30298000","lon":"8.59743000"},
{"state":"Zürich","name":"Erlenbach / links des Dorfbachs oberhalb Bahnlinie","lat":"47.29950000","lon":"8.60188000"},
{"state":"Zürich","name":"Erlenbach / rechts des Dorfbachs oberhalb Bahnlinie","lat":"47.30658000","lon":"8.60271000"},
{"state":"Zürich","name":"Esslingen","lat":"47.28325000","lon":"8.71038000"},
{"state":"Zürich","name":"Fällanden","lat":"47.37169000","lon":"8.63869000"},
{"state":"Zürich","name":"Fehraltorf","lat":"47.38775000","lon":"8.75149000"},
{"state":"Zürich","name":"Feldmeilen","lat":"47.27873000","lon":"8.62165000"},
{"state":"Zürich","name":"Feuerthalen","lat":"47.69054000","lon":"8.64357000"},
{"state":"Zürich","name":"Flurlingen","lat":"47.68390000","lon":"8.62995000"},
{"state":"Zürich","name":"Freienstein","lat":"47.53307000","lon":"8.58455000"},
{"state":"Zürich","name":"Gattikon","lat":"47.28439000","lon":"8.54830000"},
{"state":"Zürich","name":"Geroldswil","lat":"47.42213000","lon":"8.41085000"},
{"state":"Zürich","name":"Glattbrugg","lat":"47.43130000","lon":"8.56272000"},
{"state":"Zürich","name":"Glattbrugg / Rohr/Platten-Balsberg","lat":"47.43721000","lon":"8.56642000"},
{"state":"Zürich","name":"Glattbrugg / Wydacker/Bettacker/Lättenwiesen","lat":"47.42908000","lon":"8.56657000"},
{"state":"Zürich","name":"Glattfelden","lat":"47.55871000","lon":"8.50167000"},
{"state":"Zürich","name":"Gockhausen","lat":"47.38098000","lon":"8.59978000"},
{"state":"Zürich","name":"Gossau","lat":"47.30510000","lon":"8.75831000"},
{"state":"Zürich","name":"Greifensee","lat":"47.36717000","lon":"8.68115000"},
{"state":"Zürich","name":"Greifensee / Müllerwis / Seilerwis","lat":"47.37042000","lon":"8.68151000"},
{"state":"Zürich","name":"Greifensee / Pfisterhölzli","lat":"47.36430000","lon":"8.68979000"},
{"state":"Zürich","name":"Grossacker/Opfikon","lat":"47.42696000","lon":"8.57886000"},
{"state":"Zürich","name":"Grüt","lat":"47.31151000","lon":"8.78339000"},
{"state":"Zürich","name":"Gutenswil","lat":"47.38387000","lon":"8.71763000"},
{"state":"Zürich","name":"Hadlikon","lat":"47.28750000","lon":"8.85719000"},
{"state":"Zürich","name":"Hausen am Albis / Hausen (Dorf)","lat":"47.24496000","lon":"8.53299000"},
{"state":"Zürich","name":"Hedingen","lat":"47.29794000","lon":"8.44833000"},
{"state":"Zürich","name":"Hegnau","lat":"47.39227000","lon":"8.66988000"},
{"state":"Zürich","name":"Hegnau / Dammboden-Grindel","lat":"47.38713000","lon":"8.66657000"},
{"state":"Zürich","name":"Hegnau / Sunnebüel-Eich","lat":"47.39246000","lon":"8.67910000"},
{"state":"Zürich","name":"Henggart","lat":"47.56272000","lon":"8.68215000"},
{"state":"Zürich","name":"Herrliberg","lat":"47.29064000","lon":"8.61464000"},
{"state":"Zürich","name":"Hettlingen","lat":"47.54610000","lon":"8.70532000"},
{"state":"Zürich","name":"Hinteregg","lat":"47.30736000","lon":"8.68339000"},
{"state":"Zürich","name":"Hinwil","lat":"47.29426000","lon":"8.84393000"},
{"state":"Zürich","name":"Hittnau / Hittnau (Dorf)","lat":"47.36334000","lon":"8.82418000"},
{"state":"Zürich","name":"Hochfelden","lat":"47.52262000","lon":"8.51564000"},
{"state":"Zürich","name":"Hofstetten","lat":"47.47778000","lon":"8.50646000"},
{"state":"Zürich","name":"Hombrechtikon","lat":"47.25298000","lon":"8.77212000"},
{"state":"Zürich","name":"Horgen","lat":"47.25983000","lon":"8.59778000"},
{"state":"Zürich","name":"Horgen / Allmend","lat":"47.24729000","lon":"8.60660000"},
{"state":"Zürich","name":"Horgen / Horgen (Dorfkern)","lat":"47.25604000","lon":"8.60159000"},
{"state":"Zürich","name":"Horgen / Oberdorf","lat":"47.25837000","lon":"8.59013000"},
{"state":"Zürich","name":"Horgen / Scheller-Stockerstrasse","lat":"47.26584000","lon":"8.58760000"},
{"state":"Zürich","name":"Höri","lat":"47.50799000","lon":"8.51203000"},
{"state":"Zürich","name":"Illnau","lat":"47.41130000","lon":"8.72125000"},
{"state":"Zürich","name":"Illnau / Unter-Illnau","lat":"47.40787000","lon":"8.72607000"},
{"state":"Zürich","name":"Kilchberg","lat":"47.32438000","lon":"8.54548000"},
{"state":"Zürich","name":"Kilchberg / Bächler-Stocken","lat":"47.32728000","lon":"8.53957000"},
{"state":"Zürich","name":"Kilchberg / Kilchberg (Dorfkern)","lat":"47.32012000","lon":"8.54306000"},
{"state":"Zürich","name":"Kindhausen / Kindhausen (Dorf)","lat":"47.40644000","lon":"8.68296000"},
{"state":"Zürich","name":"Kleinandelfingen","lat":"47.60058000","lon":"8.68362000"},
{"state":"Zürich","name":"Kloten","lat":"47.45152000","lon":"8.58491000"},
{"state":"Zürich","name":"Kloten / Balsberg","lat":"47.44233000","lon":"8.57496000"},
{"state":"Zürich","name":"Kloten / Freienberg (Chanzler-Chlini Chaseren)","lat":"47.46584000","lon":"8.58145000"},
{"state":"Zürich","name":"Kloten / Geissberg","lat":"47.45424000","lon":"8.59066000"},
{"state":"Zürich","name":"Kloten / Holberg","lat":"47.44642000","lon":"8.57661000"},
{"state":"Zürich","name":"Kloten / Horainli","lat":"47.45399000","lon":"8.58306000"},
{"state":"Zürich","name":"Kloten / Hostrass","lat":"47.45255000","lon":"8.59464000"},
{"state":"Zürich","name":"Kloten / Kloten (Zentrum)","lat":"47.45134000","lon":"8.58683000"},
{"state":"Zürich","name":"Kloten / Rütlen","lat":"47.44726000","lon":"8.58808000"},
{"state":"Zürich","name":"Kloten / Spitz","lat":"47.44455000","lon":"8.58724000"},
{"state":"Zürich","name":"Knonau","lat":"47.22350000","lon":"8.46197000"},
{"state":"Zürich","name":"Kollbrunn","lat":"47.45793000","lon":"8.78295000"},
{"state":"Zürich","name":"Kollbrunn / Kollbrunn (Dorfkern)","lat":"47.45748000","lon":"8.77413000"},
{"state":"Zürich","name":"Küsnacht","lat":"47.31805000","lon":"8.58401000"},
{"state":"Zürich","name":"Küsnacht / Dorf","lat":"47.31783000","lon":"8.58303000"},
{"state":"Zürich","name":"Küsnacht / Goldbach","lat":"47.32729000","lon":"8.58077000"},
{"state":"Zürich","name":"Küsnacht / Heslibach","lat":"47.31307000","lon":"8.58849000"},
{"state":"Zürich","name":"Küsnacht / Itschnach","lat":"47.32714000","lon":"8.60068000"},
{"state":"Zürich","name":"Küsnacht / Schiedhalden","lat":"47.32112000","lon":"8.58881000"},
{"state":"Zürich","name":"Langnau / Langnau (Dorf)","lat":"47.28643000","lon":"8.53627000"},
{"state":"Zürich","name":"Langnau / Vitaquartier","lat":"47.29377000","lon":"8.53758000"},
{"state":"Zürich","name":"Langnau am Albis","lat":"47.28885000","lon":"8.54110000"},
{"state":"Zürich","name":"Männedorf","lat":"47.25686000","lon":"8.69893000"},
{"state":"Zürich","name":"Männedorf / Ausserfeld","lat":"47.24636000","lon":"8.70608000"},
{"state":"Zürich","name":"Männedorf / Dorfkern","lat":"47.25612000","lon":"8.69161000"},
{"state":"Zürich","name":"Marthalen","lat":"47.62913000","lon":"8.65326000"},
{"state":"Zürich","name":"Mattenbach (Kreis 7)","lat":"47.48705000","lon":"8.74681000"},
{"state":"Zürich","name":"Mattenbach (Kreis 7) / Deutweg","lat":"47.49419000","lon":"8.73948000"},
{"state":"Zürich","name":"Mattenbach (Kreis 7) / Endliker","lat":"47.48821000","lon":"8.74938000"},
{"state":"Zürich","name":"Mattenbach (Kreis 7) / Gutschick","lat":"47.49104000","lon":"8.75258000"},
{"state":"Zürich","name":"Meilen","lat":"47.27232000","lon":"8.64617000"},
{"state":"Zürich","name":"Mettmenstetten","lat":"47.24529000","lon":"8.46347000"},
{"state":"Zürich","name":"Mönchaltorf","lat":"47.30958000","lon":"8.72029000"},
{"state":"Zürich","name":"Mönchaltorf / Dorf","lat":"47.30401000","lon":"8.72211000"},
{"state":"Zürich","name":"Mühlehalde","lat":"47.28306000","lon":"8.53386000"},
{"state":"Zürich","name":"Nänikon","lat":"47.36975000","lon":"8.68894000"},
{"state":"Zürich","name":"Nänikon / Nänikon (Dorfkern)","lat":"47.37099000","lon":"8.69254000"},
{"state":"Zürich","name":"Neerach","lat":"47.51096000","lon":"8.47099000"},
{"state":"Zürich","name":"Neftenbach / Dorf Neftenbach","lat":"47.52764000","lon":"8.66490000"},
{"state":"Zürich","name":"Niederglatt","lat":"47.49066000","lon":"8.49987000"},
{"state":"Zürich","name":"Niederglatt / Niederglatt (Dorfkern)","lat":"47.49065000","lon":"8.50048000"},
{"state":"Zürich","name":"Niederhasli","lat":"47.48012000","lon":"8.48576000"},
{"state":"Zürich","name":"Nürensdorf","lat":"47.44814000","lon":"8.64908000"},
{"state":"Zürich","name":"Oberengstringen","lat":"47.40841000","lon":"8.46515000"},
{"state":"Zürich","name":"Oberengstringen / Rauchacher","lat":"47.40919000","lon":"8.45627000"},
{"state":"Zürich","name":"Oberengstringen / Sonnenberg","lat":"47.41211000","lon":"8.46055000"},
{"state":"Zürich","name":"Oberengstringen / Zentrum","lat":"47.40711000","lon":"8.46276000"},
{"state":"Zürich","name":"Oberglatt","lat":"47.47576000","lon":"8.51896000"},
{"state":"Zürich","name":"Oberglatt / Bahnhofquartier","lat":"47.47143000","lon":"8.51289000"},
{"state":"Zürich","name":"Oberglatt / Oberglatt (Dorfkern)","lat":"47.47596000","lon":"8.51929000"},
{"state":"Zürich","name":"Obermeilen","lat":"47.26574000","lon":"8.65567000"},
{"state":"Zürich","name":"Oberrieden","lat":"47.27444000","lon":"8.57838000"},
{"state":"Zürich","name":"Oberrieden / Berg","lat":"47.27628000","lon":"8.57257000"},
{"state":"Zürich","name":"Oberrieden / Mitte","lat":"47.27242000","lon":"8.58021000"},
{"state":"Zürich","name":"Oberwinterthur (Kreis 2)","lat":"47.51692000","lon":"8.76863000"},
{"state":"Zürich","name":"Oberwinterthur (Kreis 2) / Guggenbühl","lat":"47.51339000","lon":"8.75998000"},
{"state":"Zürich","name":"Oberwinterthur (Kreis 2) / Hegi","lat":"47.50716000","lon":"8.77057000"},
{"state":"Zürich","name":"Oberwinterthur (Kreis 2) / Talacker","lat":"47.50596000","lon":"8.75150000"},
{"state":"Zürich","name":"Oberwinterthur (Kreis 2) / Zinzikon","lat":"47.51950000","lon":"8.75640000"},
{"state":"Zürich","name":"Obfelden","lat":"47.26413000","lon":"8.42150000"},
{"state":"Zürich","name":"Obfelden / Oberlunnern","lat":"47.26197000","lon":"8.41588000"},
{"state":"Zürich","name":"Obfelden / Toussen","lat":"47.26574000","lon":"8.43013000"},
{"state":"Zürich","name":"Oetwil","lat":"47.27049000","lon":"8.72023000"},
{"state":"Zürich","name":"Opfikon","lat":"47.43169000","lon":"8.57588000"},
{"state":"Zürich","name":"Otelfingen","lat":"47.46053000","lon":"8.39141000"},
{"state":"Zürich","name":"Ottenbach","lat":"47.28228000","lon":"8.40432000"},
{"state":"Zürich","name":"Pfaffhausen","lat":"47.36476000","lon":"8.62375000"},
{"state":"Zürich","name":"Pfäffikon","lat":"47.36453000","lon":"8.79202000"},
{"state":"Zürich","name":"Pfäffikon / Irgenhausen","lat":"47.36240000","lon":"8.79265000"},
{"state":"Zürich","name":"Pfäffikon / Pfäffikon (Dorfkern)","lat":"47.36943000","lon":"8.78309000"},
{"state":"Zürich","name":"Pfungen","lat":"47.51394000","lon":"8.64230000"},
{"state":"Zürich","name":"Rafz","lat":"47.60438000","lon":"8.54305000"},
{"state":"Zürich","name":"Regensdorf","lat":"47.43410000","lon":"8.46874000"},
{"state":"Zürich","name":"Regensdorf / Feldblumen-Riedthofstrasse","lat":"47.43618000","lon":"8.46659000"},
{"state":"Zürich","name":"Regensdorf / Hofacher-Geeren","lat":"47.43525000","lon":"8.46240000"},
{"state":"Zürich","name":"Regensdorf / Obstgarten","lat":"47.42772000","lon":"8.46566000"},
{"state":"Zürich","name":"Richterswil","lat":"47.20622000","lon":"8.69686000"},
{"state":"Zürich","name":"Richterswil / Burghalde","lat":"47.20973000","lon":"8.69133000"},
{"state":"Zürich","name":"Richterswil / Dorfkern","lat":"47.20715000","lon":"8.70607000"},
{"state":"Zürich","name":"Richterswil / Richterswil (Dorfkern)","lat":"47.20323000","lon":"8.70516000"},
{"state":"Zürich","name":"Rorbas","lat":"47.53092000","lon":"8.57555000"},
{"state":"Zürich","name":"Rümlang","lat":"47.45041000","lon":"8.52993000"},
{"state":"Zürich","name":"Rümlang / Rümlang (Dorfkern)","lat":"47.44940000","lon":"8.53255000"},
{"state":"Zürich","name":"Rüschlikon","lat":"47.30688000","lon":"8.55135000"},
{"state":"Zürich","name":"Russikon","lat":"47.39669000","lon":"8.77515000"},
{"state":"Zürich","name":"Rüti","lat":"47.25603000","lon":"8.85552000"},
{"state":"Zürich","name":"Rüti / Dorfzentrum Südl. Teil","lat":"47.25368000","lon":"8.85654000"},
{"state":"Zürich","name":"Rüti / Oberdorf","lat":"47.25894000","lon":"8.86512000"},
{"state":"Zürich","name":"Rüti / Westlicher Dorfteil","lat":"47.25548000","lon":"8.84490000"},
{"state":"Zürich","name":"Samstagern","lat":"47.19167000","lon":"8.68196000"},
{"state":"Zürich","name":"Schachen","lat":"47.32419000","lon":"8.47251000"},
{"state":"Zürich","name":"Schlieren","lat":"47.39668000","lon":"8.44763000"},
{"state":"Zürich","name":"Schlieren / Boden","lat":"47.39721000","lon":"8.45734000"},
{"state":"Zürich","name":"Schlieren / Engstingerquartier","lat":"47.40338000","lon":"8.44352000"},
{"state":"Zürich","name":"Schlieren / Freiestrasse","lat":"47.39598000","lon":"8.44202000"},
{"state":"Zürich","name":"Schlieren / Kamp","lat":"47.39358000","lon":"8.44453000"},
{"state":"Zürich","name":"Schlieren / Spital","lat":"47.39489000","lon":"8.43027000"},
{"state":"Zürich","name":"Schlieren / Zentrum","lat":"47.39779000","lon":"8.44770000"},
{"state":"Zürich","name":"Schwerzenbach","lat":"47.38213000","lon":"8.65727000"},
{"state":"Zürich","name":"Schwerzenbach / Blatten","lat":"47.38308000","lon":"8.64954000"},
{"state":"Zürich","name":"Schwerzenbach / Chimli","lat":"47.38592000","lon":"8.65888000"},
{"state":"Zürich","name":"Seen (Kreis 3)","lat":"47.47646000","lon":"8.76996000"},
{"state":"Zürich","name":"Seen (Kreis 3) / Büelwiesen","lat":"47.48446000","lon":"8.76517000"},
{"state":"Zürich","name":"Seen (Kreis 3) / Ganzenbühl","lat":"47.48100000","lon":"8.76249000"},
{"state":"Zürich","name":"Seen (Kreis 3) / Oberseen","lat":"47.48205000","lon":"8.77289000"},
{"state":"Zürich","name":"Seen (Kreis 3) / Waldegg","lat":"47.48393000","lon":"8.75586000"},
{"state":"Zürich","name":"Seen (Kreis 3) / Waser","lat":"47.48913000","lon":"8.76034000"},
{"state":"Zürich","name":"Seglingen","lat":"47.57244000","lon":"8.52093000"},
{"state":"Zürich","name":"Sellenbüren","lat":"47.34361000","lon":"8.48301000"},
{"state":"Zürich","name":"Seuzach / Seuzach (Dorf)","lat":"47.53545000","lon":"8.73728000"},
{"state":"Zürich","name":"Seuzach Dorf","lat":"47.53560000","lon":"8.73209000"},
{"state":"Zürich","name":"Seuzach Dorf / Breite-Weid","lat":"47.53345000","lon":"8.73415000"},
{"state":"Zürich","name":"Sonnhalde","lat":"47.45329000","lon":"8.46091000"},
{"state":"Zürich","name":"Stadt Winterthur (Kreis 1)","lat":"47.49494000","lon":"8.71954000"},
{"state":"Zürich","name":"Stadt Winterthur (Kreis 1) / Altstadt","lat":"47.49951000","lon":"8.72872000"},
{"state":"Zürich","name":"Stadt Winterthur (Kreis 1) / Brühlberg","lat":"47.49764000","lon":"8.71272000"},
{"state":"Zürich","name":"Stadt Winterthur (Kreis 1) / Heiligberg","lat":"47.49409000","lon":"8.72334000"},
{"state":"Zürich","name":"Stadt Winterthur (Kreis 1) / Lind","lat":"47.50571000","lon":"8.73372000"},
{"state":"Zürich","name":"Stadt Winterthur (Kreis 1) / Neuwiesen","lat":"47.50207000","lon":"8.71625000"},
{"state":"Zürich","name":"Stadt Winterthur (Kreis 1) / Tössfeld","lat":"47.49340000","lon":"8.71512000"},
{"state":"Zürich","name":"Stäfa","lat":"47.24254000","lon":"8.72342000"},
{"state":"Zürich","name":"Steinmaur","lat":"47.49710000","lon":"8.45216000"},
{"state":"Zürich","name":"Sulz","lat":"47.53954000","lon":"8.78887000"},
{"state":"Zürich","name":"Tagelswangen","lat":"47.43070000","lon":"8.67284000"},
{"state":"Zürich","name":"Tann","lat":"47.26898000","lon":"8.85024000"},
{"state":"Zürich","name":"Tann / Tann (Dorfkern)","lat":"47.26494000","lon":"8.85048000"},
{"state":"Zürich","name":"Thalwil","lat":"47.29175000","lon":"8.56351000"},
{"state":"Zürich","name":"Thalwil / Berg","lat":"47.29178000","lon":"8.55602000"},
{"state":"Zürich","name":"Thalwil / Dorfkern","lat":"47.29047000","lon":"8.56633000"},
{"state":"Zürich","name":"Thalwil / Nord","lat":"47.29748000","lon":"8.55634000"},
{"state":"Zürich","name":"Thalwil / See","lat":"47.29409000","lon":"8.56929000"},
{"state":"Zürich","name":"Thalwil / Süd","lat":"47.28495000","lon":"8.56954000"},
{"state":"Zürich","name":"Töss (Kreis 4)","lat":"47.47890000","lon":"8.70215000"},
{"state":"Zürich","name":"Töss (Kreis 4) / Eichliacker","lat":"47.48727000","lon":"8.70740000"},
{"state":"Zürich","name":"Töss (Kreis 4) / Schlosstal","lat":"47.49279000","lon":"8.70223000"},
{"state":"Zürich","name":"Töss (Kreis 4) / Vorder-Dättnau","lat":"47.48135000","lon":"8.69855000"},
{"state":"Zürich","name":"Turbenthal","lat":"47.43633000","lon":"8.84629000"},
{"state":"Zürich","name":"Uerikon","lat":"47.23672000","lon":"8.75730000"},
{"state":"Zürich","name":"Uetikon","lat":"47.26441000","lon":"8.67925000"},
{"state":"Zürich","name":"Uetikon / Grossdorf","lat":"47.26654000","lon":"8.67765000"},
{"state":"Zürich","name":"Uhwiesen","lat":"47.67074000","lon":"8.63542000"},
{"state":"Zürich","name":"Uitikon","lat":"47.36911000","lon":"8.45699000"},
{"state":"Zürich","name":"Unterengstringen","lat":"47.41396000","lon":"8.44761000"},
{"state":"Zürich","name":"Urdorf","lat":"47.38507000","lon":"8.42581000"},
{"state":"Zürich","name":"Urdorf / Bodenfeld","lat":"47.38920000","lon":"8.42265000"},
{"state":"Zürich","name":"Urdorf / Moos","lat":"47.38977000","lon":"8.42886000"},
{"state":"Zürich","name":"Urdorf / Oberurdorf","lat":"47.38072000","lon":"8.42343000"},
{"state":"Zürich","name":"Uster","lat":"47.34713000","lon":"8.72091000"},
{"state":"Zürich","name":"Uster / Gschwader","lat":"47.36016000","lon":"8.71390000"},
{"state":"Zürich","name":"Uster / Kirch-Uster","lat":"47.34579000","lon":"8.71839000"},
{"state":"Zürich","name":"Uster / Nieder-Uster","lat":"47.34743000","lon":"8.70088000"},
{"state":"Zürich","name":"Uster / Nossikon","lat":"47.34088000","lon":"8.72555000"},
{"state":"Zürich","name":"Uster / Ober-Uster","lat":"47.34874000","lon":"8.73319000"},
{"state":"Zürich","name":"Veltheim (Kreis 5)","lat":"47.51419000","lon":"8.71700000"},
{"state":"Zürich","name":"Veltheim (Kreis 5) / Blumenau","lat":"47.50618000","lon":"8.71563000"},
{"state":"Zürich","name":"Veltheim (Kreis 5) / Rosenberg","lat":"47.51386000","lon":"8.71583000"},
{"state":"Zürich","name":"Volketswil / Volketswil (Dorf)","lat":"47.39016000","lon":"8.69085000"},
{"state":"Zürich","name":"Wädenswil","lat":"47.22683000","lon":"8.66870000"},
{"state":"Zürich","name":"Wädenswil / Boller-Giessen","lat":"47.22115000","lon":"8.68385000"},
{"state":"Zürich","name":"Wädenswil / Büelen","lat":"47.23395000","lon":"8.66346000"},
{"state":"Zürich","name":"Wädenswil / Dorf (Wädenswil)","lat":"47.22923000","lon":"8.67220000"},
{"state":"Zürich","name":"Wädenswil / Eichweid","lat":"47.21847000","lon":"8.67440000"},
{"state":"Zürich","name":"Wädenswil / Hangenmoos","lat":"47.23367000","lon":"8.65251000"},
{"state":"Zürich","name":"Wädenswil / Leihof-Mühlebach","lat":"47.22364000","lon":"8.67149000"},
{"state":"Zürich","name":"Wädenswil / Untermosen-Fuhr","lat":"47.22772000","lon":"8.66303000"},
{"state":"Zürich","name":"Wald","lat":"47.27595000","lon":"8.91405000"},
{"state":"Zürich","name":"Wallisellen","lat":"47.41499000","lon":"8.59672000"},
{"state":"Zürich","name":"Wallisellen / Rieden","lat":"47.41738000","lon":"8.60028000"},
{"state":"Zürich","name":"Wallisellen / Wallisellen-Ost","lat":"47.41446000","lon":"8.59727000"},
{"state":"Zürich","name":"Wallisellen / Wallisellen-West","lat":"47.41906000","lon":"8.58586000"},
{"state":"Zürich","name":"Wangen","lat":"47.41182000","lon":"8.64516000"},
{"state":"Zürich","name":"Weiningen","lat":"47.42022000","lon":"8.43644000"},
{"state":"Zürich","name":"Weisslingen","lat":"47.43063000","lon":"8.76787000"},
{"state":"Zürich","name":"Wettswil / Ausser-Dorf","lat":"47.33197000","lon":"8.47732000"},
{"state":"Zürich","name":"Wettswil / Wettswil (Dorf)","lat":"47.34152000","lon":"8.47149000"},
{"state":"Zürich","name":"Wetzikon","lat":"47.32640000","lon":"8.79779000"},
{"state":"Zürich","name":"Wetzikon / Kempten","lat":"47.33319000","lon":"8.80982000"},
{"state":"Zürich","name":"Wetzikon / Ober-Wetzikon","lat":"47.32514000","lon":"8.80005000"},
{"state":"Zürich","name":"Wetzikon / Robenhausen","lat":"47.33089000","lon":"8.78762000"},
{"state":"Zürich","name":"Wetzikon / Unter-Wetzikon","lat":"47.31637000","lon":"8.79369000"},
{"state":"Zürich","name":"Wiesendangen / Wiesendangen (Dorf)","lat":"47.52170000","lon":"8.78967000"},
{"state":"Zürich","name":"Wila","lat":"47.41928000","lon":"8.84524000"},
{"state":"Zürich","name":"Winterthur","lat":"47.50564000","lon":"8.72413000"},
{"state":"Zürich","name":"Wolfhausen","lat":"47.25619000","lon":"8.79910000"},
{"state":"Zürich","name":"Wülflingen (Kreis 6)","lat":"47.51036000","lon":"8.68333000"},
{"state":"Zürich","name":"Wülflingen (Kreis 6) / Härti","lat":"47.51262000","lon":"8.68400000"},
{"state":"Zürich","name":"Wülflingen (Kreis 6) / Lindenplatz","lat":"47.51098000","lon":"8.69290000"},
{"state":"Zürich","name":"Wülflingen (Kreis 6) / Niederfeld","lat":"47.50904000","lon":"8.67968000"},
{"state":"Zürich","name":"Wülflingen (Kreis 6) / Oberfeld","lat":"47.49873000","lon":"8.69897000"},
{"state":"Zürich","name":"Zollikerberg","lat":"47.34510000","lon":"8.60088000"},
{"state":"Zürich","name":"Zollikon","lat":"47.34019000","lon":"8.57407000"},
{"state":"Zürich","name":"Zumikon","lat":"47.33158000","lon":"8.62271000"},
{"state":"Zürich","name":"Zürich","lat":"47.36667000","lon":"8.55000000"},
{"state":"Zürich","name":"Zürich (Kreis 1)","lat":"47.37055000","lon":"8.54177000"},
{"state":"Zürich","name":"Zürich (Kreis 1) / City","lat":"47.37269000","lon":"8.53576000"},
{"state":"Zürich","name":"Zürich (Kreis 1) / Lindenhof","lat":"47.37188000","lon":"8.54036000"},
{"state":"Zürich","name":"Zürich (Kreis 1) / Rathaus","lat":"47.37161000","lon":"8.54501000"},
{"state":"Zürich","name":"Zürich (Kreis 10)","lat":"47.40773000","lon":"8.50050000"},
{"state":"Zürich","name":"Zürich (Kreis 10) / Höngg","lat":"47.40313000","lon":"8.49710000"},
{"state":"Zürich","name":"Zürich (Kreis 10) / Rütihof","lat":"47.41444000","lon":"8.47928000"},
{"state":"Zürich","name":"Zürich (Kreis 10) / Wipkingen","lat":"47.39503000","lon":"8.52529000"},
{"state":"Zürich","name":"Zürich (Kreis 11)","lat":"47.42326000","lon":"8.52166000"},
{"state":"Zürich","name":"Zürich (Kreis 11) / Affoltern","lat":"47.41814000","lon":"8.51220000"},
{"state":"Zürich","name":"Zürich (Kreis 11) / Oerlikon","lat":"47.40823000","lon":"8.54258000"},
{"state":"Zürich","name":"Zürich (Kreis 11) / Schwandenholz","lat":"47.42476000","lon":"8.52125000"},
{"state":"Zürich","name":"Zürich (Kreis 11) / Seebach","lat":"47.42181000","lon":"8.54779000"},
{"state":"Zürich","name":"Zürich (Kreis 12)","lat":"47.40372000","lon":"8.57608000"},
{"state":"Zürich","name":"Zürich (Kreis 12) / Auzelg","lat":"47.41511000","lon":"8.57014000"},
{"state":"Zürich","name":"Zürich (Kreis 12) / Hirzenbach","lat":"47.40187000","lon":"8.58633000"},
{"state":"Zürich","name":"Zürich (Kreis 12) / Saatlen","lat":"47.41127000","lon":"8.56480000"},
{"state":"Zürich","name":"Zürich (Kreis 12) / Schwamendingen-Mitte","lat":"47.40630000","lon":"8.57242000"},
{"state":"Zürich","name":"Zürich (Kreis 2)","lat":"47.33756000","lon":"8.52110000"},
{"state":"Zürich","name":"Zürich (Kreis 2) / Enge","lat":"47.36050000","lon":"8.53127000"},
{"state":"Zürich","name":"Zürich (Kreis 2) / Mittel-Leimbach","lat":"47.32538000","lon":"8.51391000"},
{"state":"Zürich","name":"Zürich (Kreis 2) / Unter-Leimbach","lat":"47.33362000","lon":"8.51433000"},
{"state":"Zürich","name":"Zürich (Kreis 2) / Wollishofen","lat":"47.34010000","lon":"8.53134000"},
{"state":"Zürich","name":"Zürich (Kreis 3)","lat":"47.35785000","lon":"8.50296000"},
{"state":"Zürich","name":"Zürich (Kreis 3) / Alt-Wiedikon","lat":"47.36201000","lon":"8.51497000"},
{"state":"Zürich","name":"Zürich (Kreis 3) / Friesenberg","lat":"47.36372000","lon":"8.50417000"},
{"state":"Zürich","name":"Zürich (Kreis 3) / Sihlfeld","lat":"47.37382000","lon":"8.51164000"},
{"state":"Zürich","name":"Zürich (Kreis 4) / Aussersihl","lat":"47.37752000","lon":"8.52127000"},
{"state":"Zürich","name":"Zürich (Kreis 4) / Hard","lat":"47.38311000","lon":"8.50942000"},
{"state":"Zürich","name":"Zürich (Kreis 4) / Langstrasse","lat":"47.37767000","lon":"8.52854000"},
{"state":"Zürich","name":"Zürich (Kreis 4) / Werd","lat":"47.37178000","lon":"8.52584000"},
{"state":"Zürich","name":"Zürich (Kreis 5)","lat":"47.38767000","lon":"8.52152000"},
{"state":"Zürich","name":"Zürich (Kreis 5) / Escher-Wyss","lat":"47.39052000","lon":"8.51292000"},
{"state":"Zürich","name":"Zürich (Kreis 5) / Gewerbeschule","lat":"47.38481000","lon":"8.53011000"},
{"state":"Zürich","name":"Zürich (Kreis 6)","lat":"47.39223000","lon":"8.54381000"},
{"state":"Zürich","name":"Zürich (Kreis 6) / Oberstrass","lat":"47.38917000","lon":"8.55040000"},
{"state":"Zürich","name":"Zürich (Kreis 6) / Unterstrass","lat":"47.39530000","lon":"8.53721000"},
{"state":"Zürich","name":"Zürich (Kreis 7)","lat":"47.37328000","lon":"8.58038000"},
{"state":"Zürich","name":"Zürich (Kreis 7) / Fluntern","lat":"47.38013000","lon":"8.56133000"},
{"state":"Zürich","name":"Zürich (Kreis 7) / Hirslanden","lat":"47.36240000","lon":"8.56755000"},
{"state":"Zürich","name":"Zürich (Kreis 7) / Hottingen","lat":"47.37011000","lon":"8.56306000"},
{"state":"Zürich","name":"Zürich (Kreis 7) / Witikon","lat":"47.35751000","lon":"8.59105000"},
{"state":"Zürich","name":"Zürich (Kreis 8)","lat":"47.35480000","lon":"8.56097000"},
{"state":"Zürich","name":"Zürich (Kreis 8) / Mühlebach","lat":"47.35727000","lon":"8.55744000"},
{"state":"Zürich","name":"Zürich (Kreis 8) / Seefeld","lat":"47.35462000","lon":"8.55537000"},
{"state":"Zürich","name":"Zürich (Kreis 8) / Weinegg","lat":"47.35250000","lon":"8.57011000"},
{"state":"Zürich","name":"Zürich (Kreis 9)","lat":"47.38245000","lon":"8.47993000"},
{"state":"Zürich","name":"Zürich (Kreis 9) / Albisrieden","lat":"47.37398000","lon":"8.49007000"},
{"state":"Zürich","name":"Zürich (Kreis 9) / Altstetten","lat":"47.38946000","lon":"8.48533000"}]