[{"state":"Abidjan","name":"Abidjan","lat":"5.30966000","lon":"-4.01266000"},
{"state":"Abidjan","name":"Abobo","lat":"5.41613000","lon":"-4.01590000"},
{"state":"Abidjan","name":"Anyama","lat":"5.49462000","lon":"-4.05183000"},
{"state":"Abidjan","name":"Bingerville","lat":"5.35581000","lon":"-3.88537000"},
{"state":"Bas-Sassandra District","name":"Gbôklé","lat":"4.95712000","lon":"-6.09372000"},
{"state":"Bas-Sassandra District","name":"Nawa","lat":"5.80112000","lon":"-6.60313000"},
{"state":"Bas-Sassandra District","name":"San-Pédro","lat":"4.76768000","lon":"-6.65033000"},
{"state":"Bas-Sassandra District","name":"Sassandra","lat":"4.95384000","lon":"-6.08531000"},
{"state":"Bas-Sassandra District","name":"Tabou","lat":"4.42295000","lon":"-7.35280000"},
{"state":"Comoé District","name":"Abengourou","lat":"6.72972000","lon":"-3.49639000"},
{"state":"Comoé District","name":"Aboisso","lat":"5.46779000","lon":"-3.20711000"},
{"state":"Comoé District","name":"Adiaké","lat":"5.28634000","lon":"-3.30403000"},
{"state":"Comoé District","name":"Agnibilékrou","lat":"7.13113000","lon":"-3.20415000"},
{"state":"Comoé District","name":"Ayamé","lat":"5.60520000","lon":"-3.15709000"},
{"state":"Comoé District","name":"Bonoua","lat":"5.27247000","lon":"-3.59625000"},
{"state":"Comoé District","name":"Grand-Bassam","lat":"5.21180000","lon":"-3.73884000"},
{"state":"Comoé District","name":"Indénié-Djuablin","lat":"6.74434000","lon":"-3.49400000"},
{"state":"Comoé District","name":"Sud-Comoé","lat":"5.49961000","lon":"-3.24080000"},
{"state":"Denguélé District","name":"Folon","lat":"9.81241000","lon":"-7.51894000"},
{"state":"Denguélé District","name":"Kabadougou","lat":"9.60571000","lon":"-7.43774000"},
{"state":"Denguélé District","name":"Odienné","lat":"9.50511000","lon":"-7.56433000"},
{"state":"Dix-Huit Montagnes","name":"Bangolo","lat":"7.01232000","lon":"-7.48639000"},
{"state":"Dix-Huit Montagnes","name":"Biankouma","lat":"7.73909000","lon":"-7.61377000"},
{"state":"Dix-Huit Montagnes","name":"Cavally","lat":"6.56343000","lon":"-7.92526000"},
{"state":"Dix-Huit Montagnes","name":"Danané","lat":"7.25957000","lon":"-8.15498000"},
{"state":"Dix-Huit Montagnes","name":"Duekoué","lat":"6.74202000","lon":"-7.34918000"},
{"state":"Dix-Huit Montagnes","name":"Guémon","lat":"7.09300000","lon":"-7.17785000"},
{"state":"Dix-Huit Montagnes","name":"Guiglo","lat":"6.54368000","lon":"-7.49350000"},
{"state":"Dix-Huit Montagnes","name":"Man","lat":"7.41251000","lon":"-7.55383000"},
{"state":"Dix-Huit Montagnes","name":"Tonkpi","lat":"7.56785000","lon":"-7.60941000"},
{"state":"Dix-Huit Montagnes","name":"Toulépleu Gueré","lat":"6.57395000","lon":"-8.42592000"},
{"state":"Gôh-Djiboua District","name":"Divo","lat":"5.83739000","lon":"-5.35723000"},
{"state":"Gôh-Djiboua District","name":"Gagnoa","lat":"6.13193000","lon":"-5.95060000"},
{"state":"Gôh-Djiboua District","name":"Gôh","lat":"6.14459000","lon":"-5.92644000"},
{"state":"Gôh-Djiboua District","name":"Guibéroua","lat":"6.23869000","lon":"-6.17147000"},
{"state":"Gôh-Djiboua District","name":"Lakota","lat":"5.84752000","lon":"-5.68200000"},
{"state":"Gôh-Djiboua District","name":"Lôh-Djiboua","lat":"5.82483000","lon":"-5.47668000"},
{"state":"Gôh-Djiboua District","name":"Oumé","lat":"6.38309000","lon":"-5.41759000"},
{"state":"Lacs Region","name":"Arrah","lat":"6.67342000","lon":"-3.96938000"},
{"state":"Lacs Region","name":"Bélier","lat":"7.02582000","lon":"-5.06744000"},
{"state":"Lacs Region","name":"Bocanda","lat":"7.06264000","lon":"-4.49948000"},
{"state":"Lacs Region","name":"Bongouanou","lat":"6.65175000","lon":"-4.20406000"},
{"state":"Lacs Region","name":"Daoukro","lat":"7.05910000","lon":"-3.96310000"},
{"state":"Lacs Region","name":"Dimbokro","lat":"6.64678000","lon":"-4.70519000"},
{"state":"Lacs Region","name":"Iffou","lat":"7.11509000","lon":"-3.95027000"},
{"state":"Lacs Region","name":"Moronou","lat":"6.66830000","lon":"-4.13155000"},
{"state":"Lacs Region","name":"N'Zi","lat":"6.82803000","lon":"-4.58130000"},
{"state":"Lacs Region","name":"Toumodi","lat":"6.55799000","lon":"-5.01769000"},
{"state":"Lacs Region","name":"Yamoussoukro","lat":"6.82055000","lon":"-5.27674000"},
{"state":"Lagunes region","name":"Adzopé","lat":"6.10694000","lon":"-3.86194000"},
{"state":"Lagunes region","name":"Affery","lat":"6.32035000","lon":"-3.95235000"},
{"state":"Lagunes region","name":"Agboville","lat":"5.92801000","lon":"-4.21319000"},
{"state":"Lagunes region","name":"Agnéby-Tiassa","lat":"5.79488000","lon":"-4.37187000"},
{"state":"Lagunes region","name":"Akoupé","lat":"6.38423000","lon":"-3.88759000"},
{"state":"Lagunes region","name":"Dabou","lat":"5.32556000","lon":"-4.37685000"},
{"state":"Lagunes region","name":"Grand-Lahou","lat":"5.25068000","lon":"-5.00333000"},
{"state":"Lagunes region","name":"Grands-Ponts","lat":"5.30487000","lon":"-4.39247000"},
{"state":"Lagunes region","name":"Tiassalé","lat":"5.89839000","lon":"-4.82293000"},
{"state":"Sassandra-Marahoué District","name":"Bouaflé","lat":"6.99041000","lon":"-5.74420000"},
{"state":"Sassandra-Marahoué District","name":"Daloa","lat":"6.87735000","lon":"-6.45022000"},
{"state":"Sassandra-Marahoué District","name":"Haut-Sassandra","lat":"6.66961000","lon":"-6.50116000"},
{"state":"Sassandra-Marahoué District","name":"Issia","lat":"6.49224000","lon":"-6.58558000"},
{"state":"Sassandra-Marahoué District","name":"Marahoué","lat":"7.03252000","lon":"-5.80215000"},
{"state":"Sassandra-Marahoué District","name":"Vavoua","lat":"7.38194000","lon":"-6.47778000"},
{"state":"Sassandra-Marahoué District","name":"Zuénoula","lat":"7.43027000","lon":"-6.05054000"},
{"state":"Vallée du Bandama Region","name":"Béoumi","lat":"7.67395000","lon":"-5.58085000"},
{"state":"Vallée du Bandama Region","name":"Botro","lat":"7.85249000","lon":"-5.31063000"},
{"state":"Vallée du Bandama Region","name":"Bouaké","lat":"7.69385000","lon":"-5.03031000"},
{"state":"Vallée du Bandama Region","name":"Dabakala","lat":"8.36321000","lon":"-4.42863000"},
{"state":"Vallée du Bandama Region","name":"Gbêkê","lat":"7.70271000","lon":"-5.28511000"},
{"state":"Vallée du Bandama Region","name":"Hambol","lat":"8.30368000","lon":"-5.15396000"},
{"state":"Vallée du Bandama Region","name":"Katiola","lat":"8.13728000","lon":"-5.10095000"},
{"state":"Vallée du Bandama Region","name":"Sakassou","lat":"7.45462000","lon":"-5.29263000"},
{"state":"Woroba District","name":"Bafing","lat":"8.40611000","lon":"-7.58048000"},
{"state":"Woroba District","name":"Béré","lat":"8.18952000","lon":"-6.17157000"},
{"state":"Woroba District","name":"Mankono","lat":"8.05861000","lon":"-6.18972000"},
{"state":"Woroba District","name":"Séguéla","lat":"7.96111000","lon":"-6.67306000"},
{"state":"Woroba District","name":"Touba","lat":"8.28333000","lon":"-7.68333000"},
{"state":"Woroba District","name":"Worodougou","lat":"8.16482000","lon":"-6.66595000"},
{"state":"Zanzan Region","name":"Bondoukou","lat":"8.04020000","lon":"-2.80003000"},
{"state":"Zanzan Region","name":"Bouna","lat":"9.26927000","lon":"-2.99510000"},
{"state":"Zanzan Region","name":"Bounkani","lat":"9.47841000","lon":"-3.31238000"},
{"state":"Zanzan Region","name":"Gontougo","lat":"7.87132000","lon":"-3.07068000"},
{"state":"Zanzan Region","name":"Sinfra","lat":"6.62103000","lon":"-5.91144000"},
{"state":"Zanzan Region","name":"Tanda","lat":"7.80335000","lon":"-3.16832000"}]