[{"state":"Aisén del General Carlos Ibañez del Campo","name":"Aysén","lat":"-45.40303000","lon":"-72.69184000"},
{"state":"Aisén del General Carlos Ibañez del Campo","name":"Chile Chico","lat":"-46.53760000","lon":"-71.72930000"},
{"state":"Aisén del General Carlos Ibañez del Campo","name":"Cisnes","lat":"-44.72750000","lon":"-72.68050000"},
{"state":"Aisén del General Carlos Ibañez del Campo","name":"Cochrane","lat":"-47.25390000","lon":"-72.57320000"},
{"state":"Aisén del General Carlos Ibañez del Campo","name":"Coyhaique","lat":"-45.57524000","lon":"-72.06619000"},
{"state":"Aisén del General Carlos Ibañez del Campo","name":"Guaitecas","lat":"-43.88333333","lon":"-73.73333333"},
{"state":"Aisén del General Carlos Ibañez del Campo","name":"Lago Verde","lat":"-44.24031000","lon":"-71.84950000"},
{"state":"Aisén del General Carlos Ibañez del Campo","name":"O'Higgins","lat":"-48.46666667","lon":"-72.56666667"},
{"state":"Aisén del General Carlos Ibañez del Campo","name":"Río Ibáñez","lat":"-46.30000000","lon":"-71.93333333"},
{"state":"Aisén del General Carlos Ibañez del Campo","name":"Tortel","lat":"-47.83333333","lon":"-73.56666667"},
{"state":"Antofagasta","name":"Antofagasta","lat":"-23.65236000","lon":"-70.39540000"},
{"state":"Antofagasta","name":"Calama","lat":"-22.45667000","lon":"-68.92371000"},
{"state":"Antofagasta","name":"María Elena","lat":"-22.35000000","lon":"-69.66666667"},
{"state":"Antofagasta","name":"Mejillones","lat":"-23.10000000","lon":"-70.45000000"},
{"state":"Antofagasta","name":"Ollagüe","lat":"-21.22496000","lon":"-68.25352000"},
{"state":"Antofagasta","name":"San Pedro de Atacama","lat":"-22.91110000","lon":"-68.20113000"},
{"state":"Antofagasta","name":"Sierra Gorda","lat":"-22.88333333","lon":"-69.31666667"},
{"state":"Antofagasta","name":"Taltal","lat":"-25.40713000","lon":"-70.48554000"},
{"state":"Antofagasta","name":"Tocopilla","lat":"-22.09198000","lon":"-70.19792000"},
{"state":"Arica y Parinacota","name":"Arica","lat":"-18.47460000","lon":"-70.29792000"},
{"state":"Arica y Parinacota","name":"Camarones","lat":"-19.01666667","lon":"-69.86666667"},
{"state":"Arica y Parinacota","name":"General Lagos","lat":"-17.56666667","lon":"-69.50000000"},
{"state":"Arica y Parinacota","name":"Putre","lat":"-18.19640000","lon":"-69.55920000"},
{"state":"Atacama","name":"Alto del Carmen","lat":"-28.93355556","lon":"-70.46227778"},
{"state":"Atacama","name":"Caldera","lat":"-27.06666667","lon":"-70.81666667"},
{"state":"Atacama","name":"Chañaral","lat":"-26.34790000","lon":"-70.62240000"},
{"state":"Atacama","name":"Copiapó","lat":"-27.36650000","lon":"-70.33230000"},
{"state":"Atacama","name":"Diego de Almagro","lat":"-26.36667000","lon":"-70.05000000"},
{"state":"Atacama","name":"Freirina","lat":"-28.50000000","lon":"-71.06666667"},
{"state":"Atacama","name":"Huasco","lat":"-28.45000000","lon":"-71.21666667"},
{"state":"Atacama","name":"Tierra Amarilla","lat":"-27.46666667","lon":"-70.26666667"},
{"state":"Atacama","name":"Vallenar","lat":"-28.57617000","lon":"-70.75938000"},
{"state":"Biobío","name":"Alto Biobío","lat":"-38.05000000","lon":"-71.31666667"},
{"state":"Biobío","name":"Antuco","lat":"-37.33333333","lon":"-71.68333333"},
{"state":"Biobío","name":"Arauco","lat":"-37.24630000","lon":"-73.31752000"},
{"state":"Biobío","name":"Cabrero","lat":"-37.03394000","lon":"-72.40468000"},
{"state":"Biobío","name":"Cañete","lat":"-37.80128000","lon":"-73.39616000"},
{"state":"Biobío","name":"Chiguayante","lat":"-36.92560000","lon":"-73.02841000"},
{"state":"Biobío","name":"Concepción","lat":"-36.82699000","lon":"-73.04977000"},
{"state":"Biobío","name":"Contulmo","lat":"-38.00000000","lon":"-73.23333333"},
{"state":"Biobío","name":"Coronel","lat":"-37.03386000","lon":"-73.14019000"},
{"state":"Biobío","name":"Curanilahue","lat":"-37.47793000","lon":"-73.34495000"},
{"state":"Biobío","name":"Florida","lat":"-36.81666667","lon":"-72.66666667"},
{"state":"Biobío","name":"Hualpén","lat":"-36.78333333","lon":"-73.08333333"},
{"state":"Biobío","name":"Hualqui","lat":"-36.97266000","lon":"-72.93559000"},
{"state":"Biobío","name":"Laja","lat":"-37.28415000","lon":"-72.71105000"},
{"state":"Biobío","name":"Lebu","lat":"-37.60825000","lon":"-73.65356000"},
{"state":"Biobío","name":"Los Álamos","lat":"-37.61666667","lon":"-73.46666667"},
{"state":"Biobío","name":"Los Ángeles","lat":"-37.46973000","lon":"-72.35366000"},
{"state":"Biobío","name":"Lota","lat":"-37.08994000","lon":"-73.15770000"},
{"state":"Biobío","name":"Mulchén","lat":"-37.71893000","lon":"-72.24099000"},
{"state":"Biobío","name":"Nacimiento","lat":"-37.50253000","lon":"-72.67307000"},
{"state":"Biobío","name":"Negrete","lat":"-37.58333333","lon":"-72.51666667"},
{"state":"Biobío","name":"Penco","lat":"-36.74075000","lon":"-72.99528000"},
{"state":"Biobío","name":"Quilaco","lat":"-37.68436111","lon":"-72.00636111"},
{"state":"Biobío","name":"Quilleco","lat":"-37.46666667","lon":"-71.96666667"},
{"state":"Biobío","name":"San Pedro de la Paz","lat":"-36.84082000","lon":"-73.10311000"},
{"state":"Biobío","name":"San Rosendo","lat":"-37.26666667","lon":"-72.71666667"},
{"state":"Biobío","name":"Santa Bárbara","lat":"-37.66666667","lon":"-72.01666667"},
{"state":"Biobío","name":"Santa Juana","lat":"-37.16666667","lon":"-72.93333333"},
{"state":"Biobío","name":"Talcahuano","lat":"-36.72494000","lon":"-73.11684000"},
{"state":"Biobío","name":"Tirúa","lat":"-38.33333333","lon":"-73.50000000"},
{"state":"Biobío","name":"Tomé","lat":"-36.61756000","lon":"-72.95593000"},
{"state":"Biobío","name":"Tucapel","lat":"-37.28333333","lon":"-71.95000000"},
{"state":"Biobío","name":"Yumbel","lat":"-37.09820000","lon":"-72.56084000"},
{"state":"Coquimbo","name":"Andacollo","lat":"-30.21666667","lon":"-71.08333333"},
{"state":"Coquimbo","name":"Canela","lat":"-31.40000000","lon":"-71.45000000"},
{"state":"Coquimbo","name":"Combarbalá","lat":"-31.16666667","lon":"-71.05000000"},
{"state":"Coquimbo","name":"Coquimbo","lat":"-29.95332000","lon":"-71.33947000"},
{"state":"Coquimbo","name":"Illapel","lat":"-31.63349000","lon":"-71.16967000"},
{"state":"Coquimbo","name":"La Higuera","lat":"-29.50000000","lon":"-71.26666667"},
{"state":"Coquimbo","name":"La Serena","lat":"-29.90453000","lon":"-71.24894000"},
{"state":"Coquimbo","name":"Los Vilos","lat":"-31.90000000","lon":"-71.51666667"},
{"state":"Coquimbo","name":"Monte Patria","lat":"-30.69496000","lon":"-70.95770000"},
{"state":"Coquimbo","name":"Ovalle","lat":"-30.60106000","lon":"-71.19901000"},
{"state":"Coquimbo","name":"Paihuano","lat":"-30.02884000","lon":"-70.51708000"},
{"state":"Coquimbo","name":"Punitaqui","lat":"-30.90000000","lon":"-71.26666667"},
{"state":"Coquimbo","name":"Río Hurtado","lat":"-30.26666667","lon":"-70.70000000"},
{"state":"Coquimbo","name":"Salamanca","lat":"-31.77922000","lon":"-70.96389000"},
{"state":"Coquimbo","name":"Vicuña","lat":"-30.03541000","lon":"-70.71274000"},
{"state":"La Araucanía","name":"Angol","lat":"-37.79519000","lon":"-72.71636000"},
{"state":"La Araucanía","name":"Carahue","lat":"-38.71122000","lon":"-73.16101000"},
{"state":"La Araucanía","name":"Cholchol","lat":"-38.60000000","lon":"-72.85000000"},
{"state":"La Araucanía","name":"Collipulli","lat":"-37.95453000","lon":"-72.43438000"},
{"state":"La Araucanía","name":"Cunco","lat":"-38.91666667","lon":"-72.03333333"},
{"state":"La Araucanía","name":"Curacautín","lat":"-38.44049210","lon":"-71.90539600"},
{"state":"La Araucanía","name":"Curarrehue","lat":"-39.35000000","lon":"-71.58333333"},
{"state":"La Araucanía","name":"Ercilla","lat":"-38.05000000","lon":"-72.38333333"},
{"state":"La Araucanía","name":"Freire","lat":"-38.95252000","lon":"-72.62653000"},
{"state":"La Araucanía","name":"Galvarino","lat":"-38.40000000","lon":"-72.78333333"},
{"state":"La Araucanía","name":"Gorbea","lat":"-39.10000000","lon":"-72.68333333"},
{"state":"La Araucanía","name":"Lautaro","lat":"-38.53066000","lon":"-72.43652000"},
{"state":"La Araucanía","name":"Loncoche","lat":"-39.36708000","lon":"-72.63087000"},
{"state":"La Araucanía","name":"Lonquimay","lat":"-38.43333333","lon":"-71.23333333"},
{"state":"La Araucanía","name":"Los Sauces","lat":"-37.96666667","lon":"-72.83333333"},
{"state":"La Araucanía","name":"Lumaco","lat":"-38.15000000","lon":"-72.91666667"},
{"state":"La Araucanía","name":"Melipeuco","lat":"-38.85000000","lon":"-71.70000000"},
{"state":"La Araucanía","name":"Nueva Imperial","lat":"-38.74451000","lon":"-72.95025000"},
{"state":"La Araucanía","name":"Padre Las Casas","lat":"-38.76666667","lon":"-72.60000000"},
{"state":"La Araucanía","name":"Perquenco","lat":"-38.41666667","lon":"-72.38333333"},
{"state":"La Araucanía","name":"Pitrufquén","lat":"-38.98635000","lon":"-72.63721000"},
{"state":"La Araucanía","name":"Pucón","lat":"-39.28223000","lon":"-71.95427000"},
{"state":"La Araucanía","name":"Purén","lat":"-38.01666667","lon":"-73.08333333"},
{"state":"La Araucanía","name":"Renaico","lat":"-37.71779000","lon":"-72.57570000"},
{"state":"La Araucanía","name":"Saavedra","lat":"-38.78333333","lon":"-73.40000000"},
{"state":"La Araucanía","name":"Temuco","lat":"-38.73965000","lon":"-72.59842000"},
{"state":"La Araucanía","name":"Teodoro Schmidt","lat":"-38.96666667","lon":"-73.05000000"},
{"state":"La Araucanía","name":"Toltén","lat":"-39.17852000","lon":"-73.16448000"},
{"state":"La Araucanía","name":"Traiguén","lat":"-38.24960000","lon":"-72.67027000"},
{"state":"La Araucanía","name":"Victoria","lat":"-38.23291000","lon":"-72.33292000"},
{"state":"La Araucanía","name":"Vilcún","lat":"-38.66875000","lon":"-72.22565000"},
{"state":"La Araucanía","name":"Villarrica","lat":"-39.28569000","lon":"-72.22790000"},
{"state":"Libertador General Bernardo O'Higgins","name":"Chépica","lat":"-34.73333333","lon":"-71.28333333"},
{"state":"Libertador General Bernardo O'Higgins","name":"Chimbarongo","lat":"-34.71247000","lon":"-71.04340000"},
{"state":"Libertador General Bernardo O'Higgins","name":"Codegua","lat":"-34.03333333","lon":"-70.66666667"},
{"state":"Libertador General Bernardo O'Higgins","name":"Coínco","lat":"-34.26666667","lon":"-70.96666667"},
{"state":"Libertador General Bernardo O'Higgins","name":"Coltauco","lat":"-34.30000000","lon":"-71.10000000"},
{"state":"Libertador General Bernardo O'Higgins","name":"Doñihue","lat":"-34.23333333","lon":"-70.96666667"},
{"state":"Libertador General Bernardo O'Higgins","name":"Graneros","lat":"-34.06863000","lon":"-70.72747000"},
{"state":"Libertador General Bernardo O'Higgins","name":"La Estrella","lat":"-34.20000000","lon":"-71.66666667"},
{"state":"Libertador General Bernardo O'Higgins","name":"Las Cabras","lat":"-34.30000000","lon":"-71.31666667"},
{"state":"Libertador General Bernardo O'Higgins","name":"Litueche","lat":"-34.11666667","lon":"-71.73333333"},
{"state":"Libertador General Bernardo O'Higgins","name":"Lolol","lat":"-34.72861111","lon":"-71.64472222"},
{"state":"Libertador General Bernardo O'Higgins","name":"Machalí","lat":"-34.18082000","lon":"-70.64933000"},
{"state":"Libertador General Bernardo O'Higgins","name":"Malloa","lat":"-34.45000000","lon":"-70.95000000"},
{"state":"Libertador General Bernardo O'Higgins","name":"Marchigüe","lat":"-34.40000000","lon":"-71.63333333"},
{"state":"Libertador General Bernardo O'Higgins","name":"Mostazal","lat":"-33.98333333","lon":"-70.70000000"},
{"state":"Libertador General Bernardo O'Higgins","name":"Nancagua","lat":"-34.66666667","lon":"-71.21666667"},
{"state":"Libertador General Bernardo O'Higgins","name":"Navidad","lat":"-33.93333333","lon":"-71.83333333"},
{"state":"Libertador General Bernardo O'Higgins","name":"Olivar","lat":"-34.21164000","lon":"-70.82012000"},
{"state":"Libertador General Bernardo O'Higgins","name":"Palmilla","lat":"-34.60000000","lon":"-71.36666667"},
{"state":"Libertador General Bernardo O'Higgins","name":"Paredones","lat":"-34.78333333","lon":"-71.16666667"},
{"state":"Libertador General Bernardo O'Higgins","name":"Peralillo","lat":"-34.48333333","lon":"-71.48333333"},
{"state":"Libertador General Bernardo O'Higgins","name":"Peumo","lat":"-34.40000000","lon":"-71.16666667"},
{"state":"Libertador General Bernardo O'Higgins","name":"Pichidegua","lat":"-34.35000000","lon":"-71.30000000"},
{"state":"Libertador General Bernardo O'Higgins","name":"Pichilemu","lat":"-34.38333000","lon":"-72.00000000"},
{"state":"Libertador General Bernardo O'Higgins","name":"Placilla","lat":"-34.63333333","lon":"-71.11666667"},
{"state":"Libertador General Bernardo O'Higgins","name":"Pumanque","lat":"-34.60000000","lon":"-71.66666667"},
{"state":"Libertador General Bernardo O'Higgins","name":"Quinta de Tilcoco","lat":"-34.35550000","lon":"-70.96527000"},
{"state":"Libertador General Bernardo O'Higgins","name":"Rancagua","lat":"-34.17083000","lon":"-70.74444000"},
{"state":"Libertador General Bernardo O'Higgins","name":"Rengo","lat":"-34.40639000","lon":"-70.85834000"},
{"state":"Libertador General Bernardo O'Higgins","name":"Requínoa","lat":"-34.28333333","lon":"-70.83333333"},
{"state":"Libertador General Bernardo O'Higgins","name":"San Fernando","lat":"-34.74330000","lon":"-70.60328000"},
{"state":"Libertador General Bernardo O'Higgins","name":"San Vicente","lat":"-34.43859000","lon":"-71.07751000"},
{"state":"Libertador General Bernardo O'Higgins","name":"Santa Cruz","lat":"-34.63881000","lon":"-71.36576000"},
{"state":"Los Lagos","name":"Ancud","lat":"-41.87070000","lon":"-73.81622000"},
{"state":"Los Lagos","name":"Calbuco","lat":"-41.77338000","lon":"-73.13049000"},
{"state":"Los Lagos","name":"Castro","lat":"-42.47210000","lon":"-73.77319000"},
{"state":"Los Lagos","name":"Chaitén","lat":"-42.91596000","lon":"-72.70632000"},
{"state":"Los Lagos","name":"Chonchi","lat":"-42.62387000","lon":"-73.77500000"},
{"state":"Los Lagos","name":"Cochamó","lat":"-41.50000000","lon":"-72.31666667"},
{"state":"Los Lagos","name":"Curaco de Vélez","lat":"-42.43970000","lon":"-73.60290000"},
{"state":"Los Lagos","name":"Dalcahue","lat":"-42.37845000","lon":"-73.65011000"},
{"state":"Los Lagos","name":"Fresia","lat":"-41.15364000","lon":"-73.42102000"},
{"state":"Los Lagos","name":"Frutillar","lat":"-41.08716000","lon":"-73.09563000"},
{"state":"Los Lagos","name":"Futaleufú","lat":"-43.18492000","lon":"-71.86722000"},
{"state":"Los Lagos","name":"Hualaihué","lat":"-42.01666667","lon":"-72.68333333"},
{"state":"Los Lagos","name":"Llanquihue","lat":"-41.34285000","lon":"-72.65800000"},
{"state":"Los Lagos","name":"Los Muermos","lat":"-41.40000000","lon":"-73.48333333"},
{"state":"Los Lagos","name":"Maullín","lat":"-41.61666667","lon":"-73.60000000"},
{"state":"Los Lagos","name":"Osorno","lat":"-40.57395000","lon":"-73.13348000"},
{"state":"Los Lagos","name":"Palena","lat":"-43.61876000","lon":"-71.80434000"},
{"state":"Los Lagos","name":"Puerto Montt","lat":"-41.46930000","lon":"-72.94237000"},
{"state":"Los Lagos","name":"Puerto Octay","lat":"-40.96666667","lon":"-72.90000000"},
{"state":"Los Lagos","name":"Puerto Varas","lat":"-41.31946000","lon":"-72.98538000"},
{"state":"Los Lagos","name":"Puqueldón","lat":"-42.60001000","lon":"-73.67458000"},
{"state":"Los Lagos","name":"Purranque","lat":"-40.91305000","lon":"-73.15913000"},
{"state":"Los Lagos","name":"Puyehue","lat":"-40.70968010","lon":"-72.64190560"},
{"state":"Los Lagos","name":"Queilén","lat":"-42.85572000","lon":"-73.56436000"},
{"state":"Los Lagos","name":"Quellón","lat":"-43.11819000","lon":"-73.61661000"},
{"state":"Los Lagos","name":"Quemchi","lat":"-42.13333333","lon":"-73.51666667"},
{"state":"Los Lagos","name":"Quinchao","lat":"-42.53333333","lon":"-73.41666667"},
{"state":"Los Lagos","name":"Río Negro","lat":"-40.79615000","lon":"-73.21614000"},
{"state":"Los Lagos","name":"San Juan de la Costa","lat":"-40.51666667","lon":"-73.40000000"},
{"state":"Los Lagos","name":"San Pablo","lat":"-40.40000000","lon":"-73.01666667"},
{"state":"Los Ríos","name":"Corral","lat":"-39.88730000","lon":"-73.43101000"},
{"state":"Los Ríos","name":"Futrono","lat":"-40.13333333","lon":"-72.40000000"},
{"state":"Los Ríos","name":"La Unión","lat":"-40.29313000","lon":"-73.08167000"},
{"state":"Los Ríos","name":"Lago Ranco","lat":"-40.31666667","lon":"-72.50000000"},
{"state":"Los Ríos","name":"Lanco","lat":"-39.45246000","lon":"-72.77117000"},
{"state":"Los Ríos","name":"Los Lagos","lat":"-39.85000000","lon":"-72.83333333"},
{"state":"Los Ríos","name":"Máfil","lat":"-39.65000000","lon":"-72.95000000"},
{"state":"Los Ríos","name":"Mariquina","lat":"-39.51666667","lon":"-72.96666667"},
{"state":"Los Ríos","name":"Paillaco","lat":"-40.07060000","lon":"-72.87270000"},
{"state":"Los Ríos","name":"Panguipulli","lat":"-39.64355000","lon":"-72.33269000"},
{"state":"Los Ríos","name":"Río Bueno","lat":"-40.33494000","lon":"-72.95564000"},
{"state":"Los Ríos","name":"Valdivia","lat":"-39.81422000","lon":"-73.24589000"},
{"state":"Magallanes y de la Antártica Chilena","name":"Antártica","lat":"-75.00000000","lon":"-71.50000000"},
{"state":"Magallanes y de la Antártica Chilena","name":"Cabo de Hornos","lat":"-54.93333333","lon":"-67.61666667"},
{"state":"Magallanes y de la Antártica Chilena","name":"Laguna Blanca","lat":"-52.25000000","lon":"-71.91666667"},
{"state":"Magallanes y de la Antártica Chilena","name":"Natales","lat":"-51.73333333","lon":"-72.51666667"},
{"state":"Magallanes y de la Antártica Chilena","name":"Porvenir","lat":"-53.30000000","lon":"-70.36666667"},
{"state":"Magallanes y de la Antártica Chilena","name":"Primavera","lat":"-52.71666667","lon":"-69.25000000"},
{"state":"Magallanes y de la Antártica Chilena","name":"Punta Arenas","lat":"-53.16270000","lon":"-70.90810000"},
{"state":"Magallanes y de la Antártica Chilena","name":"Río Verde","lat":"-52.65000000","lon":"-71.48333333"},
{"state":"Magallanes y de la Antártica Chilena","name":"San Gregorio","lat":"-52.31666667","lon":"-69.68333333"},
{"state":"Magallanes y de la Antártica Chilena","name":"Timaukel","lat":"-53.66666667","lon":"-69.90000000"},
{"state":"Magallanes y de la Antártica Chilena","name":"Torres del Paine","lat":"-51.26666667","lon":"-72.35000000"},
{"state":"Maule","name":"Cauquenes","lat":"-35.96710000","lon":"-72.32248000"},
{"state":"Maule","name":"Chanco","lat":"-35.73333333","lon":"-72.53333333"},
{"state":"Maule","name":"Colbún","lat":"-35.69494000","lon":"-71.40568000"},
{"state":"Maule","name":"Constitución","lat":"-35.33321000","lon":"-72.41156000"},
{"state":"Maule","name":"Curepto","lat":"-35.08333333","lon":"-72.01666667"},
{"state":"Maule","name":"Curicó","lat":"-34.98279000","lon":"-71.23943000"},
{"state":"Maule","name":"Empedrado","lat":"-35.60000000","lon":"-72.28333333"},
{"state":"Maule","name":"Hualañé","lat":"-34.97653333","lon":"-71.80478611"},
{"state":"Maule","name":"Licantén","lat":"-34.98333333","lon":"-72.00000000"},
{"state":"Maule","name":"Linares","lat":"-35.84667000","lon":"-71.59308000"},
{"state":"Maule","name":"Longaví","lat":"-35.96496000","lon":"-71.68360000"},
{"state":"Maule","name":"Maule","lat":"-35.53333333","lon":"-71.70000000"},
{"state":"Maule","name":"Molina","lat":"-35.11428000","lon":"-71.28232000"},
{"state":"Maule","name":"Parral","lat":"-36.14311000","lon":"-71.82605000"},
{"state":"Maule","name":"Pelarco","lat":"-35.38333333","lon":"-71.45000000"},
{"state":"Maule","name":"Pelluhue","lat":"-35.83333333","lon":"-72.63333333"},
{"state":"Maule","name":"Pencahue","lat":"-35.40000000","lon":"-71.81666667"},
{"state":"Maule","name":"Rauco","lat":"-34.92546000","lon":"-71.31722000"},
{"state":"Maule","name":"Retiro","lat":"-36.05000000","lon":"-71.76666667"},
{"state":"Maule","name":"Río Claro","lat":"-35.28333333","lon":"-71.26666667"},
{"state":"Maule","name":"Romeral","lat":"-34.96666667","lon":"-71.13333333"},
{"state":"Maule","name":"Sagrada Familia","lat":"-35.00000000","lon":"-71.38333333"},
{"state":"Maule","name":"San Clemente","lat":"-35.53777000","lon":"-71.48700000"},
{"state":"Maule","name":"San Javier","lat":"-35.59520000","lon":"-71.72924000"},
{"state":"Maule","name":"San Rafael","lat":"-35.31666667","lon":"-71.53333333"},
{"state":"Maule","name":"Talca","lat":"-35.42640000","lon":"-71.65542000"},
{"state":"Maule","name":"Teno","lat":"-34.87055000","lon":"-71.16219000"},
{"state":"Maule","name":"Vichuquén","lat":"-34.88333333","lon":"-72.00000000"},
{"state":"Maule","name":"Villa Alegre","lat":"-35.66666667","lon":"-71.75000000"},
{"state":"Maule","name":"Yerbas Buenas","lat":"-35.75000000","lon":"-71.58333333"},
{"state":"Ñuble","name":"Bulnes","lat":"-36.74232000","lon":"-72.29854000"},
{"state":"Ñuble","name":"Chillán","lat":"-36.60664000","lon":"-72.10344000"},
{"state":"Ñuble","name":"Chillán Viejo","lat":"-36.62290000","lon":"-72.13170000"},
{"state":"Ñuble","name":"Cobquecura","lat":"-36.13333333","lon":"-72.78333333"},
{"state":"Ñuble","name":"Coelemu","lat":"-36.48333333","lon":"-72.70000000"},
{"state":"Ñuble","name":"Coihueco","lat":"-36.62785000","lon":"-71.83068000"},
{"state":"Ñuble","name":"El Carmen","lat":"-36.90000000","lon":"-72.03333333"},
{"state":"Ñuble","name":"Ninhue","lat":"-36.40000000","lon":"-72.40000000"},
{"state":"Ñuble","name":"Ñiquén","lat":"-36.30000000","lon":"-71.90000000"},
{"state":"Ñuble","name":"Pemuco","lat":"-36.96666667","lon":"-72.10000000"},
{"state":"Ñuble","name":"Pinto","lat":"-36.70000000","lon":"-71.90000000"},
{"state":"Ñuble","name":"Portezuelo","lat":"-36.53333333","lon":"-72.43333333"},
{"state":"Ñuble","name":"Quillón","lat":"-36.73333333","lon":"-72.46666667"},
{"state":"Ñuble","name":"Quirihue","lat":"-36.27998000","lon":"-72.54118000"},
{"state":"Ñuble","name":"Ránquil","lat":"-36.65000000","lon":"-72.55000000"},
{"state":"Ñuble","name":"San Carlos","lat":"-36.42477000","lon":"-71.95800000"},
{"state":"Ñuble","name":"San Fabián","lat":"-36.55000000","lon":"-71.55000000"},
{"state":"Ñuble","name":"San Ignacio","lat":"-36.79999910","lon":"-72.04207620"},
{"state":"Ñuble","name":"San Nicolás","lat":"-36.50000000","lon":"-72.21666667"},
{"state":"Ñuble","name":"Treguaco","lat":"-36.43333333","lon":"-72.66666667"},
{"state":"Ñuble","name":"Yungay","lat":"-37.11666667","lon":"-72.01666667"},
{"state":"Región Metropolitana de Santiago","name":"Alhué","lat":"-34.03333333","lon":"-71.10000000"},
{"state":"Región Metropolitana de Santiago","name":"Buin","lat":"-33.73257000","lon":"-70.74281000"},
{"state":"Región Metropolitana de Santiago","name":"Calera de Tango","lat":"-33.65000000","lon":"-70.81666667"},
{"state":"Región Metropolitana de Santiago","name":"Cerrillos","lat":"-33.50229190","lon":"-70.73009420"},
{"state":"Región Metropolitana de Santiago","name":"Cerro Navia","lat":"-33.42516430","lon":"-70.78407540"},
{"state":"Región Metropolitana de Santiago","name":"Colina","lat":"-33.20000000","lon":"-70.68333333"},
{"state":"Región Metropolitana de Santiago","name":"Conchalí","lat":"-33.35000000","lon":"-70.61666667"},
{"state":"Región Metropolitana de Santiago","name":"Curacaví","lat":"-33.46937830","lon":"-70.72612030"},
{"state":"Región Metropolitana de Santiago","name":"El Bosque","lat":"-33.56666667","lon":"-70.70000000"},
{"state":"Región Metropolitana de Santiago","name":"El Monte","lat":"-33.67969000","lon":"-70.98482000"},
{"state":"Región Metropolitana de Santiago","name":"Estación Central","lat":"-33.45194400","lon":"-70.67888900"},
{"state":"Región Metropolitana de Santiago","name":"Huechuraba","lat":"-33.36928270","lon":"-70.66482650"},
{"state":"Región Metropolitana de Santiago","name":"Independencia","lat":"-33.41666667","lon":"-70.63333333"},
{"state":"Región Metropolitana de Santiago","name":"Isla de Maipo","lat":"-33.75000000","lon":"-70.90000000"},
{"state":"Región Metropolitana de Santiago","name":"La Cisterna","lat":"-33.55000000","lon":"-70.68333000"},
{"state":"Región Metropolitana de Santiago","name":"La Florida","lat":"-33.55000000","lon":"-70.56666667"},
{"state":"Región Metropolitana de Santiago","name":"La Granja","lat":"-33.54305556","lon":"-70.63194444"},
{"state":"Región Metropolitana de Santiago","name":"La Pintana","lat":"-33.58331000","lon":"-70.63419000"},
{"state":"Región Metropolitana de Santiago","name":"La Reina","lat":"-33.45000000","lon":"-70.55000000"},
{"state":"Región Metropolitana de Santiago","name":"Lampa","lat":"-33.28630000","lon":"-70.87561000"},
{"state":"Región Metropolitana de Santiago","name":"Las Condes","lat":"-33.41666667","lon":"-70.58333333"},
{"state":"Región Metropolitana de Santiago","name":"Lo Barnechea","lat":"-33.35000000","lon":"-70.51666667"},
{"state":"Región Metropolitana de Santiago","name":"Lo Espejo","lat":"-33.53333333","lon":"-70.71666667"},
{"state":"Región Metropolitana de Santiago","name":"Lo Prado","lat":"-33.44430000","lon":"-70.72552000"},
{"state":"Región Metropolitana de Santiago","name":"Macul","lat":"-33.50000000","lon":"-70.56666667"},
{"state":"Región Metropolitana de Santiago","name":"Maipú","lat":"-33.51666667","lon":"-70.76666667"},
{"state":"Región Metropolitana de Santiago","name":"María Pinto","lat":"-33.53333333","lon":"-71.13333333"},
{"state":"Región Metropolitana de Santiago","name":"Melipilla","lat":"-33.68909000","lon":"-71.21528000"},
{"state":"Región Metropolitana de Santiago","name":"Ñuñoa","lat":"-33.46666667","lon":"-70.60000000"},
{"state":"Región Metropolitana de Santiago","name":"Padre Hurtado","lat":"-33.56666667","lon":"-70.83333333"},
{"state":"Región Metropolitana de Santiago","name":"Paine","lat":"-33.80796000","lon":"-70.74109000"},
{"state":"Región Metropolitana de Santiago","name":"Pedro Aguirre Cerda","lat":"-33.46666667","lon":"-70.63333333"},
{"state":"Región Metropolitana de Santiago","name":"Peñaflor","lat":"-33.60627000","lon":"-70.87649000"},
{"state":"Región Metropolitana de Santiago","name":"Peñalolén","lat":"-33.48333333","lon":"-70.53333333"},
{"state":"Región Metropolitana de Santiago","name":"Pirque","lat":"-33.71865000","lon":"-70.50658000"},
{"state":"Región Metropolitana de Santiago","name":"Providencia","lat":"-33.43333333","lon":"-70.61666667"},
{"state":"Región Metropolitana de Santiago","name":"Pudahuel","lat":"-33.41883590","lon":"-70.91463070"},
{"state":"Región Metropolitana de Santiago","name":"Puente Alto","lat":"-33.61169000","lon":"-70.57577000"},
{"state":"Región Metropolitana de Santiago","name":"Quilicura","lat":"-33.36666667","lon":"-70.75000000"},
{"state":"Región Metropolitana de Santiago","name":"Quinta Normal","lat":"-33.45000000","lon":"-70.70000000"},
{"state":"Región Metropolitana de Santiago","name":"Recoleta","lat":"-33.41666667","lon":"-70.65000000"},
{"state":"Región Metropolitana de Santiago","name":"Renca","lat":"-33.40000000","lon":"-70.73333333"},
{"state":"Región Metropolitana de Santiago","name":"San Bernardo","lat":"-33.59217000","lon":"-70.69960000"},
{"state":"Región Metropolitana de Santiago","name":"San Joaquín","lat":"-33.50000000","lon":"-70.61666667"},
{"state":"Región Metropolitana de Santiago","name":"San José de Maipo","lat":"-33.63333333","lon":"-70.36666667"},
{"state":"Región Metropolitana de Santiago","name":"San Miguel","lat":"-33.50000000","lon":"-70.66666667"},
{"state":"Región Metropolitana de Santiago","name":"San Pedro","lat":"-33.90000000","lon":"-71.46666667"},
{"state":"Región Metropolitana de Santiago","name":"San Ramón","lat":"-33.53775950","lon":"-70.65176730"},
{"state":"Región Metropolitana de Santiago","name":"Santiago","lat":"-33.45694000","lon":"-70.64827000"},
{"state":"Región Metropolitana de Santiago","name":"Talagante","lat":"-33.66386000","lon":"-70.92734000"},
{"state":"Región Metropolitana de Santiago","name":"Tiltil","lat":"-33.08333333","lon":"-70.93333333"},
{"state":"Región Metropolitana de Santiago","name":"Vitacura","lat":"-33.40000000","lon":"-70.60000000"},
{"state":"Tarapacá","name":"Alto Hospicio","lat":"-20.25000000","lon":"-70.11666667"},
{"state":"Tarapacá","name":"Camiña","lat":"-19.30000000","lon":"-69.41666667"},
{"state":"Tarapacá","name":"Colchane","lat":"-19.27541100","lon":"-68.63964600"},
{"state":"Tarapacá","name":"Huara","lat":"-19.96666667","lon":"-69.76666667"},
{"state":"Tarapacá","name":"Iquique","lat":"-20.21326000","lon":"-70.15027000"},
{"state":"Tarapacá","name":"Pica","lat":"-20.50000000","lon":"-69.33333333"},
{"state":"Tarapacá","name":"Pozo Almonte","lat":"-20.25970000","lon":"-69.78620000"},
{"state":"Valparaíso","name":"Algarrobo","lat":"-33.36925600","lon":"-71.66813900"},
{"state":"Valparaíso","name":"Cabildo","lat":"-32.41737000","lon":"-70.82435000"},
{"state":"Valparaíso","name":"Calle Larga","lat":"-32.85000000","lon":"-70.63333333"},
{"state":"Valparaíso","name":"Cartagena","lat":"-33.55384000","lon":"-71.60761000"},
{"state":"Valparaíso","name":"Casablanca","lat":"-33.31666667","lon":"-71.41666667"},
{"state":"Valparaíso","name":"Catemu","lat":"-32.63333333","lon":"-71.03333333"},
{"state":"Valparaíso","name":"Concón","lat":"-32.91666667","lon":"-71.51666667"},
{"state":"Valparaíso","name":"El Quisco","lat":"-33.40000000","lon":"-71.70000000"},
{"state":"Valparaíso","name":"El Tabo","lat":"-33.45000000","lon":"-71.66666667"},
{"state":"Valparaíso","name":"Hijuelas","lat":"-32.80000000","lon":"-71.16666667"},
{"state":"Valparaíso","name":"Isla de Pascua","lat":"-27.11048000","lon":"-109.29749000"},
{"state":"Valparaíso","name":"Juan Fernández","lat":"-30.02564270","lon":"-82.05192080"},
{"state":"Valparaíso","name":"La Calera","lat":"-32.78333333","lon":"-71.21666667"},
{"state":"Valparaíso","name":"La Cruz","lat":"-32.81666667","lon":"-71.23333333"},
{"state":"Valparaíso","name":"La Ligua","lat":"-32.45242000","lon":"-71.23106000"},
{"state":"Valparaíso","name":"Limache","lat":"-33.01667000","lon":"-71.26667000"},
{"state":"Valparaíso","name":"Llaillay","lat":"-32.84043000","lon":"-70.95623000"},
{"state":"Valparaíso","name":"Los Andes","lat":"-32.83369000","lon":"-70.59827000"},
{"state":"Valparaíso","name":"Nogales","lat":"-32.71666667","lon":"-71.23333333"},
{"state":"Valparaíso","name":"Olmué","lat":"-33.00000000","lon":"-71.20000000"},
{"state":"Valparaíso","name":"Panquehue","lat":"-32.80000000","lon":"-70.83333333"},
{"state":"Valparaíso","name":"Papudo","lat":"-32.51666667","lon":"-71.45000000"},
{"state":"Valparaíso","name":"Petorca","lat":"-32.25000000","lon":"-70.93333333"},
{"state":"Valparaíso","name":"Puchuncaví","lat":"-32.72575000","lon":"-71.41514000"},
{"state":"Valparaíso","name":"Putaendo","lat":"-32.63333333","lon":"-70.73333333"},
{"state":"Valparaíso","name":"Quillota","lat":"-32.88341000","lon":"-71.24882000"},
{"state":"Valparaíso","name":"Quilpué","lat":"-33.04752000","lon":"-71.44249000"},
{"state":"Valparaíso","name":"Quintero","lat":"-32.78333333","lon":"-71.53333333"},
{"state":"Valparaíso","name":"Rinconada","lat":"-32.83333333","lon":"-70.70000000"},
{"state":"Valparaíso","name":"San Antonio","lat":"-33.59473000","lon":"-71.60746000"},
{"state":"Valparaíso","name":"San Esteban","lat":"-32.80000000","lon":"-70.58333333"},
{"state":"Valparaíso","name":"San Felipe","lat":"-32.74976000","lon":"-70.72584000"},
{"state":"Valparaíso","name":"Santa María","lat":"-32.75000000","lon":"-70.66666667"},
{"state":"Valparaíso","name":"Santo Domingo","lat":"-33.64719330","lon":"-71.63527900"},
{"state":"Valparaíso","name":"Valparaíso","lat":"-33.03600000","lon":"-71.62963000"},
{"state":"Valparaíso","name":"Villa Alemana","lat":"-33.04222000","lon":"-71.37333000"},
{"state":"Valparaíso","name":"Viña del Mar","lat":"-33.02457000","lon":"-71.55183000"},
{"state":"Valparaíso","name":"Zapallar","lat":"-32.55390000","lon":"-71.45770000"}]