[{"state":"Adamawa","name":"Bankim","lat":"6.08303000","lon":"11.49050000"},
{"state":"Adamawa","name":"Banyo","lat":"6.75000000","lon":"11.81667000"},
{"state":"Adamawa","name":"Bélel","lat":"7.05000000","lon":"14.43333000"},
{"state":"Adamawa","name":"Djohong","lat":"6.83333000","lon":"14.70000000"},
{"state":"Adamawa","name":"Kontcha","lat":"7.96667000","lon":"12.23333000"},
{"state":"Adamawa","name":"Mayo-Banyo","lat":"6.58138000","lon":"11.73522000"},
{"state":"Adamawa","name":"Meïganga","lat":"6.51667000","lon":"14.30000000"},
{"state":"Adamawa","name":"Ngaoundéré","lat":"7.32765000","lon":"13.58472000"},
{"state":"Adamawa","name":"Somié","lat":"6.45843000","lon":"11.43299000"},
{"state":"Adamawa","name":"Tibati","lat":"6.46504000","lon":"12.62843000"},
{"state":"Adamawa","name":"Tignère","lat":"7.36667000","lon":"12.65000000"},
{"state":"Adamawa","name":"Vina","lat":"7.16365000","lon":"13.72711000"},
{"state":"Centre","name":"Akono","lat":"3.50000000","lon":"11.33333000"},
{"state":"Centre","name":"Akonolinga","lat":"3.76667000","lon":"12.25000000"},
{"state":"Centre","name":"Bafia","lat":"4.75000000","lon":"11.23333000"},
{"state":"Centre","name":"Eséka","lat":"3.65000000","lon":"10.76667000"},
{"state":"Centre","name":"Essé","lat":"4.10000000","lon":"11.90000000"},
{"state":"Centre","name":"Évodoula","lat":"4.08333000","lon":"11.20000000"},
{"state":"Centre","name":"Mbalmayo","lat":"3.51667000","lon":"11.50000000"},
{"state":"Centre","name":"Mbam-Et-Inoubou","lat":"4.73754000","lon":"10.96972000"},
{"state":"Centre","name":"Mbandjok","lat":"4.45000000","lon":"11.90000000"},
{"state":"Centre","name":"Mbankomo","lat":"3.78333000","lon":"11.38333000"},
{"state":"Centre","name":"Mefou-et-Akono","lat":"3.58706000","lon":"11.36089000"},
{"state":"Centre","name":"Mfoundi","lat":"3.86670000","lon":"11.51670000"},
{"state":"Centre","name":"Minta","lat":"4.58333000","lon":"12.80000000"},
{"state":"Centre","name":"Nanga Eboko","lat":"4.68333000","lon":"12.36667000"},
{"state":"Centre","name":"Ndikiniméki","lat":"4.76667000","lon":"10.83333000"},
{"state":"Centre","name":"Ngomedzap","lat":"3.25000000","lon":"11.20000000"},
{"state":"Centre","name":"Ngoro","lat":"4.95000000","lon":"11.38333000"},
{"state":"Centre","name":"Nkoteng","lat":"4.51667000","lon":"12.03333000"},
{"state":"Centre","name":"Ntui","lat":"4.45000000","lon":"11.63333000"},
{"state":"Centre","name":"Obala","lat":"4.16667000","lon":"11.53333000"},
{"state":"Centre","name":"Okoa","lat":"3.98333000","lon":"11.60000000"},
{"state":"Centre","name":"Okola","lat":"4.01667000","lon":"11.38333000"},
{"state":"Centre","name":"Ombésa","lat":"4.60000000","lon":"11.25000000"},
{"state":"Centre","name":"Saa","lat":"4.36667000","lon":"11.45000000"},
{"state":"Centre","name":"Yaoundé","lat":"3.86667000","lon":"11.51667000"},
{"state":"Centre","name":"Yoko","lat":"5.53333000","lon":"12.31667000"},
{"state":"East","name":"Abong Mbang","lat":"3.98333000","lon":"13.18333000"},
{"state":"East","name":"Batouri","lat":"4.43333000","lon":"14.36667000"},
{"state":"East","name":"Bélabo","lat":"4.93333000","lon":"13.30000000"},
{"state":"East","name":"Bertoua","lat":"4.57728000","lon":"13.68459000"},
{"state":"East","name":"Bétaré Oya","lat":"5.60000000","lon":"14.08333000"},
{"state":"East","name":"Dimako","lat":"4.38333000","lon":"13.56667000"},
{"state":"East","name":"Doumé","lat":"4.23333000","lon":"13.45000000"},
{"state":"East","name":"Garoua Boulaï","lat":"5.88333000","lon":"14.55000000"},
{"state":"East","name":"Mbang","lat":"4.58333000","lon":"13.33333000"},
{"state":"East","name":"Ndelele","lat":"4.04065000","lon":"14.92501000"},
{"state":"East","name":"Yokadouma","lat":"3.51667000","lon":"15.05000000"},
{"state":"Far North","name":"Bogo","lat":"10.73360000","lon":"14.60928000"},
{"state":"Far North","name":"Kaélé","lat":"10.10917000","lon":"14.45083000"},
{"state":"Far North","name":"Kousséri","lat":"12.07689000","lon":"15.03063000"},
{"state":"Far North","name":"Koza","lat":"10.86846000","lon":"13.88205000"},
{"state":"Far North","name":"Makary","lat":"12.57535000","lon":"14.45483000"},
{"state":"Far North","name":"Maroua","lat":"10.59095000","lon":"14.31593000"},
{"state":"Far North","name":"Mayo-Sava","lat":"11.10682000","lon":"14.20560000"},
{"state":"Far North","name":"Mayo-Tsanaga","lat":"10.58221000","lon":"13.79351000"},
{"state":"Far North","name":"Mindif","lat":"10.39757000","lon":"14.43626000"},
{"state":"Far North","name":"Mokolo","lat":"10.74244000","lon":"13.80227000"},
{"state":"Far North","name":"Mora","lat":"11.04611000","lon":"14.14011000"},
{"state":"Far North","name":"Yagoua","lat":"10.34107000","lon":"15.23288000"},
{"state":"Littoral","name":"Bonabéri","lat":"4.07142000","lon":"9.68177000"},
{"state":"Littoral","name":"Diang","lat":"4.25000000","lon":"10.01667000"},
{"state":"Littoral","name":"Dibombari","lat":"4.17870000","lon":"9.65610000"},
{"state":"Littoral","name":"Dizangué","lat":"3.76667000","lon":"9.98333000"},
{"state":"Littoral","name":"Douala","lat":"4.04827000","lon":"9.70428000"},
{"state":"Littoral","name":"Edéa","lat":"3.80000000","lon":"10.13333000"},
{"state":"Littoral","name":"Loum","lat":"4.71820000","lon":"9.73510000"},
{"state":"Littoral","name":"Manjo","lat":"4.84280000","lon":"9.82170000"},
{"state":"Littoral","name":"Mbanga","lat":"4.50160000","lon":"9.56710000"},
{"state":"Littoral","name":"Melong","lat":"5.12181000","lon":"9.96143000"},
{"state":"Littoral","name":"Mouanko","lat":"3.63972000","lon":"9.77694000"},
{"state":"Littoral","name":"Ndom","lat":"4.49780000","lon":"9.56280000"},
{"state":"Littoral","name":"Ngambé","lat":"4.23343000","lon":"10.61532000"},
{"state":"Littoral","name":"Nkongsamba","lat":"4.95470000","lon":"9.94040000"},
{"state":"Littoral","name":"Penja","lat":"4.63911000","lon":"9.67987000"},
{"state":"Littoral","name":"Yabassi","lat":"4.45697000","lon":"9.96822000"},
{"state":"North","name":"Faro Department","lat":"8.25014000","lon":"12.87829000"},
{"state":"North","name":"Garoua","lat":"9.30143000","lon":"13.39771000"},
{"state":"North","name":"Guider","lat":"9.93330000","lon":"13.94671000"},
{"state":"North","name":"Lagdo","lat":"9.05828000","lon":"13.66605000"},
{"state":"North","name":"Mayo-Louti","lat":"9.96577000","lon":"13.72738000"},
{"state":"North","name":"Mayo-Rey","lat":"8.12630000","lon":"14.61456000"},
{"state":"North","name":"Pitoa","lat":"9.38390000","lon":"13.50231000"},
{"state":"North","name":"Poli","lat":"8.47560000","lon":"13.24097000"},
{"state":"North","name":"Rey Bouba","lat":"8.67240000","lon":"14.17860000"},
{"state":"North","name":"Tcholliré","lat":"8.40220000","lon":"14.16980000"},
{"state":"Northwest","name":"Babanki","lat":"6.11667000","lon":"10.25000000"},
{"state":"Northwest","name":"Bali","lat":"5.88737000","lon":"10.01176000"},
{"state":"Northwest","name":"Bamenda","lat":"5.95970000","lon":"10.14597000"},
{"state":"Northwest","name":"Batibo","lat":"5.83580000","lon":"9.85530000"},
{"state":"Northwest","name":"Belo","lat":"6.13333000","lon":"10.25000000"},
{"state":"Northwest","name":"Boyo","lat":"6.36365000","lon":"10.35540000"},
{"state":"Northwest","name":"Fundong","lat":"6.25000000","lon":"10.26667000"},
{"state":"Northwest","name":"Jakiri","lat":"6.10000000","lon":"10.65000000"},
{"state":"Northwest","name":"Kumbo","lat":"6.20000000","lon":"10.66667000"},
{"state":"Northwest","name":"Mbengwi","lat":"6.01667000","lon":"10.00000000"},
{"state":"Northwest","name":"Mme-Bafumen","lat":"6.33333000","lon":"10.23333000"},
{"state":"Northwest","name":"Njinikom","lat":"6.23333000","lon":"10.28333000"},
{"state":"Northwest","name":"Wum","lat":"6.38333000","lon":"10.06667000"},
{"state":"South","name":"Akom II","lat":"2.78333000","lon":"10.56667000"},
{"state":"South","name":"Ambam","lat":"2.38333000","lon":"11.28333000"},
{"state":"South","name":"Ébolowa","lat":"2.90000000","lon":"11.15000000"},
{"state":"South","name":"Kribi","lat":"2.93725000","lon":"9.90765000"},
{"state":"South","name":"Lolodorf","lat":"3.23333000","lon":"10.73333000"},
{"state":"South","name":"Mvangué","lat":"2.96667000","lon":"11.51667000"},
{"state":"South","name":"Mvila","lat":"2.79796000","lon":"11.39434000"},
{"state":"South","name":"Sangmélima","lat":"2.93333000","lon":"11.98333000"},
{"state":"Southwest","name":"Bamusso","lat":"4.45910000","lon":"8.90270000"},
{"state":"Southwest","name":"Bekondo","lat":"4.68190000","lon":"9.32140000"},
{"state":"Southwest","name":"Buea","lat":"4.15342000","lon":"9.24231000"},
{"state":"Southwest","name":"Fako Division","lat":"4.16667000","lon":"9.16667000"},
{"state":"Southwest","name":"Fontem","lat":"5.46850000","lon":"9.88180000"},
{"state":"Southwest","name":"Kumba","lat":"4.63630000","lon":"9.44690000"},
{"state":"Southwest","name":"Lebialem","lat":"5.56043000","lon":"9.92316000"},
{"state":"Southwest","name":"Limbe","lat":"4.02356000","lon":"9.20607000"},
{"state":"Southwest","name":"Mamfe","lat":"5.75132000","lon":"9.31370000"},
{"state":"Southwest","name":"Mundemba","lat":"4.94790000","lon":"8.87240000"},
{"state":"Southwest","name":"Mutengene","lat":"4.09130000","lon":"9.31440000"},
{"state":"Southwest","name":"Muyuka","lat":"4.28980000","lon":"9.41030000"},
{"state":"Southwest","name":"Nguti","lat":"5.32990000","lon":"9.41850000"},
{"state":"Southwest","name":"Tiko","lat":"4.07500000","lon":"9.36005000"},
{"state":"West","name":"Bafang","lat":"5.15705000","lon":"10.17710000"},
{"state":"West","name":"Bafoussam","lat":"5.47775000","lon":"10.41759000"},
{"state":"West","name":"Bamendjou","lat":"5.38988000","lon":"10.33014000"},
{"state":"West","name":"Bana","lat":"5.14655000","lon":"10.27545000"},
{"state":"West","name":"Bandjoun","lat":"5.37568000","lon":"10.41326000"},
{"state":"West","name":"Bangangté","lat":"5.14079000","lon":"10.52535000"},
{"state":"West","name":"Bansoa","lat":"5.44836000","lon":"10.31355000"},
{"state":"West","name":"Bazou","lat":"5.06001000","lon":"10.46751000"},
{"state":"West","name":"Dschang","lat":"5.44397000","lon":"10.05332000"},
{"state":"West","name":"Foumban","lat":"5.72662000","lon":"10.89865000"},
{"state":"West","name":"Foumbot","lat":"5.50803000","lon":"10.63250000"},
{"state":"West","name":"Hauts-Plateaux","lat":"5.29632000","lon":"10.34314000"},
{"state":"West","name":"Koung-Khi","lat":"5.33848000","lon":"10.47453000"},
{"state":"West","name":"Mbouda","lat":"5.62611000","lon":"10.25421000"},
{"state":"West","name":"Ngou","lat":"5.19685000","lon":"10.38595000"},
{"state":"West","name":"Noun","lat":"5.64123000","lon":"10.91840000"},
{"state":"West","name":"Tonga","lat":"4.96667000","lon":"10.70000000"}]