[{"name":"Adamawa","native":null,"cities":[{"name":"Bankim","native":null,"lat":"6.08303000","lon":"11.49050000"},{"name":"Banyo","native":null,"lat":"6.75000000","lon":"11.81667000"},{"name":"Bélel","native":null,"lat":"7.05000000","lon":"14.43333000"},{"name":"Djohong","native":null,"lat":"6.83333000","lon":"14.70000000"},{"name":"Kontcha","native":null,"lat":"7.96667000","lon":"12.23333000"},{"name":"Mayo-Banyo","native":null,"lat":"6.58138000","lon":"11.73522000"},{"name":"Meïganga","native":null,"lat":"6.51667000","lon":"14.30000000"},{"name":"Ngaoundéré","native":null,"lat":"7.32765000","lon":"13.58472000"},{"name":"Somié","native":null,"lat":"6.45843000","lon":"11.43299000"},{"name":"Tibati","native":null,"lat":"6.46504000","lon":"12.62843000"},{"name":"Tignère","native":null,"lat":"7.36667000","lon":"12.65000000"},{"name":"Vina","native":null,"lat":"7.16365000","lon":"13.72711000"}]},{"name":"Centre","native":null,"cities":[{"name":"Akono","native":null,"lat":"3.50000000","lon":"11.33333000"},{"name":"Akonolinga","native":null,"lat":"3.76667000","lon":"12.25000000"},{"name":"Bafia","native":null,"lat":"4.75000000","lon":"11.23333000"},{"name":"Eséka","native":null,"lat":"3.65000000","lon":"10.76667000"},{"name":"Essé","native":null,"lat":"4.10000000","lon":"11.90000000"},{"name":"Évodoula","native":null,"lat":"4.08333000","lon":"11.20000000"},{"name":"Mbalmayo","native":null,"lat":"3.51667000","lon":"11.50000000"},{"name":"Mbam-Et-Inoubou","native":null,"lat":"4.73754000","lon":"10.96972000"},{"name":"Mbandjok","native":null,"lat":"4.45000000","lon":"11.90000000"},{"name":"Mbankomo","native":null,"lat":"3.78333000","lon":"11.38333000"},{"name":"Mefou-et-Akono","native":null,"lat":"3.58706000","lon":"11.36089000"},{"name":"Mfoundi","native":null,"lat":"3.86670000","lon":"11.51670000"},{"name":"Minta","native":null,"lat":"4.58333000","lon":"12.80000000"},{"name":"Nanga Eboko","native":null,"lat":"4.68333000","lon":"12.36667000"},{"name":"Ndikiniméki","native":null,"lat":"4.76667000","lon":"10.83333000"},{"name":"Ngomedzap","native":null,"lat":"3.25000000","lon":"11.20000000"},{"name":"Ngoro","native":null,"lat":"4.95000000","lon":"11.38333000"},{"name":"Nkoteng","native":null,"lat":"4.51667000","lon":"12.03333000"},{"name":"Ntui","native":null,"lat":"4.45000000","lon":"11.63333000"},{"name":"Obala","native":null,"lat":"4.16667000","lon":"11.53333000"},{"name":"Okoa","native":null,"lat":"3.98333000","lon":"11.60000000"},{"name":"Okola","native":null,"lat":"4.01667000","lon":"11.38333000"},{"name":"Ombésa","native":null,"lat":"4.60000000","lon":"11.25000000"},{"name":"Saa","native":null,"lat":"4.36667000","lon":"11.45000000"},{"name":"Yaoundé","native":null,"lat":"3.86667000","lon":"11.51667000"},{"name":"Yoko","native":null,"lat":"5.53333000","lon":"12.31667000"}]},{"name":"East","native":null,"cities":[{"name":"Abong Mbang","native":null,"lat":"3.98333000","lon":"13.18333000"},{"name":"Batouri","native":null,"lat":"4.43333000","lon":"14.36667000"},{"name":"Bélabo","native":null,"lat":"4.93333000","lon":"13.30000000"},{"name":"Bertoua","native":null,"lat":"4.57728000","lon":"13.68459000"},{"name":"Bétaré Oya","native":null,"lat":"5.60000000","lon":"14.08333000"},{"name":"Dimako","native":null,"lat":"4.38333000","lon":"13.56667000"},{"name":"Doumé","native":null,"lat":"4.23333000","lon":"13.45000000"},{"name":"Garoua Boulaï","native":null,"lat":"5.88333000","lon":"14.55000000"},{"name":"Mbang","native":null,"lat":"4.58333000","lon":"13.33333000"},{"name":"Ndelele","native":null,"lat":"4.04065000","lon":"14.92501000"},{"name":"Yokadouma","native":null,"lat":"3.51667000","lon":"15.05000000"}]},{"name":"Far North","native":null,"cities":[{"name":"Bogo","native":null,"lat":"10.73360000","lon":"14.60928000"},{"name":"Kaélé","native":null,"lat":"10.10917000","lon":"14.45083000"},{"name":"Kousséri","native":null,"lat":"12.07689000","lon":"15.03063000"},{"name":"Koza","native":null,"lat":"10.86846000","lon":"13.88205000"},{"name":"Makary","native":null,"lat":"12.57535000","lon":"14.45483000"},{"name":"Maroua","native":null,"lat":"10.59095000","lon":"14.31593000"},{"name":"Mayo-Sava","native":null,"lat":"11.10682000","lon":"14.20560000"},{"name":"Mayo-Tsanaga","native":null,"lat":"10.58221000","lon":"13.79351000"},{"name":"Mindif","native":null,"lat":"10.39757000","lon":"14.43626000"},{"name":"Mokolo","native":null,"lat":"10.74244000","lon":"13.80227000"},{"name":"Mora","native":null,"lat":"11.04611000","lon":"14.14011000"},{"name":"Yagoua","native":null,"lat":"10.34107000","lon":"15.23288000"}]},{"name":"Littoral","native":null,"cities":[{"name":"Bonabéri","native":null,"lat":"4.07142000","lon":"9.68177000"},{"name":"Diang","native":null,"lat":"4.25000000","lon":"10.01667000"},{"name":"Dibombari","native":null,"lat":"4.17870000","lon":"9.65610000"},{"name":"Dizangué","native":null,"lat":"3.76667000","lon":"9.98333000"},{"name":"Douala","native":null,"lat":"4.04827000","lon":"9.70428000"},{"name":"Edéa","native":null,"lat":"3.80000000","lon":"10.13333000"},{"name":"Loum","native":null,"lat":"4.71820000","lon":"9.73510000"},{"name":"Manjo","native":null,"lat":"4.84280000","lon":"9.82170000"},{"name":"Mbanga","native":null,"lat":"4.50160000","lon":"9.56710000"},{"name":"Melong","native":null,"lat":"5.12181000","lon":"9.96143000"},{"name":"Mouanko","native":null,"lat":"3.63972000","lon":"9.77694000"},{"name":"Ndom","native":null,"lat":"4.49780000","lon":"9.56280000"},{"name":"Ngambé","native":null,"lat":"4.23343000","lon":"10.61532000"},{"name":"Nkongsamba","native":null,"lat":"4.95470000","lon":"9.94040000"},{"name":"Penja","native":null,"lat":"4.63911000","lon":"9.67987000"},{"name":"Yabassi","native":null,"lat":"4.45697000","lon":"9.96822000"}]},{"name":"North","native":null,"cities":[{"name":"Faro Department","native":null,"lat":"8.25014000","lon":"12.87829000"},{"name":"Garoua","native":null,"lat":"9.30143000","lon":"13.39771000"},{"name":"Guider","native":null,"lat":"9.93330000","lon":"13.94671000"},{"name":"Lagdo","native":null,"lat":"9.05828000","lon":"13.66605000"},{"name":"Mayo-Louti","native":null,"lat":"9.96577000","lon":"13.72738000"},{"name":"Mayo-Rey","native":null,"lat":"8.12630000","lon":"14.61456000"},{"name":"Pitoa","native":null,"lat":"9.38390000","lon":"13.50231000"},{"name":"Poli","native":null,"lat":"8.47560000","lon":"13.24097000"},{"name":"Rey Bouba","native":null,"lat":"8.67240000","lon":"14.17860000"},{"name":"Tcholliré","native":null,"lat":"8.40220000","lon":"14.16980000"}]},{"name":"Northwest","native":null,"cities":[{"name":"Babanki","native":null,"lat":"6.11667000","lon":"10.25000000"},{"name":"Bali","native":null,"lat":"5.88737000","lon":"10.01176000"},{"name":"Bamenda","native":null,"lat":"5.95970000","lon":"10.14597000"},{"name":"Batibo","native":null,"lat":"5.83580000","lon":"9.85530000"},{"name":"Belo","native":null,"lat":"6.13333000","lon":"10.25000000"},{"name":"Boyo","native":null,"lat":"6.36365000","lon":"10.35540000"},{"name":"Fundong","native":null,"lat":"6.25000000","lon":"10.26667000"},{"name":"Jakiri","native":null,"lat":"6.10000000","lon":"10.65000000"},{"name":"Kumbo","native":null,"lat":"6.20000000","lon":"10.66667000"},{"name":"Mbengwi","native":null,"lat":"6.01667000","lon":"10.00000000"},{"name":"Mme-Bafumen","native":null,"lat":"6.33333000","lon":"10.23333000"},{"name":"Njinikom","native":null,"lat":"6.23333000","lon":"10.28333000"},{"name":"Wum","native":null,"lat":"6.38333000","lon":"10.06667000"}]},{"name":"South","native":null,"cities":[{"name":"Akom II","native":null,"lat":"2.78333000","lon":"10.56667000"},{"name":"Ambam","native":null,"lat":"2.38333000","lon":"11.28333000"},{"name":"Ébolowa","native":null,"lat":"2.90000000","lon":"11.15000000"},{"name":"Kribi","native":null,"lat":"2.93725000","lon":"9.90765000"},{"name":"Lolodorf","native":null,"lat":"3.23333000","lon":"10.73333000"},{"name":"Mvangué","native":null,"lat":"2.96667000","lon":"11.51667000"},{"name":"Mvila","native":null,"lat":"2.79796000","lon":"11.39434000"},{"name":"Sangmélima","native":null,"lat":"2.93333000","lon":"11.98333000"}]},{"name":"Southwest","native":null,"cities":[{"name":"Bamusso","native":null,"lat":"4.45910000","lon":"8.90270000"},{"name":"Bekondo","native":null,"lat":"4.68190000","lon":"9.32140000"},{"name":"Buea","native":null,"lat":"4.15342000","lon":"9.24231000"},{"name":"Fako Division","native":null,"lat":"4.16667000","lon":"9.16667000"},{"name":"Fontem","native":null,"lat":"5.46850000","lon":"9.88180000"},{"name":"Kumba","native":null,"lat":"4.63630000","lon":"9.44690000"},{"name":"Lebialem","native":null,"lat":"5.56043000","lon":"9.92316000"},{"name":"Limbe","native":null,"lat":"4.02356000","lon":"9.20607000"},{"name":"Mamfe","native":null,"lat":"5.75132000","lon":"9.31370000"},{"name":"Mundemba","native":null,"lat":"4.94790000","lon":"8.87240000"},{"name":"Mutengene","native":null,"lat":"4.09130000","lon":"9.31440000"},{"name":"Muyuka","native":null,"lat":"4.28980000","lon":"9.41030000"},{"name":"Nguti","native":null,"lat":"5.32990000","lon":"9.41850000"},{"name":"Tiko","native":null,"lat":"4.07500000","lon":"9.36005000"}]},{"name":"West","native":null,"cities":[{"name":"Bafang","native":null,"lat":"5.15705000","lon":"10.17710000"},{"name":"Bafoussam","native":null,"lat":"5.47775000","lon":"10.41759000"},{"name":"Bamendjou","native":null,"lat":"5.38988000","lon":"10.33014000"},{"name":"Bana","native":null,"lat":"5.14655000","lon":"10.27545000"},{"name":"Bandjoun","native":null,"lat":"5.37568000","lon":"10.41326000"},{"name":"Bangangté","native":null,"lat":"5.14079000","lon":"10.52535000"},{"name":"Bansoa","native":null,"lat":"5.44836000","lon":"10.31355000"},{"name":"Bazou","native":null,"lat":"5.06001000","lon":"10.46751000"},{"name":"Dschang","native":null,"lat":"5.44397000","lon":"10.05332000"},{"name":"Foumban","native":null,"lat":"5.72662000","lon":"10.89865000"},{"name":"Foumbot","native":null,"lat":"5.50803000","lon":"10.63250000"},{"name":"Hauts-Plateaux","native":null,"lat":"5.29632000","lon":"10.34314000"},{"name":"Koung-Khi","native":null,"lat":"5.33848000","lon":"10.47453000"},{"name":"Mbouda","native":null,"lat":"5.62611000","lon":"10.25421000"},{"name":"Ngou","native":null,"lat":"5.19685000","lon":"10.38595000"},{"name":"Noun","native":null,"lat":"5.64123000","lon":"10.91840000"},{"name":"Tonga","native":null,"lat":"4.96667000","lon":"10.70000000"}]}]