[{"state":"Anhui","name":"Anqing","lat":"30.51365000","lon":"117.04723000"},
{"state":"Anhui","name":"Anqing Shi","lat":"30.66266000","lon":"116.55911000"},
{"state":"Anhui","name":"Bengbu","lat":"32.94083000","lon":"117.36083000"},
{"state":"Anhui","name":"Bozhou","lat":"33.87722000","lon":"115.77028000"},
{"state":"Anhui","name":"Chaohu","lat":"31.60000000","lon":"117.86667000"},
{"state":"Anhui","name":"Chizhou","lat":"30.66134000","lon":"117.47783000"},
{"state":"Anhui","name":"Chizhou Shi","lat":"30.30431000","lon":"117.41388000"},
{"state":"Anhui","name":"Chuzhou","lat":"32.32194000","lon":"118.29778000"},
{"state":"Anhui","name":"Chuzhou Shi","lat":"32.60084000","lon":"118.08813000"},
{"state":"Anhui","name":"Datong","lat":"32.62082000","lon":"117.06319000"},
{"state":"Anhui","name":"Fuyang","lat":"32.90000000","lon":"115.81667000"},
{"state":"Anhui","name":"Fuyang Shi","lat":"32.93718000","lon":"115.70778000"},
{"state":"Anhui","name":"Gushu","lat":"31.56055000","lon":"118.48147000"},
{"state":"Anhui","name":"Hefei","lat":"31.86389000","lon":"117.28083000"},
{"state":"Anhui","name":"Hefei Shi","lat":"31.94665000","lon":"117.27805000"},
{"state":"Anhui","name":"Huaibei","lat":"33.97444000","lon":"116.79167000"},
{"state":"Anhui","name":"Huainan","lat":"32.62639000","lon":"116.99694000"},
{"state":"Anhui","name":"Huainan Shi","lat":"32.73824000","lon":"116.78813000"},
{"state":"Anhui","name":"Huaiyuan Chengguanzhen","lat":"32.95893000","lon":"117.16566000"},
{"state":"Anhui","name":"Huangshan","lat":"29.71139000","lon":"118.31250000"},
{"state":"Anhui","name":"Huangshan Shi","lat":"29.89195000","lon":"118.10553000"},
{"state":"Anhui","name":"Huoqiu Chengguanzhen","lat":"32.35473000","lon":"116.29390000"},
{"state":"Anhui","name":"Jieshou","lat":"33.26338000","lon":"115.36108000"},
{"state":"Anhui","name":"Lu’an","lat":"31.73561000","lon":"116.51688000"},
{"state":"Anhui","name":"Lucheng","lat":"31.23357000","lon":"117.28057000"},
{"state":"Anhui","name":"Mengcheng Chengguanzhen","lat":"33.26611000","lon":"116.56605000"},
{"state":"Anhui","name":"Mingguang","lat":"32.78017000","lon":"117.96378000"},
{"state":"Anhui","name":"Suixi","lat":"33.89067000","lon":"116.77473000"},
{"state":"Anhui","name":"Suzhou","lat":"33.63611000","lon":"116.97889000"},
{"state":"Anhui","name":"Suzhou Shi","lat":"33.86970000","lon":"117.20569000"},
{"state":"Anhui","name":"Tangzhai","lat":"34.43278000","lon":"116.59111000"},
{"state":"Anhui","name":"Wucheng","lat":"29.60077000","lon":"118.17495000"},
{"state":"Anhui","name":"Wuhu","lat":"31.33728000","lon":"118.37351000"},
{"state":"Anhui","name":"Wusong","lat":"30.95000000","lon":"117.78333000"},
{"state":"Anhui","name":"Wuyang","lat":"31.99250000","lon":"116.24722000"},
{"state":"Anhui","name":"Xuanzhou","lat":"30.95250000","lon":"118.75528000"},
{"state":"Anhui","name":"Yingshang Chengguanzhen","lat":"32.62945000","lon":"116.27013000"},
{"state":"Beijing","name":"Beijing","lat":"39.90750000","lon":"116.39723000"},
{"state":"Beijing","name":"Changping","lat":"40.21612000","lon":"116.23471000"},
{"state":"Beijing","name":"Daxing","lat":"39.74025000","lon":"116.32693000"},
{"state":"Beijing","name":"Fangshan","lat":"39.68699000","lon":"115.99658000"},
{"state":"Beijing","name":"Liangxiang","lat":"39.73598000","lon":"116.13295000"},
{"state":"Beijing","name":"Mentougou","lat":"39.93819000","lon":"116.09307000"},
{"state":"Beijing","name":"Shunyi","lat":"40.12175000","lon":"116.64783000"},
{"state":"Beijing","name":"Tongzhou","lat":"39.90395000","lon":"116.66183000"},
{"state":"Chongqing","name":"Beibei","lat":"29.82739000","lon":"106.43645000"},
{"state":"Chongqing","name":"Caijia","lat":"28.90889000","lon":"106.34040000"},
{"state":"Chongqing","name":"Chongqing","lat":"29.56278000","lon":"106.55278000"},
{"state":"Chongqing","name":"Dongxi","lat":"28.76139000","lon":"106.66111000"},
{"state":"Chongqing","name":"Fuling","lat":"29.70600000","lon":"107.39575000"},
{"state":"Chongqing","name":"Ganshui","lat":"28.74222000","lon":"106.71111000"},
{"state":"Chongqing","name":"Guofuchang","lat":"28.85000000","lon":"106.60139000"},
{"state":"Chongqing","name":"Hechuan","lat":"29.99228000","lon":"106.26461000"},
{"state":"Chongqing","name":"Jijiang","lat":"29.28993000","lon":"106.25001000"},
{"state":"Chongqing","name":"Liangping District","lat":"30.67409000","lon":"107.79380000"},
{"state":"Chongqing","name":"Puhechang","lat":"28.95250000","lon":"106.83111000"},
{"state":"Chongqing","name":"Shapingba District","lat":"29.54166000","lon":"106.45547000"},
{"state":"Chongqing","name":"Shijiaochang","lat":"28.92444000","lon":"106.75611000"},
{"state":"Chongqing","name":"Wanxian","lat":"30.81544000","lon":"108.37089000"},
{"state":"Chongqing","name":"Wanzhou District","lat":"30.70576000","lon":"108.40202000"},
{"state":"Chongqing","name":"Yongchuan","lat":"29.35376000","lon":"105.89392000"},
{"state":"Chongqing","name":"Yudong","lat":"29.38500000","lon":"106.51944000"},
{"state":"Chongqing","name":"Yuzhong District","lat":"29.55208000","lon":"106.53814000"},
{"state":"Fujian","name":"Badu","lat":"26.81028000","lon":"119.56417000"},
{"state":"Fujian","name":"Baiqi","lat":"24.88244000","lon":"118.70869000"},
{"state":"Fujian","name":"Baiyun","lat":"26.03648000","lon":"118.90622000"},
{"state":"Fujian","name":"Beishancun","lat":"26.43732000","lon":"119.63372000"},
{"state":"Fujian","name":"Changqiao","lat":"26.82139000","lon":"118.84361000"},
{"state":"Fujian","name":"Chengmen","lat":"25.99339000","lon":"119.36136000"},
{"state":"Fujian","name":"Chixi","lat":"26.91111000","lon":"119.48306000"},
{"state":"Fujian","name":"Chongru","lat":"26.95111000","lon":"119.92528000"},
{"state":"Fujian","name":"Dadeng","lat":"24.54386000","lon":"118.32753000"},
{"state":"Fujian","name":"Daixi","lat":"26.81250000","lon":"119.11417000"},
{"state":"Fujian","name":"Danyang","lat":"26.35102000","lon":"119.48030000"},
{"state":"Fujian","name":"Daqiao","lat":"26.61500000","lon":"118.90639000"},
{"state":"Fujian","name":"Dazuo","lat":"24.88616000","lon":"118.96433000"},
{"state":"Fujian","name":"Dinghaicun","lat":"26.28022000","lon":"119.78964000"},
{"state":"Fujian","name":"Dingtoucun","lat":"26.83977000","lon":"119.66111000"},
{"state":"Fujian","name":"Dongchongcun","lat":"26.54001000","lon":"119.83257000"},
{"state":"Fujian","name":"Dongdai","lat":"26.24366000","lon":"119.61566000"},
{"state":"Fujian","name":"Donghu","lat":"26.23453000","lon":"119.51430000"},
{"state":"Fujian","name":"Dongling","lat":"24.98271000","lon":"118.89790000"},
{"state":"Fujian","name":"Dongyuan","lat":"24.91738000","lon":"118.75236000"},
{"state":"Fujian","name":"Feiluan","lat":"26.56250000","lon":"119.59750000"},
{"state":"Fujian","name":"Fengpu","lat":"26.68276000","lon":"118.76006000"},
{"state":"Fujian","name":"Fengzhou","lat":"24.95762000","lon":"118.53365000"},
{"state":"Fujian","name":"Fu’an","lat":"27.06372000","lon":"119.65280000"},
{"state":"Fujian","name":"Fuding","lat":"27.32734000","lon":"120.21399000"},
{"state":"Fujian","name":"Fuqing","lat":"25.72500000","lon":"119.37944000"},
{"state":"Fujian","name":"Fuzhou","lat":"26.06139000","lon":"119.30611000"},
{"state":"Fujian","name":"Gantang","lat":"26.92000000","lon":"119.63333000"},
{"state":"Fujian","name":"Guantou","lat":"26.13593000","lon":"119.56162000"},
{"state":"Fujian","name":"Gufeng","lat":"26.90833000","lon":"118.98194000"},
{"state":"Fujian","name":"Hetang","lat":"26.66276000","lon":"119.11062000"},
{"state":"Fujian","name":"Hongtang","lat":"26.07056000","lon":"119.23083000"},
{"state":"Fujian","name":"Hongyang","lat":"26.52861000","lon":"119.46250000"},
{"state":"Fujian","name":"Houyu","lat":"26.05958000","lon":"119.53502000"},
{"state":"Fujian","name":"Huai’an","lat":"26.09899000","lon":"119.22171000"},
{"state":"Fujian","name":"Huangtian","lat":"26.43851000","lon":"118.62398000"},
{"state":"Fujian","name":"Huotong","lat":"26.84972000","lon":"119.41806000"},
{"state":"Fujian","name":"Jian’ou","lat":"27.04694000","lon":"118.32528000"},
{"state":"Fujian","name":"Jiangkou","lat":"25.48694000","lon":"119.19834000"},
{"state":"Fujian","name":"Jianjiang","lat":"26.54972000","lon":"119.75500000"},
{"state":"Fujian","name":"Jingfeng","lat":"24.97441000","lon":"118.96486000"},
{"state":"Fujian","name":"Jinjiang","lat":"24.81978000","lon":"118.57415000"},
{"state":"Fujian","name":"Jinjing","lat":"24.57500000","lon":"118.59722000"},
{"state":"Fujian","name":"Jitoucun","lat":"26.47681000","lon":"119.60517000"},
{"state":"Fujian","name":"Kengyuan","lat":"26.33964000","lon":"119.76476000"},
{"state":"Fujian","name":"Kerencun","lat":"24.58213000","lon":"118.66046000"},
{"state":"Fujian","name":"Kuai’an","lat":"26.03417000","lon":"119.41639000"},
{"state":"Fujian","name":"Lianhecun","lat":"24.58932000","lon":"118.33903000"},
{"state":"Fujian","name":"Liuwudiancun","lat":"24.56923000","lon":"118.19064000"},
{"state":"Fujian","name":"Longmen","lat":"24.95972000","lon":"118.08889000"},
{"state":"Fujian","name":"Longyan","lat":"25.10722000","lon":"117.02250000"},
{"state":"Fujian","name":"Luoqiao","lat":"26.47265000","lon":"119.00392000"},
{"state":"Fujian","name":"Luoyang","lat":"24.95938000","lon":"118.68300000"},
{"state":"Fujian","name":"Luxia","lat":"26.93000000","lon":"118.80722000"},
{"state":"Fujian","name":"Maping","lat":"24.68722000","lon":"118.55278000"},
{"state":"Fujian","name":"Meipu","lat":"26.21120000","lon":"118.89561000"},
{"state":"Fujian","name":"Min’an","lat":"26.04962000","lon":"119.49964000"},
{"state":"Fujian","name":"Nanping","lat":"26.64500000","lon":"118.17361000"},
{"state":"Fujian","name":"Neikeng","lat":"24.78544000","lon":"118.46037000"},
{"state":"Fujian","name":"Ningde","lat":"26.66167000","lon":"119.52278000"},
{"state":"Fujian","name":"Pandu","lat":"26.23639000","lon":"119.45026000"},
{"state":"Fujian","name":"Pucheng","lat":"27.92333000","lon":"118.53333000"},
{"state":"Fujian","name":"Putian","lat":"25.43944000","lon":"119.01028000"},
{"state":"Fujian","name":"Qibu","lat":"26.50750000","lon":"119.54500000"},
{"state":"Fujian","name":"Qidu","lat":"26.76528000","lon":"119.54722000"},
{"state":"Fujian","name":"Quanzhou","lat":"24.91389000","lon":"118.58583000"},
{"state":"Fujian","name":"Rong’an","lat":"26.12472000","lon":"119.12139000"},
{"state":"Fujian","name":"Sanming","lat":"26.24861000","lon":"117.61861000"},
{"state":"Fujian","name":"Shajiang","lat":"26.78250000","lon":"119.96694000"},
{"state":"Fujian","name":"Shangjie","lat":"26.08679000","lon":"119.18494000"},
{"state":"Fujian","name":"Shanxia","lat":"24.93802000","lon":"118.88170000"},
{"state":"Fujian","name":"Shanyang","lat":"26.67019000","lon":"119.20509000"},
{"state":"Fujian","name":"Shaowu","lat":"27.34089000","lon":"117.48310000"},
{"state":"Fujian","name":"Shijing","lat":"24.61956000","lon":"118.42437000"},
{"state":"Fujian","name":"Shima","lat":"24.44647000","lon":"117.81216000"},
{"state":"Fujian","name":"Shoushan","lat":"26.96444000","lon":"119.16167000"},
{"state":"Fujian","name":"Shuangxi","lat":"27.02248000","lon":"119.04140000"},
{"state":"Fujian","name":"Shuangzhu","lat":"26.63114000","lon":"118.64570000"},
{"state":"Fujian","name":"Shuikou","lat":"26.38360000","lon":"118.73027000"},
{"state":"Fujian","name":"Tangkou","lat":"26.95417000","lon":"119.01278000"},
{"state":"Fujian","name":"Tantou","lat":"26.03033000","lon":"119.59739000"},
{"state":"Fujian","name":"Tatou","lat":"24.61732000","lon":"118.52672000"},
{"state":"Fujian","name":"Tingjiang","lat":"26.07401000","lon":"119.50574000"},
{"state":"Fujian","name":"Tuzhai","lat":"24.98301000","lon":"118.83194000"},
{"state":"Fujian","name":"Wubao","lat":"24.59589000","lon":"118.55359000"},
{"state":"Fujian","name":"Wuyishan","lat":"27.75995000","lon":"118.03066000"},
{"state":"Fujian","name":"Wuyucun","lat":"24.33551000","lon":"118.14489000"},
{"state":"Fujian","name":"Xiabaishi","lat":"26.81528000","lon":"119.67917000"},
{"state":"Fujian","name":"Xiahu","lat":"26.61056000","lon":"119.94833000"},
{"state":"Fujian","name":"Xiamen","lat":"24.47979000","lon":"118.08187000"},
{"state":"Fujian","name":"Xiancun","lat":"26.93861000","lon":"119.36028000"},
{"state":"Fujian","name":"Xiangyun","lat":"24.97111000","lon":"118.16028000"},
{"state":"Fujian","name":"Xibing","lat":"26.98139000","lon":"119.72472000"},
{"state":"Fujian","name":"Xiling","lat":"26.81444000","lon":"119.04722000"},
{"state":"Fujian","name":"Ximei","lat":"24.98773000","lon":"118.38580000"},
{"state":"Fujian","name":"Xinan","lat":"26.72000000","lon":"119.85556000"},
{"state":"Fujian","name":"Xindian","lat":"24.61006000","lon":"118.24068000"},
{"state":"Fujian","name":"Yakou","lat":"24.67194000","lon":"118.63722000"},
{"state":"Fujian","name":"Yanghou","lat":"26.64083000","lon":"118.50806000"},
{"state":"Fujian","name":"Yangzhong","lat":"26.70556000","lon":"119.37444000"},
{"state":"Fujian","name":"Yantian","lat":"26.85333000","lon":"119.85750000"},
{"state":"Fujian","name":"Yingdu","lat":"24.97167000","lon":"118.24417000"},
{"state":"Fujian","name":"Yinglin","lat":"24.63222000","lon":"118.58056000"},
{"state":"Fujian","name":"Yongning","lat":"24.68000000","lon":"118.69000000"},
{"state":"Fujian","name":"Yushan","lat":"26.90863000","lon":"118.56713000"},
{"state":"Fujian","name":"Zhangwan","lat":"26.71139000","lon":"119.59194000"},
{"state":"Fujian","name":"Zhangzhou","lat":"24.51333000","lon":"117.65556000"},
{"state":"Fujian","name":"Zhenhaicun","lat":"24.25894000","lon":"118.09186000"},
{"state":"Fujian","name":"Zhongfang","lat":"26.60083000","lon":"119.42583000"},
{"state":"Fujian","name":"Zhuoyang","lat":"26.63003000","lon":"119.02150000"},
{"state":"Fujian","name":"Zhuqi","lat":"26.14860000","lon":"119.10216000"},
{"state":"Gansu","name":"Baiyin","lat":"36.54696000","lon":"104.17023000"},
{"state":"Gansu","name":"Beidao","lat":"34.56861000","lon":"105.89333000"},
{"state":"Gansu","name":"Dingxi Shi","lat":"35.03710000","lon":"104.38623000"},
{"state":"Gansu","name":"Hezuo","lat":"34.98556000","lon":"102.90944000"},
{"state":"Gansu","name":"Jiayuguan","lat":"39.81121000","lon":"98.28618000"},
{"state":"Gansu","name":"Jinchang","lat":"38.50062000","lon":"102.19379000"},
{"state":"Gansu","name":"Jiuquan","lat":"39.74318000","lon":"98.51736000"},
{"state":"Gansu","name":"Lanzhou","lat":"36.05701000","lon":"103.83987000"},
{"state":"Gansu","name":"Laojunmiao","lat":"39.83333000","lon":"97.73333000"},
{"state":"Gansu","name":"Linxia Chengguanzhen","lat":"35.60028000","lon":"103.20639000"},
{"state":"Gansu","name":"Linxia Huizu Zizhizhou","lat":"35.66597000","lon":"103.24080000"},
{"state":"Gansu","name":"Longnan Shi","lat":"33.53451000","lon":"105.34947000"},
{"state":"Gansu","name":"Mawu","lat":"34.42639000","lon":"104.91472000"},
{"state":"Gansu","name":"Pingliang","lat":"35.53917000","lon":"106.68611000"},
{"state":"Gansu","name":"Qincheng","lat":"34.58028000","lon":"105.72722000"},
{"state":"Gansu","name":"Qingyang Shi","lat":"36.23598000","lon":"107.58113000"},
{"state":"Gansu","name":"Tianshui","lat":"34.57952000","lon":"105.74238000"},
{"state":"Gansu","name":"Wuwei","lat":"37.92672000","lon":"102.63202000"},
{"state":"Gansu","name":"Zhangye","lat":"38.93417000","lon":"100.45167000"},
{"state":"Gansu","name":"Zhangye Shi","lat":"39.12183000","lon":"99.92495000"},
{"state":"Guangdong","name":"Anbu","lat":"23.44895000","lon":"116.68092000"},
{"state":"Guangdong","name":"Chaozhou","lat":"23.65396000","lon":"116.62262000"},
{"state":"Guangdong","name":"Chenghua","lat":"23.46132000","lon":"116.77007000"},
{"state":"Guangdong","name":"Daliang","lat":"22.84067000","lon":"113.25030000"},
{"state":"Guangdong","name":"Danshui","lat":"22.79840000","lon":"114.46716000"},
{"state":"Guangdong","name":"Dasha","lat":"23.11037000","lon":"113.44180000"},
{"state":"Guangdong","name":"Dongguan","lat":"23.01797000","lon":"113.74866000"},
{"state":"Guangdong","name":"Donghai","lat":"22.94593000","lon":"115.64204000"},
{"state":"Guangdong","name":"Ducheng","lat":"23.24212000","lon":"111.52840000"},
{"state":"Guangdong","name":"Encheng","lat":"22.18659000","lon":"112.30424000"},
{"state":"Guangdong","name":"Foshan","lat":"23.02677000","lon":"113.13148000"},
{"state":"Guangdong","name":"Foshan Shi","lat":"23.02264000","lon":"112.96302000"},
{"state":"Guangdong","name":"Gaoyao","lat":"23.02432000","lon":"112.44555000"},
{"state":"Guangdong","name":"Gaozhou","lat":"21.93924000","lon":"110.84607000"},
{"state":"Guangdong","name":"Guangzhou","lat":"23.11667000","lon":"113.25000000"},
{"state":"Guangdong","name":"Guangzhou Shi","lat":"23.37327000","lon":"113.51219000"},
{"state":"Guangdong","name":"Haikuotiankong","lat":"22.52881000","lon":"113.93990000"},
{"state":"Guangdong","name":"Haimen","lat":"23.19346000","lon":"116.61219000"},
{"state":"Guangdong","name":"Hepo","lat":"23.43077000","lon":"115.82991000"},
{"state":"Guangdong","name":"Heyuan","lat":"23.73333000","lon":"114.68333000"},
{"state":"Guangdong","name":"Huaicheng","lat":"23.91952000","lon":"112.17629000"},
{"state":"Guangdong","name":"Huanggang","lat":"23.67704000","lon":"116.99961000"},
{"state":"Guangdong","name":"Huazhou","lat":"21.63333000","lon":"110.58333000"},
{"state":"Guangdong","name":"Huicheng","lat":"23.03845000","lon":"116.28988000"},
{"state":"Guangdong","name":"Huizhou","lat":"23.11147000","lon":"114.41523000"},
{"state":"Guangdong","name":"Humen","lat":"22.81899000","lon":"113.67306000"},
{"state":"Guangdong","name":"Jiangmen","lat":"22.58333000","lon":"113.08333000"},
{"state":"Guangdong","name":"Jiazi","lat":"22.87932000","lon":"116.07318000"},
{"state":"Guangdong","name":"Jieshi","lat":"22.81027000","lon":"115.83058000"},
{"state":"Guangdong","name":"Jieyang","lat":"23.54180000","lon":"116.36581000"},
{"state":"Guangdong","name":"Lecheng","lat":"25.12800000","lon":"113.35041000"},
{"state":"Guangdong","name":"Lianjiang","lat":"21.64673000","lon":"110.28172000"},
{"state":"Guangdong","name":"Lianzhou","lat":"24.78186000","lon":"112.37120000"},
{"state":"Guangdong","name":"Licheng","lat":"23.29549000","lon":"113.82465000"},
{"state":"Guangdong","name":"Lubu","lat":"23.17233000","lon":"112.28298000"},
{"state":"Guangdong","name":"Luocheng","lat":"22.76953000","lon":"111.56882000"},
{"state":"Guangdong","name":"Luoyang","lat":"23.16244000","lon":"114.27342000"},
{"state":"Guangdong","name":"Maba","lat":"24.68413000","lon":"113.59839000"},
{"state":"Guangdong","name":"Maoming","lat":"21.65000000","lon":"110.90000000"},
{"state":"Guangdong","name":"Meizhou","lat":"24.28859000","lon":"116.11768000"},
{"state":"Guangdong","name":"Nanfeng","lat":"23.72695000","lon":"111.79723000"},
{"state":"Guangdong","name":"Pingshan","lat":"22.99376000","lon":"114.71311000"},
{"state":"Guangdong","name":"Puning","lat":"23.31072000","lon":"116.16869000"},
{"state":"Guangdong","name":"Qingyuan","lat":"23.70000000","lon":"113.03333000"},
{"state":"Guangdong","name":"Sanshui","lat":"23.15486000","lon":"112.89161000"},
{"state":"Guangdong","name":"Shantou","lat":"23.36814000","lon":"116.71479000"},
{"state":"Guangdong","name":"Shanwei","lat":"22.78199000","lon":"115.34750000"},
{"state":"Guangdong","name":"Shaoguan","lat":"24.80000000","lon":"113.58333000"},
{"state":"Guangdong","name":"Shaping","lat":"22.77019000","lon":"112.95776000"},
{"state":"Guangdong","name":"Shenzhen","lat":"22.55653000","lon":"113.98590000"},
{"state":"Guangdong","name":"Shilong","lat":"23.11444000","lon":"113.84722000"},
{"state":"Guangdong","name":"Shiqi","lat":"22.51682000","lon":"113.38521000"},
{"state":"Guangdong","name":"Shiqiao","lat":"22.94640000","lon":"113.35769000"},
{"state":"Guangdong","name":"Shiwan","lat":"23.00107000","lon":"113.07700000"},
{"state":"Guangdong","name":"Shixing","lat":"24.94824000","lon":"114.06572000"},
{"state":"Guangdong","name":"Taishan","lat":"22.25135000","lon":"112.77990000"},
{"state":"Guangdong","name":"Tangping","lat":"22.03177000","lon":"111.93537000"},
{"state":"Guangdong","name":"Wuchuan","lat":"21.45713000","lon":"110.76591000"},
{"state":"Guangdong","name":"Xingning","lat":"24.14830000","lon":"115.72272000"},
{"state":"Guangdong","name":"Xinhui","lat":"22.45600000","lon":"113.04820000"},
{"state":"Guangdong","name":"Xinyi","lat":"22.37303000","lon":"110.94746000"},
{"state":"Guangdong","name":"Xiongzhou","lat":"25.11667000","lon":"114.30000000"},
{"state":"Guangdong","name":"Xucheng","lat":"20.32917000","lon":"110.16712000"},
{"state":"Guangdong","name":"Yangchun","lat":"22.16667000","lon":"111.78333000"},
{"state":"Guangdong","name":"Yangjiang","lat":"21.85563000","lon":"111.96272000"},
{"state":"Guangdong","name":"Yingcheng","lat":"24.16588000","lon":"113.41267000"},
{"state":"Guangdong","name":"Yunfu","lat":"22.92833000","lon":"112.03954000"},
{"state":"Guangdong","name":"Zhanjiang","lat":"21.28145000","lon":"110.34271000"},
{"state":"Guangdong","name":"Zhaoqing","lat":"23.04893000","lon":"112.46091000"},
{"state":"Guangdong","name":"Zhongshan","lat":"21.31992000","lon":"110.57230000"},
{"state":"Guangdong","name":"Zhongshan Prefecture","lat":"22.55358000","lon":"113.37550000"},
{"state":"Guangdong","name":"Zhuhai","lat":"22.27694000","lon":"113.56778000"},
{"state":"Guangxi Zhuang","name":"Babu","lat":"24.41667000","lon":"111.51667000"},
{"state":"Guangxi Zhuang","name":"Baihe","lat":"22.13430000","lon":"107.23200000"},
{"state":"Guangxi Zhuang","name":"Baise City","lat":"23.89972000","lon":"106.61333000"},
{"state":"Guangxi Zhuang","name":"Baise Shi","lat":"23.90000000","lon":"106.61667000"},
{"state":"Guangxi Zhuang","name":"Beihai","lat":"21.48333000","lon":"109.10000000"},
{"state":"Guangxi Zhuang","name":"Chongzuo Shi","lat":"22.46541000","lon":"107.39622000"},
{"state":"Guangxi Zhuang","name":"Dazhai","lat":"25.80980000","lon":"110.15000000"},
{"state":"Guangxi Zhuang","name":"Fangchenggang Shi","lat":"21.93580000","lon":"107.95932000"},
{"state":"Guangxi Zhuang","name":"Guigang","lat":"23.09639000","lon":"109.60917000"},
{"state":"Guangxi Zhuang","name":"Guilin","lat":"25.28194000","lon":"110.28639000"},
{"state":"Guangxi Zhuang","name":"Guilin Shi","lat":"25.28333000","lon":"110.28333000"},
{"state":"Guangxi Zhuang","name":"Guiping","lat":"23.39336000","lon":"110.07437000"},
{"state":"Guangxi Zhuang","name":"Hechi Shi","lat":"24.70000000","lon":"108.03000000"},
{"state":"Guangxi Zhuang","name":"Jinji","lat":"23.22806000","lon":"110.82611000"},
{"state":"Guangxi Zhuang","name":"Laibin","lat":"23.70000000","lon":"109.26667000"},
{"state":"Guangxi Zhuang","name":"Lianzhou","lat":"21.66621000","lon":"109.20116000"},
{"state":"Guangxi Zhuang","name":"Lingcheng","lat":"22.70722000","lon":"110.34917000"},
{"state":"Guangxi Zhuang","name":"Liuzhou Shi","lat":"24.31667000","lon":"109.40000000"},
{"state":"Guangxi Zhuang","name":"Luorong","lat":"24.40583000","lon":"109.60861000"},
{"state":"Guangxi Zhuang","name":"Nandu","lat":"22.85250000","lon":"110.82333000"},
{"state":"Guangxi Zhuang","name":"Nanning","lat":"22.81667000","lon":"108.31667000"},
{"state":"Guangxi Zhuang","name":"Pingnan","lat":"23.54218000","lon":"110.38946000"},
{"state":"Guangxi Zhuang","name":"Pumiao","lat":"22.75867000","lon":"108.48111000"},
{"state":"Guangxi Zhuang","name":"Qinzhou","lat":"21.97296000","lon":"108.62612000"},
{"state":"Guangxi Zhuang","name":"Wuzhou","lat":"23.48333000","lon":"111.31667000"},
{"state":"Guangxi Zhuang","name":"Yangshuo","lat":"24.78081000","lon":"110.48967000"},
{"state":"Guangxi Zhuang","name":"Yashan","lat":"22.19750000","lon":"109.94194000"},
{"state":"Guangxi Zhuang","name":"Yulin","lat":"22.63333000","lon":"110.15000000"},
{"state":"Guizhou","name":"Anshun","lat":"26.25000000","lon":"105.93333000"},
{"state":"Guizhou","name":"Aoshi","lat":"26.40167000","lon":"109.07111000"},
{"state":"Guizhou","name":"Bahuang","lat":"27.71806000","lon":"109.01889000"},
{"state":"Guizhou","name":"Baishi","lat":"26.97361000","lon":"109.44333000"},
{"state":"Guizhou","name":"Bangdong","lat":"26.97556000","lon":"109.18583000"},
{"state":"Guizhou","name":"Benchu","lat":"26.77111000","lon":"109.29056000"},
{"state":"Guizhou","name":"Bijie","lat":"27.30193000","lon":"105.28627000"},
{"state":"Guizhou","name":"Chadian","lat":"27.58194000","lon":"109.13278000"},
{"state":"Guizhou","name":"Changsha","lat":"28.68778000","lon":"105.98972000"},
{"state":"Guizhou","name":"Chumi","lat":"28.23361000","lon":"106.83278000"},
{"state":"Guizhou","name":"Dabachang","lat":"27.74250000","lon":"108.34333000"},
{"state":"Guizhou","name":"Darong","lat":"25.78500000","lon":"108.86400000"},
{"state":"Guizhou","name":"Dundong","lat":"26.01190000","lon":"109.14100000"},
{"state":"Guizhou","name":"Duyun","lat":"26.26667000","lon":"107.51667000"},
{"state":"Guizhou","name":"Gaoniang","lat":"26.84250000","lon":"109.17889000"},
{"state":"Guizhou","name":"Gaowu","lat":"25.56250000","lon":"108.90800000"},
{"state":"Guizhou","name":"Gaozeng","lat":"25.80167000","lon":"108.93750000"},
{"state":"Guizhou","name":"Guandu","lat":"28.56833000","lon":"106.10255000"},
{"state":"Guizhou","name":"Guiyang","lat":"26.58333000","lon":"106.71667000"},
{"state":"Guizhou","name":"Huaqiu","lat":"28.11665000","lon":"106.60225000"},
{"state":"Guizhou","name":"Lantian","lat":"27.02500000","lon":"109.29472000"},
{"state":"Guizhou","name":"Liangcunchang","lat":"28.40667000","lon":"106.42444000"},
{"state":"Guizhou","name":"Liupanshui","lat":"26.59444000","lon":"104.83333000"},
{"state":"Guizhou","name":"Longlisuo","lat":"26.41417000","lon":"109.10222000"},
{"state":"Guizhou","name":"Loushanguan","lat":"28.13680000","lon":"106.82200000"},
{"state":"Guizhou","name":"Maoping","lat":"26.73694000","lon":"109.22111000"},
{"state":"Guizhou","name":"Ouyang","lat":"26.41910000","lon":"109.21600000"},
{"state":"Guizhou","name":"Pingjiang","lat":"25.97056000","lon":"108.39528000"},
{"state":"Guizhou","name":"Qiandongnan Miao and Dong Autonomous Prefecture","lat":"26.57380000","lon":"108.59914000"},
{"state":"Guizhou","name":"Qianxinan Bouyeizu Miaozu Zizhizhou","lat":"25.38808000","lon":"105.38740000"},
{"state":"Guizhou","name":"Qimeng","lat":"26.48472000","lon":"108.99944000"},
{"state":"Guizhou","name":"Qinglang","lat":"27.12472000","lon":"108.73278000"},
{"state":"Guizhou","name":"Runsong","lat":"26.87000000","lon":"109.09700000"},
{"state":"Guizhou","name":"Sanchahe","lat":"28.49528000","lon":"106.42833000"},
{"state":"Guizhou","name":"Sangmu","lat":"28.21528000","lon":"106.26889000"},
{"state":"Guizhou","name":"Shiqian","lat":"27.52250000","lon":"108.22806000"},
{"state":"Guizhou","name":"Songkan","lat":"28.54972000","lon":"106.85972000"},
{"state":"Guizhou","name":"Tingdong","lat":"25.82444000","lon":"108.61250000"},
{"state":"Guizhou","name":"Tonggu","lat":"26.57222000","lon":"109.30944000"},
{"state":"Guizhou","name":"Tongren","lat":"27.71722000","lon":"109.18528000"},
{"state":"Guizhou","name":"Tongren Diqu","lat":"27.74188000","lon":"109.19312000"},
{"state":"Guizhou","name":"Weining","lat":"26.85000000","lon":"104.23333000"},
{"state":"Guizhou","name":"Wenshui","lat":"28.45056000","lon":"106.52667000"},
{"state":"Guizhou","name":"Xiajiang","lat":"25.75556000","lon":"108.69194000"},
{"state":"Guizhou","name":"Xiaoweizhai","lat":"26.19028000","lon":"107.51250000"},
{"state":"Guizhou","name":"Xinzhan","lat":"28.38833000","lon":"106.85667000"},
{"state":"Guizhou","name":"Xishan","lat":"25.68528000","lon":"108.96389000"},
{"state":"Guizhou","name":"Xujiaba","lat":"27.88472000","lon":"108.11361000"},
{"state":"Guizhou","name":"Yangtou","lat":"27.68944000","lon":"109.41389000"},
{"state":"Guizhou","name":"Youyupu","lat":"27.55170000","lon":"109.13500000"},
{"state":"Guizhou","name":"Zhongchao","lat":"26.13750000","lon":"109.22000000"},
{"state":"Guizhou","name":"Zhujiachang","lat":"27.35750000","lon":"108.93833000"},
{"state":"Guizhou","name":"Zunyi","lat":"27.68667000","lon":"106.90722000"},
{"state":"Hainan","name":"Basuo","lat":"19.09390000","lon":"108.65456000"},
{"state":"Hainan","name":"Chongshan","lat":"18.78229000","lon":"109.50130000"},
{"state":"Hainan","name":"Dadonghai","lat":"18.22056000","lon":"109.51028000"},
{"state":"Hainan","name":"Haikou","lat":"20.04583000","lon":"110.34167000"},
{"state":"Hainan","name":"Jinjiang","lat":"19.72878000","lon":"110.00851000"},
{"state":"Hainan","name":"Lincheng","lat":"19.90778000","lon":"109.68583000"},
{"state":"Hainan","name":"Nada","lat":"19.52257000","lon":"109.57860000"},
{"state":"Hainan","name":"Qionghai","lat":"19.24250000","lon":"110.46417000"},
{"state":"Hainan","name":"Qiongshan","lat":"20.00583000","lon":"110.35417000"},
{"state":"Hainan","name":"Sansha","lat":"16.83387000","lon":"112.33435000"},
{"state":"Hainan","name":"Sanya","lat":"18.24306000","lon":"109.50500000"},
{"state":"Hainan","name":"Wanning","lat":"18.79931000","lon":"110.38410000"},
{"state":"Hainan","name":"Wenchang","lat":"19.61570000","lon":"110.74894000"},
{"state":"Hainan","name":"Xiuying","lat":"20.00073000","lon":"110.29359000"},
{"state":"Hebei","name":"Baoding","lat":"38.85111000","lon":"115.49028000"},
{"state":"Hebei","name":"Beidaihehaibin","lat":"39.82222000","lon":"119.51806000"},
{"state":"Hebei","name":"Botou","lat":"38.06667000","lon":"116.56660000"},
{"state":"Hebei","name":"Cangzhou","lat":"38.31667000","lon":"116.86667000"},
{"state":"Hebei","name":"Cangzhou Shi","lat":"38.31000000","lon":"116.86000000"},
{"state":"Hebei","name":"Changli","lat":"39.70417000","lon":"119.15056000"},
{"state":"Hebei","name":"Chengde","lat":"40.95190000","lon":"117.95883000"},
{"state":"Hebei","name":"Chengde Prefecture","lat":"40.97000000","lon":"117.93000000"},
{"state":"Hebei","name":"Dingzhou","lat":"38.51306000","lon":"114.99556000"},
{"state":"Hebei","name":"Fengrun","lat":"39.83333000","lon":"118.11667000"},
{"state":"Hebei","name":"Guye","lat":"39.73054000","lon":"118.44085000"},
{"state":"Hebei","name":"Handan","lat":"36.60056000","lon":"114.46778000"},
{"state":"Hebei","name":"Hecun","lat":"36.53333000","lon":"114.11111000"},
{"state":"Hebei","name":"Hengshui","lat":"37.73222000","lon":"115.70111000"},
{"state":"Hebei","name":"Langfang","lat":"39.50972000","lon":"116.69472000"},
{"state":"Hebei","name":"Langfang Shi","lat":"39.51667000","lon":"116.68333000"},
{"state":"Hebei","name":"Linshui","lat":"36.42472000","lon":"114.20472000"},
{"state":"Hebei","name":"Linxi","lat":"39.71183000","lon":"118.44954000"},
{"state":"Hebei","name":"Luancheng","lat":"37.87917000","lon":"114.65167000"},
{"state":"Hebei","name":"Nangong","lat":"37.35806000","lon":"115.37444000"},
{"state":"Hebei","name":"Pengcheng","lat":"36.43111000","lon":"114.17000000"},
{"state":"Hebei","name":"Qinhuangdao","lat":"39.93167000","lon":"119.58833000"},
{"state":"Hebei","name":"Renqiu","lat":"38.69889000","lon":"116.09361000"},
{"state":"Hebei","name":"Shahecheng","lat":"36.93833000","lon":"114.50583000"},
{"state":"Hebei","name":"Shanhaiguan","lat":"40.00250000","lon":"119.74889000"},
{"state":"Hebei","name":"Shijiazhuang","lat":"38.04139000","lon":"114.47861000"},
{"state":"Hebei","name":"Shijiazhuang Shi","lat":"38.04000000","lon":"114.47000000"},
{"state":"Hebei","name":"Songling","lat":"40.29303000","lon":"118.26908000"},
{"state":"Hebei","name":"Tangjiazhuang","lat":"39.74326000","lon":"118.45099000"},
{"state":"Hebei","name":"Tangshan","lat":"39.63333000","lon":"118.18333000"},
{"state":"Hebei","name":"Tangshan Shi","lat":"39.63000000","lon":"118.18000000"},
{"state":"Hebei","name":"Tianchang","lat":"37.99806000","lon":"114.01556000"},
{"state":"Hebei","name":"Xingtai","lat":"37.06306000","lon":"114.49417000"},
{"state":"Hebei","name":"Xinji","lat":"37.90278000","lon":"115.20361000"},
{"state":"Hebei","name":"Zhangjiakou","lat":"40.81000000","lon":"114.87944000"},
{"state":"Hebei","name":"Zhangjiakou Shi","lat":"40.83333000","lon":"114.93333000"},
{"state":"Hebei","name":"Zhangjiakou Shi Xuanhua Qu","lat":"40.61028000","lon":"115.04472000"},
{"state":"Hebei","name":"Zhaogezhuang","lat":"39.76538000","lon":"118.41191000"},
{"state":"Hebei","name":"Zunhua","lat":"40.17917000","lon":"117.95861000"},
{"state":"Heilongjiang","name":"Acheng","lat":"45.54545000","lon":"126.97703000"},
{"state":"Heilongjiang","name":"Anda","lat":"46.40202000","lon":"125.31454000"},
{"state":"Heilongjiang","name":"Baiquan","lat":"47.60605000","lon":"126.08481000"},
{"state":"Heilongjiang","name":"Bamiantong","lat":"44.91738000","lon":"130.52000000"},
{"state":"Heilongjiang","name":"Baoqing","lat":"46.33167000","lon":"132.21111000"},
{"state":"Heilongjiang","name":"Baoshan","lat":"46.55861000","lon":"131.42444000"},
{"state":"Heilongjiang","name":"Bayan","lat":"46.07556000","lon":"127.39840000"},
{"state":"Heilongjiang","name":"Bei’an","lat":"48.26667000","lon":"126.60000000"},
{"state":"Heilongjiang","name":"Binzhou","lat":"45.75281000","lon":"127.47986000"},
{"state":"Heilongjiang","name":"Boli","lat":"45.75279000","lon":"130.57211000"},
{"state":"Heilongjiang","name":"Chaihe","lat":"44.75980000","lon":"129.67826000"},
{"state":"Heilongjiang","name":"Chengzihe","lat":"45.33333000","lon":"131.06667000"},
{"state":"Heilongjiang","name":"Daqing","lat":"46.58333000","lon":"125.00000000"},
{"state":"Heilongjiang","name":"Dongning","lat":"44.06219000","lon":"131.12075000"},
{"state":"Heilongjiang","name":"Dongxing","lat":"45.36088000","lon":"130.78679000"},
{"state":"Heilongjiang","name":"Fendou","lat":"46.64142000","lon":"124.86283000"},
{"state":"Heilongjiang","name":"Fengxiang","lat":"47.57549000","lon":"130.82306000"},
{"state":"Heilongjiang","name":"Fujin","lat":"47.26000000","lon":"132.03222000"},
{"state":"Heilongjiang","name":"Fuli","lat":"46.72167000","lon":"131.13944000"},
{"state":"Heilongjiang","name":"Fuyu","lat":"47.79756000","lon":"124.45731000"},
{"state":"Heilongjiang","name":"Fuyuan","lat":"48.36306000","lon":"134.28917000"},
{"state":"Heilongjiang","name":"Gannan","lat":"47.91472000","lon":"123.50306000"},
{"state":"Heilongjiang","name":"Hailin","lat":"44.57149000","lon":"129.38539000"},
{"state":"Heilongjiang","name":"Hailun","lat":"47.45650000","lon":"126.95368000"},
{"state":"Heilongjiang","name":"Harbin","lat":"45.75000000","lon":"126.65000000"},
{"state":"Heilongjiang","name":"Hegang","lat":"47.35118000","lon":"130.30012000"},
{"state":"Heilongjiang","name":"Heihe","lat":"50.24413000","lon":"127.49016000"},
{"state":"Heilongjiang","name":"Honggang","lat":"46.40124000","lon":"124.88322000"},
{"state":"Heilongjiang","name":"Huanan","lat":"46.22070000","lon":"130.52500000"},
{"state":"Heilongjiang","name":"Hulan","lat":"45.98333000","lon":"126.60000000"},
{"state":"Heilongjiang","name":"Hulan Ergi","lat":"47.20417000","lon":"123.63333000"},
{"state":"Heilongjiang","name":"Jiamusi","lat":"46.79927000","lon":"130.31633000"},
{"state":"Heilongjiang","name":"Jidong","lat":"45.21667000","lon":"131.08333000"},
{"state":"Heilongjiang","name":"Jixi","lat":"45.30109000","lon":"130.95718000"},
{"state":"Heilongjiang","name":"Langxiang","lat":"46.94985000","lon":"128.86849000"},
{"state":"Heilongjiang","name":"Lanxi","lat":"46.25785000","lon":"126.28269000"},
{"state":"Heilongjiang","name":"Lianhe","lat":"47.13333000","lon":"129.27426000"},
{"state":"Heilongjiang","name":"Lingdong","lat":"46.56694000","lon":"131.14528000"},
{"state":"Heilongjiang","name":"Linkou","lat":"45.28606000","lon":"130.26151000"},
{"state":"Heilongjiang","name":"Longfeng","lat":"46.53168000","lon":"125.10380000"},
{"state":"Heilongjiang","name":"Longjiang","lat":"47.33072000","lon":"123.17816000"},
{"state":"Heilongjiang","name":"Mingshui","lat":"47.18150000","lon":"125.90027000"},
{"state":"Heilongjiang","name":"Mishan","lat":"45.55000000","lon":"131.88333000"},
{"state":"Heilongjiang","name":"Mudanjiang","lat":"44.58333000","lon":"129.60000000"},
{"state":"Heilongjiang","name":"Nehe","lat":"48.48333000","lon":"124.83333000"},
{"state":"Heilongjiang","name":"Nenjiang","lat":"49.17414000","lon":"125.21774000"},
{"state":"Heilongjiang","name":"Nianzishan","lat":"47.51667000","lon":"122.88333000"},
{"state":"Heilongjiang","name":"Ning’an","lat":"44.34395000","lon":"129.46556000"},
{"state":"Heilongjiang","name":"Qinggang","lat":"46.68469000","lon":"126.10595000"},
{"state":"Heilongjiang","name":"Qiqihar","lat":"47.34088000","lon":"123.96045000"},
{"state":"Heilongjiang","name":"Shangzhi","lat":"45.21406000","lon":"127.97426000"},
{"state":"Heilongjiang","name":"Shanhecun","lat":"45.71131000","lon":"128.58029000"},
{"state":"Heilongjiang","name":"Shuangcheng","lat":"45.35000000","lon":"126.28333000"},
{"state":"Heilongjiang","name":"Shuangyashan","lat":"46.63611000","lon":"131.15389000"},
{"state":"Heilongjiang","name":"Suifenhe","lat":"44.39982000","lon":"131.14775000"},
{"state":"Heilongjiang","name":"Suihua","lat":"46.63954000","lon":"126.99508000"},
{"state":"Heilongjiang","name":"Suileng","lat":"47.24805000","lon":"127.09535000"},
{"state":"Heilongjiang","name":"Tahe","lat":"52.33333000","lon":"124.73333000"},
{"state":"Heilongjiang","name":"Taihecun","lat":"45.76347000","lon":"130.85048000"},
{"state":"Heilongjiang","name":"Taikang","lat":"46.86135000","lon":"124.44200000"},
{"state":"Heilongjiang","name":"Tailai","lat":"46.38909000","lon":"123.41371000"},
{"state":"Heilongjiang","name":"Tieli","lat":"46.98043000","lon":"128.04497000"},
{"state":"Heilongjiang","name":"Wangkui","lat":"46.83283000","lon":"126.47768000"},
{"state":"Heilongjiang","name":"Wuchang","lat":"44.91428000","lon":"127.15001000"},
{"state":"Heilongjiang","name":"Xinqing","lat":"48.28701000","lon":"129.52337000"},
{"state":"Heilongjiang","name":"Yichun","lat":"47.72143000","lon":"128.87529000"},
{"state":"Heilongjiang","name":"Yilan","lat":"46.31618000","lon":"129.55455000"},
{"state":"Heilongjiang","name":"Youhao","lat":"47.85306000","lon":"128.83565000"},
{"state":"Heilongjiang","name":"Zhaodong","lat":"46.06771000","lon":"125.98263000"},
{"state":"Heilongjiang","name":"Zhaoyuan","lat":"45.50000000","lon":"125.13333000"},
{"state":"Heilongjiang","name":"Zhaozhou","lat":"45.68333000","lon":"125.31667000"},
{"state":"Henan","name":"Anyang","lat":"36.09600000","lon":"114.38278000"},
{"state":"Henan","name":"Anyang Shi","lat":"36.13639000","lon":"114.33667000"},
{"state":"Henan","name":"Binhe","lat":"32.68833000","lon":"112.82750000"},
{"state":"Henan","name":"Chengguan","lat":"35.45861000","lon":"113.79778000"},
{"state":"Henan","name":"Chengjiao","lat":"35.40495000","lon":"114.06043000"},
{"state":"Henan","name":"Daokou","lat":"35.56389000","lon":"114.50583000"},
{"state":"Henan","name":"Dingcheng","lat":"32.12722000","lon":"115.03944000"},
{"state":"Henan","name":"Hancheng","lat":"32.51861000","lon":"112.35222000"},
{"state":"Henan","name":"Hebi","lat":"35.89917000","lon":"114.19250000"},
{"state":"Henan","name":"Huaidian","lat":"33.43333000","lon":"115.03333000"},
{"state":"Henan","name":"Huazhou","lat":"32.68222000","lon":"112.08194000"},
{"state":"Henan","name":"Huichang","lat":"34.90376000","lon":"112.78426000"},
{"state":"Henan","name":"Jianshe","lat":"34.21750000","lon":"113.76889000"},
{"state":"Henan","name":"Jiaozuo","lat":"35.23972000","lon":"113.23306000"},
{"state":"Henan","name":"Jishui","lat":"33.73333000","lon":"115.40000000"},
{"state":"Henan","name":"Jiyuan","lat":"35.09000000","lon":"112.58000000"},
{"state":"Henan","name":"Kaifeng","lat":"34.79860000","lon":"114.30742000"},
{"state":"Henan","name":"Kaiyuan","lat":"36.06813000","lon":"113.82209000"},
{"state":"Henan","name":"Lingbao Chengguanzhen","lat":"34.51972000","lon":"110.86444000"},
{"state":"Henan","name":"Luohe","lat":"33.56394000","lon":"114.04272000"},
{"state":"Henan","name":"Luohe Shi","lat":"33.68806000","lon":"113.91306000"},
{"state":"Henan","name":"Luoyang","lat":"34.68361000","lon":"112.45361000"},
{"state":"Henan","name":"Minggang","lat":"32.45861000","lon":"114.04861000"},
{"state":"Henan","name":"Nanyang","lat":"32.99472000","lon":"112.53278000"},
{"state":"Henan","name":"Pingdingshan","lat":"33.73847000","lon":"113.30119000"},
{"state":"Henan","name":"Puyang Chengguanzhen","lat":"35.70506000","lon":"115.01409000"},
{"state":"Henan","name":"Puyang Shi","lat":"35.81333000","lon":"115.15500000"},
{"state":"Henan","name":"Qingping","lat":"34.53656000","lon":"113.37526000"},
{"state":"Henan","name":"Runing","lat":"33.00111000","lon":"114.35417000"},
{"state":"Henan","name":"Ruzhou","lat":"34.16167000","lon":"112.82972000"},
{"state":"Henan","name":"Shangqiu","lat":"34.45000000","lon":"115.65000000"},
{"state":"Henan","name":"Songyang","lat":"34.45528000","lon":"113.02806000"},
{"state":"Henan","name":"Suohe","lat":"34.78722000","lon":"113.35806000"},
{"state":"Henan","name":"Tanbei","lat":"35.08806000","lon":"112.93944000"},
{"state":"Henan","name":"Wacheng","lat":"33.78333000","lon":"114.51667000"},
{"state":"Henan","name":"Xiangcheng Chengguanzhen","lat":"33.84703000","lon":"113.47780000"},
{"state":"Henan","name":"Xincheng","lat":"33.63333000","lon":"115.18333000"},
{"state":"Henan","name":"Xinhualu","lat":"34.39633000","lon":"113.72466000"},
{"state":"Henan","name":"Xinxiang","lat":"35.19033000","lon":"113.80151000"},
{"state":"Henan","name":"Xinxiang Shi","lat":"35.30861000","lon":"114.05111000"},
{"state":"Henan","name":"Xinyang","lat":"32.12278000","lon":"114.06556000"},
{"state":"Henan","name":"Xixiang","lat":"35.16278000","lon":"112.86500000"},
{"state":"Henan","name":"Xuchang","lat":"34.03189000","lon":"113.86299000"},
{"state":"Henan","name":"Xuchang Shi","lat":"34.14778000","lon":"113.71472000"},
{"state":"Henan","name":"Yakou","lat":"33.29649000","lon":"113.52351000"},
{"state":"Henan","name":"Yanshi Chengguanzhen","lat":"34.71601000","lon":"112.79568000"},
{"state":"Henan","name":"Yigou","lat":"35.81139000","lon":"114.31667000"},
{"state":"Henan","name":"Yima","lat":"34.73806000","lon":"111.88389000"},
{"state":"Henan","name":"Yingchuan","lat":"34.16278000","lon":"113.46389000"},
{"state":"Henan","name":"Yunyang","lat":"33.44743000","lon":"112.71422000"},
{"state":"Henan","name":"Zhengzhou","lat":"34.75778000","lon":"113.64861000"},
{"state":"Henan","name":"Zhoukou","lat":"33.63333000","lon":"114.63333000"},
{"state":"Henan","name":"Zhumadian","lat":"32.97944000","lon":"114.02944000"},
{"state":"Henan","name":"Zhumadian Shi","lat":"32.99417000","lon":"114.06167000"},
{"state":"Henan","name":"Zijinglu","lat":"34.76000000","lon":"112.97139000"},
{"state":"Hubei","name":"Anlu","lat":"31.25750000","lon":"113.67833000"},
{"state":"Hubei","name":"Buhe","lat":"30.28757000","lon":"112.22979000"},
{"state":"Hubei","name":"Caidian","lat":"30.58333000","lon":"114.03333000"},
{"state":"Hubei","name":"Caohe","lat":"30.22970000","lon":"115.43346000"},
{"state":"Hubei","name":"Chengzhong","lat":"30.94454000","lon":"113.55284000"},
{"state":"Hubei","name":"Danjiangkou","lat":"32.54278000","lon":"111.50861000"},
{"state":"Hubei","name":"Daye","lat":"30.08333000","lon":"114.95000000"},
{"state":"Hubei","name":"Duobao","lat":"30.67000000","lon":"112.68952000"},
{"state":"Hubei","name":"Enshi","lat":"30.30000000","lon":"109.48333000"},
{"state":"Hubei","name":"Enshi Tujiazu Miaozu Zizhizhou","lat":"30.19810000","lon":"109.67555000"},
{"state":"Hubei","name":"Ezhou","lat":"30.40000000","lon":"114.83333000"},
{"state":"Hubei","name":"Ezhou Shi","lat":"30.48832000","lon":"114.77979000"},
{"state":"Hubei","name":"Fengkou","lat":"30.08268000","lon":"113.33346000"},
{"state":"Hubei","name":"Guangshui","lat":"31.61990000","lon":"113.99780000"},
{"state":"Hubei","name":"Gucheng Chengguanzhen","lat":"32.26604000","lon":"111.63476000"},
{"state":"Hubei","name":"Hanchuan","lat":"30.65000000","lon":"113.76667000"},
{"state":"Hubei","name":"Huanggang","lat":"30.45143000","lon":"114.87035000"},
{"state":"Hubei","name":"Huangmei","lat":"30.19235000","lon":"116.02496000"},
{"state":"Hubei","name":"Huangpi","lat":"30.88453000","lon":"114.37789000"},
{"state":"Hubei","name":"Huangshi","lat":"30.24706000","lon":"115.04814000"},
{"state":"Hubei","name":"Huangzhou","lat":"30.45000000","lon":"114.80000000"},
{"state":"Hubei","name":"Jingling","lat":"30.65000000","lon":"113.10000000"},
{"state":"Hubei","name":"Jingmen","lat":"31.03361000","lon":"112.20472000"},
{"state":"Hubei","name":"Jingmen Shi","lat":"31.11244000","lon":"112.64310000"},
{"state":"Hubei","name":"Jingzhou","lat":"30.35028000","lon":"112.19028000"},
{"state":"Hubei","name":"Laohekou","lat":"32.38583000","lon":"111.66778000"},
{"state":"Hubei","name":"Lichuan","lat":"30.30000000","lon":"108.85000000"},
{"state":"Hubei","name":"Macheng","lat":"31.18013000","lon":"115.02213000"},
{"state":"Hubei","name":"Nanzhang Chengguanzhen","lat":"31.78394000","lon":"111.82752000"},
{"state":"Hubei","name":"Puqi","lat":"29.71667000","lon":"113.88333000"},
{"state":"Hubei","name":"Qianjiang","lat":"30.42100000","lon":"112.89190000"},
{"state":"Hubei","name":"Qingquan","lat":"30.45113000","lon":"115.25593000"},
{"state":"Hubei","name":"Shashi","lat":"30.30722000","lon":"112.24472000"},
{"state":"Hubei","name":"Shennongjia","lat":"31.58339000","lon":"110.49720000"},
{"state":"Hubei","name":"Shiyan","lat":"32.64750000","lon":"110.77806000"},
{"state":"Hubei","name":"Suizhou","lat":"31.71111000","lon":"113.36306000"},
{"state":"Hubei","name":"Wuhan","lat":"30.58333000","lon":"114.26667000"},
{"state":"Hubei","name":"Wuxue","lat":"29.85058000","lon":"115.55250000"},
{"state":"Hubei","name":"Xiangyang","lat":"32.04220000","lon":"112.14479000"},
{"state":"Hubei","name":"Xianning","lat":"29.84347000","lon":"114.32201000"},
{"state":"Hubei","name":"Xianning Prefecture","lat":"29.66609000","lon":"114.26389000"},
{"state":"Hubei","name":"Xiantao","lat":"30.37080000","lon":"113.44294000"},
{"state":"Hubei","name":"Xiaogan","lat":"30.92689000","lon":"113.92221000"},
{"state":"Hubei","name":"Xihe","lat":"31.68635000","lon":"113.46585000"},
{"state":"Hubei","name":"Xindi","lat":"29.81667000","lon":"113.46667000"},
{"state":"Hubei","name":"Xinshi","lat":"31.04704000","lon":"113.14098000"},
{"state":"Hubei","name":"Xinzhou","lat":"30.86667000","lon":"114.80000000"},
{"state":"Hubei","name":"Xiulin","lat":"29.71667000","lon":"112.40000000"},
{"state":"Hubei","name":"Yichang","lat":"30.71444000","lon":"111.28472000"},
{"state":"Hubei","name":"Yicheng","lat":"31.70472000","lon":"112.25611000"},
{"state":"Hubei","name":"Yunmeng Chengguanzhen","lat":"31.06251000","lon":"113.76545000"},
{"state":"Hubei","name":"Zaoyang","lat":"32.12722000","lon":"112.75417000"},
{"state":"Hubei","name":"Zhicheng","lat":"30.29556000","lon":"111.50472000"},
{"state":"Hubei","name":"Zhijiang","lat":"30.42139000","lon":"111.75333000"},
{"state":"Hubei","name":"Zhongxiang","lat":"31.16611000","lon":"112.58306000"},
{"state":"Hunan","name":"Anjiang","lat":"27.31944000","lon":"110.10306000"},
{"state":"Hunan","name":"Anping","lat":"27.86639000","lon":"110.11611000"},
{"state":"Hunan","name":"Anxiang","lat":"29.40000000","lon":"112.15000000"},
{"state":"Hunan","name":"Baisha","lat":"26.52222000","lon":"110.93111000"},
{"state":"Hunan","name":"Biyong","lat":"27.18722000","lon":"109.51000000"},
{"state":"Hunan","name":"Bojia","lat":"26.46722000","lon":"111.96806000"},
{"state":"Hunan","name":"Boyang","lat":"26.21167000","lon":"109.52056000"},
{"state":"Hunan","name":"Bozhou","lat":"27.37889000","lon":"109.27778000"},
{"state":"Hunan","name":"Changde","lat":"29.04638000","lon":"111.67830000"},
{"state":"Hunan","name":"Changsha","lat":"28.19874000","lon":"112.97087000"},
{"state":"Hunan","name":"Changsha Shi","lat":"28.14582000","lon":"113.22967000"},
{"state":"Hunan","name":"Chatian","lat":"27.80222000","lon":"109.37361000"},
{"state":"Hunan","name":"Chenzhou","lat":"25.80000000","lon":"113.03333000"},
{"state":"Hunan","name":"Dabaozi","lat":"26.69556000","lon":"109.44778000"},
{"state":"Hunan","name":"Dehang","lat":"28.30710000","lon":"109.79668000"},
{"state":"Hunan","name":"Dengjiapu","lat":"26.90444000","lon":"110.92000000"},
{"state":"Hunan","name":"Dengyuantai","lat":"26.68806000","lon":"110.54222000"},
{"state":"Hunan","name":"Dongshan Dongzuxiang","lat":"26.59500000","lon":"109.89667000"},
{"state":"Hunan","name":"Fenghuang","lat":"27.93557000","lon":"109.59961000"},
{"state":"Hunan","name":"Gangdong","lat":"27.91694000","lon":"110.83417000"},
{"state":"Hunan","name":"Gaoqiao","lat":"26.63361000","lon":"110.90000000"},
{"state":"Hunan","name":"Gaoyi","lat":"26.95944000","lon":"110.01556000"},
{"state":"Hunan","name":"Guankou","lat":"28.15861000","lon":"113.62709000"},
{"state":"Hunan","name":"Hengbanqiao","lat":"27.17167000","lon":"110.86528000"},
{"state":"Hunan","name":"Hengyang","lat":"26.88946000","lon":"112.61888000"},
{"state":"Hunan","name":"Hexiangqiao","lat":"27.22028000","lon":"110.96333000"},
{"state":"Hunan","name":"Hongjiang","lat":"27.11000000","lon":"109.99556000"},
{"state":"Hunan","name":"Hongqiao","lat":"26.76837000","lon":"112.10814000"},
{"state":"Hunan","name":"Huaihua","lat":"27.56337000","lon":"110.00404000"},
{"state":"Hunan","name":"Huangjinjing","lat":"27.58563000","lon":"110.89133000"},
{"state":"Hunan","name":"Huanglong","lat":"26.54139000","lon":"110.93444000"},
{"state":"Hunan","name":"Huangmaoyuan","lat":"27.40417000","lon":"110.47472000"},
{"state":"Hunan","name":"Huangqiao","lat":"27.02194000","lon":"110.84056000"},
{"state":"Hunan","name":"Huangtukuang","lat":"26.91528000","lon":"110.40778000"},
{"state":"Hunan","name":"Huangxikou","lat":"27.71889000","lon":"110.38500000"},
{"state":"Hunan","name":"Huaqiao","lat":"27.70806000","lon":"110.14194000"},
{"state":"Hunan","name":"Huayuan","lat":"26.91361000","lon":"110.53583000"},
{"state":"Hunan","name":"Huomachong","lat":"27.88333000","lon":"110.23000000"},
{"state":"Hunan","name":"Jiangfang","lat":"26.50158000","lon":"110.34640000"},
{"state":"Hunan","name":"Jiangkouxu","lat":"27.69417000","lon":"109.73583000"},
{"state":"Hunan","name":"Jiangshi","lat":"27.12333000","lon":"109.73778000"},
{"state":"Hunan","name":"Jinhe","lat":"27.71694000","lon":"109.60472000"},
{"state":"Hunan","name":"Jinshi","lat":"29.60487000","lon":"111.87012000"},
{"state":"Hunan","name":"Jinshiqiao","lat":"27.58425000","lon":"110.93634000"},
{"state":"Hunan","name":"Lanli","lat":"27.88694000","lon":"109.91861000"},
{"state":"Hunan","name":"Leiyang","lat":"26.40238000","lon":"112.85908000"},
{"state":"Hunan","name":"Lengshuijiang","lat":"27.68806000","lon":"111.42944000"},
{"state":"Hunan","name":"Lengshuitan","lat":"26.41110000","lon":"111.59559000"},
{"state":"Hunan","name":"Liangyaping","lat":"27.71833000","lon":"110.67083000"},
{"state":"Hunan","name":"Lianyuan","lat":"27.68833000","lon":"111.66417000"},
{"state":"Hunan","name":"Linkou","lat":"26.24806000","lon":"109.86361000"},
{"state":"Hunan","name":"Liuduzhai","lat":"27.36611000","lon":"110.93500000"},
{"state":"Hunan","name":"Lixiqiao","lat":"26.79472000","lon":"110.41806000"},
{"state":"Hunan","name":"Longtan","lat":"27.41139000","lon":"110.53639000"},
{"state":"Hunan","name":"Longtou’an","lat":"27.67028000","lon":"110.33611000"},
{"state":"Hunan","name":"Loudi","lat":"27.73444000","lon":"111.99444000"},
{"state":"Hunan","name":"Luojiu","lat":"27.51583000","lon":"109.80889000"},
{"state":"Hunan","name":"Luyang","lat":"27.62389000","lon":"110.09889000"},
{"state":"Hunan","name":"Ma’an","lat":"26.97750000","lon":"110.72111000"},
{"state":"Hunan","name":"Malin","lat":"26.45500000","lon":"110.64167000"},
{"state":"Hunan","name":"Maoping","lat":"26.51972000","lon":"110.41194000"},
{"state":"Hunan","name":"Nanmuping","lat":"27.31111000","lon":"109.67861000"},
{"state":"Hunan","name":"Nanzhou","lat":"29.35955000","lon":"112.40243000"},
{"state":"Hunan","name":"Prefecture of Chenzhou","lat":"25.84347000","lon":"113.05378000"},
{"state":"Hunan","name":"Pukou","lat":"26.52222000","lon":"109.55583000"},
{"state":"Hunan","name":"Puzi","lat":"26.98639000","lon":"109.77639000"},
{"state":"Hunan","name":"Qiancheng","lat":"27.18501000","lon":"109.76543000"},
{"state":"Hunan","name":"Qianzhou","lat":"28.31925000","lon":"109.73346000"},
{"state":"Hunan","name":"Qiaojiang","lat":"27.93722000","lon":"110.67639000"},
{"state":"Hunan","name":"Qingjiangqiao","lat":"26.60444000","lon":"110.98528000"},
{"state":"Hunan","name":"Qingxi","lat":"26.43114000","lon":"110.35489000"},
{"state":"Hunan","name":"Qionghu","lat":"28.84061000","lon":"112.37399000"},
{"state":"Hunan","name":"Ruoshui","lat":"27.00194000","lon":"109.96667000"},
{"state":"Hunan","name":"Shangmei","lat":"27.74278000","lon":"111.29556000"},
{"state":"Hunan","name":"Shanmen","lat":"27.22500000","lon":"110.69278000"},
{"state":"Hunan","name":"Shijiang","lat":"27.08194000","lon":"110.79333000"},
{"state":"Hunan","name":"Shuangjiang","lat":"26.15467000","lon":"109.71380000"},
{"state":"Hunan","name":"Shuangxi","lat":"27.22833000","lon":"109.85583000"},
{"state":"Hunan","name":"Shuiche","lat":"27.68694000","lon":"110.99972000"},
{"state":"Hunan","name":"Shuidatian","lat":"27.85222000","lon":"109.60472000"},
{"state":"Hunan","name":"Simenqian","lat":"27.48722000","lon":"110.88611000"},
{"state":"Hunan","name":"Tangjiafang","lat":"26.84000000","lon":"110.36472000"},
{"state":"Hunan","name":"Tanwan","lat":"27.96639000","lon":"110.15028000"},
{"state":"Hunan","name":"Tongwan","lat":"27.58111000","lon":"110.27722000"},
{"state":"Hunan","name":"Tuokou","lat":"27.12472000","lon":"109.62472000"},
{"state":"Hunan","name":"Wantouqiao","lat":"26.84111000","lon":"110.61944000"},
{"state":"Hunan","name":"Wenxing","lat":"28.68208000","lon":"112.87864000"},
{"state":"Hunan","name":"Wulingyuan","lat":"29.34936000","lon":"110.54407000"},
{"state":"Hunan","name":"Wuxi","lat":"26.58440000","lon":"111.85900000"},
{"state":"Hunan","name":"Wuyang","lat":"26.74278000","lon":"110.32833000"},
{"state":"Hunan","name":"Xiangtan","lat":"27.85000000","lon":"112.90000000"},
{"state":"Hunan","name":"Xiangxi Tujiazu Miaozu Zizhizhou","lat":"28.70573000","lon":"109.73329000"},
{"state":"Hunan","name":"Xiangxiang","lat":"27.73333000","lon":"112.53333000"},
{"state":"Hunan","name":"Xianrenwan","lat":"27.75444000","lon":"110.32972000"},
{"state":"Hunan","name":"Xianxi","lat":"26.33472000","lon":"109.64306000"},
{"state":"Hunan","name":"Xiaohenglong","lat":"27.60500000","lon":"110.51694000"},
{"state":"Hunan","name":"Xiaolongmen","lat":"27.80194000","lon":"110.16056000"},
{"state":"Hunan","name":"Xiaoshajiang","lat":"27.52139000","lon":"110.74806000"},
{"state":"Hunan","name":"Xishan","lat":"27.66667000","lon":"113.50000000"},
{"state":"Hunan","name":"Xixi","lat":"27.69375000","lon":"110.95333000"},
{"state":"Hunan","name":"Xiyan","lat":"26.61639000","lon":"110.47361000"},
{"state":"Hunan","name":"Yanmen","lat":"27.85500000","lon":"109.74028000"},
{"state":"Hunan","name":"Yaoshi","lat":"26.29306000","lon":"110.78917000"},
{"state":"Hunan","name":"Yatunpu","lat":"26.15500000","lon":"109.62667000"},
{"state":"Hunan","name":"Yiyang","lat":"28.58917000","lon":"112.32833000"},
{"state":"Hunan","name":"Yongfeng","lat":"27.42829000","lon":"112.18338000"},
{"state":"Hunan","name":"Yongzhou","lat":"26.44014000","lon":"111.60290000"},
{"state":"Hunan","name":"Yueyang","lat":"29.37455000","lon":"113.09481000"},
{"state":"Hunan","name":"Yueyang Shi","lat":"29.32472000","lon":"113.30200000"},
{"state":"Hunan","name":"Yutan","lat":"28.25831000","lon":"112.56048000"},
{"state":"Hunan","name":"Zhaishi Miaozu Dongzuxiang","lat":"26.50083000","lon":"110.04444000"},
{"state":"Hunan","name":"Zhangjiajie","lat":"29.12944000","lon":"110.47833000"},
{"state":"Hunan","name":"Zhongfang","lat":"27.41139000","lon":"109.93194000"},
{"state":"Hunan","name":"Zhongzhai","lat":"27.19528000","lon":"109.26861000"},
{"state":"Hunan","name":"Zhushi","lat":"27.08778000","lon":"110.67694000"},
{"state":"Hunan","name":"Zhuzhou","lat":"27.83333000","lon":"113.15000000"},
{"state":"Hunan","name":"Zhuzhou Shi","lat":"27.82450000","lon":"113.08228000"},
{"state":"Hunan","name":"Zhuzhoujiang Miaozuxiang","lat":"26.67528000","lon":"110.07194000"},
{"state":"Inner Mongolia","name":"Baotou","lat":"40.65222000","lon":"109.82222000"},
{"state":"Inner Mongolia","name":"Bayan Nur","lat":"40.74143000","lon":"107.38599000"},
{"state":"Inner Mongolia","name":"Bayannur Shi","lat":"41.56958000","lon":"107.49485000"},
{"state":"Inner Mongolia","name":"Beichengqu","lat":"40.43944000","lon":"113.15361000"},
{"state":"Inner Mongolia","name":"Chifeng","lat":"42.26833000","lon":"118.96361000"},
{"state":"Inner Mongolia","name":"Dongsheng","lat":"39.81609000","lon":"109.97763000"},
{"state":"Inner Mongolia","name":"E’erguna","lat":"50.22362000","lon":"120.17092000"},
{"state":"Inner Mongolia","name":"Erenhot","lat":"43.64750000","lon":"111.97667000"},
{"state":"Inner Mongolia","name":"Genhe","lat":"50.78333000","lon":"121.51667000"},
{"state":"Inner Mongolia","name":"Hailar","lat":"49.20000000","lon":"119.70000000"},
{"state":"Inner Mongolia","name":"Hohhot","lat":"40.81056000","lon":"111.65222000"},
{"state":"Inner Mongolia","name":"Hulunbuir Region","lat":"49.70989000","lon":"121.72176000"},
{"state":"Inner Mongolia","name":"Jalai Nur","lat":"49.45000000","lon":"117.70000000"},
{"state":"Inner Mongolia","name":"Jiagedaqi","lat":"50.41667000","lon":"124.11667000"},
{"state":"Inner Mongolia","name":"Jining","lat":"41.02750000","lon":"113.10583000"},
{"state":"Inner Mongolia","name":"Manzhouli","lat":"49.60000000","lon":"117.43333000"},
{"state":"Inner Mongolia","name":"Mositai","lat":"45.53538000","lon":"119.66698000"},
{"state":"Inner Mongolia","name":"Mujiayingzi","lat":"42.11667000","lon":"118.78333000"},
{"state":"Inner Mongolia","name":"Ordos","lat":"39.60860000","lon":"109.78157000"},
{"state":"Inner Mongolia","name":"Ordos Shi","lat":"39.46142000","lon":"108.80946000"},
{"state":"Inner Mongolia","name":"Oroqen Zizhiqi","lat":"50.56667000","lon":"123.71667000"},
{"state":"Inner Mongolia","name":"Pingzhuang","lat":"42.03722000","lon":"119.28889000"},
{"state":"Inner Mongolia","name":"Salaqi","lat":"40.54139000","lon":"110.51083000"},
{"state":"Inner Mongolia","name":"Shiguai","lat":"40.70583000","lon":"110.28556000"},
{"state":"Inner Mongolia","name":"Tongliao","lat":"43.61250000","lon":"122.26528000"},
{"state":"Inner Mongolia","name":"Ulanhot","lat":"46.08333000","lon":"122.08333000"},
{"state":"Inner Mongolia","name":"Wenquan","lat":"47.17560000","lon":"119.94809000"},
{"state":"Inner Mongolia","name":"Wuda","lat":"39.49944000","lon":"106.71167000"},
{"state":"Inner Mongolia","name":"Wuhai","lat":"39.68442000","lon":"106.81583000"},
{"state":"Inner Mongolia","name":"Xilin Gol Meng","lat":"44.85493000","lon":"115.72789000"},
{"state":"Inner Mongolia","name":"Xilin Hot","lat":"43.96667000","lon":"116.03333000"},
{"state":"Inner Mongolia","name":"Yakeshi","lat":"49.28333000","lon":"120.73333000"},
{"state":"Inner Mongolia","name":"Zhalantun","lat":"48.00945000","lon":"122.73651000"},
{"state":"Jiangsu","name":"ChangZhou","lat":"31.72322000","lon":"119.59794000"},
{"state":"Jiangsu","name":"HuaiAn","lat":"33.29433000","lon":"118.87350000"},
{"state":"Jiangsu","name":"LianYunGang","lat":"34.84065000","lon":"119.17730000"},
{"state":"Jiangsu","name":"NanJing","lat":"31.32751000","lon":"118.89210000"},
{"state":"Jiangsu","name":"NanTong","lat":"32.00986000","lon":"120.85737000"},
{"state":"Jiangsu","name":"SuQian","lat":"33.96271000","lon":"118.24239000"},
{"state":"Jiangsu","name":"SuZhou","lat":"31.30227000","lon":"120.63132000"},
{"state":"Jiangsu","name":"TaiZhou","lat":"32.31841000","lon":"119.88116000"},
{"state":"Jiangsu","name":"WuXi","lat":"31.52853000","lon":"120.28429000"},
{"state":"Jiangsu","name":"XuZhou","lat":"34.28823000","lon":"117.18554000"},
{"state":"Jiangsu","name":"YanCheng","lat":"33.20107000","lon":"120.50102000"},
{"state":"Jiangsu","name":"YangZhou","lat":"32.39463000","lon":"119.43157000"},
{"state":"Jiangsu","name":"ZhenJiang","lat":"32.13188000","lon":"119.43396000"},
{"state":"Jiangxi","name":"Changleng","lat":"28.70000000","lon":"115.81667000"},
{"state":"Jiangxi","name":"Fenyi","lat":"27.81117000","lon":"114.66805000"},
{"state":"Jiangxi","name":"Ganzhou","lat":"25.84664000","lon":"114.93260000"},
{"state":"Jiangxi","name":"Ganzhou Shi","lat":"25.70387000","lon":"115.34822000"},
{"state":"Jiangxi","name":"Guixi","lat":"28.28857000","lon":"117.21329000"},
{"state":"Jiangxi","name":"Ji’an","lat":"27.11716000","lon":"114.97927000"},
{"state":"Jiangxi","name":"Jianguang","lat":"28.19377000","lon":"115.78360000"},
{"state":"Jiangxi","name":"Jingdezhen","lat":"29.29470000","lon":"117.20789000"},
{"state":"Jiangxi","name":"Jingdezhen Shi","lat":"29.31682000","lon":"117.24688000"},
{"state":"Jiangxi","name":"Jiujiang","lat":"29.70475000","lon":"116.00206000"},
{"state":"Jiangxi","name":"Nanchang","lat":"28.68396000","lon":"115.85306000"},
{"state":"Jiangxi","name":"Pingxiang","lat":"27.61672000","lon":"113.85353000"},
{"state":"Jiangxi","name":"Poyang","lat":"28.99242000","lon":"116.66754000"},
{"state":"Jiangxi","name":"Shangrao","lat":"28.45179000","lon":"117.94287000"},
{"state":"Jiangxi","name":"Xinyu","lat":"27.80429000","lon":"114.93335000"},
{"state":"Jiangxi","name":"Yichun","lat":"27.83333000","lon":"114.40000000"},
{"state":"Jilin","name":"Baicheng","lat":"45.60746000","lon":"122.82076000"},
{"state":"Jilin","name":"Baishan","lat":"41.93853000","lon":"126.41965000"},
{"state":"Jilin","name":"Baishishan","lat":"43.58333000","lon":"127.56667000"},
{"state":"Jilin","name":"Changchun","lat":"43.88000000","lon":"125.32278000"},
{"state":"Jilin","name":"Changling","lat":"44.26532000","lon":"124.00045000"},
{"state":"Jilin","name":"Chaoyang","lat":"42.66223000","lon":"126.02630000"},
{"state":"Jilin","name":"Dalai","lat":"45.50000000","lon":"124.30000000"},
{"state":"Jilin","name":"Dashitou","lat":"43.30667000","lon":"128.51139000"},
{"state":"Jilin","name":"Dehui","lat":"44.53333000","lon":"125.70000000"},
{"state":"Jilin","name":"Dongfeng","lat":"42.64031000","lon":"125.51176000"},
{"state":"Jilin","name":"Dunhua","lat":"43.37250000","lon":"128.24250000"},
{"state":"Jilin","name":"Erdaojiang","lat":"41.77639000","lon":"126.03194000"},
{"state":"Jilin","name":"Fuyu","lat":"45.18333000","lon":"124.81667000"},
{"state":"Jilin","name":"Gongzhuling","lat":"43.50075000","lon":"124.81979000"},
{"state":"Jilin","name":"Guangming","lat":"45.33333000","lon":"122.78333000"},
{"state":"Jilin","name":"Helong","lat":"42.53974000","lon":"128.99722000"},
{"state":"Jilin","name":"Hepingjie","lat":"42.05972000","lon":"126.91583000"},
{"state":"Jilin","name":"Huadian","lat":"42.96333000","lon":"126.74778000"},
{"state":"Jilin","name":"Huangnihe","lat":"43.55833000","lon":"128.02389000"},
{"state":"Jilin","name":"Huinan","lat":"42.62250000","lon":"126.26139000"},
{"state":"Jilin","name":"Hunchun","lat":"42.86750000","lon":"130.35806000"},
{"state":"Jilin","name":"Ji’an","lat":"41.12349000","lon":"126.17631000"},
{"state":"Jilin","name":"Jilin","lat":"43.85083000","lon":"126.56028000"},
{"state":"Jilin","name":"Jishu","lat":"44.31667000","lon":"126.80000000"},
{"state":"Jilin","name":"Jiutai","lat":"44.15250000","lon":"125.83278000"},
{"state":"Jilin","name":"Kaitong","lat":"44.81351000","lon":"123.15000000"},
{"state":"Jilin","name":"Liaoyuan","lat":"42.90361000","lon":"125.13583000"},
{"state":"Jilin","name":"Linjiang","lat":"41.80694000","lon":"126.90778000"},
{"state":"Jilin","name":"Lishu","lat":"43.30472000","lon":"124.32778000"},
{"state":"Jilin","name":"Liuhe","lat":"42.24007000","lon":"125.71717000"},
{"state":"Jilin","name":"Longjing","lat":"42.77139000","lon":"129.42333000"},
{"state":"Jilin","name":"Meihekou","lat":"42.52722000","lon":"125.67528000"},
{"state":"Jilin","name":"Mingyue","lat":"43.10694000","lon":"128.92167000"},
{"state":"Jilin","name":"Minzhu","lat":"43.72145000","lon":"127.33401000"},
{"state":"Jilin","name":"Panshi","lat":"42.94222000","lon":"126.05611000"},
{"state":"Jilin","name":"Sanchazi","lat":"42.08167000","lon":"126.60028000"},
{"state":"Jilin","name":"Shuangyang","lat":"43.52417000","lon":"125.67361000"},
{"state":"Jilin","name":"Shulan","lat":"44.41667000","lon":"126.95000000"},
{"state":"Jilin","name":"Siping","lat":"43.16143000","lon":"124.37785000"},
{"state":"Jilin","name":"Songjianghe","lat":"42.18590000","lon":"127.47895000"},
{"state":"Jilin","name":"Songyuan","lat":"45.12902000","lon":"124.82769000"},
{"state":"Jilin","name":"Tonghua","lat":"41.71972000","lon":"125.92639000"},
{"state":"Jilin","name":"Tonghua Shi","lat":"42.12389000","lon":"125.84833000"},
{"state":"Jilin","name":"Tumen","lat":"42.96611000","lon":"129.84250000"},
{"state":"Jilin","name":"Wangqing","lat":"43.32179000","lon":"129.76342000"},
{"state":"Jilin","name":"Xinglongshan","lat":"43.95611000","lon":"125.46611000"},
{"state":"Jilin","name":"Yanbian Chaoxianzu Zizhizhou","lat":"43.12583000","lon":"129.12833000"},
{"state":"Jilin","name":"Yanji","lat":"42.90750000","lon":"129.50778000"},
{"state":"Jilin","name":"Yantongshan","lat":"43.29194000","lon":"126.00944000"},
{"state":"Jilin","name":"Yushu","lat":"44.80000000","lon":"126.53333000"},
{"state":"Jilin","name":"Zhengjiatun","lat":"43.50639000","lon":"123.50639000"},
{"state":"Jilin","name":"Zhenlai","lat":"45.84955000","lon":"123.29730000"},
{"state":"Liaoning","name":"Anshan","lat":"41.12361000","lon":"122.99000000"},
{"state":"Liaoning","name":"Beipiao","lat":"41.79194000","lon":"120.77917000"},
{"state":"Liaoning","name":"Benxi","lat":"41.28861000","lon":"123.76500000"},
{"state":"Liaoning","name":"Changtu","lat":"42.77884000","lon":"124.09545000"},
{"state":"Liaoning","name":"Chaoyang","lat":"41.57028000","lon":"120.45861000"},
{"state":"Liaoning","name":"Dalian","lat":"38.91222000","lon":"121.60222000"},
{"state":"Liaoning","name":"Dalianwan","lat":"39.02861000","lon":"121.69500000"},
{"state":"Liaoning","name":"Dandong","lat":"40.12917000","lon":"124.39472000"},
{"state":"Liaoning","name":"Dashiqiao","lat":"40.63732000","lon":"122.50251000"},
{"state":"Liaoning","name":"Dongling","lat":"41.81444000","lon":"123.57583000"},
{"state":"Liaoning","name":"Fengcheng","lat":"40.45361000","lon":"124.07167000"},
{"state":"Liaoning","name":"Fushun","lat":"41.88669000","lon":"123.94363000"},
{"state":"Liaoning","name":"Fuxin","lat":"42.01556000","lon":"121.65889000"},
{"state":"Liaoning","name":"Gaizhou","lat":"40.39417000","lon":"122.36861000"},
{"state":"Liaoning","name":"Gongchangling","lat":"41.11667000","lon":"123.45000000"},
{"state":"Liaoning","name":"Haicheng","lat":"40.85158000","lon":"122.74754000"},
{"state":"Liaoning","name":"Heishan","lat":"41.68917000","lon":"122.11278000"},
{"state":"Liaoning","name":"Huanren","lat":"41.26472000","lon":"125.36667000"},
{"state":"Liaoning","name":"Huludao","lat":"40.75243000","lon":"120.83552000"},
{"state":"Liaoning","name":"Huludao Shi","lat":"40.74528000","lon":"120.21972000"},
{"state":"Liaoning","name":"Hushitai","lat":"41.94175000","lon":"123.50266000"},
{"state":"Liaoning","name":"Jinzhou","lat":"41.10778000","lon":"121.14167000"},
{"state":"Liaoning","name":"Jiupu","lat":"41.06667000","lon":"122.95000000"},
{"state":"Liaoning","name":"Kaiyuan","lat":"42.53306000","lon":"124.04028000"},
{"state":"Liaoning","name":"Kuandian","lat":"40.72861000","lon":"124.78472000"},
{"state":"Liaoning","name":"Langtoucun","lat":"40.04068000","lon":"124.33525000"},
{"state":"Liaoning","name":"Lianshan","lat":"40.76432000","lon":"120.85327000"},
{"state":"Liaoning","name":"Liaoyang","lat":"41.27194000","lon":"123.17306000"},
{"state":"Liaoning","name":"Liaozhong","lat":"41.50611000","lon":"122.72417000"},
{"state":"Liaoning","name":"Linghai","lat":"41.16528000","lon":"121.36667000"},
{"state":"Liaoning","name":"Lingyuan","lat":"41.24000000","lon":"119.40111000"},
{"state":"Liaoning","name":"Lüshun","lat":"38.80000000","lon":"121.26667000"},
{"state":"Liaoning","name":"Nanpiao","lat":"41.09822000","lon":"120.74792000"},
{"state":"Liaoning","name":"Nantai","lat":"40.92410000","lon":"122.80437000"},
{"state":"Liaoning","name":"Panjin Shi","lat":"41.13167000","lon":"121.99361000"},
{"state":"Liaoning","name":"Panshan","lat":"41.18806000","lon":"122.04944000"},
{"state":"Liaoning","name":"Pulandian","lat":"39.39528000","lon":"121.96694000"},
{"state":"Liaoning","name":"Shenyang","lat":"41.79222000","lon":"123.43278000"},
{"state":"Liaoning","name":"Sujiatun","lat":"41.65917000","lon":"123.33917000"},
{"state":"Liaoning","name":"Tieling","lat":"42.29306000","lon":"123.84139000"},
{"state":"Liaoning","name":"Tieling Shi","lat":"42.62583000","lon":"124.32361000"},
{"state":"Liaoning","name":"Wafangdian","lat":"39.61833000","lon":"122.00806000"},
{"state":"Liaoning","name":"Xiaoshi","lat":"41.29711000","lon":"124.12092000"},
{"state":"Liaoning","name":"Xifeng","lat":"42.73722000","lon":"124.72222000"},
{"state":"Liaoning","name":"Xingcheng","lat":"40.61667000","lon":"120.71667000"},
{"state":"Liaoning","name":"Xinmin","lat":"41.99083000","lon":"122.82528000"},
{"state":"Liaoning","name":"Xinxing","lat":"39.86694000","lon":"124.12304000"},
{"state":"Liaoning","name":"Xiuyan","lat":"40.29278000","lon":"123.27444000"},
{"state":"Liaoning","name":"Yebaishou","lat":"41.39750000","lon":"119.64083000"},
{"state":"Liaoning","name":"Yingkou","lat":"40.63897000","lon":"122.24762000"},
{"state":"Liaoning","name":"Zhuanghe","lat":"39.70083000","lon":"122.99111000"},
{"state":"Ningxia Huizu","name":"Dawukou","lat":"39.04194000","lon":"106.39583000"},
{"state":"Ningxia Huizu","name":"Dongta","lat":"38.08140000","lon":"106.34444000"},
{"state":"Ningxia Huizu","name":"Shitanjing","lat":"39.23417000","lon":"106.34389000"},
{"state":"Ningxia Huizu","name":"Shizuishan","lat":"39.23333000","lon":"106.76944000"},
{"state":"Ningxia Huizu","name":"Wuzhong","lat":"37.98670000","lon":"106.20100000"},
{"state":"Ningxia Huizu","name":"Yinchuan","lat":"38.46806000","lon":"106.27306000"},
{"state":"Ningxia Huizu","name":"Zhongwei","lat":"37.51129000","lon":"105.19067000"},
{"state":"Qinghai","name":"Delingha","lat":"37.37600000","lon":"97.37457000"},
{"state":"Qinghai","name":"Golmud","lat":"36.40672000","lon":"94.90061000"},
{"state":"Qinghai","name":"Golog Tibetan Autonomous Prefecture","lat":"34.08595000","lon":"99.55181000"},
{"state":"Qinghai","name":"Haibei Tibetan Autonomous Prefecture","lat":"37.71919000","lon":"100.45656000"},
{"state":"Qinghai","name":"Huangnan Zangzu Zizhizhou","lat":"35.06316000","lon":"101.65149000"},
{"state":"Qinghai","name":"Xining","lat":"36.62554000","lon":"101.75739000"},
{"state":"Qinghai","name":"Xireg","lat":"36.91866000","lon":"98.44463000"},
{"state":"Qinghai","name":"Yushu Zangzu Zizhizhou","lat":"34.39802000","lon":"94.19021000"},
{"state":"Shaanxi","name":"Ankang","lat":"32.68000000","lon":"109.01722000"},
{"state":"Shaanxi","name":"Baoji Shi","lat":"34.36944000","lon":"107.13635000"},
{"state":"Shaanxi","name":"Guozhen","lat":"34.36591000","lon":"107.35904000"},
{"state":"Shaanxi","name":"Hancheng","lat":"35.46028000","lon":"110.42917000"},
{"state":"Shaanxi","name":"Hanzhong","lat":"33.07507000","lon":"107.02214000"},
{"state":"Shaanxi","name":"Huayin","lat":"34.56528000","lon":"110.06639000"},
{"state":"Shaanxi","name":"Lintong","lat":"34.37803000","lon":"109.20892000"},
{"state":"Shaanxi","name":"Tongchuanshi","lat":"35.07474000","lon":"109.08495000"},
{"state":"Shaanxi","name":"Weinan","lat":"34.50355000","lon":"109.50891000"},
{"state":"Shaanxi","name":"Xi’an","lat":"34.25833000","lon":"108.92861000"},
{"state":"Shaanxi","name":"Xianyang","lat":"34.33778000","lon":"108.70261000"},
{"state":"Shaanxi","name":"Yanliang","lat":"34.65918000","lon":"109.22921000"},
{"state":"Shaanxi","name":"Yulinshi","lat":"38.29181000","lon":"109.73753000"},
{"state":"Shaanxi","name":"Yuxia","lat":"34.06153000","lon":"108.62905000"},
{"state":"Shandong","name":"Anqiu","lat":"36.43417000","lon":"119.19250000"},
{"state":"Shandong","name":"Beizhai","lat":"36.21972000","lon":"120.52889000"},
{"state":"Shandong","name":"Bianzhuang","lat":"34.84861000","lon":"118.04472000"},
{"state":"Shandong","name":"Binzhou","lat":"37.36667000","lon":"118.01667000"},
{"state":"Shandong","name":"Boshan","lat":"36.48333000","lon":"117.83333000"},
{"state":"Shandong","name":"Changqing","lat":"36.55750000","lon":"116.72722000"},
{"state":"Shandong","name":"Chengqu","lat":"36.91060000","lon":"121.52504000"},
{"state":"Shandong","name":"Chengtangcun","lat":"35.08357000","lon":"117.19071000"},
{"state":"Shandong","name":"Chengyang","lat":"35.57944000","lon":"118.83278000"},
{"state":"Shandong","name":"Dengying","lat":"36.13889000","lon":"120.57417000"},
{"state":"Shandong","name":"Dengzhou","lat":"37.80822000","lon":"120.75908000"},
{"state":"Shandong","name":"Dezhou","lat":"37.45127000","lon":"116.31046000"},
{"state":"Shandong","name":"Dingtao","lat":"35.07436000","lon":"115.56582000"},
{"state":"Shandong","name":"Dongcun","lat":"36.77667000","lon":"121.15972000"},
{"state":"Shandong","name":"Dongdu","lat":"35.85000000","lon":"117.70000000"},
{"state":"Shandong","name":"Feicheng","lat":"36.24861000","lon":"116.76583000"},
{"state":"Shandong","name":"Gaomi","lat":"36.38333000","lon":"119.75278000"},
{"state":"Shandong","name":"Hanting","lat":"36.77083000","lon":"119.21083000"},
{"state":"Shandong","name":"Heze","lat":"35.23929000","lon":"115.47358000"},
{"state":"Shandong","name":"Jiamaying","lat":"37.20806000","lon":"115.95000000"},
{"state":"Shandong","name":"Jiaozhou","lat":"36.28389000","lon":"120.00333000"},
{"state":"Shandong","name":"Jiehu","lat":"35.54278000","lon":"118.45500000"},
{"state":"Shandong","name":"Jimo","lat":"36.38972000","lon":"120.46222000"},
{"state":"Shandong","name":"Jinan","lat":"36.66833000","lon":"116.99722000"},
{"state":"Shandong","name":"Jining","lat":"35.40500000","lon":"116.58139000"},
{"state":"Shandong","name":"Juye","lat":"35.39472000","lon":"116.08833000"},
{"state":"Shandong","name":"Kuiju","lat":"36.85361000","lon":"119.39083000"},
{"state":"Shandong","name":"Kutao","lat":"36.14500000","lon":"120.48778000"},
{"state":"Shandong","name":"Laiwu","lat":"36.19278000","lon":"117.65694000"},
{"state":"Shandong","name":"Laixi","lat":"36.85917000","lon":"120.52694000"},
{"state":"Shandong","name":"Laiyang","lat":"36.97583000","lon":"120.71361000"},
{"state":"Shandong","name":"Laizhou","lat":"37.18073000","lon":"119.94217000"},
{"state":"Shandong","name":"Laocheng","lat":"37.14278000","lon":"115.88833000"},
{"state":"Shandong","name":"Liaocheng","lat":"36.45596000","lon":"115.97766000"},
{"state":"Shandong","name":"Linqu","lat":"36.51556000","lon":"118.53972000"},
{"state":"Shandong","name":"Linyi","lat":"35.06306000","lon":"118.34278000"},
{"state":"Shandong","name":"Longgang","lat":"37.65181000","lon":"120.33063000"},
{"state":"Shandong","name":"Mengyin","lat":"35.70694000","lon":"117.92639000"},
{"state":"Shandong","name":"Mingshui","lat":"36.71667000","lon":"117.50000000"},
{"state":"Shandong","name":"Mizhou","lat":"35.99472000","lon":"119.39750000"},
{"state":"Shandong","name":"Nanding","lat":"36.74833000","lon":"118.05583000"},
{"state":"Shandong","name":"Nanma","lat":"36.18478000","lon":"118.15486000"},
{"state":"Shandong","name":"Ninghai","lat":"37.38422000","lon":"121.60859000"},
{"state":"Shandong","name":"Ningyang","lat":"35.76417000","lon":"116.79139000"},
{"state":"Shandong","name":"Pingdu","lat":"36.78444000","lon":"119.94639000"},
{"state":"Shandong","name":"Pingyi","lat":"35.50056000","lon":"117.63083000"},
{"state":"Shandong","name":"Pingyin","lat":"36.28306000","lon":"116.44528000"},
{"state":"Shandong","name":"Qingdao","lat":"36.06488000","lon":"120.38042000"},
{"state":"Shandong","name":"Qingnian","lat":"36.84032000","lon":"115.71183000"},
{"state":"Shandong","name":"Qingshancun","lat":"36.15415000","lon":"120.68240000"},
{"state":"Shandong","name":"Qingyang","lat":"37.49583000","lon":"121.25806000"},
{"state":"Shandong","name":"Qingzhou","lat":"36.69667000","lon":"118.47972000"},
{"state":"Shandong","name":"Qufu","lat":"35.59667000","lon":"116.99111000"},
{"state":"Shandong","name":"Rizhao","lat":"35.42750000","lon":"119.45528000"},
{"state":"Shandong","name":"Shancheng","lat":"34.79528000","lon":"116.08167000"},
{"state":"Shandong","name":"Shanting","lat":"35.07528000","lon":"117.45778000"},
{"state":"Shandong","name":"Shazikou","lat":"36.11500000","lon":"120.53722000"},
{"state":"Shandong","name":"Shengli","lat":"37.46271000","lon":"118.49165000"},
{"state":"Shandong","name":"Shilaorencun","lat":"36.09723000","lon":"120.48910000"},
{"state":"Shandong","name":"Shizilu","lat":"35.17111000","lon":"118.82889000"},
{"state":"Shandong","name":"Shouguang","lat":"36.88000000","lon":"118.73750000"},
{"state":"Shandong","name":"Sishui","lat":"35.64889000","lon":"117.27583000"},
{"state":"Shandong","name":"Suozhen","lat":"36.95389000","lon":"118.10472000"},
{"state":"Shandong","name":"Tai’an","lat":"36.18528000","lon":"117.12000000"},
{"state":"Shandong","name":"Taozhuang","lat":"34.85000000","lon":"117.33333000"},
{"state":"Shandong","name":"Tianfu","lat":"37.19723000","lon":"122.05228000"},
{"state":"Shandong","name":"Weifang","lat":"36.71000000","lon":"119.10194000"},
{"state":"Shandong","name":"Weihai","lat":"37.50914000","lon":"122.11356000"},
{"state":"Shandong","name":"Wenshang","lat":"35.72750000","lon":"116.49611000"},
{"state":"Shandong","name":"Xiazhen","lat":"34.80222000","lon":"117.11167000"},
{"state":"Shandong","name":"Xiazhuang","lat":"34.91611000","lon":"118.63889000"},
{"state":"Shandong","name":"Xiliguantun","lat":"37.07833000","lon":"115.94139000"},
{"state":"Shandong","name":"Xindian","lat":"36.79750000","lon":"118.29444000"},
{"state":"Shandong","name":"Xintai","lat":"35.90056000","lon":"117.75194000"},
{"state":"Shandong","name":"Yanggu","lat":"36.11056000","lon":"115.77528000"},
{"state":"Shandong","name":"Yanta","lat":"36.24111000","lon":"115.66722000"},
{"state":"Shandong","name":"Yantai","lat":"37.47649000","lon":"121.44081000"},
{"state":"Shandong","name":"Yanzhou","lat":"35.55278000","lon":"116.82861000"},
{"state":"Shandong","name":"Yatou","lat":"37.15660000","lon":"122.43762000"},
{"state":"Shandong","name":"Yinzhu","lat":"35.87861000","lon":"119.97528000"},
{"state":"Shandong","name":"Yishui","lat":"35.78472000","lon":"118.62806000"},
{"state":"Shandong","name":"Yucheng","lat":"34.92889000","lon":"116.46528000"},
{"state":"Shandong","name":"Zaozhuang","lat":"34.86472000","lon":"117.55417000"},
{"state":"Shandong","name":"Zhaoyuan","lat":"37.36497000","lon":"120.40997000"},
{"state":"Shandong","name":"Zhoucheng","lat":"35.91222000","lon":"116.31167000"},
{"state":"Shandong","name":"Zhoucun","lat":"36.81667000","lon":"117.81667000"},
{"state":"Shandong","name":"Zhu Cheng City","lat":"35.99502000","lon":"119.40259000"},
{"state":"Shandong","name":"Zhuangyuan","lat":"37.30553000","lon":"120.82747000"},
{"state":"Shandong","name":"Zibo","lat":"36.79056000","lon":"118.06333000"},
{"state":"Shandong","name":"Zoucheng","lat":"35.40056000","lon":"116.96556000"},
{"state":"Shanghai","name":"Shanghai","lat":"31.22222000","lon":"121.45806000"},
{"state":"Shanghai","name":"Songjiang","lat":"31.03595000","lon":"121.21460000"},
{"state":"Shanghai","name":"Zhabei","lat":"31.25861000","lon":"121.45972000"},
{"state":"Shanghai","name":"Zhujiajiao","lat":"31.10757000","lon":"121.05696000"},
{"state":"Shanxi","name":"Changzhi","lat":"36.18389000","lon":"113.10528000"},
{"state":"Shanxi","name":"Datong","lat":"40.09361000","lon":"113.29139000"},
{"state":"Shanxi","name":"Datong Shi","lat":"40.10484000","lon":"113.63334000"},
{"state":"Shanxi","name":"Gutao","lat":"37.20250000","lon":"112.17806000"},
{"state":"Shanxi","name":"Jiexiu","lat":"37.02444000","lon":"111.91250000"},
{"state":"Shanxi","name":"Jincheng","lat":"35.50222000","lon":"112.83278000"},
{"state":"Shanxi","name":"Jinzhong Shi","lat":"37.43597000","lon":"113.08783000"},
{"state":"Shanxi","name":"Linfen","lat":"36.08889000","lon":"111.51889000"},
{"state":"Shanxi","name":"Lüliang","lat":"37.73563000","lon":"111.30538000"},
{"state":"Shanxi","name":"Shuozhou","lat":"39.31583000","lon":"112.42250000"},
{"state":"Shanxi","name":"Taiyuan","lat":"37.86944000","lon":"112.56028000"},
{"state":"Shanxi","name":"Xintian","lat":"35.61358000","lon":"111.35660000"},
{"state":"Shanxi","name":"Xinzhi","lat":"36.49889000","lon":"111.70472000"},
{"state":"Shanxi","name":"Xinzhou","lat":"38.40917000","lon":"112.73333000"},
{"state":"Shanxi","name":"Yangquan","lat":"37.85750000","lon":"113.56333000"},
{"state":"Shanxi","name":"Yuanping","lat":"38.71528000","lon":"112.75750000"},
{"state":"Shanxi","name":"Yuci","lat":"37.68028000","lon":"112.73194000"},
{"state":"Shanxi","name":"Yuncheng","lat":"35.02306000","lon":"110.99278000"},
{"state":"Sichuan","name":"Aba Zangzu Qiangzu Zizhizhou","lat":"32.41875000","lon":"102.63664000"},
{"state":"Sichuan","name":"Barkam","lat":"31.90059000","lon":"102.22092000"},
{"state":"Sichuan","name":"Bazhong Shi","lat":"32.04025000","lon":"107.06230000"},
{"state":"Sichuan","name":"Changchi","lat":"32.16377000","lon":"106.65814000"},
{"state":"Sichuan","name":"Chengdu","lat":"30.66667000","lon":"104.06667000"},
{"state":"Sichuan","name":"Chonglong","lat":"29.78062000","lon":"104.85224000"},
{"state":"Sichuan","name":"Dadukou","lat":"26.54790000","lon":"101.70539000"},
{"state":"Sichuan","name":"Dazhou","lat":"31.21592000","lon":"107.50092000"},
{"state":"Sichuan","name":"Deyang","lat":"31.13019000","lon":"104.38198000"},
{"state":"Sichuan","name":"Dongxi","lat":"32.06577000","lon":"106.24843000"},
{"state":"Sichuan","name":"Fangting","lat":"31.12766000","lon":"104.16649000"},
{"state":"Sichuan","name":"Fubao","lat":"28.76905000","lon":"106.07667000"},
{"state":"Sichuan","name":"Gaoping","lat":"30.77576000","lon":"106.10294000"},
{"state":"Sichuan","name":"Garzê Zangzu Zizhizhou","lat":"31.02407000","lon":"100.40553000"},
{"state":"Sichuan","name":"Guang’an","lat":"30.47413000","lon":"106.63696000"},
{"state":"Sichuan","name":"Guangyuan","lat":"32.44201000","lon":"105.82300000"},
{"state":"Sichuan","name":"Jiancheng","lat":"30.39097000","lon":"104.54912000"},
{"state":"Sichuan","name":"Jiangyou","lat":"31.76667000","lon":"104.71667000"},
{"state":"Sichuan","name":"Jiannan","lat":"31.34355000","lon":"104.19588000"},
{"state":"Sichuan","name":"Kangding","lat":"30.00222000","lon":"101.95690000"},
{"state":"Sichuan","name":"Langzhong","lat":"31.55037000","lon":"105.99381000"},
{"state":"Sichuan","name":"Leshan","lat":"29.56227000","lon":"103.76386000"},
{"state":"Sichuan","name":"Liangshan Yizu Zizhizhou","lat":"27.87644000","lon":"102.10180000"},
{"state":"Sichuan","name":"Linqiong","lat":"30.41587000","lon":"103.46089000"},
{"state":"Sichuan","name":"Luocheng","lat":"30.98021000","lon":"104.28081000"},
{"state":"Sichuan","name":"Luzhou","lat":"28.89030000","lon":"105.42575000"},
{"state":"Sichuan","name":"Meishan Shi","lat":"30.03000000","lon":"104.04000000"},
{"state":"Sichuan","name":"Mianyang","lat":"31.46784000","lon":"104.68168000"},
{"state":"Sichuan","name":"Nanchong","lat":"30.79508000","lon":"106.08473000"},
{"state":"Sichuan","name":"Nanlong","lat":"31.35333000","lon":"106.06309000"},
{"state":"Sichuan","name":"Neijiang","lat":"29.58354000","lon":"105.06216000"},
{"state":"Sichuan","name":"Panzhihua","lat":"26.58509000","lon":"101.71276000"},
{"state":"Sichuan","name":"Puji","lat":"32.23908000","lon":"106.45478000"},
{"state":"Sichuan","name":"Shuanghejiedao","lat":"30.37448000","lon":"106.77266000"},
{"state":"Sichuan","name":"Suining","lat":"30.50802000","lon":"105.57332000"},
{"state":"Sichuan","name":"Taihe","lat":"30.87123000","lon":"105.38454000"},
{"state":"Sichuan","name":"Taiping","lat":"28.14083000","lon":"106.03771000"},
{"state":"Sichuan","name":"Tianpeng","lat":"30.98664000","lon":"103.93933000"},
{"state":"Sichuan","name":"Tongchuan","lat":"31.09407000","lon":"105.08731000"},
{"state":"Sichuan","name":"Xialiang","lat":"32.07673000","lon":"106.77151000"},
{"state":"Sichuan","name":"Xiantan","lat":"28.81859000","lon":"106.19270000"},
{"state":"Sichuan","name":"Xichang","lat":"27.89642000","lon":"102.26341000"},
{"state":"Sichuan","name":"Xunchang","lat":"28.45433000","lon":"104.71498000"},
{"state":"Sichuan","name":"Yanjiang","lat":"30.12108000","lon":"104.64811000"},
{"state":"Sichuan","name":"Yibin","lat":"28.76667000","lon":"104.62383000"},
{"state":"Sichuan","name":"Yucheng","lat":"29.98521000","lon":"102.99900000"},
{"state":"Sichuan","name":"Zengjia","lat":"32.61957000","lon":"106.10118000"},
{"state":"Sichuan","name":"Zhongba","lat":"31.77819000","lon":"104.73932000"},
{"state":"Sichuan","name":"Zigong","lat":"29.34162000","lon":"104.77689000"},
{"state":"Taiwan","name":"Baoying","lat":"33.22917000","lon":"119.30917000"},
{"state":"Taiwan","name":"Changshu City","lat":"31.64615000","lon":"120.74221000"},
{"state":"Taiwan","name":"Changzhou","lat":"31.77359000","lon":"119.95401000"},
{"state":"Taiwan","name":"Chengxiang","lat":"31.44778000","lon":"121.09389000"},
{"state":"Taiwan","name":"Dazhong","lat":"33.19973000","lon":"120.45780000"},
{"state":"Taiwan","name":"Dongkan","lat":"33.99972000","lon":"119.83083000"},
{"state":"Taiwan","name":"Dongtai","lat":"32.85231000","lon":"120.30947000"},
{"state":"Taiwan","name":"Fengxian","lat":"34.70388000","lon":"116.58717000"},
{"state":"Taiwan","name":"Gaogou","lat":"34.01750000","lon":"119.18861000"},
{"state":"Taiwan","name":"Gaoyou","lat":"32.78933000","lon":"119.44182000"},
{"state":"Taiwan","name":"Guiren","lat":"33.66972000","lon":"118.18889000"},
{"state":"Taiwan","name":"Haizhou","lat":"34.58167000","lon":"119.12889000"},
{"state":"Taiwan","name":"Hede","lat":"33.77220000","lon":"120.26176000"},
{"state":"Taiwan","name":"Huai'an","lat":"33.58861000","lon":"119.01917000"},
{"state":"Taiwan","name":"Huai’an Shi","lat":"33.31162000","lon":"119.04559000"},
{"state":"Taiwan","name":"Huilong","lat":"31.81111000","lon":"121.65500000"},
{"state":"Taiwan","name":"Hutang","lat":"31.53429000","lon":"119.49000000"},
{"state":"Taiwan","name":"Jiangyan","lat":"32.50611000","lon":"120.14278000"},
{"state":"Taiwan","name":"Jiangyin","lat":"31.91102000","lon":"120.26302000"},
{"state":"Taiwan","name":"Jingjiang","lat":"32.01417000","lon":"120.26250000"},
{"state":"Taiwan","name":"Jinsha","lat":"32.08982000","lon":"121.07355000"},
{"state":"Taiwan","name":"Juegang","lat":"32.31737000","lon":"121.18552000"},
{"state":"Taiwan","name":"Kunshan","lat":"31.37762000","lon":"120.95431000"},
{"state":"Taiwan","name":"Lianyungang Shi","lat":"34.54844000","lon":"119.11228000"},
{"state":"Taiwan","name":"Licheng","lat":"31.42813000","lon":"119.48353000"},
{"state":"Taiwan","name":"Mudu","lat":"31.25597000","lon":"120.51857000"},
{"state":"Taiwan","name":"Nanjing","lat":"32.06167000","lon":"118.77778000"},
{"state":"Taiwan","name":"Nantong","lat":"32.03028000","lon":"120.87472000"},
{"state":"Taiwan","name":"Pizhou","lat":"34.31139000","lon":"117.95028000"},
{"state":"Taiwan","name":"Qinnan","lat":"33.25306000","lon":"119.91333000"},
{"state":"Taiwan","name":"Rucheng","lat":"32.38833000","lon":"120.55528000"},
{"state":"Taiwan","name":"Sanmao","lat":"32.23931000","lon":"119.81536000"},
{"state":"Taiwan","name":"Songling","lat":"31.19330000","lon":"120.71758000"},
{"state":"Taiwan","name":"Suicheng","lat":"33.89630000","lon":"117.93307000"},
{"state":"Taiwan","name":"Suzhou","lat":"31.30408000","lon":"120.59538000"},
{"state":"Taiwan","name":"Taixing","lat":"32.16667000","lon":"120.01361000"},
{"state":"Taiwan","name":"Taizhou","lat":"32.49069000","lon":"119.90812000"},
{"state":"Taiwan","name":"Tongshan","lat":"34.18045000","lon":"117.15707000"},
{"state":"Taiwan","name":"Wuxi","lat":"31.56887000","lon":"120.28857000"},
{"state":"Taiwan","name":"Xiannü","lat":"32.42806000","lon":"119.56048000"},
{"state":"Taiwan","name":"Xiaolingwei","lat":"32.03244000","lon":"118.85400000"},
{"state":"Taiwan","name":"Xinghua","lat":"32.93917000","lon":"119.83417000"},
{"state":"Taiwan","name":"Xinpu","lat":"34.59972000","lon":"119.15944000"},
{"state":"Taiwan","name":"Yancheng","lat":"33.35750000","lon":"120.15730000"},
{"state":"Taiwan","name":"Yangzhou","lat":"32.39722000","lon":"119.43583000"},
{"state":"Taiwan","name":"Yicheng","lat":"31.36059000","lon":"119.82016000"},
{"state":"Taiwan","name":"Yushan","lat":"31.67748000","lon":"120.80134000"},
{"state":"Taiwan","name":"Zhangjiagang","lat":"31.86500000","lon":"120.53889000"},
{"state":"Taiwan","name":"Zhenjiang","lat":"32.21086000","lon":"119.45508000"},
{"state":"Taiwan","name":"Zhenzhou","lat":"32.28034000","lon":"119.16999000"},
{"state":"Taiwan","name":"Zhongxing","lat":"33.70389000","lon":"118.67917000"},
{"state":"Taiwan","name":"Zhouzhuang","lat":"31.11788000","lon":"120.84427000"},
{"state":"Tianjin","name":"Badaogu","lat":"39.47333333","lon":"117.32972222"},
{"state":"Tianjin","name":"Baijian","lat":"39.99416667","lon":"117.20861111"},
{"state":"Tianjin","name":"Bamencheng","lat":"39.57777778","lon":"117.60527778"},
{"state":"Tianjin","name":"Bangjun","lat":"39.98839000","lon":"117.26850000"},
{"state":"Tianjin","name":"Beicang","lat":"39.23007000","lon":"117.11892000"},
{"state":"Tianjin","name":"Beihuaidian","lat":"39.26220000","lon":"117.57485000"},
{"state":"Tianjin","name":"Beilizigu","lat":"39.49138889","lon":"117.46500000"},
{"state":"Tianjin","name":"Biaokou","lat":"39.32950000","lon":"117.56914000"},
{"state":"Tianjin","name":"Binhai New Area","lat":"39.00333333","lon":"117.71083333"},
{"state":"Tianjin","name":"Caijiapu","lat":"39.17305556","lon":"117.81055556"},
{"state":"Tianjin","name":"Caodian","lat":"39.61194444","lon":"117.47166667"},
{"state":"Tianjin","name":"Chabaihu","lat":"39.46555556","lon":"117.14833333"},
{"state":"Tianjin","name":"Changtun","lat":"39.44333333","lon":"117.07055556"},
{"state":"Tianjin","name":"Chengtougu","lat":"39.14000000","lon":"117.77888889"},
{"state":"Tianjin","name":"Chitu","lat":"39.20333333","lon":"117.40277778"},
{"state":"Tianjin","name":"Cuijiamatou","lat":"39.07472222","lon":"117.30055556"},
{"state":"Tianjin","name":"Dadunqiu","lat":"39.40611111","lon":"117.03305556"},
{"state":"Tianjin","name":"Dakoutun","lat":"39.58555556","lon":"117.23638889"},
{"state":"Tianjin","name":"Dashentang","lat":"39.21722222","lon":"117.95250000"},
{"state":"Tianjin","name":"Dawangtai","lat":"39.27500000","lon":"117.48500000"},
{"state":"Tianjin","name":"Daxinzhuang","lat":"39.50361111","lon":"117.68611111"},
{"state":"Tianjin","name":"Dazhongzhuang","lat":"39.68083333","lon":"117.56416667"},
{"state":"Tianjin","name":"Dongditou","lat":"39.26638889","lon":"117.37277778"},
{"state":"Tianjin","name":"Dongshigu","lat":"39.87889000","lon":"117.33028000"},
{"state":"Tianjin","name":"Erwangzhuang","lat":"39.39166667","lon":"117.35388889"},
{"state":"Tianjin","name":"Fanzhuang","lat":"39.19361111","lon":"117.33500000"},
{"state":"Tianjin","name":"Fengtai (Ninghe)","lat":"39.55805556","lon":"117.74916667"},
{"state":"Tianjin","name":"Fuzhuang","lat":"39.26611111","lon":"117.93444444"},
{"state":"Tianjin","name":"Gaojingzhuang","lat":"39.41611111","lon":"117.63000000"},
{"state":"Tianjin","name":"Hanjiashu","lat":"39.18750000","lon":"117.07305556"},
{"state":"Tianjin","name":"Hebeitun","lat":"39.57472222","lon":"117.11333333"},
{"state":"Tianjin","name":"Hexiwu","lat":"39.62249000","lon":"116.95398000"},
{"state":"Tianjin","name":"Huangcaotuo","lat":"39.17944444","lon":"117.32166667"},
{"state":"Tianjin","name":"Huantuo","lat":"39.22638889","lon":"117.32388889"},
{"state":"Tianjin","name":"Huogezhuang","lat":"39.74388889","lon":"117.36750000"},
{"state":"Tianjin","name":"Jiangwakou","lat":"39.52250000","lon":"117.70250000"},
{"state":"Tianjin","name":"Lianzhuang","lat":"39.41000000","lon":"117.75638889"},
{"state":"Tianjin","name":"Lintingkou","lat":"39.63027778","lon":"117.50027778"},
{"state":"Tianjin","name":"Liujiading","lat":"39.96305556","lon":"117.19111111"},
{"state":"Tianjin","name":"Liukuaizhuang","lat":"39.24777778","lon":"117.33944444"},
{"state":"Tianjin","name":"Liuzikou","lat":"39.87027778","lon":"117.34666667"},
{"state":"Tianjin","name":"Luotuofangzi","lat":"39.08361111","lon":"117.37694444"},
{"state":"Tianjin","name":"Meichang","lat":"39.36611111","lon":"117.18055556"},
{"state":"Tianjin","name":"Mengquan","lat":"39.82527778","lon":"117.47666667"},
{"state":"Tianjin","name":"Panzhuang","lat":"39.33943000","lon":"117.46820000"},
{"state":"Tianjin","name":"Qingguang","lat":"39.19668000","lon":"117.05475000"},
{"state":"Tianjin","name":"Sangzi","lat":"39.90853000","lon":"117.16535000"},
{"state":"Tianjin","name":"Shangcang","lat":"39.90518000","lon":"117.39553000"},
{"state":"Tianjin","name":"Shimianzhuang","lat":"39.41800000","lon":"117.15690000"},
{"state":"Tianjin","name":"Shuangjiang","lat":"39.04190000","lon":"117.31235000"},
{"state":"Tianjin","name":"Sigaozhuang","lat":"39.46713000","lon":"117.25554000"},
{"state":"Tianjin","name":"Tianjin","lat":"39.14666667","lon":"117.20555556"},
{"state":"Tianjin","name":"Touying","lat":"39.96389000","lon":"117.21833000"},
{"state":"Tianjin","name":"Wangqinzhuang","lat":"39.22942000","lon":"117.08968000"},
{"state":"Tianjin","name":"Weiwangzhuang","lat":"39.02500000","lon":"117.44083000"},
{"state":"Tianjin","name":"Xiawuqi","lat":"39.61551000","lon":"117.05523000"},
{"state":"Tianjin","name":"Xiditou","lat":"39.25320000","lon":"117.34709000"},
{"state":"Tianjin","name":"Xinkaikou","lat":"39.67996000","lon":"117.18877000"},
{"state":"Tianjin","name":"Xitazhuang","lat":"39.93306000","lon":"117.21083000"},
{"state":"Tianjin","name":"Yangjinzhuang","lat":"39.86645000","lon":"117.42592000"},
{"state":"Tianjin","name":"Yangliuqing","lat":"39.12740000","lon":"117.00885000"},
{"state":"Tianjin","name":"Yinliu","lat":"39.98349000","lon":"117.39904000"},
{"state":"Tianjin","name":"Yixingfu","lat":"39.19917000","lon":"117.21139000"},
{"state":"Tianjin","name":"Youguzhuang","lat":"39.90802000","lon":"117.24576000"},
{"state":"Tianjin","name":"Yuelongzhuang","lat":"39.56833000","lon":"117.85417000"},
{"state":"Tianjin","name":"Yuguzhuang","lat":"39.64290000","lon":"117.36470000"},
{"state":"Tianjin","name":"Zaojiacheng","lat":"39.28174000","lon":"117.42516000"},
{"state":"Tianjin","name":"Zhangjiawo","lat":"39.05675000","lon":"117.03624000"},
{"state":"Tianjin","name":"Zhaoguli","lat":"39.16673000","lon":"117.24191000"},
{"state":"Tianjin","name":"Zhaoguli","lat":"39.16673000","lon":"117.24191000"},
{"state":"Xinjiang","name":"Ailan Mubage","lat":"43.90845000","lon":"81.33299000"},
{"state":"Xinjiang","name":"Aksu","lat":"41.18418000","lon":"80.27921000"},
{"state":"Xinjiang","name":"Aksu Diqu","lat":"40.55689000","lon":"81.84629000"},
{"state":"Xinjiang","name":"Altay","lat":"47.84864000","lon":"88.13361000"},
{"state":"Xinjiang","name":"Altay Diqu","lat":"47.86667000","lon":"88.11667000"},
{"state":"Xinjiang","name":"Aral","lat":"40.54184000","lon":"81.26566000"},
{"state":"Xinjiang","name":"Aykol","lat":"40.95759000","lon":"80.13574000"},
{"state":"Xinjiang","name":"Baijiantan","lat":"45.69298000","lon":"85.13942000"},
{"state":"Xinjiang","name":"Baluntaicun","lat":"42.66842000","lon":"86.32424000"},
{"state":"Xinjiang","name":"Bayingolin Mongol Zizhizhou","lat":"41.73333000","lon":"86.15000000"},
{"state":"Xinjiang","name":"Changji","lat":"44.00782000","lon":"87.30461000"},
{"state":"Xinjiang","name":"Changji Huizu Zizhizhou","lat":"44.01667000","lon":"87.31667000"},
{"state":"Xinjiang","name":"Fukang","lat":"44.15874000","lon":"87.97418000"},
{"state":"Xinjiang","name":"Hami","lat":"42.83393000","lon":"93.50601000"},
{"state":"Xinjiang","name":"Hotan","lat":"37.10750000","lon":"79.93548000"},
{"state":"Xinjiang","name":"Hoxtolgay","lat":"46.51872000","lon":"86.00214000"},
{"state":"Xinjiang","name":"Huocheng","lat":"44.05305000","lon":"80.87173000"},
{"state":"Xinjiang","name":"Ili Kazak Zizhizhou","lat":"43.31211000","lon":"82.27102000"},
{"state":"Xinjiang","name":"Karamay","lat":"45.58473000","lon":"84.88724000"},
{"state":"Xinjiang","name":"Karamay Shi","lat":"45.49989000","lon":"84.91683000"},
{"state":"Xinjiang","name":"Kashgar","lat":"39.47066000","lon":"75.98951000"},
{"state":"Xinjiang","name":"Kaxgar Diqu","lat":"39.47543000","lon":"75.98968000"},
{"state":"Xinjiang","name":"Korla","lat":"41.76055000","lon":"86.15231000"},
{"state":"Xinjiang","name":"Kuqa","lat":"41.71707000","lon":"82.93064000"},
{"state":"Xinjiang","name":"Kuytun","lat":"44.42707000","lon":"84.90069000"},
{"state":"Xinjiang","name":"Qapqal","lat":"43.80194000","lon":"81.08722000"},
{"state":"Xinjiang","name":"Shache","lat":"38.41667000","lon":"77.24056000"},
{"state":"Xinjiang","name":"Shihezi","lat":"44.30230000","lon":"86.03694000"},
{"state":"Xinjiang","name":"Sishilichengzi","lat":"41.96194000","lon":"86.47667000"},
{"state":"Xinjiang","name":"Tacheng","lat":"46.74535000","lon":"82.95847000"},
{"state":"Xinjiang","name":"Tacheng Diqu","lat":"46.75000000","lon":"82.95000000"},
{"state":"Xinjiang","name":"Turpan","lat":"42.94769000","lon":"89.17886000"},
{"state":"Xinjiang","name":"Turpan Diqu","lat":"42.93333000","lon":"89.16667000"},
{"state":"Xinjiang","name":"Ürümqi","lat":"43.80096000","lon":"87.60046000"},
{"state":"Xinjiang","name":"Urumqi Shi","lat":"43.80000000","lon":"87.58333000"},
{"state":"Xinjiang","name":"Xinyuan","lat":"43.42649000","lon":"83.24959000"},
{"state":"Xinjiang","name":"Zangguy","lat":"37.28333000","lon":"78.76667000"},
{"state":"Xizang","name":"Burang","lat":"30.29559000","lon":"81.17511000"},
{"state":"Xizang","name":"Dêqên","lat":"29.96178000","lon":"90.71875000"},
{"state":"Xizang","name":"Jiangzi","lat":"28.92026000","lon":"89.59956000"},
{"state":"Xizang","name":"Lhasa","lat":"29.65000000","lon":"91.10000000"},
{"state":"Xizang","name":"Nagqu","lat":"31.47678000","lon":"92.05729000"},
{"state":"Xizang","name":"Nagqu Diqu","lat":"32.66357000","lon":"88.93146000"},
{"state":"Xizang","name":"Ngari Diqu","lat":"33.21836000","lon":"82.57507000"},
{"state":"Xizang","name":"Nyingchi Prefecture","lat":"29.60092000","lon":"94.42406000"},
{"state":"Xizang","name":"Qamdo","lat":"31.13040000","lon":"97.17982000"},
{"state":"Xizang","name":"Qamdo Shi","lat":"31.58370000","lon":"97.22304000"},
{"state":"Xizang","name":"Rikaze","lat":"29.25000000","lon":"88.88333000"},
{"state":"Xizang","name":"Saga","lat":"29.32367000","lon":"85.22601000"},
{"state":"Xizang","name":"Shannan Diqu","lat":"28.55630000","lon":"92.55684000"},
{"state":"Yunnan","name":"Chuxiong Yizu Zizhizhou","lat":"25.43204000","lon":"101.70479000"},
{"state":"Yunnan","name":"Dali","lat":"25.58474000","lon":"100.21229000"},
{"state":"Yunnan","name":"Dali Baizu Zizhizhou","lat":"25.68548000","lon":"100.13104000"},
{"state":"Yunnan","name":"Dehong Daizu Jingpozu Zizhizhou","lat":"24.66347000","lon":"98.03964000"},
{"state":"Yunnan","name":"Dêqên Tibetan Autonomous Prefecture","lat":"27.91694000","lon":"99.54841000"},
{"state":"Yunnan","name":"Gejiu","lat":"23.36085000","lon":"103.15372000"},
{"state":"Yunnan","name":"Haikou","lat":"24.77985000","lon":"102.57548000"},
{"state":"Yunnan","name":"Honghe Hanizu Yizu Zizhizhou","lat":"23.51675000","lon":"102.97389000"},
{"state":"Yunnan","name":"Jinghong","lat":"21.99102000","lon":"100.73409000"},
{"state":"Yunnan","name":"Kaihua","lat":"23.36950000","lon":"104.27721000"},
{"state":"Yunnan","name":"Kaiyuan","lat":"23.69767000","lon":"103.30372000"},
{"state":"Yunnan","name":"Kunming","lat":"25.03889000","lon":"102.71833000"},
{"state":"Yunnan","name":"Lianran","lat":"24.92271000","lon":"102.48496000"},
{"state":"Yunnan","name":"Lijiang","lat":"26.86879000","lon":"100.22072000"},
{"state":"Yunnan","name":"Lincang Shi","lat":"23.94803000","lon":"99.55124000"},
{"state":"Yunnan","name":"Longquan","lat":"24.67193000","lon":"102.16130000"},
{"state":"Yunnan","name":"Mabai","lat":"23.01279000","lon":"104.45081000"},
{"state":"Yunnan","name":"Majie","lat":"25.03190000","lon":"102.63800000"},
{"state":"Yunnan","name":"Miyang","lat":"24.40417000","lon":"103.44278000"},
{"state":"Yunnan","name":"Nujiang Lisuzu Zizhizhou","lat":"26.61738000","lon":"99.14062000"},
{"state":"Yunnan","name":"Qujing","lat":"25.48333000","lon":"103.78333000"},
{"state":"Yunnan","name":"Shangri-La","lat":"27.82511000","lon":"99.70779000"},
{"state":"Yunnan","name":"Shilin","lat":"24.81878000","lon":"103.33237000"},
{"state":"Yunnan","name":"Wenlan","lat":"23.36002000","lon":"103.43684000"},
{"state":"Yunnan","name":"Wenshan City","lat":"23.36306000","lon":"104.25047000"},
{"state":"Yunnan","name":"Wenshan Zhuangzu Miaozu Zizhizhou","lat":"23.65130000","lon":"104.70830000"},
{"state":"Yunnan","name":"Yuxi","lat":"24.35500000","lon":"102.54222000"},
{"state":"Yunnan","name":"Zhaotong","lat":"27.31667000","lon":"103.71667000"},
{"state":"Yunnan","name":"Zhongshu","lat":"24.51667000","lon":"103.76667000"},
{"state":"Zhejiang","name":"Deqing","lat":"30.54485000","lon":"119.95990000"},
{"state":"Zhejiang","name":"Dongyang","lat":"29.26778000","lon":"120.22528000"},
{"state":"Zhejiang","name":"Fenghua","lat":"29.65628000","lon":"121.40640000"},
{"state":"Zhejiang","name":"Fuyang","lat":"30.05333000","lon":"119.95194000"},
{"state":"Zhejiang","name":"Guli","lat":"28.88162000","lon":"120.03308000"},
{"state":"Zhejiang","name":"Haining","lat":"30.53629000","lon":"120.68638000"},
{"state":"Zhejiang","name":"Hangzhou","lat":"30.29365000","lon":"120.16142000"},
{"state":"Zhejiang","name":"Huangyan","lat":"28.65010000","lon":"121.26591000"},
{"state":"Zhejiang","name":"Huzhou","lat":"30.87030000","lon":"120.09330000"},
{"state":"Zhejiang","name":"Jiaojiang","lat":"28.69844000","lon":"121.47331000"},
{"state":"Zhejiang","name":"Jiashan","lat":"30.84918000","lon":"120.92583000"},
{"state":"Zhejiang","name":"Jiaxing","lat":"30.75220000","lon":"120.75000000"},
{"state":"Zhejiang","name":"Jiaxing Shi","lat":"30.77070000","lon":"120.75238000"},
{"state":"Zhejiang","name":"Jinhua","lat":"29.10678000","lon":"119.64421000"},
{"state":"Zhejiang","name":"Jinxiang","lat":"27.43265000","lon":"120.60625000"},
{"state":"Zhejiang","name":"Kunyang","lat":"27.66583000","lon":"120.56583000"},
{"state":"Zhejiang","name":"Lanxi","lat":"29.21588000","lon":"119.47156000"},
{"state":"Zhejiang","name":"Lianghu","lat":"29.99152000","lon":"120.89845000"},
{"state":"Zhejiang","name":"Linhai","lat":"28.85535000","lon":"121.14470000"},
{"state":"Zhejiang","name":"Linping","lat":"30.42250000","lon":"120.29722000"},
{"state":"Zhejiang","name":"Lishui","lat":"28.46042000","lon":"119.91029000"},
{"state":"Zhejiang","name":"Luqiao","lat":"28.58023000","lon":"121.37491000"},
{"state":"Zhejiang","name":"Ningbo","lat":"29.87819000","lon":"121.54945000"},
{"state":"Zhejiang","name":"Ninghai","lat":"29.28917000","lon":"121.42472000"},
{"state":"Zhejiang","name":"Puyang","lat":"29.45679000","lon":"119.88872000"},
{"state":"Zhejiang","name":"Quzhou","lat":"28.95944000","lon":"118.86861000"},
{"state":"Zhejiang","name":"Shangyu","lat":"30.01556000","lon":"120.87111000"},
{"state":"Zhejiang","name":"Shaoxing","lat":"30.00237000","lon":"120.57864000"},
{"state":"Zhejiang","name":"Shenjiamen","lat":"29.95763000","lon":"122.29802000"},
{"state":"Zhejiang","name":"Taizhou","lat":"28.66266000","lon":"121.43312000"},
{"state":"Zhejiang","name":"Wenling","lat":"28.37524000","lon":"121.38416000"},
{"state":"Zhejiang","name":"Wenzhou","lat":"27.99942000","lon":"120.66682000"},
{"state":"Zhejiang","name":"Wuzhen","lat":"30.74536000","lon":"120.48510000"},
{"state":"Zhejiang","name":"Xianju","lat":"28.85470000","lon":"120.73168000"},
{"state":"Zhejiang","name":"Xiaoshan","lat":"30.16746000","lon":"120.25883000"},
{"state":"Zhejiang","name":"Yiwu","lat":"29.31506000","lon":"120.07676000"},
{"state":"Zhejiang","name":"Yuyao","lat":"30.05000000","lon":"121.14944000"},
{"state":"Zhejiang","name":"Zhaobaoshan","lat":"29.96950000","lon":"121.68753000"},
{"state":"Zhejiang","name":"Zhicheng","lat":"31.00751000","lon":"119.90851000"},
{"state":"Zhejiang","name":"Zhoushan","lat":"29.98869000","lon":"122.20488000"},
{"state":"Zhejiang","name":"Zhuji","lat":"29.71877000","lon":"120.24233000"}]