[{"state":"Amazonas","name":"El Encanto","lat":"-1.56261000","lon":"-73.25684000"},
{"state":"Amazonas","name":"La Chorrera","lat":"-1.48894000","lon":"-72.72935000"},
{"state":"Amazonas","name":"La Pedrera","lat":"-1.65596000","lon":"-70.22186000"},
{"state":"Amazonas","name":"La Victoria","lat":"-0.18311000","lon":"-71.03760000"},
{"state":"Amazonas","name":"Leticia","lat":"-4.21528000","lon":"-69.94056000"},
{"state":"Amazonas","name":"Miriti - Paraná","lat":"-0.81858000","lon":"-70.78925000"},
{"state":"Amazonas","name":"Puerto Alegría","lat":"-0.96886000","lon":"-73.74962000"},
{"state":"Amazonas","name":"Puerto Arica","lat":"-1.90677000","lon":"-71.14653000"},
{"state":"Amazonas","name":"Puerto Nariño","lat":"-3.78889000","lon":"-70.35584000"},
{"state":"Amazonas","name":"Puerto Santander","lat":"-1.09870000","lon":"-71.93911000"},
{"state":"Amazonas","name":"Tarapacá","lat":"-2.88544000","lon":"-69.77692000"},
{"state":"Antioquia","name":"Abejorral","lat":"5.78928000","lon":"-75.42725000"},
{"state":"Antioquia","name":"Abriaquí","lat":"6.63148000","lon":"-76.06444000"},
{"state":"Antioquia","name":"Alejandría","lat":"6.36667000","lon":"-75.08333000"},
{"state":"Antioquia","name":"Amagá","lat":"6.04001000","lon":"-75.70315000"},
{"state":"Antioquia","name":"Amalfi","lat":"6.91016000","lon":"-75.07764000"},
{"state":"Antioquia","name":"Andes","lat":"5.66974000","lon":"-75.89905000"},
{"state":"Antioquia","name":"Angelópolis","lat":"6.12228000","lon":"-75.71432000"},
{"state":"Antioquia","name":"Angostura","lat":"6.87120000","lon":"-75.35947000"},
{"state":"Antioquia","name":"Anorí","lat":"7.07361111","lon":"-75.14694444"},
{"state":"Antioquia","name":"Anza","lat":"6.33333000","lon":"-75.91667000"},
{"state":"Antioquia","name":"Apartadó","lat":"7.88299000","lon":"-76.62587000"},
{"state":"Antioquia","name":"Arboletes","lat":"8.85051000","lon":"-76.42694000"},
{"state":"Antioquia","name":"Argelia","lat":"5.73127000","lon":"-75.14257000"},
{"state":"Antioquia","name":"Armenia","lat":"6.17554000","lon":"-75.81230000"},
{"state":"Antioquia","name":"Barbosa","lat":"6.43809000","lon":"-75.33136000"},
{"state":"Antioquia","name":"Bello","lat":"6.36160000","lon":"-75.58728000"},
{"state":"Antioquia","name":"Belmira","lat":"6.60508000","lon":"-75.66619000"},
{"state":"Antioquia","name":"Betania","lat":"5.73571000","lon":"-75.98964000"},
{"state":"Antioquia","name":"Betulia","lat":"6.11284000","lon":"-75.98378000"},
{"state":"Antioquia","name":"Briceño","lat":"7.05001000","lon":"-75.50903000"},
{"state":"Antioquia","name":"Buriticá","lat":"6.80549000","lon":"-75.92093000"},
{"state":"Antioquia","name":"Cáceres","lat":"7.68252000","lon":"-75.22481000"},
{"state":"Antioquia","name":"Caicedo","lat":"6.42805000","lon":"-75.99715000"},
{"state":"Antioquia","name":"Caldas","lat":"6.09106000","lon":"-75.63569000"},
{"state":"Antioquia","name":"Campamento","lat":"7.03910000","lon":"-75.28938000"},
{"state":"Antioquia","name":"Cañasgordas","lat":"6.80951000","lon":"-76.03954000"},
{"state":"Antioquia","name":"Caracolí","lat":"6.40920000","lon":"-74.75715000"},
{"state":"Antioquia","name":"Caramanta","lat":"5.54144000","lon":"-75.66961000"},
{"state":"Antioquia","name":"Carepa","lat":"7.75849000","lon":"-76.65255000"},
{"state":"Antioquia","name":"Carolina","lat":"6.74807000","lon":"-75.32131000"},
{"state":"Antioquia","name":"Caucasia","lat":"7.98654000","lon":"-75.19349000"},
{"state":"Antioquia","name":"Chigorodó","lat":"7.66638000","lon":"-76.68106000"},
{"state":"Antioquia","name":"Cisneros","lat":"6.54507000","lon":"-75.09415000"},
{"state":"Antioquia","name":"Ciudad Bolívar","lat":"5.85389000","lon":"-76.02528000"},
{"state":"Antioquia","name":"Cocorná","lat":"6.00579000","lon":"-75.16984000"},
{"state":"Antioquia","name":"Concepción","lat":"6.39408000","lon":"-75.25830000"},
{"state":"Antioquia","name":"Concordia","lat":"6.04639000","lon":"-75.90705000"},
{"state":"Antioquia","name":"Copacabana","lat":"6.36230000","lon":"-75.49922000"},
{"state":"Antioquia","name":"Dabeiba","lat":"7.03367000","lon":"-76.34161000"},
{"state":"Antioquia","name":"Donmatías","lat":"6.48569000","lon":"-75.39496000"},
{"state":"Antioquia","name":"Ebéjico","lat":"6.32598000","lon":"-75.76835000"},
{"state":"Antioquia","name":"El Bagre","lat":"7.60347000","lon":"-74.80951000"},
{"state":"Antioquia","name":"El Carmen de Viboral","lat":"6.08236000","lon":"-75.33509000"},
{"state":"Antioquia","name":"El Santuario","lat":"6.13833000","lon":"-75.26417000"},
{"state":"Antioquia","name":"Entrerrios","lat":"6.58333000","lon":"-75.58333000"},
{"state":"Antioquia","name":"Envigado","lat":"6.17591000","lon":"-75.59174000"},
{"state":"Antioquia","name":"Fredonia","lat":"5.89239000","lon":"-75.68546000"},
{"state":"Antioquia","name":"Frontino","lat":"6.77133000","lon":"-76.13324000"},
{"state":"Antioquia","name":"Giraldo","lat":"6.66667000","lon":"-75.95346000"},
{"state":"Antioquia","name":"Girardota","lat":"6.36789000","lon":"-75.46231000"},
{"state":"Antioquia","name":"Gómez Plata","lat":"6.68178000","lon":"-75.21907000"},
{"state":"Antioquia","name":"Granada","lat":"6.14353000","lon":"-75.18532000"},
{"state":"Antioquia","name":"Guadalupe","lat":"6.81449000","lon":"-75.24063000"},
{"state":"Antioquia","name":"Guarne","lat":"6.28345000","lon":"-75.44363000"},
{"state":"Antioquia","name":"Guatapé","lat":"6.25548000","lon":"-75.16432000"},
{"state":"Antioquia","name":"Heliconia","lat":"6.20831000","lon":"-75.73565000"},
{"state":"Antioquia","name":"Hispania","lat":"5.79925000","lon":"-75.90718000"},
{"state":"Antioquia","name":"Itagui","lat":"6.17874000","lon":"-75.63117000"},
{"state":"Antioquia","name":"Ituango","lat":"7.17117000","lon":"-75.76404000"},
{"state":"Antioquia","name":"Jardín","lat":"5.59038000","lon":"-75.81846000"},
{"state":"Antioquia","name":"Jericó","lat":"5.79211000","lon":"-75.78601000"},
{"state":"Antioquia","name":"La Ceja","lat":"6.00000000","lon":"-75.43311000"},
{"state":"Antioquia","name":"La Estrella","lat":"6.14239000","lon":"-75.65257000"},
{"state":"Antioquia","name":"La Pintada","lat":"5.74867000","lon":"-75.60626000"},
{"state":"Antioquia","name":"La Unión","lat":"5.94642000","lon":"-75.35917000"},
{"state":"Antioquia","name":"Liborina","lat":"6.67790000","lon":"-75.81218000"},
{"state":"Antioquia","name":"Maceo","lat":"6.55196000","lon":"-74.78741000"},
{"state":"Antioquia","name":"Marinilla","lat":"6.19609000","lon":"-75.30313000"},
{"state":"Antioquia","name":"Medellín","lat":"6.25184000","lon":"-75.56359000"},
{"state":"Antioquia","name":"Montebello","lat":"5.93703000","lon":"-75.52741000"},
{"state":"Antioquia","name":"Murindó","lat":"6.84698000","lon":"-76.71544000"},
{"state":"Antioquia","name":"Mutatá","lat":"7.24407000","lon":"-76.43564000"},
{"state":"Antioquia","name":"Nariño","lat":"5.60893000","lon":"-75.17656000"},
{"state":"Antioquia","name":"Nechí","lat":"8.09419000","lon":"-74.77573000"},
{"state":"Antioquia","name":"Necoclí","lat":"8.42627000","lon":"-76.78926000"},
{"state":"Antioquia","name":"Olaya","lat":"6.62773000","lon":"-75.81270000"},
{"state":"Antioquia","name":"Peñol","lat":"6.23434000","lon":"-75.22573000"},
{"state":"Antioquia","name":"Peque","lat":"7.02123000","lon":"-75.90926000"},
{"state":"Antioquia","name":"Pueblorrico","lat":"5.80000000","lon":"-75.85000000"},
{"state":"Antioquia","name":"Puerto Berrío","lat":"6.50749000","lon":"-74.52271000"},
{"state":"Antioquia","name":"Puerto Nare","lat":"6.19167000","lon":"-74.58670000"},
{"state":"Antioquia","name":"Puerto Triunfo","lat":"5.87259000","lon":"-74.64050000"},
{"state":"Antioquia","name":"Remedios","lat":"7.02835000","lon":"-74.69379000"},
{"state":"Antioquia","name":"Retiro","lat":"6.05906000","lon":"-75.51488000"},
{"state":"Antioquia","name":"Rionegro","lat":"6.16667000","lon":"-75.41667000"},
{"state":"Antioquia","name":"Sabanalarga","lat":"6.84893000","lon":"-75.81711000"},
{"state":"Antioquia","name":"Sabaneta","lat":"6.15153000","lon":"-75.61657000"},
{"state":"Antioquia","name":"Salgar","lat":"5.96711000","lon":"-75.98747000"},
{"state":"Antioquia","name":"San Andrés de Cuerquía","lat":"6.90333000","lon":"-75.68250000"},
{"state":"Antioquia","name":"San Carlos","lat":"7.79177000","lon":"-74.77316000"},
{"state":"Antioquia","name":"San Francisco","lat":"6.11667000","lon":"-75.98333000"},
{"state":"Antioquia","name":"San Jerónimo","lat":"6.44139000","lon":"-75.70783000"},
{"state":"Antioquia","name":"San José de la Montaña","lat":"6.82205000","lon":"-75.69757000"},
{"state":"Antioquia","name":"San Juan de Urabá","lat":"8.75924000","lon":"-76.52969000"},
{"state":"Antioquia","name":"San Luis","lat":"6.04222222","lon":"-74.99333333"},
{"state":"Antioquia","name":"San Pedro de los Milagros","lat":"6.45944444","lon":"-75.55777888"},
{"state":"Antioquia","name":"San Pedro de Uraba","lat":"8.42291000","lon":"-76.31747000"},
{"state":"Antioquia","name":"San Rafael","lat":"6.31234000","lon":"-75.02426000"},
{"state":"Antioquia","name":"San Roque","lat":"6.48511000","lon":"-75.01960000"},
{"state":"Antioquia","name":"San Vicente Ferrer","lat":"6.32237000","lon":"-75.33020000"},
{"state":"Antioquia","name":"Santa Bárbara","lat":"5.88937000","lon":"-75.58255000"},
{"state":"Antioquia","name":"Santa Fe de Antioquia","lat":"6.55687000","lon":"-75.82806000"},
{"state":"Antioquia","name":"Santa Rosa de Osos","lat":"6.64738000","lon":"-75.46031000"},
{"state":"Antioquia","name":"Santo Domingo","lat":"6.47282000","lon":"-75.16547000"},
{"state":"Antioquia","name":"Segovia","lat":"7.28132000","lon":"-74.64273000"},
{"state":"Antioquia","name":"Sonson","lat":"5.75000000","lon":"-75.00000000"},
{"state":"Antioquia","name":"Sopetrán","lat":"6.52271000","lon":"-75.74608000"},
{"state":"Antioquia","name":"Támesis","lat":"5.66462000","lon":"-75.71339000"},
{"state":"Antioquia","name":"Tarazá","lat":"7.58358000","lon":"-75.40068000"},
{"state":"Antioquia","name":"Tarso","lat":"5.86467000","lon":"-75.82192000"},
{"state":"Antioquia","name":"Titiribí","lat":"6.06276000","lon":"-75.79370000"},
{"state":"Antioquia","name":"Toledo","lat":"7.01306000","lon":"-75.69528000"},
{"state":"Antioquia","name":"Turbo","lat":"8.09263000","lon":"-76.72822000"},
{"state":"Antioquia","name":"Uramita","lat":"6.89944000","lon":"-76.17417000"},
{"state":"Antioquia","name":"Urrao","lat":"6.31696000","lon":"-76.13420000"},
{"state":"Antioquia","name":"Valdivia","lat":"7.29382000","lon":"-75.39190000"},
{"state":"Antioquia","name":"Valparaíso","lat":"5.61500000","lon":"-75.62422000"},
{"state":"Antioquia","name":"Vegachí","lat":"6.76141000","lon":"-74.79473000"},
{"state":"Antioquia","name":"Venecia","lat":"5.95417000","lon":"-75.79904000"},
{"state":"Antioquia","name":"Vigía del Fuerte","lat":"6.58933000","lon":"-76.89599000"},
{"state":"Antioquia","name":"Yalí","lat":"6.70257000","lon":"-74.79018000"},
{"state":"Antioquia","name":"Yarumal","lat":"6.98532000","lon":"-75.45402000"},
{"state":"Antioquia","name":"Yolombó","lat":"6.66569000","lon":"-74.99120000"},
{"state":"Antioquia","name":"Yondó","lat":"6.90738000","lon":"-74.17686000"},
{"state":"Antioquia","name":"Zaragoza","lat":"7.48971000","lon":"-74.86919000"},
{"state":"Arauca","name":"Arauca","lat":"7.08471000","lon":"-70.75908000"},
{"state":"Arauca","name":"Arauquita","lat":"7.02917000","lon":"-71.42806000"},
{"state":"Arauca","name":"Cravo Norte","lat":"6.30173000","lon":"-70.20415000"},
{"state":"Arauca","name":"Fortul","lat":"6.74611000","lon":"-71.85667000"},
{"state":"Arauca","name":"Puerto Rondón","lat":"6.28048000","lon":"-71.10000000"},
{"state":"Arauca","name":"Saravena","lat":"6.96319000","lon":"-71.88230000"},
{"state":"Arauca","name":"Tame","lat":"6.46065000","lon":"-71.73618000"},
{"state":"Archipiélago de San Andrés, Providencia y Santa Catalina","name":"Providencia","lat":"13.38479000","lon":"-81.37468000"},
{"state":"Archipiélago de San Andrés, Providencia y Santa Catalina","name":"San Andrés","lat":"12.58317000","lon":"-81.70636000"},
{"state":"Atlántico","name":"Baranoa","lat":"10.79497000","lon":"-74.92073000"},
{"state":"Atlántico","name":"Barranquilla","lat":"10.96854000","lon":"-74.78132000"},
{"state":"Atlántico","name":"Campo de la Cruz","lat":"10.37844000","lon":"-74.90258000"},
{"state":"Atlántico","name":"Candelaria","lat":"10.47387000","lon":"-74.88581000"},
{"state":"Atlántico","name":"Galapa","lat":"10.89790000","lon":"-74.88700000"},
{"state":"Atlántico","name":"Juan de Acosta","lat":"10.82930000","lon":"-75.03346000"},
{"state":"Atlántico","name":"Luruaco","lat":"10.61712000","lon":"-75.15146000"},
{"state":"Atlántico","name":"Malambo","lat":"10.85953000","lon":"-74.77386000"},
{"state":"Atlántico","name":"Manatí","lat":"10.46402000","lon":"-74.98220000"},
{"state":"Atlántico","name":"Palmar de Varela","lat":"10.74055000","lon":"-74.75443000"},
{"state":"Atlántico","name":"Piojó","lat":"10.74846000","lon":"-75.10776000"},
{"state":"Atlántico","name":"Polonuevo","lat":"10.77697000","lon":"-74.85344000"},
{"state":"Atlántico","name":"Ponedera","lat":"10.64297000","lon":"-74.75393000"},
{"state":"Atlántico","name":"Puerto Colombia","lat":"11.00854000","lon":"-74.90887000"},
{"state":"Atlántico","name":"Repelón","lat":"10.50937000","lon":"-75.12830000"},
{"state":"Atlántico","name":"Sabanagrande","lat":"10.80077000","lon":"-74.77051000"},
{"state":"Atlántico","name":"Sabanalarga","lat":"10.61636000","lon":"-74.95717000"},
{"state":"Atlántico","name":"Santa Lucía","lat":"10.32420000","lon":"-74.96017000"},
{"state":"Atlántico","name":"Santo Tomás","lat":"10.75773000","lon":"-74.75451000"},
{"state":"Atlántico","name":"Soledad","lat":"10.89986000","lon":"-74.78787000"},
{"state":"Atlántico","name":"Suan","lat":"10.30214000","lon":"-74.91934000"},
{"state":"Atlántico","name":"Tubará","lat":"10.87562000","lon":"-74.97873000"},
{"state":"Atlántico","name":"Usiacurí","lat":"10.74313000","lon":"-74.97604000"},
{"state":"Bogotá D.C.","name":"Bogotá D.C.","lat":"4.61263889","lon":"-74.07050000"},
{"state":"Bolívar","name":"Achí","lat":"8.56950000","lon":"-74.55715000"},
{"state":"Bolívar","name":"Altos del Rosario","lat":"8.79162000","lon":"-74.16556000"},
{"state":"Bolívar","name":"Arenal","lat":"8.45928000","lon":"-73.94331000"},
{"state":"Bolívar","name":"Arjona","lat":"10.17594000","lon":"-75.35884000"},
{"state":"Bolívar","name":"Arroyohondo","lat":"10.25220000","lon":"-75.01980000"},
{"state":"Bolívar","name":"Barranco de Loba","lat":"8.94597000","lon":"-74.10647000"},
{"state":"Bolívar","name":"Calamar","lat":"10.23377000","lon":"-74.94240000"},
{"state":"Bolívar","name":"Cantagallo","lat":"7.37926000","lon":"-73.91550000"},
{"state":"Bolívar","name":"Cartagena de Indias","lat":"10.39972000","lon":"-75.51444000"},
{"state":"Bolívar","name":"Cicuco","lat":"9.27756000","lon":"-74.64312000"},
{"state":"Bolívar","name":"Clemencia","lat":"10.56645000","lon":"-75.32499000"},
{"state":"Bolívar","name":"Córdoba","lat":"9.55149000","lon":"-74.89800000"},
{"state":"Bolívar","name":"El Carmen de Bolívar","lat":"9.71740000","lon":"-75.12023000"},
{"state":"Bolívar","name":"El Guamo","lat":"10.01753000","lon":"-74.93483000"},
{"state":"Bolívar","name":"El Peñón","lat":"8.98691000","lon":"-73.94697000"},
{"state":"Bolívar","name":"Hatillo de Loba","lat":"8.95635000","lon":"-74.07819000"},
{"state":"Bolívar","name":"Magangué","lat":"9.24202000","lon":"-74.75467000"},
{"state":"Bolívar","name":"Mahates","lat":"10.23293000","lon":"-75.18985000"},
{"state":"Bolívar","name":"Margarita","lat":"9.06325000","lon":"-74.28134000"},
{"state":"Bolívar","name":"María la Baja","lat":"9.99228000","lon":"-75.34364000"},
{"state":"Bolívar","name":"Mompós","lat":"9.13990000","lon":"-74.54513000"},
{"state":"Bolívar","name":"Montecristo","lat":"8.29710000","lon":"-74.47330000"},
{"state":"Bolívar","name":"Morales","lat":"8.27520000","lon":"-73.86884000"},
{"state":"Bolívar","name":"Norosí","lat":"8.52692000","lon":"-74.03736000"},
{"state":"Bolívar","name":"Pinillos","lat":"8.91925000","lon":"-74.46771000"},
{"state":"Bolívar","name":"Regidor","lat":"8.72229000","lon":"-73.84891000"},
{"state":"Bolívar","name":"Río Viejo","lat":"8.58740000","lon":"-73.83901000"},
{"state":"Bolívar","name":"San Cristóbal","lat":"9.87809000","lon":"-75.25248000"},
{"state":"Bolívar","name":"San Estanislao","lat":"10.39833000","lon":"-75.15111000"},
{"state":"Bolívar","name":"San Fernando","lat":"9.27972000","lon":"-74.53389000"},
{"state":"Bolívar","name":"San Jacinto","lat":"9.83906000","lon":"-75.11043000"},
{"state":"Bolívar","name":"San Jacinto del Cauca","lat":"8.23729000","lon":"-74.66782000"},
{"state":"Bolívar","name":"San Juan Nepomuceno","lat":"9.94976000","lon":"-75.07426000"},
{"state":"Bolívar","name":"San Martín de Loba","lat":"8.88214000","lon":"-74.00353000"},
{"state":"Bolívar","name":"San Pablo","lat":"10.05154000","lon":"-75.26775000"},
{"state":"Bolívar","name":"Santa Catalina","lat":"10.60448000","lon":"-75.29555000"},
{"state":"Bolívar","name":"Santa Rosa","lat":"10.47312000","lon":"-75.36160000"},
{"state":"Bolívar","name":"Santa Rosa del Sur","lat":"7.96444000","lon":"-74.05444000"},
{"state":"Bolívar","name":"Simití","lat":"7.81632000","lon":"-73.97922000"},
{"state":"Bolívar","name":"Soplaviento","lat":"10.33176000","lon":"-75.11853000"},
{"state":"Bolívar","name":"Talaigua Nuevo","lat":"9.30347000","lon":"-74.56477000"},
{"state":"Bolívar","name":"Tiquisio","lat":"8.55666000","lon":"-74.26355000"},
{"state":"Bolívar","name":"Turbaco","lat":"10.35707000","lon":"-75.38044000"},
{"state":"Bolívar","name":"Turbaná","lat":"10.27169000","lon":"-75.44222000"},
{"state":"Bolívar","name":"Villanueva","lat":"10.44759000","lon":"-75.26574000"},
{"state":"Bolívar","name":"Zambrano","lat":"9.74823000","lon":"-74.88487000"},
{"state":"Boyacá","name":"Almeida","lat":"4.97083000","lon":"-73.37972000"},
{"state":"Boyacá","name":"Aquitania","lat":"5.40341000","lon":"-72.90192000"},
{"state":"Boyacá","name":"Arcabuco","lat":"5.75463000","lon":"-73.43669000"},
{"state":"Boyacá","name":"Belén","lat":"5.98892000","lon":"-72.91254000"},
{"state":"Boyacá","name":"Berbeo","lat":"5.22760000","lon":"-73.12527000"},
{"state":"Boyacá","name":"Betéitiva","lat":"5.91102000","lon":"-72.80926000"},
{"state":"Boyacá","name":"Boavita","lat":"6.33031000","lon":"-72.58505000"},
{"state":"Boyacá","name":"Boyacá","lat":"5.45371000","lon":"-73.36250000"},
{"state":"Boyacá","name":"Briceño","lat":"5.68822000","lon":"-73.91784000"},
{"state":"Boyacá","name":"Buenavista","lat":"5.50000000","lon":"-73.96667000"},
{"state":"Boyacá","name":"Busbanzá","lat":"5.83047000","lon":"-72.88419000"},
{"state":"Boyacá","name":"Caldas","lat":"5.57830000","lon":"-73.88066000"},
{"state":"Boyacá","name":"Campohermoso","lat":"4.97733000","lon":"-73.16714000"},
{"state":"Boyacá","name":"Cerinza","lat":"5.93649000","lon":"-72.99127000"},
{"state":"Boyacá","name":"Chinavita","lat":"5.17915000","lon":"-73.37147000"},
{"state":"Boyacá","name":"Chiquinquirá","lat":"5.61363000","lon":"-73.83848000"},
{"state":"Boyacá","name":"Chíquiza","lat":"5.60412000","lon":"-73.48518000"},
{"state":"Boyacá","name":"Chiscas","lat":"6.55642000","lon":"-72.50378000"},
{"state":"Boyacá","name":"Chita","lat":"6.07788000","lon":"-72.46774000"},
{"state":"Boyacá","name":"Chitaraque","lat":"5.96167000","lon":"-73.45761000"},
{"state":"Boyacá","name":"Chivatá","lat":"5.55823000","lon":"-73.28198000"},
{"state":"Boyacá","name":"Chivor","lat":"4.88556000","lon":"-73.36889000"},
{"state":"Boyacá","name":"Ciénega","lat":"5.40867000","lon":"-73.29572000"},
{"state":"Boyacá","name":"Combita","lat":"5.63333000","lon":"-73.31667000"},
{"state":"Boyacá","name":"Coper","lat":"5.47681000","lon":"-74.04416000"},
{"state":"Boyacá","name":"Corrales","lat":"5.82497000","lon":"-72.84539000"},
{"state":"Boyacá","name":"Covarachía","lat":"6.50563000","lon":"-72.73310000"},
{"state":"Boyacá","name":"Cubará","lat":"7.00578000","lon":"-72.10568000"},
{"state":"Boyacá","name":"Cucaita","lat":"5.54373000","lon":"-73.45433000"},
{"state":"Boyacá","name":"Cuítiva","lat":"5.58007000","lon":"-72.96687000"},
{"state":"Boyacá","name":"Duitama","lat":"5.82450000","lon":"-73.03408000"},
{"state":"Boyacá","name":"El Cocuy","lat":"6.32839000","lon":"-72.43577000"},
{"state":"Boyacá","name":"El Espino","lat":"6.50812000","lon":"-72.48036000"},
{"state":"Boyacá","name":"Firavitoba","lat":"5.66885000","lon":"-72.99289000"},
{"state":"Boyacá","name":"Floresta","lat":"5.85903000","lon":"-72.92511000"},
{"state":"Boyacá","name":"Gachantivá","lat":"5.74417000","lon":"-73.54253000"},
{"state":"Boyacá","name":"Gameza","lat":"5.80313000","lon":"-72.73721000"},
{"state":"Boyacá","name":"Garagoa","lat":"5.08236000","lon":"-73.36334000"},
{"state":"Boyacá","name":"Guacamayas","lat":"6.44599000","lon":"-72.51676000"},
{"state":"Boyacá","name":"Guateque","lat":"5.00619000","lon":"-73.47274000"},
{"state":"Boyacá","name":"Guayatá","lat":"4.96417000","lon":"-73.48750000"},
{"state":"Boyacá","name":"Güicán","lat":"6.46554000","lon":"-72.41539000"},
{"state":"Boyacá","name":"Iza","lat":"5.61203000","lon":"-72.97930000"},
{"state":"Boyacá","name":"Jenesano","lat":"5.38541000","lon":"-73.36364000"},
{"state":"Boyacá","name":"Jericó","lat":"6.14577000","lon":"-72.58598000"},
{"state":"Boyacá","name":"La Capilla","lat":"5.08076000","lon":"-73.48076000"},
{"state":"Boyacá","name":"La Uvita","lat":"6.24262000","lon":"-72.56448000"},
{"state":"Boyacá","name":"La Victoria","lat":"5.52278000","lon":"-74.23280000"},
{"state":"Boyacá","name":"Labranzagrande","lat":"5.56223000","lon":"-72.57499000"},
{"state":"Boyacá","name":"Macanal","lat":"4.95050000","lon":"-73.32029000"},
{"state":"Boyacá","name":"Maripí","lat":"5.55194000","lon":"-74.00861000"},
{"state":"Boyacá","name":"Miraflores","lat":"5.12216000","lon":"-73.21212000"},
{"state":"Boyacá","name":"Mongua","lat":"5.75084000","lon":"-72.80339000"},
{"state":"Boyacá","name":"Monguí","lat":"5.69752000","lon":"-72.83359000"},
{"state":"Boyacá","name":"Moniquirá","lat":"5.84315000","lon":"-73.57775000"},
{"state":"Boyacá","name":"Motavita","lat":"5.57655000","lon":"-73.36696000"},
{"state":"Boyacá","name":"Muzo","lat":"5.53528000","lon":"-74.10778000"},
{"state":"Boyacá","name":"Nobsa","lat":"5.76978000","lon":"-72.94099000"},
{"state":"Boyacá","name":"Nuevo Colón","lat":"5.35368000","lon":"-73.45660000"},
{"state":"Boyacá","name":"Oicatá","lat":"5.59548000","lon":"-73.30820000"},
{"state":"Boyacá","name":"Otanche","lat":"5.77534000","lon":"-74.20315000"},
{"state":"Boyacá","name":"Pachavita","lat":"5.13969000","lon":"-73.39739000"},
{"state":"Boyacá","name":"Páez","lat":"5.10112000","lon":"-73.05123000"},
{"state":"Boyacá","name":"Paipa","lat":"5.78013000","lon":"-73.11708000"},
{"state":"Boyacá","name":"Pajarito","lat":"5.34751000","lon":"-72.72075000"},
{"state":"Boyacá","name":"Panqueba","lat":"6.44533000","lon":"-72.46268000"},
{"state":"Boyacá","name":"Pauna","lat":"5.65861000","lon":"-73.98250000"},
{"state":"Boyacá","name":"Paya","lat":"5.62492000","lon":"-72.42345000"},
{"state":"Boyacá","name":"Paz de Río","lat":"6.00219000","lon":"-72.78857000"},
{"state":"Boyacá","name":"Pesca","lat":"5.50213000","lon":"-73.08794000"},
{"state":"Boyacá","name":"Pisba","lat":"5.72396000","lon":"-72.48646000"},
{"state":"Boyacá","name":"Puerto Boyacá","lat":"5.97214000","lon":"-74.46349000"},
{"state":"Boyacá","name":"Quípama","lat":"5.51940000","lon":"-74.17765000"},
{"state":"Boyacá","name":"Ramiriquí","lat":"5.40020000","lon":"-73.33544000"},
{"state":"Boyacá","name":"Ráquira","lat":"5.53793000","lon":"-73.63201000"},
{"state":"Boyacá","name":"Rondón","lat":"5.38173000","lon":"-73.19683000"},
{"state":"Boyacá","name":"Saboyá","lat":"5.69636000","lon":"-73.76932000"},
{"state":"Boyacá","name":"Sáchica","lat":"5.58453000","lon":"-73.54184000"},
{"state":"Boyacá","name":"Samacá","lat":"5.49273000","lon":"-73.48537000"},
{"state":"Boyacá","name":"San Eduardo","lat":"5.22396000","lon":"-73.07696000"},
{"state":"Boyacá","name":"San José de Pare","lat":"6.01746000","lon":"-73.54703000"},
{"state":"Boyacá","name":"San Luis de Gaceno","lat":"4.82052000","lon":"-73.16851000"},
{"state":"Boyacá","name":"San Mateo","lat":"6.37704000","lon":"-72.57797000"},
{"state":"Boyacá","name":"San Miguel de Sema","lat":"5.51847000","lon":"-73.72238000"},
{"state":"Boyacá","name":"San Pablo de Borbur","lat":"5.66638000","lon":"-74.13723000"},
{"state":"Boyacá","name":"Santa María","lat":"4.82282000","lon":"-73.25373000"},
{"state":"Boyacá","name":"Santa Rosa de Viterbo","lat":"5.87401000","lon":"-72.98217000"},
{"state":"Boyacá","name":"Santa Sofía","lat":"5.70213000","lon":"-73.62976000"},
{"state":"Boyacá","name":"Santana","lat":"6.04464000","lon":"-73.51107000"},
{"state":"Boyacá","name":"Sativanorte","lat":"6.13156000","lon":"-72.70895000"},
{"state":"Boyacá","name":"Sativasur","lat":"6.08959000","lon":"-72.72432000"},
{"state":"Boyacá","name":"Siachoque","lat":"5.51238000","lon":"-73.24436000"},
{"state":"Boyacá","name":"Soatá","lat":"6.29966000","lon":"-72.72422000"},
{"state":"Boyacá","name":"Socha","lat":"5.92926000","lon":"-72.70072000"},
{"state":"Boyacá","name":"Socotá","lat":"6.04028000","lon":"-72.63509000"},
{"state":"Boyacá","name":"Sogamoso","lat":"5.71434000","lon":"-72.93391000"},
{"state":"Boyacá","name":"Somondoco","lat":"4.98495000","lon":"-73.43238000"},
{"state":"Boyacá","name":"Sora","lat":"5.56514000","lon":"-73.45017000"},
{"state":"Boyacá","name":"Soracá","lat":"5.50055000","lon":"-73.33299000"},
{"state":"Boyacá","name":"Sotaquirá","lat":"5.76483000","lon":"-73.24758000"},
{"state":"Boyacá","name":"Susacón","lat":"6.22978000","lon":"-72.69010000"},
{"state":"Boyacá","name":"Sutamarchán","lat":"5.61538000","lon":"-73.61701000"},
{"state":"Boyacá","name":"Sutatenza","lat":"5.02311000","lon":"-73.45230000"},
{"state":"Boyacá","name":"Tasco","lat":"5.91044000","lon":"-72.78001000"},
{"state":"Boyacá","name":"Tenza","lat":"5.07664000","lon":"-73.42077000"},
{"state":"Boyacá","name":"Tibaná","lat":"5.31728000","lon":"-73.39655000"},
{"state":"Boyacá","name":"Tibasosa","lat":"5.74722000","lon":"-73.01091000"},
{"state":"Boyacá","name":"Tinjacá","lat":"5.57916000","lon":"-73.64486000"},
{"state":"Boyacá","name":"Tipacoque","lat":"6.42031000","lon":"-72.69184000"},
{"state":"Boyacá","name":"Toca","lat":"5.56393000","lon":"-73.18398000"},
{"state":"Boyacá","name":"Togüí","lat":"5.93462000","lon":"-73.51297000"},
{"state":"Boyacá","name":"Tópaga","lat":"5.75979000","lon":"-72.82583000"},
{"state":"Boyacá","name":"Tota","lat":"5.55833000","lon":"-72.98757000"},
{"state":"Boyacá","name":"Tunja","lat":"5.53528000","lon":"-73.36778000"},
{"state":"Boyacá","name":"Tununguá","lat":"5.72967000","lon":"-73.94137000"},
{"state":"Boyacá","name":"Turmequé","lat":"5.32360000","lon":"-73.49067000"},
{"state":"Boyacá","name":"Tuta","lat":"5.68966000","lon":"-73.22779000"},
{"state":"Boyacá","name":"Tutazá","lat":"6.03228000","lon":"-72.85639000"},
{"state":"Boyacá","name":"Umbita","lat":"5.18411000","lon":"-73.48341000"},
{"state":"Boyacá","name":"Ventaquemada","lat":"5.35987000","lon":"-73.55032000"},
{"state":"Boyacá","name":"Villa de Leyva","lat":"5.67061000","lon":"-73.51554000"},
{"state":"Boyacá","name":"Viracachá","lat":"5.43637000","lon":"-73.29606000"},
{"state":"Boyacá","name":"Zetaquira","lat":"5.25824000","lon":"-73.18275000"},
{"state":"Caldas","name":"Aguadas","lat":"5.61161000","lon":"-75.45624000"},
{"state":"Caldas","name":"Anserma","lat":"5.20427000","lon":"-75.79167000"},
{"state":"Caldas","name":"Aranzazu","lat":"5.25519000","lon":"-75.50984000"},
{"state":"Caldas","name":"Belalcázar","lat":"4.99528000","lon":"-75.81278000"},
{"state":"Caldas","name":"Chinchiná","lat":"4.97522000","lon":"-75.70416000"},
{"state":"Caldas","name":"Filadelfia","lat":"5.29606000","lon":"-75.56120000"},
{"state":"Caldas","name":"La Dorada","lat":"5.53333000","lon":"-74.70000000"},
{"state":"Caldas","name":"La Merced","lat":"5.38060000","lon":"-75.58842000"},
{"state":"Caldas","name":"Manizales","lat":"5.06889000","lon":"-75.51738000"},
{"state":"Caldas","name":"Manzanares","lat":"5.23305000","lon":"-75.15168000"},
{"state":"Caldas","name":"Marmato","lat":"5.47554000","lon":"-75.59710000"},
{"state":"Caldas","name":"Marquetalia","lat":"5.29069000","lon":"-75.08028000"},
{"state":"Caldas","name":"Marulanda","lat":"5.28393000","lon":"-75.26016000"},
{"state":"Caldas","name":"Neira","lat":"5.17534000","lon":"-75.52405000"},
{"state":"Caldas","name":"Norcasia","lat":"5.57535000","lon":"-74.88831000"},
{"state":"Caldas","name":"Pácora","lat":"5.50631000","lon":"-75.49054000"},
{"state":"Caldas","name":"Palestina","lat":"5.04571000","lon":"-75.69552000"},
{"state":"Caldas","name":"Pensilvania","lat":"5.38840000","lon":"-75.20420000"},
{"state":"Caldas","name":"Riosucio","lat":"5.42164000","lon":"-75.70318000"},
{"state":"Caldas","name":"Risaralda","lat":"5.11237000","lon":"-75.75861000"},
{"state":"Caldas","name":"Salamina","lat":"5.37014000","lon":"-75.41548000"},
{"state":"Caldas","name":"Samaná","lat":"5.54061000","lon":"-74.99346000"},
{"state":"Caldas","name":"San José","lat":"5.08221000","lon":"-75.79107000"},
{"state":"Caldas","name":"Supía","lat":"5.45303000","lon":"-75.65072000"},
{"state":"Caldas","name":"Victoria","lat":"5.45666000","lon":"-74.84061000"},
{"state":"Caldas","name":"Villamaría","lat":"4.95078000","lon":"-75.43680000"},
{"state":"Caldas","name":"Viterbo","lat":"5.06242000","lon":"-75.87159000"},
{"state":"Caquetá","name":"Albania","lat":"1.26325000","lon":"-75.95366000"},
{"state":"Caquetá","name":"Belén de Los Andaquies","lat":"1.41667000","lon":"-75.91667000"},
{"state":"Caquetá","name":"Cartagena del Chairá","lat":"1.33488000","lon":"-74.84289000"},
{"state":"Caquetá","name":"Curillo","lat":"1.03327000","lon":"-75.91907000"},
{"state":"Caquetá","name":"El Doncello","lat":"1.67817000","lon":"-75.28466000"},
{"state":"Caquetá","name":"El Paujil","lat":"1.57085000","lon":"-75.31403000"},
{"state":"Caquetá","name":"Florencia","lat":"1.71619000","lon":"-75.59624000"},
{"state":"Caquetá","name":"La Montañita","lat":"1.46389000","lon":"-75.30363000"},
{"state":"Caquetá","name":"Milán","lat":"1.29034000","lon":"-75.50757000"},
{"state":"Caquetá","name":"Morelia","lat":"1.48747000","lon":"-75.72581000"},
{"state":"Caquetá","name":"Puerto Rico","lat":"1.90999000","lon":"-75.15931000"},
{"state":"Caquetá","name":"San José del Fragua","lat":"1.30780000","lon":"-76.16554000"},
{"state":"Caquetá","name":"San Vicente del Caguán","lat":"2.11527888","lon":"-74.77777777"},
{"state":"Caquetá","name":"Solano","lat":"0.22842000","lon":"-73.27597000"},
{"state":"Caquetá","name":"Solita","lat":"0.87583333","lon":"-75.61972222"},
{"state":"Caquetá","name":"Valparaíso","lat":"1.19403000","lon":"-75.70746000"},
{"state":"Casanare","name":"Aguazul","lat":"5.17282000","lon":"-72.54706000"},
{"state":"Casanare","name":"Chameza","lat":"5.19237000","lon":"-72.88952000"},
{"state":"Casanare","name":"Hato Corozal","lat":"6.15472222","lon":"-71.76527888"},
{"state":"Casanare","name":"La Salina","lat":"6.12755555","lon":"-72.33416777"},
{"state":"Casanare","name":"Maní","lat":"4.81638000","lon":"-72.27946000"},
{"state":"Casanare","name":"Monterrey","lat":"4.82015000","lon":"-72.87901000"},
{"state":"Casanare","name":"Nunchía","lat":"5.63589000","lon":"-72.19543000"},
{"state":"Casanare","name":"Orocué","lat":"4.79035000","lon":"-71.33917000"},
{"state":"Casanare","name":"Paz de Ariporo","lat":"5.88111111","lon":"-71.89166777"},
{"state":"Casanare","name":"Pore","lat":"5.72792000","lon":"-71.99266000"},
{"state":"Casanare","name":"Recetor","lat":"5.22947000","lon":"-72.76099000"},
{"state":"Casanare","name":"Sabanalarga","lat":"4.85430000","lon":"-73.04003000"},
{"state":"Casanare","name":"Sácama","lat":"6.09908000","lon":"-72.24880000"},
{"state":"Casanare","name":"San Luis de Palenque","lat":"5.42139000","lon":"-71.73167000"},
{"state":"Casanare","name":"Támara","lat":"5.82998000","lon":"-72.16286000"},
{"state":"Casanare","name":"Tauramena","lat":"5.01789000","lon":"-72.74675000"},
{"state":"Casanare","name":"Trinidad","lat":"5.34778000","lon":"-71.20194000"},
{"state":"Casanare","name":"Villanueva","lat":"5.28333000","lon":"-71.96667000"},
{"state":"Casanare","name":"Yopal","lat":"5.33775000","lon":"-72.39586000"},
{"state":"Cauca","name":"Almaguer","lat":"1.91472000","lon":"-76.85482000"},
{"state":"Cauca","name":"Argelia","lat":"2.31728000","lon":"-77.25700000"},
{"state":"Cauca","name":"Balboa","lat":"2.08436000","lon":"-77.20781000"},
{"state":"Cauca","name":"Bolívar","lat":"1.84670000","lon":"-76.98292000"},
{"state":"Cauca","name":"Buenos Aires","lat":"3.04825000","lon":"-76.63066000"},
{"state":"Cauca","name":"Cajibío","lat":"2.62271000","lon":"-76.57039000"},
{"state":"Cauca","name":"Caldono","lat":"2.79739000","lon":"-76.48316000"},
{"state":"Cauca","name":"Caloto","lat":"3.03586000","lon":"-76.40788000"},
{"state":"Cauca","name":"Corinto","lat":"3.13598000","lon":"-76.20646000"},
{"state":"Cauca","name":"El Tambo","lat":"2.45199000","lon":"-76.81029000"},
{"state":"Cauca","name":"Florencia","lat":"1.68318000","lon":"-77.07331000"},
{"state":"Cauca","name":"Guachené","lat":"3.13361111","lon":"-76.39255555"},
{"state":"Cauca","name":"Guapi","lat":"2.55210000","lon":"-77.87865000"},
{"state":"Cauca","name":"Inzá","lat":"2.55452000","lon":"-76.06722000"},
{"state":"Cauca","name":"Jambaló","lat":"2.85065000","lon":"-76.32506000"},
{"state":"Cauca","name":"La Sierra","lat":"2.19665000","lon":"-76.78590000"},
{"state":"Cauca","name":"La Vega","lat":"2.06201000","lon":"-76.76808000"},
{"state":"Cauca","name":"López de Micay","lat":"3.00000000","lon":"-77.25000000"},
{"state":"Cauca","name":"Mercaderes","lat":"1.80175000","lon":"-77.17032000"},
{"state":"Cauca","name":"Miranda","lat":"3.23773000","lon":"-76.22093000"},
{"state":"Cauca","name":"Morales","lat":"2.75446000","lon":"-76.62791000"},
{"state":"Cauca","name":"Padilla","lat":"3.22038000","lon":"-76.31385000"},
{"state":"Cauca","name":"Páez","lat":"2.64644000","lon":"-75.97269000"},
{"state":"Cauca","name":"Patía","lat":"2.14018000","lon":"-77.01744000"},
{"state":"Cauca","name":"Piamonte","lat":"1.11583333","lon":"-76.32611111"},
{"state":"Cauca","name":"Piendamo","lat":"2.63918000","lon":"-76.53055000"},
{"state":"Cauca","name":"Popayán","lat":"2.43823000","lon":"-76.61316000"},
{"state":"Cauca","name":"Puerto Tejada","lat":"3.23393000","lon":"-76.41935000"},
{"state":"Cauca","name":"Puracé","lat":"2.33851000","lon":"-76.38759000"},
{"state":"Cauca","name":"Rosas","lat":"2.26093000","lon":"-76.73986000"},
{"state":"Cauca","name":"San Sebastián","lat":"1.91667000","lon":"-76.66667000"},
{"state":"Cauca","name":"Santa Rosa","lat":"1.70055666","lon":"-76.57277888"},
{"state":"Cauca","name":"Santander de Quilichao","lat":"3.00945000","lon":"-76.48494000"},
{"state":"Cauca","name":"Silvia","lat":"2.61557000","lon":"-76.38261000"},
{"state":"Cauca","name":"Sotará","lat":"2.25000000","lon":"-76.58333000"},
{"state":"Cauca","name":"Suárez","lat":"2.95395000","lon":"-76.69644000"},
{"state":"Cauca","name":"Sucre","lat":"2.06182000","lon":"-76.91438000"},
{"state":"Cauca","name":"Timbío","lat":"2.35277888","lon":"-76.68194444"},
{"state":"Cauca","name":"Timbiquí","lat":"2.77170000","lon":"-77.66536000"},
{"state":"Cauca","name":"Toribio","lat":"3.00000000","lon":"-76.16667000"},
{"state":"Cauca","name":"Totoró","lat":"2.50518000","lon":"-76.39254000"},
{"state":"Cauca","name":"Villa Rica","lat":"2.51420000","lon":"-76.84939000"},
{"state":"Cesar","name":"Aguachica","lat":"8.30844000","lon":"-73.61660000"},
{"state":"Cesar","name":"Agustín Codazzi","lat":"10.03672000","lon":"-73.23558000"},
{"state":"Cesar","name":"Astrea","lat":"9.49828000","lon":"-73.97591000"},
{"state":"Cesar","name":"Becerril","lat":"9.70413000","lon":"-73.27930000"},
{"state":"Cesar","name":"Bosconia","lat":"9.97611111","lon":"-73.89033333"},
{"state":"Cesar","name":"Chimichagua","lat":"9.25778000","lon":"-73.81228000"},
{"state":"Cesar","name":"Chiriguaná","lat":"9.36238000","lon":"-73.60313000"},
{"state":"Cesar","name":"Curumaní","lat":"9.19992000","lon":"-73.54274000"},
{"state":"Cesar","name":"El Copey","lat":"10.15031000","lon":"-73.96140000"},
{"state":"Cesar","name":"El Paso","lat":"9.65724000","lon":"-73.74685000"},
{"state":"Cesar","name":"Gamarra","lat":"8.32969000","lon":"-73.71773000"},
{"state":"Cesar","name":"González","lat":"8.36735000","lon":"-73.40032000"},
{"state":"Cesar","name":"La Gloria","lat":"8.61160000","lon":"-73.63045000"},
{"state":"Cesar","name":"La Jagua de Ibirico","lat":"9.56228000","lon":"-73.33405000"},
{"state":"Cesar","name":"La Paz","lat":"10.10487000","lon":"-73.22056000"},
{"state":"Cesar","name":"Manaure Balcón del Cesar","lat":"10.39278000","lon":"-73.03250000"},
{"state":"Cesar","name":"Pailitas","lat":"8.95652000","lon":"-73.62548000"},
{"state":"Cesar","name":"Pelaya","lat":"8.68819000","lon":"-73.66451000"},
{"state":"Cesar","name":"Pueblo Bello","lat":"10.41638999","lon":"-73.58666777"},
{"state":"Cesar","name":"Río de Oro","lat":"8.17879000","lon":"-73.51218000"},
{"state":"Cesar","name":"San Alberto","lat":"7.76107000","lon":"-73.39220000"},
{"state":"Cesar","name":"San Diego","lat":"10.33623000","lon":"-73.18203000"},
{"state":"Cesar","name":"San Martín","lat":"8.00151000","lon":"-73.51126000"},
{"state":"Cesar","name":"Tamalameque","lat":"8.86422000","lon":"-73.78106000"},
{"state":"Cesar","name":"Valledupar","lat":"10.46314000","lon":"-73.25322000"},
{"state":"Chocó","name":"Acandí","lat":"8.51158000","lon":"-77.27719000"},
{"state":"Chocó","name":"Alto Baudó","lat":"5.51604000","lon":"-76.97449000"},
{"state":"Chocó","name":"Atrato","lat":"5.57362000","lon":"-76.64063000"},
{"state":"Chocó","name":"Bagadó","lat":"5.41164000","lon":"-76.41520000"},
{"state":"Chocó","name":"Bahía Solano","lat":"6.22520000","lon":"-77.39147000"},
{"state":"Chocó","name":"Bajo Baudó","lat":"4.95334000","lon":"-77.36598000"},
{"state":"Chocó","name":"Bojayá","lat":"6.55645000","lon":"-76.88389000"},
{"state":"Chocó","name":"Carmen del Darien","lat":"7.15777888","lon":"-76.97083333"},
{"state":"Chocó","name":"Cértegui","lat":"5.37073000","lon":"-76.60440000"},
{"state":"Chocó","name":"Condoto","lat":"5.09351000","lon":"-76.64973000"},
{"state":"Chocó","name":"El Cantón de San Pablo","lat":"5.33889000","lon":"-76.73139000"},
{"state":"Chocó","name":"El Carmen de Atrato","lat":"5.83333000","lon":"-76.25000000"},
{"state":"Chocó","name":"Istmina","lat":"5.16054000","lon":"-76.68397000"},
{"state":"Chocó","name":"Juradó","lat":"7.10421000","lon":"-77.76200000"},
{"state":"Chocó","name":"Litoral del San Juan","lat":"4.25875000","lon":"-77.36516000"},
{"state":"Chocó","name":"Lloró","lat":"5.49605000","lon":"-76.54945000"},
{"state":"Chocó","name":"Medio Atrato","lat":"5.99500000","lon":"-76.78250000"},
{"state":"Chocó","name":"Medio Baudó","lat":"5.05000000","lon":"-77.05000000"},
{"state":"Chocó","name":"Medio San Juan","lat":"5.09278000","lon":"-76.69528000"},
{"state":"Chocó","name":"Nóvita","lat":"4.95511000","lon":"-76.60526000"},
{"state":"Chocó","name":"Nuquí","lat":"5.71250000","lon":"-77.27083000"},
{"state":"Chocó","name":"Quibdó","lat":"5.76075000","lon":"-76.83701000"},
{"state":"Chocó","name":"Río Iro","lat":"5.18333000","lon":"-76.48330000"},
{"state":"Chocó","name":"Río Quito","lat":"5.51667000","lon":"-76.75000000"},
{"state":"Chocó","name":"Riosucio","lat":"7.41667000","lon":"-77.16667000"},
{"state":"Chocó","name":"San José del Palmar","lat":"4.89616000","lon":"-76.23422000"},
{"state":"Chocó","name":"Sipí","lat":"4.65374000","lon":"-76.64442000"},
{"state":"Chocó","name":"Tadó","lat":"5.26598000","lon":"-76.56487000"},
{"state":"Chocó","name":"Unguía","lat":"8.04364000","lon":"-77.09137000"},
{"state":"Chocó","name":"Unión Panamericana","lat":"5.28139000","lon":"-76.63000000"},
{"state":"Córdoba","name":"Ayapel","lat":"8.31372000","lon":"-75.13982000"},
{"state":"Córdoba","name":"Buenavista","lat":"9.04963000","lon":"-76.00280000"},
{"state":"Córdoba","name":"Canalete","lat":"8.67611000","lon":"-76.20417000"},
{"state":"Córdoba","name":"Cereté","lat":"8.88479000","lon":"-75.79052000"},
{"state":"Córdoba","name":"Chimá","lat":"9.14893000","lon":"-75.62841000"},
{"state":"Córdoba","name":"Chinú","lat":"9.03869000","lon":"-75.34273000"},
{"state":"Córdoba","name":"Ciénaga de Oro","lat":"8.83581000","lon":"-75.60425000"},
{"state":"Córdoba","name":"Cotorra","lat":"9.03886000","lon":"-75.78969000"},
{"state":"Córdoba","name":"La Apartada","lat":"8.04787000","lon":"-75.30097000"},
{"state":"Córdoba","name":"Lorica","lat":"9.23648000","lon":"-75.81350000"},
{"state":"Córdoba","name":"Los Córdobas","lat":"8.89403000","lon":"-76.35455000"},
{"state":"Córdoba","name":"Momil","lat":"9.23767000","lon":"-75.67489000"},
{"state":"Córdoba","name":"Moñitos","lat":"9.22615000","lon":"-76.13594000"},
{"state":"Córdoba","name":"Montelíbano","lat":"7.97917000","lon":"-75.42020000"},
{"state":"Córdoba","name":"Montería","lat":"8.74798000","lon":"-75.88143000"},
{"state":"Córdoba","name":"Planeta Rica","lat":"8.41150000","lon":"-75.58508000"},
{"state":"Córdoba","name":"Pueblo Nuevo","lat":"8.24110000","lon":"-74.95815000"},
{"state":"Córdoba","name":"Puerto Escondido","lat":"8.99453000","lon":"-76.19351000"},
{"state":"Córdoba","name":"Puerto Libertador","lat":"7.68181000","lon":"-75.78312000"},
{"state":"Córdoba","name":"Purísima","lat":"9.23657000","lon":"-75.72191000"},
{"state":"Córdoba","name":"Sahagún","lat":"8.94617000","lon":"-75.44275000"},
{"state":"Córdoba","name":"San Andrés de Sotavento","lat":"9.12183000","lon":"-75.51627000"},
{"state":"Córdoba","name":"San Antero","lat":"9.37410000","lon":"-75.75891000"},
{"state":"Córdoba","name":"San Bernardo del Viento","lat":"9.35330000","lon":"-75.95244000"},
{"state":"Córdoba","name":"San Carlos","lat":"8.79577000","lon":"-75.69947000"},
{"state":"Córdoba","name":"San José de Uré","lat":"7.78722222","lon":"-75.53305666"},
{"state":"Córdoba","name":"San Pelayo","lat":"8.95833000","lon":"-75.83627000"},
{"state":"Córdoba","name":"Tierralta","lat":"7.87863000","lon":"-76.21307000"},
{"state":"Córdoba","name":"Tuchín","lat":"9.18583333","lon":"-75.55527888"},
{"state":"Córdoba","name":"Valencia","lat":"8.23350000","lon":"-76.21428000"},
{"state":"Cundinamarca","name":"Agua de Dios","lat":"4.37648000","lon":"-74.66995000"},
{"state":"Cundinamarca","name":"Albán","lat":"4.89432000","lon":"-74.44388000"},
{"state":"Cundinamarca","name":"Anapoima","lat":"4.55099000","lon":"-74.53517000"},
{"state":"Cundinamarca","name":"Anolaima","lat":"4.83362000","lon":"-74.49950000"},
{"state":"Cundinamarca","name":"Apulo","lat":"4.51952000","lon":"-74.59293000"},
{"state":"Cundinamarca","name":"Arbeláez","lat":"4.21251000","lon":"-74.41464000"},
{"state":"Cundinamarca","name":"Beltrán","lat":"4.71947000","lon":"-74.75660000"},
{"state":"Cundinamarca","name":"Bituima","lat":"4.87252000","lon":"-74.53925000"},
{"state":"Cundinamarca","name":"Bogotá D.C.","lat":"4.61263889","lon":"-74.07050000"},
{"state":"Cundinamarca","name":"Bojacá","lat":"4.73176000","lon":"-74.34129000"},
{"state":"Cundinamarca","name":"Cabrera","lat":"3.98598000","lon":"-74.48283000"},
{"state":"Cundinamarca","name":"Cachipay","lat":"5.26667000","lon":"-74.56667000"},
{"state":"Cundinamarca","name":"Cajicá","lat":"4.91857000","lon":"-74.02799000"},
{"state":"Cundinamarca","name":"Caparrapí","lat":"5.34644000","lon":"-74.49147000"},
{"state":"Cundinamarca","name":"Caqueza","lat":"4.38708000","lon":"-73.95722000"},
{"state":"Cundinamarca","name":"Carmen de Carupa","lat":"5.34862000","lon":"-73.90168000"},
{"state":"Cundinamarca","name":"Chaguaní","lat":"4.94829000","lon":"-74.59392000"},
{"state":"Cundinamarca","name":"Chía","lat":"4.84452000","lon":"-74.05848000"},
{"state":"Cundinamarca","name":"Chipaque","lat":"4.44250000","lon":"-74.04417000"},
{"state":"Cundinamarca","name":"Choachí","lat":"4.52897000","lon":"-73.92273000"},
{"state":"Cundinamarca","name":"Chocontá","lat":"5.14468000","lon":"-73.68578000"},
{"state":"Cundinamarca","name":"Cogua","lat":"5.06051000","lon":"-73.97925000"},
{"state":"Cundinamarca","name":"Cota","lat":"4.80938000","lon":"-74.09800000"},
{"state":"Cundinamarca","name":"Cucunubá","lat":"5.24958000","lon":"-73.76610000"},
{"state":"Cundinamarca","name":"El Colegio","lat":"4.56047000","lon":"-74.42614000"},
{"state":"Cundinamarca","name":"El Peñón","lat":"5.25264000","lon":"-74.29069000"},
{"state":"Cundinamarca","name":"El Rosal","lat":"4.85314000","lon":"-74.25996000"},
{"state":"Cundinamarca","name":"Facatativá","lat":"4.81367000","lon":"-74.35453000"},
{"state":"Cundinamarca","name":"Fomeque","lat":"4.52806000","lon":"-73.78879000"},
{"state":"Cundinamarca","name":"Fosca","lat":"4.33916000","lon":"-73.93852000"},
{"state":"Cundinamarca","name":"Funza","lat":"4.71638000","lon":"-74.21195000"},
{"state":"Cundinamarca","name":"Fúquene","lat":"5.41988000","lon":"-73.76997000"},
{"state":"Cundinamarca","name":"Fusagasugá","lat":"4.33646000","lon":"-74.36378000"},
{"state":"Cundinamarca","name":"Gachala","lat":"4.66667000","lon":"-73.50000000"},
{"state":"Cundinamarca","name":"Gachancipá","lat":"4.99111000","lon":"-73.87154000"},
{"state":"Cundinamarca","name":"Gachetá","lat":"4.87104000","lon":"-73.61730000"},
{"state":"Cundinamarca","name":"Gama","lat":"4.76288000","lon":"-73.61091000"},
{"state":"Cundinamarca","name":"Girardot","lat":"4.31802000","lon":"-74.83504000"},
{"state":"Cundinamarca","name":"Granada","lat":"5.06667000","lon":"-74.56667000"},
{"state":"Cundinamarca","name":"Guachetá","lat":"5.38425000","lon":"-73.68617000"},
{"state":"Cundinamarca","name":"Guaduas","lat":"5.07430000","lon":"-74.59854000"},
{"state":"Cundinamarca","name":"Guasca","lat":"4.86601000","lon":"-73.87748000"},
{"state":"Cundinamarca","name":"Guataquí","lat":"4.51573000","lon":"-74.78935000"},
{"state":"Cundinamarca","name":"Guatavita","lat":"4.93658000","lon":"-73.83314000"},
{"state":"Cundinamarca","name":"Guayabal de Siquima","lat":"4.87881000","lon":"-74.48306000"},
{"state":"Cundinamarca","name":"Guayabetal","lat":"4.21472000","lon":"-73.81719000"},
{"state":"Cundinamarca","name":"Gutiérrez","lat":"4.18486000","lon":"-74.01168000"},
{"state":"Cundinamarca","name":"Jerusalén","lat":"4.56309000","lon":"-74.69519000"},
{"state":"Cundinamarca","name":"Junín","lat":"4.70725000","lon":"-73.69549000"},
{"state":"Cundinamarca","name":"La Calera","lat":"4.68678000","lon":"-73.93590000"},
{"state":"Cundinamarca","name":"La Mesa","lat":"4.65374000","lon":"-74.47316000"},
{"state":"Cundinamarca","name":"La Palma","lat":"5.31732000","lon":"-74.43003000"},
{"state":"Cundinamarca","name":"La Peña","lat":"5.19847000","lon":"-74.39368000"},
{"state":"Cundinamarca","name":"La Vega","lat":"4.97382000","lon":"-74.34476000"},
{"state":"Cundinamarca","name":"Lenguazaque","lat":"5.30711000","lon":"-73.71152000"},
{"state":"Cundinamarca","name":"Macheta","lat":"5.08333000","lon":"-73.61667000"},
{"state":"Cundinamarca","name":"Madrid","lat":"4.75564000","lon":"-74.27708000"},
{"state":"Cundinamarca","name":"Manta","lat":"4.95720000","lon":"-73.58583000"},
{"state":"Cundinamarca","name":"Medina","lat":"4.51005000","lon":"-73.34982000"},
{"state":"Cundinamarca","name":"Mosquera","lat":"4.68935000","lon":"-74.23599000"},
{"state":"Cundinamarca","name":"Nariño","lat":"4.39913000","lon":"-74.82239000"},
{"state":"Cundinamarca","name":"Nemocón","lat":"5.06767000","lon":"-73.87769000"},
{"state":"Cundinamarca","name":"Nilo","lat":"4.30604000","lon":"-74.62083000"},
{"state":"Cundinamarca","name":"Nimaima","lat":"5.12614000","lon":"-74.38495000"},
{"state":"Cundinamarca","name":"Nocaima","lat":"5.06696000","lon":"-74.38439000"},
{"state":"Cundinamarca","name":"Pacho","lat":"5.13055555","lon":"-74.15833333"},
{"state":"Cundinamarca","name":"Paime","lat":"5.37054000","lon":"-74.15219000"},
{"state":"Cundinamarca","name":"Pandi","lat":"4.18032000","lon":"-74.47099000"},
{"state":"Cundinamarca","name":"Paratebueno","lat":"4.37575000","lon":"-73.21547000"},
{"state":"Cundinamarca","name":"Pasca","lat":"4.30722000","lon":"-74.30056000"},
{"state":"Cundinamarca","name":"Puerto Salgar","lat":"5.61892000","lon":"-74.58483000"},
{"state":"Cundinamarca","name":"Pulí","lat":"4.68116000","lon":"-74.71406000"},
{"state":"Cundinamarca","name":"Quebradanegra","lat":"5.08262000","lon":"-74.52117000"},
{"state":"Cundinamarca","name":"Quetame","lat":"4.33234000","lon":"-73.86141000"},
{"state":"Cundinamarca","name":"Quipile","lat":"4.74517000","lon":"-74.53378000"},
{"state":"Cundinamarca","name":"Ricaurte","lat":"4.28075000","lon":"-74.76469000"},
{"state":"Cundinamarca","name":"San Antonio del Tequendama","lat":"4.61667000","lon":"-74.35000000"},
{"state":"Cundinamarca","name":"San Bernardo","lat":"4.12956000","lon":"-74.35903000"},
{"state":"Cundinamarca","name":"San Cayetano","lat":"5.31693000","lon":"-74.07141000"},
{"state":"Cundinamarca","name":"San Francisco","lat":"4.96335000","lon":"-74.26613000"},
{"state":"Cundinamarca","name":"San Juan de Río Seco","lat":"4.83077000","lon":"-74.68248000"},
{"state":"Cundinamarca","name":"Sasaima","lat":"4.96705000","lon":"-74.43512000"},
{"state":"Cundinamarca","name":"Sesquilé","lat":"5.04463000","lon":"-73.79724000"},
{"state":"Cundinamarca","name":"Sibaté","lat":"4.49154000","lon":"-74.25957000"},
{"state":"Cundinamarca","name":"Silvania","lat":"4.40367000","lon":"-74.38670000"},
{"state":"Cundinamarca","name":"Simijaca","lat":"5.50415000","lon":"-73.86944000"},
{"state":"Cundinamarca","name":"Soacha","lat":"4.57937000","lon":"-74.21682000"},
{"state":"Cundinamarca","name":"Sopó","lat":"4.90750000","lon":"-73.93840000"},
{"state":"Cundinamarca","name":"Subachoque","lat":"4.92614000","lon":"-74.17299000"},
{"state":"Cundinamarca","name":"Suesca","lat":"5.10289000","lon":"-73.79845000"},
{"state":"Cundinamarca","name":"Supatá","lat":"5.06097000","lon":"-74.23721000"},
{"state":"Cundinamarca","name":"Susa","lat":"5.42700000","lon":"-73.84786000"},
{"state":"Cundinamarca","name":"Sutatausa","lat":"5.24779000","lon":"-73.85238000"},
{"state":"Cundinamarca","name":"Tabio","lat":"4.91726000","lon":"-74.09364000"},
{"state":"Cundinamarca","name":"Tausa","lat":"5.19903000","lon":"-73.89128000"},
{"state":"Cundinamarca","name":"Tena","lat":"4.66001000","lon":"-74.39258000"},
{"state":"Cundinamarca","name":"Tenjo","lat":"4.87270000","lon":"-74.14435000"},
{"state":"Cundinamarca","name":"Tibacuy","lat":"4.30606000","lon":"-74.51639000"},
{"state":"Cundinamarca","name":"Tibirita","lat":"5.05227000","lon":"-73.50459000"},
{"state":"Cundinamarca","name":"Tocaima","lat":"4.46073000","lon":"-74.65722000"},
{"state":"Cundinamarca","name":"Tocancipá","lat":"4.96531000","lon":"-73.91301000"},
{"state":"Cundinamarca","name":"Topaipí","lat":"5.33457000","lon":"-74.30292000"},
{"state":"Cundinamarca","name":"Ubalá","lat":"4.74778000","lon":"-72.53694000"},
{"state":"Cundinamarca","name":"Ubaque","lat":"4.48667000","lon":"-73.93748000"},
{"state":"Cundinamarca","name":"Une","lat":"4.30691000","lon":"-74.07104000"},
{"state":"Cundinamarca","name":"Útica","lat":"5.16977000","lon":"-74.50134000"},
{"state":"Cundinamarca","name":"Venecia","lat":"4.08808000","lon":"-74.47746000"},
{"state":"Cundinamarca","name":"Vergara","lat":"5.13600000","lon":"-74.31539000"},
{"state":"Cundinamarca","name":"Vianí","lat":"4.89579000","lon":"-74.55398000"},
{"state":"Cundinamarca","name":"Villa de San Diego de Ubate","lat":"5.31544000","lon":"-73.82045000"},
{"state":"Cundinamarca","name":"Villagómez","lat":"5.27372000","lon":"-74.19614000"},
{"state":"Cundinamarca","name":"Villapinzón","lat":"5.21617000","lon":"-73.59490000"},
{"state":"Cundinamarca","name":"Villeta","lat":"5.00008000","lon":"-74.50498000"},
{"state":"Cundinamarca","name":"Viotá","lat":"4.43713000","lon":"-74.52157000"},
{"state":"Cundinamarca","name":"Yacopí","lat":"5.45948000","lon":"-74.33823000"},
{"state":"Cundinamarca","name":"Zipacón","lat":"4.75881000","lon":"-74.38017000"},
{"state":"Cundinamarca","name":"Zipaquirá","lat":"5.02208000","lon":"-74.00481000"},
{"state":"Guainía","name":"Barranco Minas","lat":"3.09899000","lon":"-69.58297000"},
{"state":"Guainía","name":"Cacahual","lat":"3.32533000","lon":"-67.62397000"},
{"state":"Guainía","name":"Inírida","lat":"3.86528000","lon":"-67.92389000"},
{"state":"Guainía","name":"La Guadalupe","lat":"1.39579000","lon":"-67.00150000"},
{"state":"Guainía","name":"Mapiripana","lat":"2.81003000","lon":"-70.28568000"},
{"state":"Guainía","name":"Morichal","lat":"2.42980000","lon":"-69.83284000"},
{"state":"Guainía","name":"Pana Pana","lat":"1.96249000","lon":"-69.12600000"},
{"state":"Guainía","name":"Puerto Colombia","lat":"2.43903000","lon":"-68.16419000"},
{"state":"Guainía","name":"San Felipe","lat":"2.14321000","lon":"-67.34122000"},
{"state":"Guaviare","name":"Calamar","lat":"1.95960000","lon":"-72.65315000"},
{"state":"Guaviare","name":"El Retorno","lat":"2.33022000","lon":"-72.62765000"},
{"state":"Guaviare","name":"Miraflores","lat":"1.33667000","lon":"-71.95111000"},
{"state":"Guaviare","name":"San José del Guaviare","lat":"2.57286000","lon":"-72.64591000"},
{"state":"Huila","name":"Acevedo","lat":"1.83611111","lon":"-75.85500000"},
{"state":"Huila","name":"Aipe","lat":"3.22194444","lon":"-75.23750000"},
{"state":"Huila","name":"Algeciras","lat":"2.52194444","lon":"-75.31444444"},
{"state":"Huila","name":"Altamira","lat":"2.06333333","lon":"-75.78777778"},
{"state":"Huila","name":"Baraya","lat":"3.15305556","lon":"-75.05250000"},
{"state":"Huila","name":"Campoalegre","lat":"2.68666667","lon":"-75.32555556"},
{"state":"Huila","name":"Colombia","lat":"3.37500000","lon":"-74.80194444"},
{"state":"Huila","name":"El Agrado","lat":"2.25833056","lon":"-75.77250000"},
{"state":"Huila","name":"Elias","lat":"2.01361111","lon":"-75.93972222"},
{"state":"Huila","name":"Garzón","lat":"2.19611111","lon":"-75.62916667"},
{"state":"Huila","name":"Gigante","lat":"2.38666944","lon":"-75.54610000"},
{"state":"Huila","name":"Guadalupe","lat":"2.02500000","lon":"-75.75638889"},
{"state":"Huila","name":"Hobo","lat":"2.58250000","lon":"-75.45111111"},
{"state":"Huila","name":"Iquira","lat":"2.64833333","lon":"-75.63638889"},
{"state":"Huila","name":"Isnos","lat":"1.92888889","lon":"-76.21583333"},
{"state":"Huila","name":"La Argentina","lat":"2.19755555","lon":"-75.98888888"},
{"state":"Huila","name":"La Plata","lat":"2.39000000","lon":"-75.89194444"},
{"state":"Huila","name":"Nataga","lat":"2.54388889","lon":"-75.80861111"},
{"state":"Huila","name":"Neiva","lat":"2.92750000","lon":"-75.28750000"},
{"state":"Huila","name":"Oporapa","lat":"2.02305556","lon":"-75.99527778"},
{"state":"Huila","name":"Paicol","lat":"2.44972222","lon":"-75.77388889"},
{"state":"Huila","name":"Palermo","lat":"2.88833333","lon":"-75.43388889"},
{"state":"Huila","name":"Palestina","lat":"1.72250000","lon":"-76.13055556"},
{"state":"Huila","name":"Pital","lat":"2.26638889","lon":"-75.80444444"},
{"state":"Huila","name":"Pitalito","lat":"1.85388889","lon":"-76.05138889"},
{"state":"Huila","name":"Rivera","lat":"2.77722222","lon":"-75.25638889"},
{"state":"Huila","name":"Saladoblanco","lat":"1.99333333","lon":"-76.04527778"},
{"state":"Huila","name":"San Agustín","lat":"1.87916667","lon":"-76.26833333"},
{"state":"Huila","name":"Santa María","lat":"2.93777778","lon":"-75.58694444"},
{"state":"Huila","name":"Suaza","lat":"1.97500000","lon":"-75.79555556"},
{"state":"Huila","name":"Tarqui","lat":"2.11055556","lon":"-75.82305556"},
{"state":"Huila","name":"Tello","lat":"3.06666667","lon":"-75.13861111"},
{"state":"Huila","name":"Teruel","lat":"2.74055556","lon":"-75.56833333"},
{"state":"Huila","name":"Tesalia","lat":"2.48472222","lon":"-75.73000000"},
{"state":"Huila","name":"Timana","lat":"1.97136000","lon":"-75.93123000"},
{"state":"Huila","name":"Villavieja","lat":"3.21888889","lon":"-75.21833333"},
{"state":"Huila","name":"Yaguará","lat":"2.66361111","lon":"-75.51750000"},
{"state":"La Guajira","name":"Albania","lat":"11.16099000","lon":"-72.59238000"},
{"state":"La Guajira","name":"Barrancas","lat":"10.97180000","lon":"-72.69115000"},
{"state":"La Guajira","name":"Dibulla","lat":"11.27251000","lon":"-73.30911000"},
{"state":"La Guajira","name":"Distracción","lat":"10.89784000","lon":"-72.88666000"},
{"state":"La Guajira","name":"El Molino","lat":"10.65296000","lon":"-72.92461000"},
{"state":"La Guajira","name":"Fonseca","lat":"10.82966000","lon":"-72.79778000"},
{"state":"La Guajira","name":"Hatonuevo","lat":"11.06940000","lon":"-72.76690000"},
{"state":"La Guajira","name":"La Jagua del Pilar","lat":"10.51061000","lon":"-73.07178000"},
{"state":"La Guajira","name":"Maicao","lat":"11.37837000","lon":"-72.23950000"},
{"state":"La Guajira","name":"Manaure","lat":"11.77505000","lon":"-72.44447000"},
{"state":"La Guajira","name":"Riohacha","lat":"11.54444000","lon":"-72.90722000"},
{"state":"La Guajira","name":"San Juan del Cesar","lat":"10.77107000","lon":"-73.00314000"},
{"state":"La Guajira","name":"Uribia","lat":"12.02638000","lon":"-71.74887000"},
{"state":"La Guajira","name":"Urumita","lat":"10.55894000","lon":"-73.01232000"},
{"state":"La Guajira","name":"Villanueva","lat":"10.58333000","lon":"-72.96077000"},
{"state":"Magdalena","name":"Algarrobo","lat":"10.18553000","lon":"-74.06158000"},
{"state":"Magdalena","name":"Aracataca","lat":"10.59181000","lon":"-74.18983000"},
{"state":"Magdalena","name":"Ariguaní","lat":"9.89383000","lon":"-74.13583000"},
{"state":"Magdalena","name":"Cerro de San Antonio","lat":"10.32585000","lon":"-74.86933000"},
{"state":"Magdalena","name":"Chivolo","lat":"10.02638888","lon":"-74.62138888"},
{"state":"Magdalena","name":"Ciénaga","lat":"10.83333000","lon":"-74.08333000"},
{"state":"Magdalena","name":"Concordia","lat":"9.83545000","lon":"-74.45548000"},
{"state":"Magdalena","name":"El Banco","lat":"9.00114000","lon":"-73.97581000"},
{"state":"Magdalena","name":"El Piñon","lat":"10.33333000","lon":"-74.66667000"},
{"state":"Magdalena","name":"El Retén","lat":"10.61135000","lon":"-74.26824000"},
{"state":"Magdalena","name":"Fundación","lat":"10.52066000","lon":"-74.18504000"},
{"state":"Magdalena","name":"Guamal","lat":"9.14334000","lon":"-74.22384000"},
{"state":"Magdalena","name":"Nueva Granada","lat":"9.80168000","lon":"-74.39304000"},
{"state":"Magdalena","name":"Pedraza","lat":"10.18739000","lon":"-74.91504000"},
{"state":"Magdalena","name":"Pijiño del Carmen","lat":"9.32908000","lon":"-74.45302000"},
{"state":"Magdalena","name":"Pivijay","lat":"10.46167000","lon":"-74.61621000"},
{"state":"Magdalena","name":"Plato","lat":"9.77267000","lon":"-74.74548000"},
{"state":"Magdalena","name":"Puebloviejo","lat":"10.84239000","lon":"-74.38538000"},
{"state":"Magdalena","name":"Remolino","lat":"10.65048000","lon":"-74.58442000"},
{"state":"Magdalena","name":"Sabanas de San Angel","lat":"10.11072000","lon":"-74.26007000"},
{"state":"Magdalena","name":"Salamina","lat":"10.49027000","lon":"-74.79463000"},
{"state":"Magdalena","name":"San Sebastián de Buenavista","lat":"9.23916666","lon":"-74.35194444"},
{"state":"Magdalena","name":"San Zenón","lat":"9.32686000","lon":"-74.32914000"},
{"state":"Magdalena","name":"Santa Ana","lat":"9.51484000","lon":"-74.34330000"},
{"state":"Magdalena","name":"Santa Bárbara de Pinto","lat":"9.52107000","lon":"-74.64912000"},
{"state":"Magdalena","name":"Santa Marta","lat":"11.24348000","lon":"-74.20835000"},
{"state":"Magdalena","name":"Sitionuevo","lat":"10.77737000","lon":"-74.72049000"},
{"state":"Magdalena","name":"Tenerife","lat":"9.93201000","lon":"-74.73465000"},
{"state":"Magdalena","name":"Zapayán","lat":"10.11846000","lon":"-74.69143000"},
{"state":"Magdalena","name":"Zona Bananera","lat":"10.76417000","lon":"-74.15722000"},
{"state":"Meta","name":"Acacías","lat":"3.98695000","lon":"-73.75797000"},
{"state":"Meta","name":"Barranca de Upía","lat":"4.56963000","lon":"-72.96676000"},
{"state":"Meta","name":"Cabuyaro","lat":"4.28170000","lon":"-72.79399000"},
{"state":"Meta","name":"Castilla la Nueva","lat":"3.82722000","lon":"-73.68831000"},
{"state":"Meta","name":"Cubarral","lat":"3.79536000","lon":"-73.84063000"},
{"state":"Meta","name":"Cumaral","lat":"4.23814000","lon":"-73.34101000"},
{"state":"Meta","name":"El Calvario","lat":"4.35426000","lon":"-73.74431000"},
{"state":"Meta","name":"El Castillo","lat":"3.56363000","lon":"-73.79488000"},
{"state":"Meta","name":"El Dorado","lat":"3.73916777","lon":"-73.83527888"},
{"state":"Meta","name":"Fuente de Oro","lat":"3.46263000","lon":"-73.62162000"},
{"state":"Meta","name":"Granada","lat":"3.54625000","lon":"-73.70687000"},
{"state":"Meta","name":"Guamal","lat":"3.88043000","lon":"-73.76566000"},
{"state":"Meta","name":"La Macarena","lat":"2.00702000","lon":"-74.07320000"},
{"state":"Meta","name":"Lejanías","lat":"3.52762000","lon":"-74.02335000"},
{"state":"Meta","name":"Mapiripán","lat":"2.89115000","lon":"-72.13328000"},
{"state":"Meta","name":"Mesetas","lat":"3.38463000","lon":"-74.04424000"},
{"state":"Meta","name":"Puerto Concordia","lat":"2.62206000","lon":"-72.75724000"},
{"state":"Meta","name":"Puerto Gaitán","lat":"4.31328000","lon":"-72.08157000"},
{"state":"Meta","name":"Puerto Lleras","lat":"3.21794000","lon":"-73.23215000"},
{"state":"Meta","name":"Puerto López","lat":"4.04426000","lon":"-72.65731000"},
{"state":"Meta","name":"Puerto Rico","lat":"2.93833000","lon":"-73.20833000"},
{"state":"Meta","name":"Restrepo","lat":"4.25833000","lon":"-73.56142000"},
{"state":"Meta","name":"San Carlos de Guaroa","lat":"3.71161000","lon":"-73.24344000"},
{"state":"Meta","name":"San Juan de Arama","lat":"3.29034000","lon":"-73.82065000"},
{"state":"Meta","name":"San Juanito","lat":"4.45861111","lon":"-73.67555666"},
{"state":"Meta","name":"San Martín","lat":"3.50819000","lon":"-73.03975000"},
{"state":"Meta","name":"Uribe","lat":"3.24083333","lon":"-74.35361111"},
{"state":"Meta","name":"Villavicencio","lat":"4.07424000","lon":"-73.49150000"},
{"state":"Meta","name":"Vistahermosa","lat":"3.12428000","lon":"-73.75156000"},
{"state":"Nariño","name":"Aldana","lat":"0.88283000","lon":"-77.70103000"},
{"state":"Nariño","name":"Ancuya","lat":"1.26330000","lon":"-77.51376000"},
{"state":"Nariño","name":"Arboleda","lat":"1.49830000","lon":"-77.13613000"},
{"state":"Nariño","name":"Barbacoas","lat":"1.67154000","lon":"-78.13978000"},
{"state":"Nariño","name":"Belén","lat":"1.59477000","lon":"-77.05408000"},
{"state":"Nariño","name":"Buesaco","lat":"1.38364000","lon":"-77.15622000"},
{"state":"Nariño","name":"Chachagüí","lat":"1.35943000","lon":"-77.28367000"},
{"state":"Nariño","name":"Colón","lat":"1.62850000","lon":"-77.02927000"},
{"state":"Nariño","name":"Consaca","lat":"1.20841000","lon":"-77.46323000"},
{"state":"Nariño","name":"Contadero","lat":"0.93072000","lon":"-77.53333000"},
{"state":"Nariño","name":"Córdoba","lat":"0.85362000","lon":"-77.51817000"},
{"state":"Nariño","name":"Cuaspud","lat":"0.87570000","lon":"-77.73640000"},
{"state":"Nariño","name":"Cumbal","lat":"0.90875000","lon":"-77.79145000"},
{"state":"Nariño","name":"Cumbitara","lat":"1.64786000","lon":"-77.57819000"},
{"state":"Nariño","name":"El Charco","lat":"2.47926000","lon":"-78.10972000"},
{"state":"Nariño","name":"El Peñol","lat":"1.45365000","lon":"-77.44017000"},
{"state":"Nariño","name":"El Rosario","lat":"1.84593000","lon":"-77.40620000"},
{"state":"Nariño","name":"El Tablón de Gómez","lat":"1.42717000","lon":"-77.09693000"},
{"state":"Nariño","name":"El Tambo","lat":"1.43049000","lon":"-77.38326000"},
{"state":"Nariño","name":"Francisco Pizarro","lat":"2.04060000","lon":"-78.65877000"},
{"state":"Nariño","name":"Funes","lat":"1.00075000","lon":"-77.44918000"},
{"state":"Nariño","name":"Guachucal","lat":"0.96093000","lon":"-77.73161000"},
{"state":"Nariño","name":"Guaitarilla","lat":"1.13103000","lon":"-77.54815000"},
{"state":"Nariño","name":"Gualmatán","lat":"0.91992000","lon":"-77.56738000"},
{"state":"Nariño","name":"Iles","lat":"0.97040000","lon":"-77.52146000"},
{"state":"Nariño","name":"Imués","lat":"1.05516000","lon":"-77.49669000"},
{"state":"Nariño","name":"Ipiales","lat":"0.82501000","lon":"-77.63966000"},
{"state":"Nariño","name":"La Cruz","lat":"1.60221000","lon":"-76.97130000"},
{"state":"Nariño","name":"La Florida","lat":"1.35693000","lon":"-77.41271000"},
{"state":"Nariño","name":"La Llanada","lat":"1.47310000","lon":"-77.58024000"},
{"state":"Nariño","name":"La Tola","lat":"2.39949000","lon":"-78.18923000"},
{"state":"Nariño","name":"La Unión","lat":"1.60450000","lon":"-77.13152000"},
{"state":"Nariño","name":"Leiva","lat":"1.93497000","lon":"-77.30634000"},
{"state":"Nariño","name":"Linares","lat":"1.35078000","lon":"-77.52339000"},
{"state":"Nariño","name":"Los Andes","lat":"1.49474000","lon":"-77.52136000"},
{"state":"Nariño","name":"Magüí Payán","lat":"1.76645000","lon":"-78.18326000"},
{"state":"Nariño","name":"Mallama","lat":"1.14109000","lon":"-77.86479000"},
{"state":"Nariño","name":"Mosquera","lat":"2.49139000","lon":"-78.44307000"},
{"state":"Nariño","name":"Nariño","lat":"1.28995000","lon":"-77.35721000"},
{"state":"Nariño","name":"Olaya Herrera","lat":"1.24803000","lon":"-77.49085000"},
{"state":"Nariño","name":"Ospina","lat":"1.02962000","lon":"-77.55252000"},
{"state":"Nariño","name":"Pasto","lat":"1.21467000","lon":"-77.27865000"},
{"state":"Nariño","name":"Policarpa","lat":"1.62843000","lon":"-77.45956000"},
{"state":"Nariño","name":"Potosí","lat":"0.80739000","lon":"-77.57216000"},
{"state":"Nariño","name":"Providencia","lat":"1.23888999","lon":"-77.59755555"},
{"state":"Nariño","name":"Puerres","lat":"1.19374000","lon":"-77.26661000"},
{"state":"Nariño","name":"Pupiales","lat":"0.87136000","lon":"-77.64027000"},
{"state":"Nariño","name":"Ricaurte","lat":"1.21474000","lon":"-77.99801000"},
{"state":"Nariño","name":"Roberto Payán","lat":"1.91757000","lon":"-78.38191000"},
{"state":"Nariño","name":"Samaniego","lat":"1.33849000","lon":"-77.59570000"},
{"state":"Nariño","name":"San Bernardo","lat":"1.51525000","lon":"-77.04679000"},
{"state":"Nariño","name":"San José de Albán","lat":"1.47388999","lon":"-77.08083333"},
{"state":"Nariño","name":"San Lorenzo","lat":"1.55731000","lon":"-77.24599000"},
{"state":"Nariño","name":"San Pablo","lat":"1.67250000","lon":"-77.01389000"},
{"state":"Nariño","name":"San Pedro de Cartago","lat":"1.55151000","lon":"-77.11948000"},
{"state":"Nariño","name":"Sandoná","lat":"1.28626000","lon":"-77.46921000"},
{"state":"Nariño","name":"Santa Bárbara","lat":"2.30185000","lon":"-77.91487000"},
{"state":"Nariño","name":"Santacruz","lat":"1.52090000","lon":"-77.26206000"},
{"state":"Nariño","name":"Sapuyes","lat":"1.03728000","lon":"-77.62094000"},
{"state":"Nariño","name":"Taminango","lat":"1.57032000","lon":"-77.28043000"},
{"state":"Nariño","name":"Tangua","lat":"1.09189000","lon":"-77.38645000"},
{"state":"Nariño","name":"Tumaco","lat":"1.79112000","lon":"-78.79275000"},
{"state":"Nariño","name":"Túquerres","lat":"1.08647000","lon":"-77.61858000"},
{"state":"Nariño","name":"Yacuanquer","lat":"1.11577000","lon":"-77.40169000"},
{"state":"Norte de Santander","name":"Abrego","lat":"8.00000000","lon":"-73.20000000"},
{"state":"Norte de Santander","name":"Arboledas","lat":"7.63494000","lon":"-72.86050000"},
{"state":"Norte de Santander","name":"Bochalema","lat":"7.60217000","lon":"-72.68839000"},
{"state":"Norte de Santander","name":"Bucarasica","lat":"8.04096000","lon":"-72.86538000"},
{"state":"Norte de Santander","name":"Cachirá","lat":"7.75000000","lon":"-73.16667000"},
{"state":"Norte de Santander","name":"Cácota","lat":"7.26787000","lon":"-72.64197000"},
{"state":"Norte de Santander","name":"Chinácota","lat":"7.60731000","lon":"-72.60108000"},
{"state":"Norte de Santander","name":"Chitagá","lat":"7.13781000","lon":"-72.66456000"},
{"state":"Norte de Santander","name":"Convención","lat":"8.82242000","lon":"-73.22850000"},
{"state":"Norte de Santander","name":"Cúcuta","lat":"7.89391000","lon":"-72.50782000"},
{"state":"Norte de Santander","name":"Cucutilla","lat":"7.53941000","lon":"-72.77238000"},
{"state":"Norte de Santander","name":"Durania","lat":"7.71307000","lon":"-72.65759000"},
{"state":"Norte de Santander","name":"El Carmen","lat":"8.51064000","lon":"-73.44776000"},
{"state":"Norte de Santander","name":"El Tarra","lat":"8.57562000","lon":"-73.09489000"},
{"state":"Norte de Santander","name":"El Zulia","lat":"7.93248000","lon":"-72.60125000"},
{"state":"Norte de Santander","name":"Gramalote","lat":"7.88752000","lon":"-72.79749000"},
{"state":"Norte de Santander","name":"Hacarí","lat":"8.32333000","lon":"-73.14889000"},
{"state":"Norte de Santander","name":"Herrán","lat":"7.50611000","lon":"-72.48332000"},
{"state":"Norte de Santander","name":"La Esperanza","lat":"8.21043000","lon":"-72.46399000"},
{"state":"Norte de Santander","name":"La Playa","lat":"8.25833000","lon":"-73.19222000"},
{"state":"Norte de Santander","name":"Labateca","lat":"7.24558000","lon":"-72.55286000"},
{"state":"Norte de Santander","name":"Los Patios","lat":"7.83793000","lon":"-72.50370000"},
{"state":"Norte de Santander","name":"Lourdes","lat":"7.96774000","lon":"-72.84519000"},
{"state":"Norte de Santander","name":"Mutiscua","lat":"7.29810000","lon":"-72.79879000"},
{"state":"Norte de Santander","name":"Ocaña","lat":"8.23773000","lon":"-73.35604000"},
{"state":"Norte de Santander","name":"Pamplona","lat":"7.37565000","lon":"-72.64795000"},
{"state":"Norte de Santander","name":"Pamplonita","lat":"7.45814000","lon":"-72.65965000"},
{"state":"Norte de Santander","name":"Puerto Santander","lat":"8.36361000","lon":"-72.40630000"},
{"state":"Norte de Santander","name":"Ragonvalia","lat":"7.57749000","lon":"-72.47574000"},
{"state":"Norte de Santander","name":"Salazar","lat":"7.78249000","lon":"-72.85741000"},
{"state":"Norte de Santander","name":"San Calixto","lat":"8.40210000","lon":"-73.20737000"},
{"state":"Norte de Santander","name":"San Cayetano","lat":"7.84771000","lon":"-72.61014000"},
{"state":"Norte de Santander","name":"Santiago","lat":"7.86930000","lon":"-72.73753000"},
{"state":"Norte de Santander","name":"Sardinata","lat":"8.08289000","lon":"-72.80071000"},
{"state":"Norte de Santander","name":"Silos","lat":"7.20524000","lon":"-72.75639000"},
{"state":"Norte de Santander","name":"Teorama","lat":"8.43527888","lon":"-73.28638999"},
{"state":"Norte de Santander","name":"Tibú","lat":"8.63895000","lon":"-72.73583000"},
{"state":"Norte de Santander","name":"Toledo","lat":"7.30984000","lon":"-72.48295000"},
{"state":"Norte de Santander","name":"Villa Caro","lat":"7.91472222","lon":"-72.97194444"},
{"state":"Norte de Santander","name":"Villa del Rosario","lat":"7.75816000","lon":"-72.48182000"},
{"state":"Putumayo","name":"Colón","lat":"1.19034000","lon":"-76.97369000"},
{"state":"Putumayo","name":"Mocoa","lat":"1.15284000","lon":"-76.65208000"},
{"state":"Putumayo","name":"Orito","lat":"0.66749000","lon":"-76.87297000"},
{"state":"Putumayo","name":"Puerto Asís","lat":"0.50514000","lon":"-76.49571000"},
{"state":"Putumayo","name":"Puerto Caicedo","lat":"0.68555555","lon":"-76.60444444"},
{"state":"Putumayo","name":"Puerto Guzmán","lat":"0.97028000","lon":"-76.58583000"},
{"state":"Putumayo","name":"Puerto Leguízamo","lat":"-0.19337000","lon":"-74.78189000"},
{"state":"Putumayo","name":"San Francisco","lat":"1.17644000","lon":"-76.87838000"},
{"state":"Putumayo","name":"San Miguel","lat":"0.34361111","lon":"-76.91083333"},
{"state":"Putumayo","name":"Santiago","lat":"1.14844000","lon":"-77.00450000"},
{"state":"Putumayo","name":"Sibundoy","lat":"1.20296000","lon":"-76.92275000"},
{"state":"Putumayo","name":"Valle del Guamuez","lat":"0.45250000","lon":"-76.91917000"},
{"state":"Putumayo","name":"Villagarzón","lat":"0.89663000","lon":"-76.72794000"},
{"state":"Quindío","name":"Armenia","lat":"4.53307000","lon":"-75.70438000"},
{"state":"Quindío","name":"Buenavista","lat":"4.35969000","lon":"-75.73888000"},
{"state":"Quindío","name":"Calarca","lat":"4.50000000","lon":"-75.63333000"},
{"state":"Quindío","name":"Circasia","lat":"4.59940000","lon":"-75.68536000"},
{"state":"Quindío","name":"Córdoba","lat":"4.38055000","lon":"-75.66685000"},
{"state":"Quindío","name":"Filandia","lat":"4.67525000","lon":"-75.67142000"},
{"state":"Quindío","name":"Génova","lat":"4.22743000","lon":"-75.75480000"},
{"state":"Quindío","name":"La Tebaida","lat":"4.43353000","lon":"-75.81476000"},
{"state":"Quindío","name":"Montenegro","lat":"4.52676000","lon":"-75.82265000"},
{"state":"Quindío","name":"Pijao","lat":"4.33350000","lon":"-75.70463000"},
{"state":"Quindío","name":"Quimbaya","lat":"4.59342000","lon":"-75.83758000"},
{"state":"Quindío","name":"Salento","lat":"4.63643000","lon":"-75.56740000"},
{"state":"Risaralda","name":"Apía","lat":"5.10658000","lon":"-75.94244000"},
{"state":"Risaralda","name":"Balboa","lat":"4.92284000","lon":"-75.94030000"},
{"state":"Risaralda","name":"Belén de Umbría","lat":"5.20087000","lon":"-75.86865000"},
{"state":"Risaralda","name":"Dosquebradas","lat":"4.83916000","lon":"-75.66727000"},
{"state":"Risaralda","name":"Guática","lat":"5.31569000","lon":"-75.79826000"},
{"state":"Risaralda","name":"La Celia","lat":"5.00332000","lon":"-76.00355000"},
{"state":"Risaralda","name":"La Virginia","lat":"4.89972000","lon":"-75.88250000"},
{"state":"Risaralda","name":"Marsella","lat":"4.95238000","lon":"-75.75265000"},
{"state":"Risaralda","name":"Mistrató","lat":"5.29622000","lon":"-75.88390000"},
{"state":"Risaralda","name":"Pereira","lat":"4.76896000","lon":"-75.72222000"},
{"state":"Risaralda","name":"Pueblo Rico","lat":"5.29453000","lon":"-76.06702000"},
{"state":"Risaralda","name":"Quinchía","lat":"5.33957000","lon":"-75.73018000"},
{"state":"Risaralda","name":"Santa Rosa de Cabal","lat":"4.86806000","lon":"-75.62139000"},
{"state":"Risaralda","name":"Santuario","lat":"5.05321000","lon":"-75.99060000"},
{"state":"Santander","name":"Aguada","lat":"6.16019000","lon":"-73.52747000"},
{"state":"Santander","name":"Albania","lat":"5.75894000","lon":"-73.91376000"},
{"state":"Santander","name":"Aratoca","lat":"6.69432000","lon":"-73.01868000"},
{"state":"Santander","name":"Barbosa","lat":"5.93168000","lon":"-73.61507000"},
{"state":"Santander","name":"Barichara","lat":"6.63572000","lon":"-73.22282000"},
{"state":"Santander","name":"Barrancabermeja","lat":"7.06528000","lon":"-73.85472000"},
{"state":"Santander","name":"Betulia","lat":"6.90069000","lon":"-73.28347000"},
{"state":"Santander","name":"Bolívar","lat":"5.98930000","lon":"-73.77058000"},
{"state":"Santander","name":"Bucaramanga","lat":"7.12539000","lon":"-73.11980000"},
{"state":"Santander","name":"Cabrera","lat":"6.56443000","lon":"-73.26768000"},
{"state":"Santander","name":"California","lat":"7.34340000","lon":"-72.95815000"},
{"state":"Santander","name":"Capitanejo","lat":"6.52881000","lon":"-72.69595000"},
{"state":"Santander","name":"Carcasí","lat":"6.62711000","lon":"-72.62625000"},
{"state":"Santander","name":"Cepitá","lat":"6.75427000","lon":"-72.97440000"},
{"state":"Santander","name":"Cerrito","lat":"6.84315000","lon":"-72.69404000"},
{"state":"Santander","name":"Charalá","lat":"6.17513000","lon":"-73.17587000"},
{"state":"Santander","name":"Charta","lat":"7.28025000","lon":"-72.96782000"},
{"state":"Santander","name":"Chima","lat":"6.36289000","lon":"-73.42534000"},
{"state":"Santander","name":"Chipatá","lat":"6.06196000","lon":"-73.63718000"},
{"state":"Santander","name":"Cimitarra","lat":"6.31419000","lon":"-73.94968000"},
{"state":"Santander","name":"Concepción","lat":"6.76619000","lon":"-72.69400000"},
{"state":"Santander","name":"Confines","lat":"6.34875000","lon":"-73.20990000"},
{"state":"Santander","name":"Contratación","lat":"6.29005000","lon":"-73.47354000"},
{"state":"Santander","name":"Coromoro","lat":"6.29461000","lon":"-73.04022000"},
{"state":"Santander","name":"Curití","lat":"6.60519000","lon":"-73.06809000"},
{"state":"Santander","name":"El Carmen de Chucurí","lat":"6.69736000","lon":"-73.51117000"},
{"state":"Santander","name":"El Guacamayo","lat":"6.24856000","lon":"-73.52957000"},
{"state":"Santander","name":"El Peñón","lat":"6.09900000","lon":"-73.92835000"},
{"state":"Santander","name":"El Playón","lat":"7.47131000","lon":"-73.20310000"},
{"state":"Santander","name":"Encino","lat":"6.13735000","lon":"-73.09847000"},
{"state":"Santander","name":"Enciso","lat":"6.64651000","lon":"-72.70709000"},
{"state":"Santander","name":"Florián","lat":"5.80487000","lon":"-73.97029000"},
{"state":"Santander","name":"Floridablanca","lat":"7.06315000","lon":"-73.08586000"},
{"state":"Santander","name":"Galán","lat":"6.66271000","lon":"-73.34233000"},
{"state":"Santander","name":"Gambita","lat":"5.90273000","lon":"-73.36788000"},
{"state":"Santander","name":"Girón","lat":"7.06820000","lon":"-73.16981000"},
{"state":"Santander","name":"Guaca","lat":"6.87621000","lon":"-72.85594000"},
{"state":"Santander","name":"Guadalupe","lat":"6.24640000","lon":"-73.41833000"},
{"state":"Santander","name":"Guapotá","lat":"6.30697000","lon":"-73.32848000"},
{"state":"Santander","name":"Guavatá","lat":"5.95502000","lon":"-73.70018000"},
{"state":"Santander","name":"Güepsa","lat":"6.02505000","lon":"-73.57313000"},
{"state":"Santander","name":"Hato","lat":"6.56113000","lon":"-73.35895000"},
{"state":"Santander","name":"Jesús María","lat":"5.87715000","lon":"-73.78097000"},
{"state":"Santander","name":"Jordán","lat":"6.69857000","lon":"-73.10966000"},
{"state":"Santander","name":"La Belleza","lat":"5.86371000","lon":"-73.96167000"},
{"state":"Santander","name":"La Paz","lat":"6.17848000","lon":"-73.58948000"},
{"state":"Santander","name":"Landázuri","lat":"6.21826000","lon":"-73.81121000"},
{"state":"Santander","name":"Lebrija","lat":"7.11317000","lon":"-73.21780000"},
{"state":"Santander","name":"Los Santos","lat":"6.79734000","lon":"-73.12490000"},
{"state":"Santander","name":"Macaravita","lat":"6.50567000","lon":"-72.59299000"},
{"state":"Santander","name":"Málaga","lat":"6.69903000","lon":"-72.73233000"},
{"state":"Santander","name":"Matanza","lat":"7.35605000","lon":"-73.05303000"},
{"state":"Santander","name":"Mogotes","lat":"6.47559000","lon":"-72.97046000"},
{"state":"Santander","name":"Molagavita","lat":"6.67315000","lon":"-72.80875000"},
{"state":"Santander","name":"Ocamonte","lat":"6.34001000","lon":"-73.12205000"},
{"state":"Santander","name":"Oiba","lat":"6.26387000","lon":"-73.29876000"},
{"state":"Santander","name":"Onzaga","lat":"6.34434000","lon":"-72.81726000"},
{"state":"Santander","name":"Palmar","lat":"6.49740000","lon":"-73.30740000"},
{"state":"Santander","name":"Palmas del Socorro","lat":"6.40756000","lon":"-73.28824000"},
{"state":"Santander","name":"Páramo","lat":"6.43750000","lon":"-73.18027000"},
{"state":"Santander","name":"Piedecuesta","lat":"6.97443000","lon":"-73.02284000"},
{"state":"Santander","name":"Pinchote","lat":"6.53226000","lon":"-73.17309000"},
{"state":"Santander","name":"Puente Nacional","lat":"5.87739000","lon":"-73.67810000"},
{"state":"Santander","name":"Puerto Parra","lat":"6.65149000","lon":"-74.05734000"},
{"state":"Santander","name":"Puerto Wilches","lat":"7.34828000","lon":"-73.89601000"},
{"state":"Santander","name":"Rionegro","lat":"7.50000000","lon":"-73.33333000"},
{"state":"Santander","name":"Sabana de Torres","lat":"7.39150000","lon":"-73.49574000"},
{"state":"Santander","name":"San Andrés","lat":"6.81148000","lon":"-72.84929000"},
{"state":"Santander","name":"San Benito","lat":"6.10206000","lon":"-73.53753000"},
{"state":"Santander","name":"San Gil","lat":"6.55952000","lon":"-73.13637000"},
{"state":"Santander","name":"San Joaquín","lat":"6.46554000","lon":"-72.84852000"},
{"state":"Santander","name":"San José de Miranda","lat":"6.63051000","lon":"-72.73155000"},
{"state":"Santander","name":"San Miguel","lat":"6.57583000","lon":"-72.64591000"},
{"state":"Santander","name":"San Vicente de Chucurí","lat":"6.88100000","lon":"-73.40977000"},
{"state":"Santander","name":"Santa Bárbara","lat":"6.99022000","lon":"-72.90700000"},
{"state":"Santander","name":"Santa Helena Del Opón","lat":"6.33916777","lon":"-73.61666777"},
{"state":"Santander","name":"Simacota","lat":"6.44290000","lon":"-73.33688000"},
{"state":"Santander","name":"Socorro","lat":"6.45647000","lon":"-73.25502000"},
{"state":"Santander","name":"Suaita","lat":"6.08221000","lon":"-73.37008000"},
{"state":"Santander","name":"Sucre","lat":"5.96995000","lon":"-73.96629000"},
{"state":"Santander","name":"Suratá","lat":"7.36633000","lon":"-72.98361000"},
{"state":"Santander","name":"Tona","lat":"7.15727000","lon":"-72.96559000"},
{"state":"Santander","name":"Valle de San José","lat":"6.41984000","lon":"-73.12946000"},
{"state":"Santander","name":"Vélez","lat":"6.23274000","lon":"-73.72582000"},
{"state":"Santander","name":"Vetas","lat":"7.30911000","lon":"-72.87122000"},
{"state":"Santander","name":"Villanueva","lat":"6.67169000","lon":"-73.17421000"},
{"state":"Santander","name":"Zapatoca","lat":"6.81532000","lon":"-73.26768000"},
{"state":"Sucre","name":"Buenavista","lat":"9.31972222","lon":"-74.97166777"},
{"state":"Sucre","name":"Caimito","lat":"8.78834000","lon":"-75.13583000"},
{"state":"Sucre","name":"Chalán","lat":"9.54765000","lon":"-75.31128000"},
{"state":"Sucre","name":"Coloso","lat":"9.51176000","lon":"-75.36233000"},
{"state":"Sucre","name":"Corozal","lat":"9.31847000","lon":"-75.29330000"},
{"state":"Sucre","name":"Coveñas","lat":"9.40254000","lon":"-75.68029000"},
{"state":"Sucre","name":"El Roble","lat":"9.10193000","lon":"-75.19508000"},
{"state":"Sucre","name":"Galeras","lat":"9.16095000","lon":"-75.04811000"},
{"state":"Sucre","name":"Guaranda","lat":"8.46746000","lon":"-74.53617000"},
{"state":"Sucre","name":"La Unión","lat":"8.84965000","lon":"-75.27942000"},
{"state":"Sucre","name":"Los Palmitos","lat":"9.37899000","lon":"-75.26769000"},
{"state":"Sucre","name":"Majagual","lat":"8.53500000","lon":"-74.71499000"},
{"state":"Sucre","name":"Morroa","lat":"9.33348000","lon":"-75.30542000"},
{"state":"Sucre","name":"Ovejas","lat":"9.54083000","lon":"-75.18333000"},
{"state":"Sucre","name":"Palmito","lat":"9.33667000","lon":"-75.56333000"},
{"state":"Sucre","name":"Sampués","lat":"9.18361000","lon":"-75.38167000"},
{"state":"Sucre","name":"San Benito Abad","lat":"8.78833000","lon":"-74.95666000"},
{"state":"Sucre","name":"San Juan de Betulia","lat":"9.27345000","lon":"-75.24103000"},
{"state":"Sucre","name":"San Luis de Sincé","lat":"9.24391000","lon":"-75.14675000"},
{"state":"Sucre","name":"San Marcos","lat":"8.58333000","lon":"-75.16667000"},
{"state":"Sucre","name":"San Onofre","lat":"9.73586000","lon":"-75.52626000"},
{"state":"Sucre","name":"San Pedro","lat":"9.39560000","lon":"-75.06476000"},
{"state":"Sucre","name":"Santiago de Tolú","lat":"9.52392000","lon":"-75.58139000"},
{"state":"Sucre","name":"Sincelejo","lat":"9.30472000","lon":"-75.39778000"},
{"state":"Sucre","name":"Sucre","lat":"8.81136000","lon":"-74.72084000"},
{"state":"Sucre","name":"Tolú Viejo","lat":"9.45082000","lon":"-75.43864000"},
{"state":"Tolima","name":"Alpujarra","lat":"3.39222000","lon":"-74.93271000"},
{"state":"Tolima","name":"Alvarado","lat":"4.58826000","lon":"-74.97810000"},
{"state":"Tolima","name":"Ambalema","lat":"4.78405000","lon":"-74.76268000"},
{"state":"Tolima","name":"Anzoátegui","lat":"4.62232000","lon":"-75.18046000"},
{"state":"Tolima","name":"Armero","lat":"5.03055666","lon":"-74.88444444"},
{"state":"Tolima","name":"Ataco","lat":"3.59147000","lon":"-75.38178000"},
{"state":"Tolima","name":"Cajamarca","lat":"4.41667000","lon":"-75.50000000"},
{"state":"Tolima","name":"Carmen de Apicalá","lat":"4.14725000","lon":"-74.72014000"},
{"state":"Tolima","name":"Casabianca","lat":"5.07959000","lon":"-75.12059000"},
{"state":"Tolima","name":"Chaparral","lat":"3.75000000","lon":"-75.58333000"},
{"state":"Tolima","name":"Coello","lat":"4.37330000","lon":"-74.88655000"},
{"state":"Tolima","name":"Coyaima","lat":"3.72781000","lon":"-75.17397000"},
{"state":"Tolima","name":"Cunday","lat":"4.00284000","lon":"-74.69295000"},
{"state":"Tolima","name":"Dolores","lat":"3.60534000","lon":"-74.80585000"},
{"state":"Tolima","name":"Espinal","lat":"4.14924000","lon":"-74.88429000"},
{"state":"Tolima","name":"Falan","lat":"5.12383000","lon":"-74.95181000"},
{"state":"Tolima","name":"Flandes","lat":"4.25000000","lon":"-74.83333000"},
{"state":"Tolima","name":"Fresno","lat":"5.15264000","lon":"-75.03624000"},
{"state":"Tolima","name":"Guamo","lat":"4.07457000","lon":"-74.97689000"},
{"state":"Tolima","name":"Herveo","lat":"5.08004000","lon":"-75.17556000"},
{"state":"Tolima","name":"Honda","lat":"5.20856000","lon":"-74.73584000"},
{"state":"Tolima","name":"Ibagué","lat":"4.43889000","lon":"-75.23222000"},
{"state":"Tolima","name":"Icononzo","lat":"4.17698000","lon":"-74.53254000"},
{"state":"Tolima","name":"Lérida","lat":"4.86242000","lon":"-74.90977000"},
{"state":"Tolima","name":"Líbano","lat":"4.83560000","lon":"-75.10834000"},
{"state":"Tolima","name":"Melgar","lat":"4.20475000","lon":"-74.64075000"},
{"state":"Tolima","name":"Murillo","lat":"4.87393000","lon":"-75.17151000"},
{"state":"Tolima","name":"Natagaima","lat":"3.55212000","lon":"-75.11345000"},
{"state":"Tolima","name":"Ortega","lat":"3.94514000","lon":"-75.27245000"},
{"state":"Tolima","name":"Palocabildo","lat":"5.11705000","lon":"-75.01732000"},
{"state":"Tolima","name":"Piedras","lat":"4.50000000","lon":"-74.91667000"},
{"state":"Tolima","name":"Planadas","lat":"3.10326000","lon":"-75.81680000"},
{"state":"Tolima","name":"Prado","lat":"3.73219000","lon":"-74.86494000"},
{"state":"Tolima","name":"Purificación","lat":"3.85871000","lon":"-74.93129000"},
{"state":"Tolima","name":"Rioblanco","lat":"3.50000000","lon":"-75.83333000"},
{"state":"Tolima","name":"Roncesvalles","lat":"4.01080000","lon":"-75.60493000"},
{"state":"Tolima","name":"Rovira","lat":"4.21222000","lon":"-75.34210000"},
{"state":"Tolima","name":"Saldaña","lat":"3.92923000","lon":"-75.01517000"},
{"state":"Tolima","name":"San Antonio","lat":"3.95664000","lon":"-75.50000000"},
{"state":"Tolima","name":"San Luis","lat":"4.16667000","lon":"-75.08333000"},
{"state":"Tolima","name":"San Sebastián de Mariquita","lat":"5.24269000","lon":"-74.90772000"},
{"state":"Tolima","name":"Santa Isabel","lat":"4.72626000","lon":"-75.22391000"},
{"state":"Tolima","name":"Suárez","lat":"4.04897000","lon":"-74.81821000"},
{"state":"Tolima","name":"Valle de San Juan","lat":"4.19869000","lon":"-75.11733000"},
{"state":"Tolima","name":"Venadillo","lat":"4.69177000","lon":"-74.93669000"},
{"state":"Tolima","name":"Villahermosa","lat":"4.96503000","lon":"-75.15650000"},
{"state":"Tolima","name":"Villarrica","lat":"3.83099000","lon":"-74.65258000"},
{"state":"Valle del Cauca","name":"Alcalá","lat":"4.67458000","lon":"-75.77188000"},
{"state":"Valle del Cauca","name":"Andalucía","lat":"4.14035000","lon":"-76.14739000"},
{"state":"Valle del Cauca","name":"Ansermanuevo","lat":"4.79722000","lon":"-75.99500000"},
{"state":"Valle del Cauca","name":"Argelia","lat":"4.72904000","lon":"-76.11637000"},
{"state":"Valle del Cauca","name":"Bolívar","lat":"4.37710000","lon":"-76.34870000"},
{"state":"Valle del Cauca","name":"Buenaventura","lat":"3.88010000","lon":"-77.03116000"},
{"state":"Valle del Cauca","name":"Bugalagrande","lat":"4.21207000","lon":"-76.15564000"},
{"state":"Valle del Cauca","name":"Caicedonia","lat":"4.33240000","lon":"-75.82665000"},
{"state":"Valle del Cauca","name":"Cali","lat":"3.41033000","lon":"-76.58097000"},
{"state":"Valle del Cauca","name":"Calima","lat":"3.92511000","lon":"-76.62654000"},
{"state":"Valle del Cauca","name":"Candelaria","lat":"3.38367000","lon":"-76.42466000"},
{"state":"Valle del Cauca","name":"Cartago","lat":"4.74639000","lon":"-75.91167000"},
{"state":"Valle del Cauca","name":"Dagua","lat":"3.65685000","lon":"-76.68859000"},
{"state":"Valle del Cauca","name":"El Águila","lat":"4.91946000","lon":"-76.05680000"},
{"state":"Valle del Cauca","name":"El Cairo","lat":"4.74889000","lon":"-76.24443000"},
{"state":"Valle del Cauca","name":"El Cerrito","lat":"3.64273000","lon":"-76.20960000"},
{"state":"Valle del Cauca","name":"El Dovio","lat":"4.50790000","lon":"-76.23619000"},
{"state":"Valle del Cauca","name":"Florida","lat":"3.30940000","lon":"-76.18989000"},
{"state":"Valle del Cauca","name":"Ginebra","lat":"3.74296000","lon":"-76.19412000"},
{"state":"Valle del Cauca","name":"Guacarí","lat":"3.76383000","lon":"-76.33292000"},
{"state":"Valle del Cauca","name":"Guadalajara de Buga","lat":"3.90089000","lon":"-76.29783000"},
{"state":"Valle del Cauca","name":"Jamundí","lat":"3.26074000","lon":"-76.53499000"},
{"state":"Valle del Cauca","name":"La Cumbre","lat":"3.72250000","lon":"-76.02083000"},
{"state":"Valle del Cauca","name":"La Unión","lat":"4.53282000","lon":"-76.10318000"},
{"state":"Valle del Cauca","name":"La Victoria","lat":"4.52483000","lon":"-76.03921000"},
{"state":"Valle del Cauca","name":"Obando","lat":"4.59590000","lon":"-75.94879000"},
{"state":"Valle del Cauca","name":"Palmira","lat":"3.53969000","lon":"-76.22607000"},
{"state":"Valle del Cauca","name":"Pradera","lat":"3.42793000","lon":"-76.17159000"},
{"state":"Valle del Cauca","name":"Restrepo","lat":"3.82203000","lon":"-76.52242000"},
{"state":"Valle del Cauca","name":"Riofrío","lat":"4.15710000","lon":"-76.28852000"},
{"state":"Valle del Cauca","name":"Roldanillo","lat":"4.41256000","lon":"-76.15457000"},
{"state":"Valle del Cauca","name":"San Pedro","lat":"3.99936000","lon":"-76.26123000"},
{"state":"Valle del Cauca","name":"Sevilla","lat":"4.19345000","lon":"-75.88829000"},
{"state":"Valle del Cauca","name":"Toro","lat":"4.61167000","lon":"-76.08139000"},
{"state":"Valle del Cauca","name":"Trujillo","lat":"4.23696000","lon":"-76.34730000"},
{"state":"Valle del Cauca","name":"Tuluá","lat":"4.08466000","lon":"-76.19536000"},
{"state":"Valle del Cauca","name":"Ulloa","lat":"4.70745000","lon":"-75.77781000"},
{"state":"Valle del Cauca","name":"Versalles","lat":"4.66335000","lon":"-76.24649000"},
{"state":"Valle del Cauca","name":"Vijes","lat":"3.73283000","lon":"-76.49363000"},
{"state":"Valle del Cauca","name":"Yotoco","lat":"3.86048000","lon":"-76.38364000"},
{"state":"Valle del Cauca","name":"Yumbo","lat":"3.58234000","lon":"-76.49146000"},
{"state":"Valle del Cauca","name":"Zarzal","lat":"4.39462000","lon":"-76.07150000"},
{"state":"Vaupés","name":"Caruru","lat":"1.02081000","lon":"-71.33788000"},
{"state":"Vaupés","name":"Mitú","lat":"1.25778000","lon":"-70.23472000"},
{"state":"Vaupés","name":"Pacoa","lat":"0.15636000","lon":"-70.89274000"},
{"state":"Vaupés","name":"Papunaua","lat":"1.68335000","lon":"-70.70968000"},
{"state":"Vaupés","name":"Taraira","lat":"-0.74835000","lon":"-69.89662000"},
{"state":"Vaupés","name":"Yavaraté","lat":"0.82828000","lon":"-69.62959000"},
{"state":"Vichada","name":"Cumaribo","lat":"4.44552000","lon":"-69.79897000"},
{"state":"Vichada","name":"La Primavera","lat":"5.49056000","lon":"-70.40917000"},
{"state":"Vichada","name":"Puerto Carreño","lat":"6.18903000","lon":"-67.48588000"},
{"state":"Vichada","name":"Santa Rosalia","lat":"5.13356000","lon":"-70.86233000"}]