[{"state":"Alajuela Province","name":"Alajuela","lat":"10.01625000","lon":"-84.21163000"},
{"state":"Alajuela Province","name":"Atenas","lat":"9.98333000","lon":"-84.38333000"},
{"state":"Alajuela Province","name":"Bijagua","lat":"10.73279000","lon":"-85.05676000"},
{"state":"Alajuela Province","name":"Carrillos","lat":"10.02918000","lon":"-84.27403000"},
{"state":"Alajuela Province","name":"Desamparados","lat":"9.94727000","lon":"-84.50626000"},
{"state":"Alajuela Province","name":"Esquipulas","lat":"10.05676000","lon":"-84.42337000"},
{"state":"Alajuela Province","name":"Grecia","lat":"10.06892000","lon":"-84.31458000"},
{"state":"Alajuela Province","name":"Guatuso","lat":"10.66667000","lon":"-84.83333000"},
{"state":"Alajuela Province","name":"La Fortuna","lat":"10.47089000","lon":"-84.64535000"},
{"state":"Alajuela Province","name":"Los Chiles","lat":"10.86667000","lon":"-84.66667000"},
{"state":"Alajuela Province","name":"Naranjo","lat":"10.11667000","lon":"-84.40000000"},
{"state":"Alajuela Province","name":"Orotina","lat":"9.90000000","lon":"-84.56667000"},
{"state":"Alajuela Province","name":"Palmares","lat":"10.03333000","lon":"-84.43333000"},
{"state":"Alajuela Province","name":"Pital","lat":"10.45056000","lon":"-84.27406000"},
{"state":"Alajuela Province","name":"Poás","lat":"10.08333000","lon":"-84.23333000"},
{"state":"Alajuela Province","name":"Pocosol","lat":"10.36667000","lon":"-84.61667000"},
{"state":"Alajuela Province","name":"Quesada","lat":"10.32381000","lon":"-84.42714000"},
{"state":"Alajuela Province","name":"Río Segundo","lat":"10.24138000","lon":"-84.27933000"},
{"state":"Alajuela Province","name":"Sabanilla","lat":"10.07404000","lon":"-84.21551000"},
{"state":"Alajuela Province","name":"San Carlos","lat":"10.58333000","lon":"-84.41667000"},
{"state":"Alajuela Province","name":"San José","lat":"10.95173000","lon":"-85.13610000"},
{"state":"Alajuela Province","name":"San Juan","lat":"10.10248000","lon":"-84.31694000"},
{"state":"Alajuela Province","name":"San Mateo","lat":"9.95000000","lon":"-84.51667000"},
{"state":"Alajuela Province","name":"San Rafael","lat":"10.06403000","lon":"-84.47281000"},
{"state":"Alajuela Province","name":"San Ramón","lat":"10.08718000","lon":"-84.47044000"},
{"state":"Alajuela Province","name":"Santiago","lat":"10.02275000","lon":"-84.44420000"},
{"state":"Alajuela Province","name":"Upala","lat":"10.85000000","lon":"-85.16667000"},
{"state":"Alajuela Province","name":"Valverde Vega","lat":"10.18721000","lon":"-84.30290000"},
{"state":"Alajuela Province","name":"Zarcero","lat":"10.20000000","lon":"-84.40000000"},
{"state":"Guanacaste Province","name":"Abangares","lat":"10.21667000","lon":"-85.00000000"},
{"state":"Guanacaste Province","name":"Bagaces","lat":"10.50000000","lon":"-85.25000000"},
{"state":"Guanacaste Province","name":"Belén","lat":"10.40789000","lon":"-85.58836000"},
{"state":"Guanacaste Province","name":"Cañas","lat":"10.48005000","lon":"-85.11349000"},
{"state":"Guanacaste Province","name":"Carrillo","lat":"10.41667000","lon":"-85.58333000"},
{"state":"Guanacaste Province","name":"Fortuna","lat":"10.67384000","lon":"-85.19984000"},
{"state":"Guanacaste Province","name":"Hojancha","lat":"9.96667000","lon":"-85.41667000"},
{"state":"Guanacaste Province","name":"Juntas","lat":"10.28089000","lon":"-84.95951000"},
{"state":"Guanacaste Province","name":"La Cruz","lat":"11.00000000","lon":"-85.58333000"},
{"state":"Guanacaste Province","name":"Liberia","lat":"10.63504000","lon":"-85.43772000"},
{"state":"Guanacaste Province","name":"Nandayure","lat":"9.91667000","lon":"-85.28333000"},
{"state":"Guanacaste Province","name":"Nicoya","lat":"10.08333000","lon":"-85.50000000"},
{"state":"Guanacaste Province","name":"Sámara","lat":"9.88147000","lon":"-85.52809000"},
{"state":"Guanacaste Province","name":"Santa Cruz","lat":"10.25000000","lon":"-85.66667000"},
{"state":"Guanacaste Province","name":"Sardinal","lat":"10.51674000","lon":"-85.64748000"},
{"state":"Guanacaste Province","name":"Tilarán","lat":"10.45878000","lon":"-84.97513000"},
{"state":"Heredia Province","name":"Ángeles","lat":"9.99591000","lon":"-84.05126000"},
{"state":"Heredia Province","name":"Barva","lat":"10.08333000","lon":"-84.10000000"},
{"state":"Heredia Province","name":"Belén","lat":"9.98333000","lon":"-84.16667000"},
{"state":"Heredia Province","name":"Flores","lat":"10.00000000","lon":"-84.15000000"},
{"state":"Heredia Province","name":"Heredia","lat":"10.00236000","lon":"-84.11651000"},
{"state":"Heredia Province","name":"La Asunción","lat":"9.97961000","lon":"-84.17281000"},
{"state":"Heredia Province","name":"Llorente","lat":"9.99844000","lon":"-84.15448000"},
{"state":"Heredia Province","name":"Mercedes","lat":"10.00695000","lon":"-84.13396000"},
{"state":"Heredia Province","name":"San Antonio","lat":"9.98333000","lon":"-84.18333000"},
{"state":"Heredia Province","name":"San Francisco","lat":"9.99299000","lon":"-84.12934000"},
{"state":"Heredia Province","name":"San Isidro","lat":"10.03333000","lon":"-84.03333000"},
{"state":"Heredia Province","name":"San Josecito","lat":"10.01667000","lon":"-84.10000000"},
{"state":"Heredia Province","name":"San Pablo","lat":"10.00000000","lon":"-84.08333000"},
{"state":"Heredia Province","name":"San Rafael","lat":"10.05000000","lon":"-84.06667000"},
{"state":"Heredia Province","name":"Santa Bárbara","lat":"10.08333000","lon":"-84.15000000"},
{"state":"Heredia Province","name":"Santo Domingo","lat":"10.06389000","lon":"-84.15499000"},
{"state":"Heredia Province","name":"Sarapiquí","lat":"10.50000000","lon":"-84.00000000"},
{"state":"Limón Province","name":"Batán","lat":"10.08354000","lon":"-83.33413000"},
{"state":"Limón Province","name":"Guácimo","lat":"10.20000000","lon":"-83.66667000"},
{"state":"Limón Province","name":"Guápiles","lat":"10.21682000","lon":"-83.78483000"},
{"state":"Limón Province","name":"Limón","lat":"9.99074000","lon":"-83.03596000"},
{"state":"Limón Province","name":"Matina","lat":"10.00000000","lon":"-83.25000000"},
{"state":"Limón Province","name":"Pococí","lat":"10.50000000","lon":"-83.63333000"},
{"state":"Limón Province","name":"Pocora","lat":"10.17185000","lon":"-83.60439000"},
{"state":"Limón Province","name":"Roxana","lat":"10.26712000","lon":"-83.75110000"},
{"state":"Limón Province","name":"Siquirres","lat":"10.11667000","lon":"-83.50000000"},
{"state":"Limón Province","name":"Sixaola","lat":"9.52766000","lon":"-82.62185000"},
{"state":"Limón Province","name":"Talamanca","lat":"9.50000000","lon":"-83.08333000"},
{"state":"Provincia de Cartago","name":"Alvarado","lat":"9.93333000","lon":"-83.80000000"},
{"state":"Provincia de Cartago","name":"Cartago","lat":"9.86444000","lon":"-83.91944000"},
{"state":"Provincia de Cartago","name":"Concepción","lat":"9.93333000","lon":"-84.00000000"},
{"state":"Provincia de Cartago","name":"Cot","lat":"9.89449000","lon":"-83.87302000"},
{"state":"Provincia de Cartago","name":"El Guarco","lat":"9.75000000","lon":"-83.91667000"},
{"state":"Provincia de Cartago","name":"Jiménez","lat":"9.75000000","lon":"-83.68333000"},
{"state":"Provincia de Cartago","name":"La Suiza","lat":"9.85065000","lon":"-83.61690000"},
{"state":"Provincia de Cartago","name":"La Unión","lat":"9.91667000","lon":"-83.98333000"},
{"state":"Provincia de Cartago","name":"Oreamuno","lat":"10.00000000","lon":"-83.83333000"},
{"state":"Provincia de Cartago","name":"Orosí","lat":"9.79617000","lon":"-83.85383000"},
{"state":"Provincia de Cartago","name":"Pacayas","lat":"9.80709000","lon":"-84.04764000"},
{"state":"Provincia de Cartago","name":"Paraíso","lat":"9.75000000","lon":"-83.80000000"},
{"state":"Provincia de Cartago","name":"Pejibaye","lat":"9.81135000","lon":"-83.70336000"},
{"state":"Provincia de Cartago","name":"San Diego","lat":"9.89898000","lon":"-84.00287000"},
{"state":"Provincia de Cartago","name":"Tobosi","lat":"9.83837000","lon":"-83.98391000"},
{"state":"Provincia de Cartago","name":"Tres Ríos","lat":"9.90644000","lon":"-83.98760000"},
{"state":"Provincia de Cartago","name":"Tucurrique","lat":"9.85336000","lon":"-83.72273000"},
{"state":"Provincia de Cartago","name":"Turrialba","lat":"9.80000000","lon":"-83.53333000"},
{"state":"Puntarenas Province","name":"Buenos Aires","lat":"9.11667000","lon":"-83.25000000"},
{"state":"Puntarenas Province","name":"Canoas","lat":"8.53305000","lon":"-82.83844000"},
{"state":"Puntarenas Province","name":"Chacarita","lat":"9.98424000","lon":"-84.77892000"},
{"state":"Puntarenas Province","name":"Ciudad Cortés","lat":"8.95988000","lon":"-83.52381000"},
{"state":"Puntarenas Province","name":"Corredor","lat":"8.64002000","lon":"-82.94600000"},
{"state":"Puntarenas Province","name":"Corredores","lat":"8.58333000","lon":"-82.91667000"},
{"state":"Puntarenas Province","name":"Coto Brus","lat":"8.88333000","lon":"-82.96667000"},
{"state":"Puntarenas Province","name":"Esparza","lat":"10.00000000","lon":"-84.66667000"},
{"state":"Puntarenas Province","name":"Garabito","lat":"9.61903000","lon":"-84.62013000"},
{"state":"Puntarenas Province","name":"Golfito","lat":"8.60000000","lon":"-83.12000000"},
{"state":"Puntarenas Province","name":"Jacó","lat":"9.61497000","lon":"-84.62975000"},
{"state":"Puntarenas Province","name":"Miramar","lat":"10.09250000","lon":"-84.72978000"},
{"state":"Puntarenas Province","name":"Montes de Oro","lat":"10.10000000","lon":"-84.75000000"},
{"state":"Puntarenas Province","name":"Osa","lat":"8.83333000","lon":"-83.50000000"},
{"state":"Puntarenas Province","name":"Paquera","lat":"9.82005000","lon":"-84.93513000"},
{"state":"Puntarenas Province","name":"Parrita","lat":"9.55000000","lon":"-84.33333000"},
{"state":"Puntarenas Province","name":"Puntarenas","lat":"9.97625000","lon":"-84.83836000"},
{"state":"Puntarenas Province","name":"Quepos","lat":"9.43187000","lon":"-84.16141000"},
{"state":"Puntarenas Province","name":"San Vito","lat":"8.82079000","lon":"-82.97092000"},
{"state":"San José Province","name":"Acosta","lat":"9.80000000","lon":"-84.20000000"},
{"state":"San José Province","name":"Alajuelita","lat":"9.90000000","lon":"-84.10000000"},
{"state":"San José Province","name":"Aserrí","lat":"9.86667000","lon":"-84.10000000"},
{"state":"San José Province","name":"Calle Blancos","lat":"9.95000000","lon":"-84.06667000"},
{"state":"San José Province","name":"Colima","lat":"9.95091000","lon":"-84.08503000"},
{"state":"San José Province","name":"Colón","lat":"9.91491000","lon":"-84.24170000"},
{"state":"San José Province","name":"Curridabat","lat":"9.91667000","lon":"-84.03333000"},
{"state":"San José Province","name":"Daniel Flores","lat":"9.33554000","lon":"-83.66940000"},
{"state":"San José Province","name":"Desamparados","lat":"9.90000000","lon":"-84.06667000"},
{"state":"San José Province","name":"Dota","lat":"9.65000000","lon":"-83.95000000"},
{"state":"San José Province","name":"Escazú","lat":"9.93333000","lon":"-84.13333000"},
{"state":"San José Province","name":"Goicoechea","lat":"9.94848000","lon":"-84.06365000"},
{"state":"San José Province","name":"Granadilla","lat":"9.93491000","lon":"-84.01688000"},
{"state":"San José Province","name":"Guadalupe","lat":"9.94805000","lon":"-84.05665000"},
{"state":"San José Province","name":"Ipís","lat":"9.96745000","lon":"-84.01326000"},
{"state":"San José Province","name":"León Cortés","lat":"9.68300000","lon":"-84.04781000"},
{"state":"San José Province","name":"Mercedes","lat":"9.26270000","lon":"-83.58202000"},
{"state":"San José Province","name":"Montes de Oca","lat":"9.93960000","lon":"-84.03013000"},
{"state":"San José Province","name":"Mora","lat":"9.91667000","lon":"-84.25000000"},
{"state":"San José Province","name":"Moravia","lat":"10.04000000","lon":"-84.00000000"},
{"state":"San José Province","name":"Palmichal","lat":"9.83778000","lon":"-84.20478000"},
{"state":"San José Province","name":"Patarrá","lat":"9.88071000","lon":"-84.03501000"},
{"state":"San José Province","name":"Pérez Zeledón","lat":"9.35473000","lon":"-83.63484000"},
{"state":"San José Province","name":"Puriscal","lat":"9.75000000","lon":"-84.41667000"},
{"state":"San José Province","name":"Purral","lat":"9.95808000","lon":"-84.03050000"},
{"state":"San José Province","name":"Sabanilla","lat":"9.94522000","lon":"-84.03927000"},
{"state":"San José Province","name":"Salitral","lat":"9.91163000","lon":"-84.17835000"},
{"state":"San José Province","name":"Salitrillos","lat":"9.85259000","lon":"-84.09062000"},
{"state":"San José Province","name":"San Felipe","lat":"9.90488000","lon":"-84.10551000"},
{"state":"San José Province","name":"San Ignacio","lat":"9.79853000","lon":"-84.16173000"},
{"state":"San José Province","name":"San Isidro","lat":"9.36740000","lon":"-83.69713000"},
{"state":"San José Province","name":"San José","lat":"9.93333000","lon":"-84.08333000"},
{"state":"San José Province","name":"San Juan","lat":"9.95974000","lon":"-84.08165000"},
{"state":"San José Province","name":"San Juan de Dios","lat":"9.87730000","lon":"-84.08470000"},
{"state":"San José Province","name":"San Marcos","lat":"9.66010000","lon":"-84.02026000"},
{"state":"San José Province","name":"San Miguel","lat":"9.87121000","lon":"-84.06084000"},
{"state":"San José Province","name":"San Pedro","lat":"9.92829000","lon":"-84.05074000"},
{"state":"San José Province","name":"San Rafael","lat":"9.92787000","lon":"-84.13722000"},
{"state":"San José Province","name":"San Rafael Abajo","lat":"9.83100000","lon":"-84.29008000"},
{"state":"San José Province","name":"San Rafael Arriba","lat":"9.87556000","lon":"-84.07661000"},
{"state":"San José Province","name":"San Vicente","lat":"9.96016000","lon":"-84.04762000"},
{"state":"San José Province","name":"San Vicente de Moravia","lat":"9.96164000","lon":"-84.04880000"},
{"state":"San José Province","name":"Santa Ana","lat":"9.93260000","lon":"-84.18255000"},
{"state":"San José Province","name":"Santiago","lat":"9.84636000","lon":"-84.31428000"},
{"state":"San José Province","name":"Tarrazú","lat":"9.65965000","lon":"-84.02138000"},
{"state":"San José Province","name":"Tejar","lat":"9.74622000","lon":"-84.23368000"},
{"state":"San José Province","name":"Tibás","lat":"9.96667000","lon":"-84.08333000"},
{"state":"San José Province","name":"Turrubares","lat":"9.75000000","lon":"-84.50000000"},
{"state":"San José Province","name":"Vázquez de Coronado","lat":"10.06000000","lon":"-84.00000000"}]