[{"state":"Artemisa Province","name":"Alquízar","lat":"22.80517000","lon":"-82.58392000"},
{"state":"Artemisa Province","name":"Artemisa","lat":"22.81667000","lon":"-82.75944000"},
{"state":"Artemisa Province","name":"Bahía Honda","lat":"22.90332000","lon":"-83.15994000"},
{"state":"Artemisa Province","name":"Bauta","lat":"22.98226000","lon":"-82.54719000"},
{"state":"Artemisa Province","name":"Cabañas","lat":"22.97944000","lon":"-82.92214000"},
{"state":"Artemisa Province","name":"Candelaria","lat":"22.74057000","lon":"-82.95912000"},
{"state":"Artemisa Province","name":"Guanajay","lat":"22.92639000","lon":"-82.68750000"},
{"state":"Artemisa Province","name":"Güira de Melena","lat":"22.79613000","lon":"-82.50667000"},
{"state":"Artemisa Province","name":"Mariel","lat":"22.98931000","lon":"-82.75376000"},
{"state":"Artemisa Province","name":"Municipio de Artemisa","lat":"22.77383000","lon":"-82.80419000"},
{"state":"Artemisa Province","name":"Municipio de Bauta","lat":"22.96957000","lon":"-82.49997000"},
{"state":"Artemisa Province","name":"Municipio de Guanajay","lat":"22.89215000","lon":"-82.70873000"},
{"state":"Artemisa Province","name":"Municipio de Mariel","lat":"22.96515000","lon":"-82.80324000"},
{"state":"Artemisa Province","name":"Municipio de San Cristóbal","lat":"22.71446000","lon":"-83.04561000"},
{"state":"Artemisa Province","name":"San Antonio de los Baños","lat":"22.89018000","lon":"-82.50099000"},
{"state":"Artemisa Province","name":"San Cristobal","lat":"22.71658000","lon":"-83.05647000"},
{"state":"Artemisa Province","name":"Soroa","lat":"22.80000000","lon":"-83.01667000"},
{"state":"Camagüey Province","name":"Camagüey","lat":"21.38083000","lon":"-77.91694000"},
{"state":"Camagüey Province","name":"El Caney","lat":"21.30000000","lon":"-78.48333000"},
{"state":"Camagüey Province","name":"Esmeralda","lat":"21.85139000","lon":"-78.11725000"},
{"state":"Camagüey Province","name":"Florida","lat":"21.52536000","lon":"-78.22579000"},
{"state":"Camagüey Province","name":"Guáimaro","lat":"21.05222000","lon":"-77.34990000"},
{"state":"Camagüey Province","name":"Jimaguayú","lat":"21.24224000","lon":"-77.82625000"},
{"state":"Camagüey Province","name":"Minas","lat":"21.48802000","lon":"-77.61033000"},
{"state":"Camagüey Province","name":"Municipio de Florida","lat":"21.46582000","lon":"-78.34848000"},
{"state":"Camagüey Province","name":"Municipio de Nuevitas","lat":"21.55000000","lon":"-77.26667000"},
{"state":"Camagüey Province","name":"Nuevitas","lat":"21.54585000","lon":"-77.26504000"},
{"state":"Camagüey Province","name":"Santa Cruz del Sur","lat":"20.71633000","lon":"-77.99816000"},
{"state":"Camagüey Province","name":"Sibanicú","lat":"21.23631000","lon":"-77.52561000"},
{"state":"Camagüey Province","name":"Vertientes","lat":"21.25817000","lon":"-78.14979000"},
{"state":"Ciego de Ávila Province","name":"Baraguá","lat":"21.68216000","lon":"-78.62567000"},
{"state":"Ciego de Ávila Province","name":"Chambas","lat":"22.19534000","lon":"-78.91230000"},
{"state":"Ciego de Ávila Province","name":"Ciego de Ávila","lat":"21.84000000","lon":"-78.76194000"},
{"state":"Ciego de Ávila Province","name":"Ciro Redondo","lat":"22.01921000","lon":"-78.70365000"},
{"state":"Ciego de Ávila Province","name":"Florencia","lat":"22.14610000","lon":"-78.97328000"},
{"state":"Ciego de Ávila Province","name":"Morón","lat":"22.10774000","lon":"-78.62667000"},
{"state":"Ciego de Ávila Province","name":"Municipio de Ciego de Ávila","lat":"21.85000000","lon":"-78.76667000"},
{"state":"Ciego de Ávila Province","name":"Municipio de Morón","lat":"22.29980000","lon":"-78.56875000"},
{"state":"Ciego de Ávila Province","name":"Primero de Enero","lat":"21.94501000","lon":"-78.43130000"},
{"state":"Ciego de Ávila Province","name":"Venezuela","lat":"21.73748000","lon":"-78.79336000"},
{"state":"Cienfuegos Province","name":"Abreus","lat":"22.27797000","lon":"-80.56931000"},
{"state":"Cienfuegos Province","name":"Aguada de Pasajeros","lat":"22.38520000","lon":"-80.84792000"},
{"state":"Cienfuegos Province","name":"Cienfuegos","lat":"22.14957000","lon":"-80.44662000"},
{"state":"Cienfuegos Province","name":"Cruces","lat":"22.34203000","lon":"-80.27021000"},
{"state":"Cienfuegos Province","name":"Cumanayagua","lat":"22.15247000","lon":"-80.20354000"},
{"state":"Cienfuegos Province","name":"Lajas","lat":"22.41479000","lon":"-80.29310000"},
{"state":"Cienfuegos Province","name":"Municipio de Abreus","lat":"22.19229000","lon":"-80.71465000"},
{"state":"Cienfuegos Province","name":"Municipio de Cienfuegos","lat":"22.15000000","lon":"-80.45000000"},
{"state":"Cienfuegos Province","name":"Palmira","lat":"22.24126000","lon":"-80.39110000"},
{"state":"Cienfuegos Province","name":"Rodas","lat":"22.34184000","lon":"-80.55596000"},
{"state":"Granma Province","name":"Bartolomé Masó","lat":"20.16635000","lon":"-76.94291000"},
{"state":"Granma Province","name":"Bayamo","lat":"20.37417000","lon":"-76.64361000"},
{"state":"Granma Province","name":"Campechuela","lat":"20.23329000","lon":"-77.27990000"},
{"state":"Granma Province","name":"Cauto Cristo","lat":"20.55709000","lon":"-76.47270000"},
{"state":"Granma Province","name":"Guisa","lat":"20.25494000","lon":"-76.53930000"},
{"state":"Granma Province","name":"Jiguaní","lat":"20.36785000","lon":"-76.42741000"},
{"state":"Granma Province","name":"Manzanillo","lat":"20.34173000","lon":"-77.12126000"},
{"state":"Granma Province","name":"Media Luna","lat":"20.14298000","lon":"-77.43532000"},
{"state":"Granma Province","name":"Municipio de Bayamo","lat":"20.42511000","lon":"-76.68614000"},
{"state":"Granma Province","name":"Municipio de Manzanillo","lat":"20.24732000","lon":"-77.10273000"},
{"state":"Granma Province","name":"Municipio de Niquero","lat":"19.93912000","lon":"-77.57085000"},
{"state":"Granma Province","name":"Niquero","lat":"20.04698000","lon":"-77.58089000"},
{"state":"Granma Province","name":"Río Cauto","lat":"20.55971000","lon":"-76.91673000"},
{"state":"Granma Province","name":"Yara","lat":"20.27465000","lon":"-76.95132000"},
{"state":"Guantánamo Province","name":"Baracoa","lat":"20.34711000","lon":"-74.49624000"},
{"state":"Guantánamo Province","name":"Guantánamo","lat":"20.14444000","lon":"-75.20917000"},
{"state":"Guantánamo Province","name":"Maisí","lat":"20.24673000","lon":"-74.15181000"},
{"state":"Guantánamo Province","name":"Municipio de Guantánamo","lat":"20.26723000","lon":"-75.15546000"},
{"state":"Guantánamo Province","name":"Río Guayabal de Yateras","lat":"20.36667000","lon":"-75.01667000"},
{"state":"Guantánamo Province","name":"San Antonio del Sur","lat":"20.05564000","lon":"-74.80750000"},
{"state":"Havana Province","name":"Alamar","lat":"23.15794000","lon":"-82.27837000"},
{"state":"Havana Province","name":"Arroyo Naranjo","lat":"23.03677000","lon":"-82.36937000"},
{"state":"Havana Province","name":"Boyeros","lat":"23.00720000","lon":"-82.40170000"},
{"state":"Havana Province","name":"Centro Habana","lat":"23.13833000","lon":"-82.36417000"},
{"state":"Havana Province","name":"Cerro","lat":"23.10861000","lon":"-82.37778000"},
{"state":"Havana Province","name":"Diez de Octubre","lat":"23.08810000","lon":"-82.35970000"},
{"state":"Havana Province","name":"Guanabacoa","lat":"23.12360000","lon":"-82.30082000"},
{"state":"Havana Province","name":"Habana del Este","lat":"23.15917000","lon":"-82.33056000"},
{"state":"Havana Province","name":"Havana","lat":"23.13302000","lon":"-82.38304000"},
{"state":"Havana Province","name":"La Habana Vieja","lat":"23.13028000","lon":"-82.35306000"},
{"state":"Havana Province","name":"Regla","lat":"23.12500000","lon":"-82.33194000"},
{"state":"Havana Province","name":"San Miguel del Padrón","lat":"23.06639000","lon":"-82.29472000"},
{"state":"Havana Province","name":"Santiago de las Vegas","lat":"22.97000000","lon":"-82.38694000"},
{"state":"Holguín Province","name":"Banes","lat":"20.96116000","lon":"-75.72200000"},
{"state":"Holguín Province","name":"Cacocum","lat":"20.73775000","lon":"-76.32574000"},
{"state":"Holguín Province","name":"Cueto","lat":"20.64855000","lon":"-75.92967000"},
{"state":"Holguín Province","name":"Gibara","lat":"21.10988000","lon":"-76.13145000"},
{"state":"Holguín Province","name":"Holguín","lat":"20.88722000","lon":"-76.26306000"},
{"state":"Holguín Province","name":"Jobabo","lat":"20.96917000","lon":"-76.29944000"},
{"state":"Holguín Province","name":"Moa","lat":"20.65776000","lon":"-74.95075000"},
{"state":"Holguín Province","name":"Municipio de Banes","lat":"20.98008000","lon":"-75.74933000"},
{"state":"Holguín Province","name":"Municipio de Holguín","lat":"20.91192000","lon":"-76.27057000"},
{"state":"Holguín Province","name":"Sagua de Tánamo","lat":"20.58269000","lon":"-75.24116000"},
{"state":"Holguín Province","name":"San Germán","lat":"20.60009000","lon":"-76.13364000"},
{"state":"Isla de la Juventud","name":"Nueva Gerona","lat":"21.88667000","lon":"-82.80556000"},
{"state":"Las Tunas Province","name":"Amancio","lat":"20.81914000","lon":"-77.57958000"},
{"state":"Las Tunas Province","name":"Colombia","lat":"20.98812000","lon":"-77.42598000"},
{"state":"Las Tunas Province","name":"Jesús Menéndez","lat":"21.16139000","lon":"-76.47919000"},
{"state":"Las Tunas Province","name":"Jobabo","lat":"20.90748000","lon":"-77.28194000"},
{"state":"Las Tunas Province","name":"Las Tunas","lat":"20.96167000","lon":"-76.95111000"},
{"state":"Las Tunas Province","name":"Manatí","lat":"21.31070000","lon":"-76.93403000"},
{"state":"Las Tunas Province","name":"Puerto Padre","lat":"21.19517000","lon":"-76.60358000"},
{"state":"Matanzas Province","name":"Alacranes","lat":"22.76719000","lon":"-81.56803000"},
{"state":"Matanzas Province","name":"Bolondrón","lat":"22.76307000","lon":"-81.44780000"},
{"state":"Matanzas Province","name":"Calimete","lat":"22.53420000","lon":"-80.91105000"},
{"state":"Matanzas Province","name":"Cárdenas","lat":"23.03661000","lon":"-81.20596000"},
{"state":"Matanzas Province","name":"Colón","lat":"22.72064000","lon":"-80.90492000"},
{"state":"Matanzas Province","name":"Jagüey Grande","lat":"22.52694000","lon":"-81.12861000"},
{"state":"Matanzas Province","name":"Jovellanos","lat":"22.80375000","lon":"-81.19127000"},
{"state":"Matanzas Province","name":"Limonar","lat":"22.95035000","lon":"-81.41059000"},
{"state":"Matanzas Province","name":"Los Arabos","lat":"22.72969000","lon":"-80.72081000"},
{"state":"Matanzas Province","name":"Manguito","lat":"22.58733000","lon":"-80.91451000"},
{"state":"Matanzas Province","name":"Martí","lat":"22.94714000","lon":"-80.91902000"},
{"state":"Matanzas Province","name":"Matanzas","lat":"23.04111000","lon":"-81.57750000"},
{"state":"Matanzas Province","name":"Municipio de Cárdenas","lat":"22.98978000","lon":"-81.23520000"},
{"state":"Matanzas Province","name":"Municipio de Matanzas","lat":"23.05000000","lon":"-81.58333000"},
{"state":"Matanzas Province","name":"Pedro Betancourt","lat":"22.72709000","lon":"-81.28963000"},
{"state":"Matanzas Province","name":"Perico","lat":"22.76987000","lon":"-81.01830000"},
{"state":"Matanzas Province","name":"Unión de Reyes","lat":"22.79505000","lon":"-81.53617000"},
{"state":"Matanzas Province","name":"Varadero","lat":"23.15678000","lon":"-81.24441000"},
{"state":"Mayabeque Province","name":"Batabanó","lat":"22.71794000","lon":"-82.28965000"},
{"state":"Mayabeque Province","name":"Bejucal","lat":"22.92861000","lon":"-82.38861000"},
{"state":"Mayabeque Province","name":"Güines","lat":"22.83727000","lon":"-82.02641000"},
{"state":"Mayabeque Province","name":"Jamaica","lat":"22.97559000","lon":"-82.16852000"},
{"state":"Mayabeque Province","name":"Jaruco","lat":"23.04419000","lon":"-82.00919000"},
{"state":"Mayabeque Province","name":"La Salud","lat":"22.87199000","lon":"-82.42328000"},
{"state":"Mayabeque Province","name":"Madruga","lat":"22.91000000","lon":"-81.85639000"},
{"state":"Mayabeque Province","name":"Municipio de Güines","lat":"22.78712000","lon":"-82.01602000"},
{"state":"Mayabeque Province","name":"Municipio de Melena del Sur","lat":"22.78821000","lon":"-82.15113000"},
{"state":"Mayabeque Province","name":"Quivicán","lat":"22.82313000","lon":"-82.35558000"},
{"state":"Mayabeque Province","name":"San José de las Lajas","lat":"22.96139000","lon":"-82.15111000"},
{"state":"Mayabeque Province","name":"San Nicolás de Bari","lat":"22.78444000","lon":"-81.91333000"},
{"state":"Mayabeque Province","name":"Santa Cruz del Norte","lat":"23.15424000","lon":"-81.92556000"},
{"state":"Pinar del Río Province","name":"Consolación del Sur","lat":"22.50419000","lon":"-83.51442000"},
{"state":"Pinar del Río Province","name":"Guane","lat":"22.20179000","lon":"-84.08484000"},
{"state":"Pinar del Río Province","name":"Los Palacios","lat":"22.58882000","lon":"-83.24671000"},
{"state":"Pinar del Río Province","name":"Mantua","lat":"22.29058000","lon":"-84.28599000"},
{"state":"Pinar del Río Province","name":"Minas de Matahambre","lat":"22.58691000","lon":"-83.94551000"},
{"state":"Pinar del Río Province","name":"Municipio de Consolación del Sur","lat":"22.44095000","lon":"-83.41985000"},
{"state":"Pinar del Río Province","name":"Municipio de Guane","lat":"22.24591000","lon":"-84.03660000"},
{"state":"Pinar del Río Province","name":"Municipio de La Palma","lat":"22.75000000","lon":"-83.55000000"},
{"state":"Pinar del Río Province","name":"Municipio de Los Palacios","lat":"22.58333000","lon":"-83.25000000"},
{"state":"Pinar del Río Province","name":"Pinar del Río","lat":"22.41667000","lon":"-83.69667000"},
{"state":"Pinar del Río Province","name":"Puerto Esperanza","lat":"22.77041000","lon":"-83.73138000"},
{"state":"Pinar del Río Province","name":"San Diego de Los Baños","lat":"22.64667000","lon":"-83.36972000"},
{"state":"Pinar del Río Province","name":"San Luis","lat":"22.27898000","lon":"-83.75956000"},
{"state":"Pinar del Río Province","name":"Viñales","lat":"22.61892000","lon":"-83.70694000"},
{"state":"Sancti Spíritus Province","name":"Cabaiguán","lat":"22.07874000","lon":"-79.49726000"},
{"state":"Sancti Spíritus Province","name":"Condado","lat":"21.87670000","lon":"-79.84014000"},
{"state":"Sancti Spíritus Province","name":"Fomento","lat":"22.10475000","lon":"-79.72141000"},
{"state":"Sancti Spíritus Province","name":"Guayos","lat":"22.04956000","lon":"-79.46106000"},
{"state":"Sancti Spíritus Province","name":"Jatibonico","lat":"21.94333000","lon":"-79.16906000"},
{"state":"Sancti Spíritus Province","name":"La Sierpe","lat":"21.77241000","lon":"-79.26832000"},
{"state":"Sancti Spíritus Province","name":"Municipio de Cabaiguán","lat":"22.08333000","lon":"-79.50000000"},
{"state":"Sancti Spíritus Province","name":"Municipio de Jatibonico","lat":"21.93333000","lon":"-79.16667000"},
{"state":"Sancti Spíritus Province","name":"Municipio de Sancti Spíritus","lat":"21.82176000","lon":"-79.51036000"},
{"state":"Sancti Spíritus Province","name":"Municipio de Trinidad","lat":"21.83195000","lon":"-79.88362000"},
{"state":"Sancti Spíritus Province","name":"Sancti Spíritus","lat":"21.92972000","lon":"-79.44250000"},
{"state":"Sancti Spíritus Province","name":"Topes de Collantes","lat":"21.91524000","lon":"-80.01929000"},
{"state":"Sancti Spíritus Province","name":"Trinidad","lat":"21.80224000","lon":"-79.98467000"},
{"state":"Sancti Spíritus Province","name":"Yaguajay","lat":"22.32691000","lon":"-79.23567000"},
{"state":"Sancti Spíritus Province","name":"Zaza del Medio","lat":"21.99712000","lon":"-79.36678000"},
{"state":"Santiago de Cuba Province","name":"Contramaestre","lat":"20.29879000","lon":"-76.24511000"},
{"state":"Santiago de Cuba Province","name":"El Cobre","lat":"20.04850000","lon":"-75.94579000"},
{"state":"Santiago de Cuba Province","name":"Municipio de Palma Soriano","lat":"20.20897000","lon":"-76.05776000"},
{"state":"Santiago de Cuba Province","name":"Municipio de Santiago de Cuba","lat":"20.00617000","lon":"-75.70816000"},
{"state":"Santiago de Cuba Province","name":"Palma Soriano","lat":"20.21130000","lon":"-75.99362000"},
{"state":"Santiago de Cuba Province","name":"San Luis","lat":"20.18809000","lon":"-75.85031000"},
{"state":"Santiago de Cuba Province","name":"Santiago de Cuba","lat":"20.02083000","lon":"-75.82667000"},
{"state":"Villa Clara Province","name":"Caibarién","lat":"22.51996000","lon":"-79.46599000"},
{"state":"Villa Clara Province","name":"Calabazar de Sagua","lat":"22.64515000","lon":"-79.89510000"},
{"state":"Villa Clara Province","name":"Camajuaní","lat":"22.48333000","lon":"-79.75000000"},
{"state":"Villa Clara Province","name":"Cifuentes","lat":"22.64930000","lon":"-80.04935000"},
{"state":"Villa Clara Province","name":"Corralillo","lat":"22.98212000","lon":"-80.58556000"},
{"state":"Villa Clara Province","name":"Encrucijada","lat":"22.61802000","lon":"-79.86603000"},
{"state":"Villa Clara Province","name":"Esperanza","lat":"22.44680000","lon":"-80.09711000"},
{"state":"Villa Clara Province","name":"Isabela de Sagua","lat":"22.93924000","lon":"-80.01185000"},
{"state":"Villa Clara Province","name":"Manicaragua","lat":"22.15021000","lon":"-79.97867000"},
{"state":"Villa Clara Province","name":"Municipio de Placetas","lat":"22.22248000","lon":"-79.74268000"},
{"state":"Villa Clara Province","name":"Municipio de Santa Clara","lat":"22.40000000","lon":"-79.96667000"},
{"state":"Villa Clara Province","name":"Placetas","lat":"22.31184000","lon":"-79.65440000"},
{"state":"Villa Clara Province","name":"Quemado de Güines","lat":"22.78816000","lon":"-80.25226000"},
{"state":"Villa Clara Province","name":"Rancho Veloz","lat":"22.88042000","lon":"-80.39098000"},
{"state":"Villa Clara Province","name":"Ranchuelo","lat":"22.37266000","lon":"-80.15046000"},
{"state":"Villa Clara Province","name":"Sagua la Grande","lat":"22.80667000","lon":"-80.07556000"},
{"state":"Villa Clara Province","name":"Santa Clara","lat":"22.40694000","lon":"-79.96472000"},
{"state":"Villa Clara Province","name":"Santo Domingo","lat":"22.58677000","lon":"-80.24261000"}]