[{"state":"Boa Vista","name":"Sal Rei","lat":"16.17611000","lon":"-22.91722000"},
{"state":"Brava","name":"Nova Sintra","lat":"14.87139000","lon":"-24.69556000"},
{"state":"Maio Municipality","name":"Vila do Maio","lat":"15.13823000","lon":"-23.21158000"},
{"state":"Mosteiros","name":"Igreja","lat":"15.03389000","lon":"-24.32500000"},
{"state":"Paul","name":"Pombas","lat":"17.15026000","lon":"-25.02007000"},
{"state":"Porto Novo","name":"Porto Novo","lat":"17.01969000","lon":"-25.06471000"},
{"state":"Praia","name":"Praia","lat":"14.93152000","lon":"-23.51254000"},
{"state":"Ribeira Brava Municipality","name":"Ribeira Brava","lat":"16.61583000","lon":"-24.29833000"},
{"state":"Ribeira Grande","name":"Ponta do Sol","lat":"17.20171000","lon":"-25.09217000"},
{"state":"Ribeira Grande","name":"Ribeira Grande","lat":"17.18250000","lon":"-25.06500000"},
{"state":"Ribeira Grande de Santiago","name":"Cidade Velha","lat":"14.91531000","lon":"-23.60527000"},
{"state":"Sal","name":"Espargos","lat":"16.75524000","lon":"-22.94460000"},
{"state":"Sal","name":"Santa Maria","lat":"16.59796000","lon":"-22.90509000"},
{"state":"Santa Catarina","name":"Assomada","lat":"15.10000000","lon":"-23.68333000"},
{"state":"Santa Catarina do Fogo","name":"Cova Figueira","lat":"14.89054000","lon":"-24.29343000"},
{"state":"Santa Cruz","name":"Pedra Badejo","lat":"15.13750000","lon":"-23.53083000"},
{"state":"Santa Cruz","name":"Santa Cruz","lat":"15.13333000","lon":"-23.56667000"},
{"state":"São Domingos","name":"São Domingos","lat":"15.02438000","lon":"-23.56250000"},
{"state":"São Filipe","name":"São Filipe","lat":"14.89610000","lon":"-24.49556000"},
{"state":"São Lourenço dos Órgãos","name":"João Teves","lat":"15.06694000","lon":"-23.58917000"},
{"state":"São Miguel","name":"Calheta","lat":"15.18613000","lon":"-23.59228000"},
{"state":"São Vicente","name":"Mindelo","lat":"16.89014000","lon":"-24.98042000"},
{"state":"Tarrafal","name":"Tarrafal","lat":"15.27881000","lon":"-23.75192000"},
{"state":"Tarrafal de São Nicolau","name":"Tarrafal de São Nicolau","lat":"16.56622000","lon":"-24.35793000"}]