[{"state":"Famagusta District (Mağusa)","name":"Acherítou","lat":"35.10022000","lon":"33.86155000"},
{"state":"Famagusta District (Mağusa)","name":"Áchna","lat":"35.05515000","lon":"33.78388000"},
{"state":"Famagusta District (Mağusa)","name":"Ammochostos Municipality","lat":"35.11755000","lon":"33.94335000"},
{"state":"Famagusta District (Mağusa)","name":"Avgórou","lat":"35.03615000","lon":"33.83918000"},
{"state":"Famagusta District (Mağusa)","name":"Ayia Napa","lat":"34.98213000","lon":"34.00183000"},
{"state":"Famagusta District (Mağusa)","name":"Derýneia","lat":"35.06484000","lon":"33.96083000"},
{"state":"Famagusta District (Mağusa)","name":"Famagusta","lat":"35.12054000","lon":"33.93894000"},
{"state":"Famagusta District (Mağusa)","name":"Frénaros","lat":"35.04121000","lon":"33.92242000"},
{"state":"Famagusta District (Mağusa)","name":"Lefkónoiko","lat":"35.25980000","lon":"33.73189000"},
{"state":"Famagusta District (Mağusa)","name":"Leonárisso","lat":"35.46892000","lon":"34.13886000"},
{"state":"Famagusta District (Mağusa)","name":"Liopétri","lat":"35.00885000","lon":"33.89256000"},
{"state":"Famagusta District (Mağusa)","name":"Paralímni","lat":"35.03945000","lon":"33.98181000"},
{"state":"Famagusta District (Mağusa)","name":"Protaras","lat":"35.01250000","lon":"34.05833000"},
{"state":"Famagusta District (Mağusa)","name":"Rizokárpaso","lat":"35.59719000","lon":"34.37916000"},
{"state":"Famagusta District (Mağusa)","name":"Tríkomo","lat":"35.28628000","lon":"33.89167000"},
{"state":"Kyrenia District (Keryneia)","name":"Kyrenia","lat":"35.33634000","lon":"33.31729000"},
{"state":"Kyrenia District (Keryneia)","name":"Kyrenia Municipality","lat":"35.33672000","lon":"33.31504000"},
{"state":"Kyrenia District (Keryneia)","name":"Lápithos","lat":"35.33823000","lon":"33.17368000"},
{"state":"Larnaca District (Larnaka)","name":"Aradíppou","lat":"34.95151000","lon":"33.59199000"},
{"state":"Larnaca District (Larnaka)","name":"Athíenou","lat":"35.06180000","lon":"33.54156000"},
{"state":"Larnaca District (Larnaka)","name":"Dhromolaxia","lat":"34.87551000","lon":"33.58684000"},
{"state":"Larnaca District (Larnaka)","name":"Kíti","lat":"34.84696000","lon":"33.57344000"},
{"state":"Larnaca District (Larnaka)","name":"Kofínou","lat":"34.82449000","lon":"33.39130000"},
{"state":"Larnaca District (Larnaka)","name":"Kolossi","lat":"34.66865000","lon":"32.93375000"},
{"state":"Larnaca District (Larnaka)","name":"Kórnos","lat":"34.92396000","lon":"33.39764000"},
{"state":"Larnaca District (Larnaka)","name":"Larnaca","lat":"34.92291000","lon":"33.62330000"},
{"state":"Larnaca District (Larnaka)","name":"Livádia","lat":"34.95118000","lon":"33.62658000"},
{"state":"Larnaca District (Larnaka)","name":"Meneou","lat":"34.86114000","lon":"33.59516000"},
{"state":"Larnaca District (Larnaka)","name":"Mosfilotí","lat":"34.95256000","lon":"33.42511000"},
{"state":"Larnaca District (Larnaka)","name":"Pérgamos","lat":"35.04167000","lon":"33.70833000"},
{"state":"Larnaca District (Larnaka)","name":"Perivólia","lat":"34.83355000","lon":"33.58196000"},
{"state":"Larnaca District (Larnaka)","name":"Psevdás","lat":"34.94653000","lon":"33.46277000"},
{"state":"Larnaca District (Larnaka)","name":"Pýla","lat":"35.01237000","lon":"33.69188000"},
{"state":"Larnaca District (Larnaka)","name":"Tersefánou","lat":"34.85411000","lon":"33.54746000"},
{"state":"Larnaca District (Larnaka)","name":"Troúlloi","lat":"35.03203000","lon":"33.61501000"},
{"state":"Larnaca District (Larnaka)","name":"Voróklini","lat":"34.98600000","lon":"33.65387000"},
{"state":"Larnaca District (Larnaka)","name":"Xylofágou","lat":"34.97743000","lon":"33.84894000"},
{"state":"Larnaca District (Larnaka)","name":"Xylotymbou","lat":"35.01720000","lon":"33.74245000"},
{"state":"Limassol District (Leymasun)","name":"Ágios Tomás","lat":"34.71158000","lon":"32.73129000"},
{"state":"Limassol District (Leymasun)","name":"Ágios Týchon","lat":"34.72606000","lon":"33.13872000"},
{"state":"Limassol District (Leymasun)","name":"Erími","lat":"34.67766000","lon":"32.91815000"},
{"state":"Limassol District (Leymasun)","name":"Germasógeia","lat":"34.72207000","lon":"33.08254000"},
{"state":"Limassol District (Leymasun)","name":"Kyperoúnta","lat":"34.93815000","lon":"32.97551000"},
{"state":"Limassol District (Leymasun)","name":"Lemesós","lat":"34.69218000","lon":"33.02854000"},
{"state":"Limassol District (Leymasun)","name":"Limassol","lat":"34.68406000","lon":"33.03794000"},
{"state":"Limassol District (Leymasun)","name":"Mouttagiáka","lat":"34.72022000","lon":"33.10066000"},
{"state":"Limassol District (Leymasun)","name":"Páchna","lat":"34.77874000","lon":"32.79355000"},
{"state":"Limassol District (Leymasun)","name":"Páno Polemídia","lat":"34.70559000","lon":"32.99269000"},
{"state":"Limassol District (Leymasun)","name":"Parekklisha","lat":"34.74583000","lon":"33.15833000"},
{"state":"Limassol District (Leymasun)","name":"Peléndri","lat":"34.89597000","lon":"32.96817000"},
{"state":"Limassol District (Leymasun)","name":"Pissoúri","lat":"34.66942000","lon":"32.70132000"},
{"state":"Limassol District (Leymasun)","name":"Pyrgos","lat":"34.74167000","lon":"33.18333000"},
{"state":"Limassol District (Leymasun)","name":"Sotíra","lat":"34.71189000","lon":"32.86340000"},
{"state":"Limassol District (Leymasun)","name":"Soúni-Zanakiá","lat":"34.73570000","lon":"32.88437000"},
{"state":"Limassol District (Leymasun)","name":"Ýpsonas","lat":"34.68797000","lon":"32.96191000"},
{"state":"Nicosia District (Lefkoşa)","name":"Akáki","lat":"35.13341000","lon":"33.12873000"},
{"state":"Nicosia District (Lefkoşa)","name":"Alámpra","lat":"34.98898000","lon":"33.39887000"},
{"state":"Nicosia District (Lefkoşa)","name":"Aredioú","lat":"35.04844000","lon":"33.19610000"},
{"state":"Nicosia District (Lefkoşa)","name":"Astromerítis","lat":"35.14096000","lon":"33.03793000"},
{"state":"Nicosia District (Lefkoşa)","name":"Dáli","lat":"35.02294000","lon":"33.42195000"},
{"state":"Nicosia District (Lefkoşa)","name":"Ergátes","lat":"35.05365000","lon":"33.24292000"},
{"state":"Nicosia District (Lefkoşa)","name":"Géri","lat":"35.10560000","lon":"33.41977000"},
{"state":"Nicosia District (Lefkoşa)","name":"Kakopetriá","lat":"34.98768000","lon":"32.90468000"},
{"state":"Nicosia District (Lefkoşa)","name":"Káto Defterá","lat":"35.08489000","lon":"33.27558000"},
{"state":"Nicosia District (Lefkoşa)","name":"Káto Pýrgos","lat":"35.17897000","lon":"32.68600000"},
{"state":"Nicosia District (Lefkoşa)","name":"Klírou","lat":"35.02004000","lon":"33.17806000"},
{"state":"Nicosia District (Lefkoşa)","name":"Kokkinotrimithiá","lat":"35.15303000","lon":"33.19966000"},
{"state":"Nicosia District (Lefkoşa)","name":"Léfka","lat":"35.11199000","lon":"32.84997000"},
{"state":"Nicosia District (Lefkoşa)","name":"Lýmpia","lat":"34.99889000","lon":"33.46175000"},
{"state":"Nicosia District (Lefkoşa)","name":"Lythrodóntas","lat":"34.95105000","lon":"33.29777000"},
{"state":"Nicosia District (Lefkoşa)","name":"Mámmari","lat":"35.17604000","lon":"33.20435000"},
{"state":"Nicosia District (Lefkoşa)","name":"Méniko","lat":"35.10945000","lon":"33.14474000"},
{"state":"Nicosia District (Lefkoşa)","name":"Mórfou","lat":"35.19869000","lon":"32.99338000"},
{"state":"Nicosia District (Lefkoşa)","name":"Nicosia","lat":"35.17531000","lon":"33.36420000"},
{"state":"Nicosia District (Lefkoşa)","name":"Nicosia Municipality","lat":"35.16944000","lon":"33.36081000"},
{"state":"Nicosia District (Lefkoşa)","name":"Páno Defterá","lat":"35.07778000","lon":"33.26584000"},
{"state":"Nicosia District (Lefkoşa)","name":"Péra","lat":"35.03350000","lon":"33.25413000"},
{"state":"Nicosia District (Lefkoşa)","name":"Peristeróna","lat":"35.12928000","lon":"33.07858000"},
{"state":"Nicosia District (Lefkoşa)","name":"Psimolofou","lat":"35.06250000","lon":"33.26250000"},
{"state":"Nicosia District (Lefkoşa)","name":"Tséri","lat":"35.07307000","lon":"33.32344000"},
{"state":"Paphos District (Pafos)","name":"Argáka","lat":"35.06646000","lon":"32.49446000"},
{"state":"Paphos District (Pafos)","name":"Chlórakas","lat":"34.79768000","lon":"32.41207000"},
{"state":"Paphos District (Pafos)","name":"Emba","lat":"34.80700000","lon":"32.42406000"},
{"state":"Paphos District (Pafos)","name":"Geroskipou","lat":"34.75498000","lon":"32.45155000"},
{"state":"Paphos District (Pafos)","name":"Geroskípou (quarter)","lat":"34.76190000","lon":"32.45135000"},
{"state":"Paphos District (Pafos)","name":"Geroskípou Municipality","lat":"34.75142000","lon":"32.45449000"},
{"state":"Paphos District (Pafos)","name":"Kissonerga","lat":"34.82279000","lon":"32.40131000"},
{"state":"Paphos District (Pafos)","name":"Koloni","lat":"34.75228000","lon":"32.46487000"},
{"state":"Paphos District (Pafos)","name":"Konia","lat":"34.78516000","lon":"32.45900000"},
{"state":"Paphos District (Pafos)","name":"Mesógi","lat":"34.81577000","lon":"32.45542000"},
{"state":"Paphos District (Pafos)","name":"Paphos","lat":"34.77679000","lon":"32.42451000"},
{"state":"Paphos District (Pafos)","name":"Pégeia","lat":"34.88341000","lon":"32.38166000"},
{"state":"Paphos District (Pafos)","name":"Pólis","lat":"35.03534000","lon":"32.42575000"},
{"state":"Paphos District (Pafos)","name":"Tála","lat":"34.83745000","lon":"32.43272000"},
{"state":"Paphos District (Pafos)","name":"Tsáda","lat":"34.83801000","lon":"32.47547000"}]