[{"state":"Jihočeský kraj","name":"Bavorov","lat":"49.12184000","lon":"14.07893000"},
{"state":"Jihočeský kraj","name":"Bechyně","lat":"49.29523000","lon":"14.46810000"},
{"state":"Jihočeský kraj","name":"Benešov nad Černou","lat":"48.72940000","lon":"14.62737000"},
{"state":"Jihočeský kraj","name":"Bernartice","lat":"49.36889000","lon":"14.38101000"},
{"state":"Jihočeský kraj","name":"Blatná","lat":"49.42489000","lon":"13.88176000"},
{"state":"Jihočeský kraj","name":"Borek","lat":"49.02339000","lon":"14.50088000"},
{"state":"Jihočeský kraj","name":"Borová Lada","lat":"48.98983000","lon":"13.65986000"},
{"state":"Jihočeský kraj","name":"Borovany","lat":"48.89860000","lon":"14.64227000"},
{"state":"Jihočeský kraj","name":"Brloh","lat":"48.92987000","lon":"14.21857000"},
{"state":"Jihočeský kraj","name":"České Budějovice","lat":"48.97447000","lon":"14.47434000"},
{"state":"Jihočeský kraj","name":"České Velenice","lat":"48.76851000","lon":"14.96368000"},
{"state":"Jihočeský kraj","name":"Český Krumlov","lat":"48.81091000","lon":"14.31521000"},
{"state":"Jihočeský kraj","name":"Český Rudolec","lat":"49.06835000","lon":"15.32437000"},
{"state":"Jihočeský kraj","name":"Chlum u Třeboně","lat":"48.96235000","lon":"14.92799000"},
{"state":"Jihočeský kraj","name":"Chotoviny","lat":"49.47803000","lon":"14.67695000"},
{"state":"Jihočeský kraj","name":"Chvalšiny","lat":"48.85401000","lon":"14.21114000"},
{"state":"Jihočeský kraj","name":"Chýnov","lat":"49.40677000","lon":"14.81122000"},
{"state":"Jihočeský kraj","name":"Chyšky","lat":"49.52346000","lon":"14.42757000"},
{"state":"Jihočeský kraj","name":"Čimelice","lat":"49.46557000","lon":"14.06922000"},
{"state":"Jihočeský kraj","name":"Čkyně","lat":"49.11503000","lon":"13.82906000"},
{"state":"Jihočeský kraj","name":"Dačice","lat":"49.08154000","lon":"15.43727000"},
{"state":"Jihočeský kraj","name":"Dolní Bukovsko","lat":"49.17086000","lon":"14.58127000"},
{"state":"Jihočeský kraj","name":"Dolní Dvořiště","lat":"48.65642000","lon":"14.45221000"},
{"state":"Jihočeský kraj","name":"Dřiteň","lat":"49.14280000","lon":"14.34596000"},
{"state":"Jihočeský kraj","name":"Dubné","lat":"48.97619000","lon":"14.36038000"},
{"state":"Jihočeský kraj","name":"Frymburk","lat":"48.66094000","lon":"14.16564000"},
{"state":"Jihočeský kraj","name":"Hluboká nad Vltavou","lat":"49.05225000","lon":"14.43427000"},
{"state":"Jihočeský kraj","name":"Horní Planá","lat":"48.76736000","lon":"14.03257000"},
{"state":"Jihočeský kraj","name":"Horní Stropnice","lat":"48.76124000","lon":"14.73502000"},
{"state":"Jihočeský kraj","name":"Hrdějovice","lat":"49.01893000","lon":"14.47857000"},
{"state":"Jihočeský kraj","name":"Husinec","lat":"49.05496000","lon":"13.98697000"},
{"state":"Jihočeský kraj","name":"Jarošov nad Nežárkou","lat":"49.18989000","lon":"15.06734000"},
{"state":"Jihočeský kraj","name":"Jindřichův Hradec","lat":"49.14404000","lon":"15.00301000"},
{"state":"Jihočeský kraj","name":"Jistebnice","lat":"49.48553000","lon":"14.52760000"},
{"state":"Jihočeský kraj","name":"Kájov","lat":"48.81082000","lon":"14.25859000"},
{"state":"Jihočeský kraj","name":"Kamenný Újezd","lat":"48.89753000","lon":"14.44638000"},
{"state":"Jihočeský kraj","name":"Kaplice","lat":"48.73881000","lon":"14.49449000"},
{"state":"Jihočeský kraj","name":"Kardašova Řečice","lat":"49.18478000","lon":"14.85315000"},
{"state":"Jihočeský kraj","name":"Katovice","lat":"49.27348000","lon":"13.83035000"},
{"state":"Jihočeský kraj","name":"Kovářov","lat":"49.51760000","lon":"14.27809000"},
{"state":"Jihočeský kraj","name":"Křemže","lat":"48.90497000","lon":"14.30568000"},
{"state":"Jihočeský kraj","name":"Kunžak","lat":"49.12119000","lon":"15.19028000"},
{"state":"Jihočeský kraj","name":"Ledenice","lat":"48.93329000","lon":"14.61886000"},
{"state":"Jihočeský kraj","name":"Lhenice","lat":"48.99479000","lon":"14.14980000"},
{"state":"Jihočeský kraj","name":"Lišov","lat":"49.01597000","lon":"14.60838000"},
{"state":"Jihočeský kraj","name":"Litvínovice","lat":"48.96207000","lon":"14.45146000"},
{"state":"Jihočeský kraj","name":"Lomnice nad Lužnicí","lat":"49.08468000","lon":"14.71727000"},
{"state":"Jihočeský kraj","name":"Loučovice","lat":"48.62019000","lon":"14.25747000"},
{"state":"Jihočeský kraj","name":"Malonty","lat":"48.68611000","lon":"14.57678000"},
{"state":"Jihočeský kraj","name":"Malšice","lat":"49.36391000","lon":"14.57868000"},
{"state":"Jihočeský kraj","name":"Milevsko","lat":"49.45089000","lon":"14.36000000"},
{"state":"Jihočeský kraj","name":"Mirotice","lat":"49.42908000","lon":"14.03697000"},
{"state":"Jihočeský kraj","name":"Mirovice","lat":"49.51555000","lon":"14.03582000"},
{"state":"Jihočeský kraj","name":"Mladá Vožice","lat":"49.53313000","lon":"14.80857000"},
{"state":"Jihočeský kraj","name":"Netolice","lat":"49.04930000","lon":"14.19700000"},
{"state":"Jihočeský kraj","name":"Nová Bystřice","lat":"49.01926000","lon":"15.10316000"},
{"state":"Jihočeský kraj","name":"Nová Včelnice","lat":"49.23935000","lon":"15.07260000"},
{"state":"Jihočeský kraj","name":"Nové Hrady","lat":"48.78963000","lon":"14.77839000"},
{"state":"Jihočeský kraj","name":"Okres České Budějovice","lat":"49.00000000","lon":"14.50000000"},
{"state":"Jihočeský kraj","name":"Okres Český Krumlov","lat":"48.75000000","lon":"14.33333000"},
{"state":"Jihočeský kraj","name":"Okres Jindřichův Hradec","lat":"49.08333000","lon":"15.16667000"},
{"state":"Jihočeský kraj","name":"Okres Písek","lat":"49.40000000","lon":"14.20000000"},
{"state":"Jihočeský kraj","name":"Okres Prachatice","lat":"49.00000000","lon":"13.86667000"},
{"state":"Jihočeský kraj","name":"Okres Strakonice","lat":"49.26667000","lon":"13.90000000"},
{"state":"Jihočeský kraj","name":"Okres Tábor","lat":"49.41667000","lon":"14.66667000"},
{"state":"Jihočeský kraj","name":"Opařany","lat":"49.39678000","lon":"14.48137000"},
{"state":"Jihočeský kraj","name":"Písek","lat":"49.30880000","lon":"14.14750000"},
{"state":"Jihočeský kraj","name":"Planá nad Lužnicí","lat":"49.35444000","lon":"14.70147000"},
{"state":"Jihočeský kraj","name":"Prachatice","lat":"49.01292000","lon":"13.99752000"},
{"state":"Jihočeský kraj","name":"Protivín","lat":"49.19949000","lon":"14.21717000"},
{"state":"Jihočeský kraj","name":"Radomyšl","lat":"49.31634000","lon":"13.93024000"},
{"state":"Jihočeský kraj","name":"Rudolfov","lat":"48.99339000","lon":"14.54179000"},
{"state":"Jihočeský kraj","name":"Sedlice","lat":"48.77401000","lon":"14.39115000"},
{"state":"Jihočeský kraj","name":"Sepekov","lat":"49.42865000","lon":"14.41815000"},
{"state":"Jihočeský kraj","name":"Ševětín","lat":"49.10005000","lon":"14.57220000"},
{"state":"Jihočeský kraj","name":"Sezimovo Ústí","lat":"49.38519000","lon":"14.68480000"},
{"state":"Jihočeský kraj","name":"Slavonice","lat":"48.99753000","lon":"15.35154000"},
{"state":"Jihočeský kraj","name":"Soběslav","lat":"49.25993000","lon":"14.71861000"},
{"state":"Jihočeský kraj","name":"Srubec","lat":"48.94806000","lon":"14.54131000"},
{"state":"Jihočeský kraj","name":"Stachy","lat":"49.10179000","lon":"13.66659000"},
{"state":"Jihočeský kraj","name":"Strakonice","lat":"49.26141000","lon":"13.90237000"},
{"state":"Jihočeský kraj","name":"Strmilov","lat":"49.15846000","lon":"15.19934000"},
{"state":"Jihočeský kraj","name":"Strunkovice nad Blanicí","lat":"49.08402000","lon":"14.05522000"},
{"state":"Jihočeský kraj","name":"Studená","lat":"49.18516000","lon":"15.28688000"},
{"state":"Jihočeský kraj","name":"Suchdol nad Lužnicí","lat":"48.89000000","lon":"14.87720000"},
{"state":"Jihočeský kraj","name":"Tábor","lat":"49.41441000","lon":"14.65780000"},
{"state":"Jihočeský kraj","name":"Třeboň","lat":"49.00364000","lon":"14.77065000"},
{"state":"Jihočeský kraj","name":"Trhové Sviny","lat":"48.84231000","lon":"14.63924000"},
{"state":"Jihočeský kraj","name":"Týn nad Vltavou","lat":"49.22340000","lon":"14.42057000"},
{"state":"Jihočeský kraj","name":"Vacov","lat":"49.13686000","lon":"13.72911000"},
{"state":"Jihočeský kraj","name":"Včelná","lat":"48.92373000","lon":"14.45383000"},
{"state":"Jihočeský kraj","name":"Velešín","lat":"48.82949000","lon":"14.46252000"},
{"state":"Jihočeský kraj","name":"Veselí nad Lužnicí","lat":"49.18430000","lon":"14.69734000"},
{"state":"Jihočeský kraj","name":"Větřní","lat":"48.77425000","lon":"14.28616000"},
{"state":"Jihočeský kraj","name":"Vimperk","lat":"49.05857000","lon":"13.78286000"},
{"state":"Jihočeský kraj","name":"Vlachovo Březí","lat":"49.08135000","lon":"13.95842000"},
{"state":"Jihočeský kraj","name":"Vodňany","lat":"49.14789000","lon":"14.17513000"},
{"state":"Jihočeský kraj","name":"Volary","lat":"48.90881000","lon":"13.88657000"},
{"state":"Jihočeský kraj","name":"Volyně","lat":"49.16578000","lon":"13.88624000"},
{"state":"Jihočeský kraj","name":"Vyšší Brod","lat":"48.61598000","lon":"14.31183000"},
{"state":"Jihočeský kraj","name":"Zdíkov","lat":"49.08456000","lon":"13.69738000"},
{"state":"Jihočeský kraj","name":"Zliv","lat":"49.06608000","lon":"14.36613000"},
{"state":"Jihomoravský kraj","name":"Adamov","lat":"49.30162000","lon":"16.65253000"},
{"state":"Jihomoravský kraj","name":"Bílovice nad Svitavou","lat":"49.24708000","lon":"16.67247000"},
{"state":"Jihomoravský kraj","name":"Blansko","lat":"49.36304000","lon":"16.64446000"},
{"state":"Jihomoravský kraj","name":"Blažovice","lat":"49.16569000","lon":"16.78611000"},
{"state":"Jihomoravský kraj","name":"Blížkovice","lat":"48.99976000","lon":"15.83482000"},
{"state":"Jihomoravský kraj","name":"Blučina","lat":"49.05497000","lon":"16.64450000"},
{"state":"Jihomoravský kraj","name":"Bořetice","lat":"48.91302000","lon":"16.85306000"},
{"state":"Jihomoravský kraj","name":"Bořitov","lat":"49.42504000","lon":"16.59119000"},
{"state":"Jihomoravský kraj","name":"Boskovice","lat":"49.48751000","lon":"16.65997000"},
{"state":"Jihomoravský kraj","name":"Bošovice","lat":"49.05351000","lon":"16.83676000"},
{"state":"Jihomoravský kraj","name":"Božice","lat":"48.83687000","lon":"16.28875000"},
{"state":"Jihomoravský kraj","name":"Břeclav","lat":"48.75897000","lon":"16.88203000"},
{"state":"Jihomoravský kraj","name":"Březí","lat":"48.81928000","lon":"16.56748000"},
{"state":"Jihomoravský kraj","name":"Brno","lat":"49.19522000","lon":"16.60796000"},
{"state":"Jihomoravský kraj","name":"Bučovice","lat":"49.14896000","lon":"17.00191000"},
{"state":"Jihomoravský kraj","name":"Bzenec","lat":"48.97336000","lon":"17.26685000"},
{"state":"Jihomoravský kraj","name":"Čebín","lat":"49.31324000","lon":"16.47791000"},
{"state":"Jihomoravský kraj","name":"Čejč","lat":"48.94653000","lon":"16.96511000"},
{"state":"Jihomoravský kraj","name":"Čejkovice","lat":"48.90592000","lon":"16.94230000"},
{"state":"Jihomoravský kraj","name":"Černá Hora","lat":"49.41361000","lon":"16.58140000"},
{"state":"Jihomoravský kraj","name":"Dambořice","lat":"49.03828000","lon":"16.91757000"},
{"state":"Jihomoravský kraj","name":"Dobšice","lat":"48.84834000","lon":"16.08218000"},
{"state":"Jihomoravský kraj","name":"Dolní Bojanovice","lat":"48.85861000","lon":"17.02859000"},
{"state":"Jihomoravský kraj","name":"Dolní Dunajovice","lat":"48.85447000","lon":"16.59283000"},
{"state":"Jihomoravský kraj","name":"Dolní Kounice","lat":"49.07011000","lon":"16.46492000"},
{"state":"Jihomoravský kraj","name":"Dolní Loućky","lat":"49.36099000","lon":"16.35871000"},
{"state":"Jihomoravský kraj","name":"Domanín","lat":"49.00167000","lon":"17.28476000"},
{"state":"Jihomoravský kraj","name":"Doubravice nad Svitavou","lat":"49.43664000","lon":"16.62937000"},
{"state":"Jihomoravský kraj","name":"Drásov","lat":"49.33183000","lon":"16.47798000"},
{"state":"Jihomoravský kraj","name":"Drnholec","lat":"48.85746000","lon":"16.48586000"},
{"state":"Jihomoravský kraj","name":"Drnovice","lat":"49.27630000","lon":"16.95146000"},
{"state":"Jihomoravský kraj","name":"Dubňany","lat":"48.91694000","lon":"17.09004000"},
{"state":"Jihomoravský kraj","name":"Hevlín","lat":"48.75209000","lon":"16.38131000"},
{"state":"Jihomoravský kraj","name":"Hlohovec","lat":"48.77399000","lon":"16.76230000"},
{"state":"Jihomoravský kraj","name":"Hodonice","lat":"48.83680000","lon":"16.16337000"},
{"state":"Jihomoravský kraj","name":"Hodonín","lat":"48.84893000","lon":"17.13244000"},
{"state":"Jihomoravský kraj","name":"Hostěradice","lat":"48.95006000","lon":"16.25931000"},
{"state":"Jihomoravský kraj","name":"Hovorany","lat":"48.95493000","lon":"16.99346000"},
{"state":"Jihomoravský kraj","name":"Hroznová Lhota","lat":"48.90784000","lon":"17.41697000"},
{"state":"Jihomoravský kraj","name":"Hrušky","lat":"48.79272000","lon":"16.97404000"},
{"state":"Jihomoravský kraj","name":"Hrušovany nad Jevišovkou","lat":"48.82991000","lon":"16.40271000"},
{"state":"Jihomoravský kraj","name":"Hrušovany u Brna","lat":"49.03863000","lon":"16.59429000"},
{"state":"Jihomoravský kraj","name":"Hustopeče","lat":"48.94085000","lon":"16.73762000"},
{"state":"Jihomoravský kraj","name":"Ivančice","lat":"49.10144000","lon":"16.37752000"},
{"state":"Jihomoravský kraj","name":"Ivanovice na Hané","lat":"49.30542000","lon":"17.09343000"},
{"state":"Jihomoravský kraj","name":"Jaroslavice","lat":"48.75657000","lon":"16.23351000"},
{"state":"Jihomoravský kraj","name":"Jedovnice","lat":"49.34453000","lon":"16.75595000"},
{"state":"Jihomoravský kraj","name":"Jevišovice","lat":"48.98736000","lon":"15.98992000"},
{"state":"Jihomoravský kraj","name":"Klobouky","lat":"48.99609000","lon":"16.86298000"},
{"state":"Jihomoravský kraj","name":"Kněždub","lat":"48.88666000","lon":"17.39546000"},
{"state":"Jihomoravský kraj","name":"Kobylí","lat":"48.93286000","lon":"16.89159000"},
{"state":"Jihomoravský kraj","name":"Kostice","lat":"48.74685000","lon":"16.97869000"},
{"state":"Jihomoravský kraj","name":"Křenovice","lat":"49.14216000","lon":"16.82932000"},
{"state":"Jihomoravský kraj","name":"Křepice","lat":"48.99986000","lon":"16.71989000"},
{"state":"Jihomoravský kraj","name":"Krumvíř","lat":"48.98901000","lon":"16.91027000"},
{"state":"Jihomoravský kraj","name":"Kunštát","lat":"49.50645000","lon":"16.51722000"},
{"state":"Jihomoravský kraj","name":"Kuřim","lat":"49.29852000","lon":"16.53144000"},
{"state":"Jihomoravský kraj","name":"Kyjov","lat":"49.01018000","lon":"17.12253000"},
{"state":"Jihomoravský kraj","name":"Lanžhot","lat":"48.72443000","lon":"16.96695000"},
{"state":"Jihomoravský kraj","name":"Lednice","lat":"48.79992000","lon":"16.80339000"},
{"state":"Jihomoravský kraj","name":"Lelekovice","lat":"49.29144000","lon":"16.57874000"},
{"state":"Jihomoravský kraj","name":"Letonice","lat":"49.17726000","lon":"16.95913000"},
{"state":"Jihomoravský kraj","name":"Letovice","lat":"49.54709000","lon":"16.57357000"},
{"state":"Jihomoravský kraj","name":"Lipov","lat":"48.90495000","lon":"17.46171000"},
{"state":"Jihomoravský kraj","name":"Lipovec","lat":"49.38394000","lon":"16.80583000"},
{"state":"Jihomoravský kraj","name":"Lipůvka","lat":"49.33933000","lon":"16.55313000"},
{"state":"Jihomoravský kraj","name":"Lomnice","lat":"49.40462000","lon":"16.41359000"},
{"state":"Jihomoravský kraj","name":"Louka","lat":"48.91517000","lon":"17.48927000"},
{"state":"Jihomoravský kraj","name":"Lužice","lat":"48.84098000","lon":"17.07104000"},
{"state":"Jihomoravský kraj","name":"Lysice","lat":"49.45160000","lon":"16.53716000"},
{"state":"Jihomoravský kraj","name":"Měnín","lat":"49.08240000","lon":"16.69424000"},
{"state":"Jihomoravský kraj","name":"Město Brno","lat":"49.19954000","lon":"16.60755000"},
{"state":"Jihomoravský kraj","name":"Mikulčice","lat":"48.81643000","lon":"17.05107000"},
{"state":"Jihomoravský kraj","name":"Mikulov","lat":"48.80556000","lon":"16.63780000"},
{"state":"Jihomoravský kraj","name":"Milotice","lat":"48.95528000","lon":"17.14241000"},
{"state":"Jihomoravský kraj","name":"Miroslav","lat":"48.94767000","lon":"16.31252000"},
{"state":"Jihomoravský kraj","name":"Modřice","lat":"49.11928000","lon":"16.60446000"},
{"state":"Jihomoravský kraj","name":"Mokrá Hora","lat":"49.26176000","lon":"16.59107000"},
{"state":"Jihomoravský kraj","name":"Moravany","lat":"49.14780000","lon":"16.58026000"},
{"state":"Jihomoravský kraj","name":"Moravská Nová Ves","lat":"48.80304000","lon":"17.01371000"},
{"state":"Jihomoravský kraj","name":"Moravský Krumlov","lat":"49.04893000","lon":"16.31169000"},
{"state":"Jihomoravský kraj","name":"Moravský Písek","lat":"48.99016000","lon":"17.33269000"},
{"state":"Jihomoravský kraj","name":"Moravský Žižkov","lat":"48.83285000","lon":"16.93140000"},
{"state":"Jihomoravský kraj","name":"Moutnice","lat":"49.04924000","lon":"16.73741000"},
{"state":"Jihomoravský kraj","name":"Mutěnice","lat":"48.90413000","lon":"17.02917000"},
{"state":"Jihomoravský kraj","name":"Nedvědice","lat":"49.45702000","lon":"16.33406000"},
{"state":"Jihomoravský kraj","name":"Nesovice","lat":"49.15111000","lon":"17.08095000"},
{"state":"Jihomoravský kraj","name":"Nosislav","lat":"49.01380000","lon":"16.65431000"},
{"state":"Jihomoravský kraj","name":"Novosedly","lat":"48.83704000","lon":"16.49273000"},
{"state":"Jihomoravský kraj","name":"Okres Blansko","lat":"49.37399000","lon":"16.64360000"},
{"state":"Jihomoravský kraj","name":"Okres Břeclav","lat":"48.75958000","lon":"16.87260000"},
{"state":"Jihomoravský kraj","name":"Okres Brno-venkov","lat":"49.16667000","lon":"16.50000000"},
{"state":"Jihomoravský kraj","name":"Okres Hodonín","lat":"48.86471000","lon":"17.13284000"},
{"state":"Jihomoravský kraj","name":"Okres Vyškov","lat":"49.27844000","lon":"16.99362000"},
{"state":"Jihomoravský kraj","name":"Okres Znojmo","lat":"48.86200000","lon":"16.06270000"},
{"state":"Jihomoravský kraj","name":"Olbramovice","lat":"48.98480000","lon":"16.40239000"},
{"state":"Jihomoravský kraj","name":"Olešnice","lat":"49.55755000","lon":"16.42169000"},
{"state":"Jihomoravský kraj","name":"Ořechov","lat":"49.11118000","lon":"16.52329000"},
{"state":"Jihomoravský kraj","name":"Oslavany","lat":"49.12335000","lon":"16.33653000"},
{"state":"Jihomoravský kraj","name":"Ostopovice","lat":"49.16100000","lon":"16.54548000"},
{"state":"Jihomoravský kraj","name":"Ostrov u Macochy","lat":"49.38236000","lon":"16.76268000"},
{"state":"Jihomoravský kraj","name":"Otnice","lat":"49.08642000","lon":"16.81443000"},
{"state":"Jihomoravský kraj","name":"Petrov","lat":"48.88196000","lon":"17.27810000"},
{"state":"Jihomoravský kraj","name":"Podivín","lat":"48.82554000","lon":"16.84822000"},
{"state":"Jihomoravský kraj","name":"Podolí","lat":"49.19042000","lon":"16.72084000"},
{"state":"Jihomoravský kraj","name":"Pohořelice","lat":"48.98119000","lon":"16.52445000"},
{"state":"Jihomoravský kraj","name":"Pozořice","lat":"49.20976000","lon":"16.79074000"},
{"state":"Jihomoravský kraj","name":"Předklášteří","lat":"49.35253000","lon":"16.40241000"},
{"state":"Jihomoravský kraj","name":"Prušánky","lat":"48.82840000","lon":"16.98068000"},
{"state":"Jihomoravský kraj","name":"Pustiměř","lat":"49.32251000","lon":"17.02792000"},
{"state":"Jihomoravský kraj","name":"Rájec-Jestřebí","lat":"49.41094000","lon":"16.63902000"},
{"state":"Jihomoravský kraj","name":"Ráječko","lat":"49.39393000","lon":"16.64497000"},
{"state":"Jihomoravský kraj","name":"Rajhrad","lat":"49.09021000","lon":"16.60388000"},
{"state":"Jihomoravský kraj","name":"Rajhradice","lat":"49.09203000","lon":"16.62933000"},
{"state":"Jihomoravský kraj","name":"Rakvice","lat":"48.85811000","lon":"16.81330000"},
{"state":"Jihomoravský kraj","name":"Ratíškovice","lat":"48.92002000","lon":"17.16561000"},
{"state":"Jihomoravský kraj","name":"Říčany","lat":"49.21497000","lon":"16.39362000"},
{"state":"Jihomoravský kraj","name":"Rohatec","lat":"48.88040000","lon":"17.18330000"},
{"state":"Jihomoravský kraj","name":"Rosice","lat":"49.18232000","lon":"16.38787000"},
{"state":"Jihomoravský kraj","name":"Rousínov","lat":"49.20128000","lon":"16.88215000"},
{"state":"Jihomoravský kraj","name":"Šakvice","lat":"48.89746000","lon":"16.71424000"},
{"state":"Jihomoravský kraj","name":"Šanov","lat":"48.80089000","lon":"16.37858000"},
{"state":"Jihomoravský kraj","name":"Šardice","lat":"48.96403000","lon":"17.02812000"},
{"state":"Jihomoravský kraj","name":"Šatov","lat":"48.79317000","lon":"16.00992000"},
{"state":"Jihomoravský kraj","name":"Šitbořice","lat":"49.01433000","lon":"16.77975000"},
{"state":"Jihomoravský kraj","name":"Šlapanice","lat":"49.16863000","lon":"16.72731000"},
{"state":"Jihomoravský kraj","name":"Slavkov u Brna","lat":"49.15325000","lon":"16.87649000"},
{"state":"Jihomoravský kraj","name":"Sokolnice","lat":"49.11392000","lon":"16.72156000"},
{"state":"Jihomoravský kraj","name":"Strážnice","lat":"48.90102000","lon":"17.31680000"},
{"state":"Jihomoravský kraj","name":"Střelice","lat":"49.15221000","lon":"16.50399000"},
{"state":"Jihomoravský kraj","name":"Suchohrdly","lat":"48.86822000","lon":"16.09471000"},
{"state":"Jihomoravský kraj","name":"Sudoměřice","lat":"48.86723000","lon":"17.25676000"},
{"state":"Jihomoravský kraj","name":"Svitávka","lat":"49.50178000","lon":"16.59793000"},
{"state":"Jihomoravský kraj","name":"Tasovice","lat":"48.83610000","lon":"16.15558000"},
{"state":"Jihomoravský kraj","name":"Telnice","lat":"49.10187000","lon":"16.71774000"},
{"state":"Jihomoravský kraj","name":"Těšany","lat":"49.03956000","lon":"16.77003000"},
{"state":"Jihomoravský kraj","name":"Tišnov","lat":"49.34872000","lon":"16.42438000"},
{"state":"Jihomoravský kraj","name":"Troubsko","lat":"49.16951000","lon":"16.51078000"},
{"state":"Jihomoravský kraj","name":"Tvarožná","lat":"49.19177000","lon":"16.77146000"},
{"state":"Jihomoravský kraj","name":"Tvrdonice","lat":"48.76048000","lon":"16.99446000"},
{"state":"Jihomoravský kraj","name":"Týnec","lat":"48.77943000","lon":"17.01322000"},
{"state":"Jihomoravský kraj","name":"Únanov","lat":"48.90082000","lon":"16.06351000"},
{"state":"Jihomoravský kraj","name":"Vacenovice","lat":"48.94510000","lon":"17.17404000"},
{"state":"Jihomoravský kraj","name":"Valtice","lat":"48.74069000","lon":"16.75499000"},
{"state":"Jihomoravský kraj","name":"Velká nad Veličkou","lat":"48.88257000","lon":"17.52060000"},
{"state":"Jihomoravský kraj","name":"Velké Bílovice","lat":"48.84929000","lon":"16.89227000"},
{"state":"Jihomoravský kraj","name":"Velké Němčice","lat":"48.99168000","lon":"16.67208000"},
{"state":"Jihomoravský kraj","name":"Velké Opatovice","lat":"49.61237000","lon":"16.67947000"},
{"state":"Jihomoravský kraj","name":"Velké Pavlovice","lat":"48.90469000","lon":"16.81605000"},
{"state":"Jihomoravský kraj","name":"Veselí nad Moravou","lat":"48.95363000","lon":"17.37648000"},
{"state":"Jihomoravský kraj","name":"Veverská Bítýška","lat":"49.27591000","lon":"16.43686000"},
{"state":"Jihomoravský kraj","name":"Viničné Šumice","lat":"49.21358000","lon":"16.82541000"},
{"state":"Jihomoravský kraj","name":"Višňové","lat":"48.98241000","lon":"16.15025000"},
{"state":"Jihomoravský kraj","name":"Vlkoš","lat":"48.98960000","lon":"17.16356000"},
{"state":"Jihomoravský kraj","name":"Vnorovy","lat":"48.93096000","lon":"17.35050000"},
{"state":"Jihomoravský kraj","name":"Vojkovice","lat":"49.05138000","lon":"16.60820000"},
{"state":"Jihomoravský kraj","name":"Vracov","lat":"48.97523000","lon":"17.21100000"},
{"state":"Jihomoravský kraj","name":"Vranovice","lat":"48.96600000","lon":"16.60660000"},
{"state":"Jihomoravský kraj","name":"Vrbice","lat":"48.91508000","lon":"16.89779000"},
{"state":"Jihomoravský kraj","name":"Vrbovec","lat":"48.79978000","lon":"16.10061000"},
{"state":"Jihomoravský kraj","name":"Vyškov","lat":"49.27747000","lon":"16.99897000"},
{"state":"Jihomoravský kraj","name":"Žabčice","lat":"49.01160000","lon":"16.60257000"},
{"state":"Jihomoravský kraj","name":"Zaječí","lat":"48.87295000","lon":"16.76646000"},
{"state":"Jihomoravský kraj","name":"Zastávka","lat":"49.18800000","lon":"16.36310000"},
{"state":"Jihomoravský kraj","name":"Zbraslav","lat":"49.22155000","lon":"16.29415000"},
{"state":"Jihomoravský kraj","name":"Zbýšov","lat":"49.15524000","lon":"16.34951000"},
{"state":"Jihomoravský kraj","name":"Ždánice","lat":"49.06729000","lon":"17.02751000"},
{"state":"Jihomoravský kraj","name":"Želešice","lat":"49.11689000","lon":"16.58137000"},
{"state":"Jihomoravský kraj","name":"Žeravice","lat":"49.02288000","lon":"17.23726000"},
{"state":"Jihomoravský kraj","name":"Židlochovice","lat":"49.03952000","lon":"16.61881000"},
{"state":"Jihomoravský kraj","name":"Znojmo","lat":"48.85550000","lon":"16.04880000"},
{"state":"Karlovarský kraj","name":"Abertamy","lat":"50.36874000","lon":"12.81826000"},
{"state":"Karlovarský kraj","name":"Aš","lat":"50.22387000","lon":"12.19499000"},
{"state":"Karlovarský kraj","name":"Bochov","lat":"50.14872000","lon":"13.05227000"},
{"state":"Karlovarský kraj","name":"Březová","lat":"50.14557000","lon":"12.64996000"},
{"state":"Karlovarský kraj","name":"Bukovany","lat":"50.16632000","lon":"12.57265000"},
{"state":"Karlovarský kraj","name":"Cheb","lat":"50.07963000","lon":"12.37392000"},
{"state":"Karlovarský kraj","name":"Chodov","lat":"50.24018000","lon":"12.74551000"},
{"state":"Karlovarský kraj","name":"Dalovice","lat":"50.24779000","lon":"12.89581000"},
{"state":"Karlovarský kraj","name":"Dolní Rychnov","lat":"50.16462000","lon":"12.64507000"},
{"state":"Karlovarský kraj","name":"Dolní Žandov","lat":"50.01794000","lon":"12.55101000"},
{"state":"Karlovarský kraj","name":"Františkovy Lázně","lat":"50.12033000","lon":"12.35174000"},
{"state":"Karlovarský kraj","name":"Habartov","lat":"50.18297000","lon":"12.55054000"},
{"state":"Karlovarský kraj","name":"Hazlov","lat":"50.15634000","lon":"12.27238000"},
{"state":"Karlovarský kraj","name":"Horní Slavkov","lat":"50.13863000","lon":"12.80758000"},
{"state":"Karlovarský kraj","name":"Hranice","lat":"50.30459000","lon":"12.17577000"},
{"state":"Karlovarský kraj","name":"Hroznětín","lat":"50.30940000","lon":"12.87180000"},
{"state":"Karlovarský kraj","name":"Jáchymov","lat":"50.35846000","lon":"12.93465000"},
{"state":"Karlovarský kraj","name":"Karlovy Vary","lat":"50.23271000","lon":"12.87117000"},
{"state":"Karlovarský kraj","name":"Klášter","lat":"49.96762000","lon":"12.87623000"},
{"state":"Karlovarský kraj","name":"Kraslice","lat":"50.32372000","lon":"12.51747000"},
{"state":"Karlovarský kraj","name":"Kynšperk nad Ohří","lat":"50.11893000","lon":"12.53027000"},
{"state":"Karlovarský kraj","name":"Lázně Kynžvart","lat":"50.01058000","lon":"12.62474000"},
{"state":"Karlovarský kraj","name":"Loket","lat":"50.18600000","lon":"12.75405000"},
{"state":"Karlovarský kraj","name":"Lomnice","lat":"50.21174000","lon":"12.63267000"},
{"state":"Karlovarský kraj","name":"Luby","lat":"50.25248000","lon":"12.40595000"},
{"state":"Karlovarský kraj","name":"Mariánské Lázně","lat":"49.96459000","lon":"12.70118000"},
{"state":"Karlovarský kraj","name":"Merklín","lat":"50.32808000","lon":"12.86350000"},
{"state":"Karlovarský kraj","name":"Město","lat":"49.97997000","lon":"12.86432000"},
{"state":"Karlovarský kraj","name":"Nejdek","lat":"50.32242000","lon":"12.72936000"},
{"state":"Karlovarský kraj","name":"Nová Role","lat":"50.27092000","lon":"12.78422000"},
{"state":"Karlovarský kraj","name":"Nové Sedlo","lat":"50.20647000","lon":"12.73800000"},
{"state":"Karlovarský kraj","name":"Okres Cheb","lat":"50.08333000","lon":"12.50000000"},
{"state":"Karlovarský kraj","name":"Okres Karlovy Vary","lat":"50.16667000","lon":"13.00000000"},
{"state":"Karlovarský kraj","name":"Okres Sokolov","lat":"50.21667000","lon":"12.63333000"},
{"state":"Karlovarský kraj","name":"Oloví","lat":"50.25113000","lon":"12.55877000"},
{"state":"Karlovarský kraj","name":"Ostrov","lat":"50.30592000","lon":"12.93907000"},
{"state":"Karlovarský kraj","name":"Plesná","lat":"50.22070000","lon":"12.34669000"},
{"state":"Karlovarský kraj","name":"Rotava","lat":"50.29627000","lon":"12.57341000"},
{"state":"Karlovarský kraj","name":"Sadov","lat":"50.26711000","lon":"12.89708000"},
{"state":"Karlovarský kraj","name":"Skalná","lat":"50.17030000","lon":"12.36144000"},
{"state":"Karlovarský kraj","name":"Sokolov","lat":"50.18130000","lon":"12.64010000"},
{"state":"Karlovarský kraj","name":"Svatava","lat":"50.19223000","lon":"12.62524000"},
{"state":"Karlovarský kraj","name":"Toužim","lat":"50.06049000","lon":"12.98506000"},
{"state":"Karlovarský kraj","name":"Velká Hleďsebe","lat":"49.96151000","lon":"12.66763000"},
{"state":"Karlovarský kraj","name":"Vintířov","lat":"50.23382000","lon":"12.71748000"},
{"state":"Karlovarský kraj","name":"Žlutice","lat":"50.09192000","lon":"13.16297000"},
{"state":"Kraj Vysočina","name":"Batelov","lat":"49.31425000","lon":"15.39465000"},
{"state":"Kraj Vysočina","name":"Bohdalov","lat":"49.47921000","lon":"15.87582000"},
{"state":"Kraj Vysočina","name":"Brtnice","lat":"49.30695000","lon":"15.67642000"},
{"state":"Kraj Vysočina","name":"Budišov","lat":"49.27138000","lon":"16.00383000"},
{"state":"Kraj Vysočina","name":"Bystřice nad Pernštejnem","lat":"49.52295000","lon":"16.26147000"},
{"state":"Kraj Vysočina","name":"Černovice","lat":"49.37265000","lon":"14.96089000"},
{"state":"Kraj Vysočina","name":"Chotěboř","lat":"49.72072000","lon":"15.67018000"},
{"state":"Kraj Vysočina","name":"Dobronín","lat":"49.47833000","lon":"15.64992000"},
{"state":"Kraj Vysočina","name":"Dolní Cerekev","lat":"49.34449000","lon":"15.45655000"},
{"state":"Kraj Vysočina","name":"Golčův Jeníkov","lat":"49.81626000","lon":"15.47686000"},
{"state":"Kraj Vysočina","name":"Habry","lat":"49.75603000","lon":"15.48486000"},
{"state":"Kraj Vysočina","name":"Havlíčkův Brod","lat":"49.60690000","lon":"15.57937000"},
{"state":"Kraj Vysočina","name":"Herálec","lat":"49.68891000","lon":"15.99431000"},
{"state":"Kraj Vysočina","name":"Horní Cerekev","lat":"49.32026000","lon":"15.32769000"},
{"state":"Kraj Vysočina","name":"Hrotovice","lat":"49.10770000","lon":"16.06067000"},
{"state":"Kraj Vysočina","name":"Humpolec","lat":"49.54152000","lon":"15.35932000"},
{"state":"Kraj Vysočina","name":"Jaroměřice nad Rokytnou","lat":"49.09408000","lon":"15.89331000"},
{"state":"Kraj Vysočina","name":"Jemnice","lat":"49.01898000","lon":"15.56994000"},
{"state":"Kraj Vysočina","name":"Jihlava","lat":"49.39610000","lon":"15.59124000"},
{"state":"Kraj Vysočina","name":"Jimramov","lat":"49.63719000","lon":"16.22632000"},
{"state":"Kraj Vysočina","name":"Kamenice","lat":"49.36659000","lon":"15.78023000"},
{"state":"Kraj Vysočina","name":"Kamenice nad Lipou","lat":"49.30303000","lon":"15.07519000"},
{"state":"Kraj Vysočina","name":"Kněžice","lat":"49.27078000","lon":"15.67216000"},
{"state":"Kraj Vysočina","name":"Křižanov","lat":"49.38858000","lon":"16.10960000"},
{"state":"Kraj Vysočina","name":"Křížová","lat":"49.68841000","lon":"15.85207000"},
{"state":"Kraj Vysočina","name":"Ledeč nad Sázavou","lat":"49.69517000","lon":"15.27772000"},
{"state":"Kraj Vysočina","name":"Lípa","lat":"49.55418000","lon":"15.54465000"},
{"state":"Kraj Vysočina","name":"Luka nad Jihlavou","lat":"49.37403000","lon":"15.70194000"},
{"state":"Kraj Vysočina","name":"Lukavec","lat":"49.56541000","lon":"14.99041000"},
{"state":"Kraj Vysočina","name":"Měřín","lat":"49.39321000","lon":"15.88381000"},
{"state":"Kraj Vysočina","name":"Mohelno","lat":"49.11412000","lon":"16.19022000"},
{"state":"Kraj Vysočina","name":"Moravské Budějovice","lat":"49.05209000","lon":"15.80864000"},
{"state":"Kraj Vysočina","name":"Náměšť nad Oslavou","lat":"49.20726000","lon":"16.15849000"},
{"state":"Kraj Vysočina","name":"Nová Cerekev","lat":"49.41723000","lon":"15.11675000"},
{"state":"Kraj Vysočina","name":"Nové Město na Moravě","lat":"49.56144000","lon":"16.07418000"},
{"state":"Kraj Vysočina","name":"Nové Syrovice","lat":"49.01763000","lon":"15.77345000"},
{"state":"Kraj Vysočina","name":"Nové Veselí","lat":"49.51976000","lon":"15.90853000"},
{"state":"Kraj Vysočina","name":"Okres Havlíčkův Brod","lat":"49.66667000","lon":"15.58333000"},
{"state":"Kraj Vysočina","name":"Okres Jihlava","lat":"49.33333000","lon":"15.58333000"},
{"state":"Kraj Vysočina","name":"Okres Pelhřimov","lat":"49.41667000","lon":"15.16667000"},
{"state":"Kraj Vysočina","name":"Okres Třebíč","lat":"49.13333000","lon":"15.93333000"},
{"state":"Kraj Vysočina","name":"Okres Žďár nad Sázavou","lat":"49.50000000","lon":"16.03333000"},
{"state":"Kraj Vysočina","name":"Okříšky","lat":"49.24539000","lon":"15.76959000"},
{"state":"Kraj Vysočina","name":"Okrouhlice","lat":"49.62991000","lon":"15.49083000"},
{"state":"Kraj Vysočina","name":"Pacov","lat":"49.47076000","lon":"15.00168000"},
{"state":"Kraj Vysočina","name":"Pelhřimov","lat":"49.43134000","lon":"15.22336000"},
{"state":"Kraj Vysočina","name":"Počátky","lat":"49.26020000","lon":"15.24022000"},
{"state":"Kraj Vysočina","name":"Polná","lat":"49.48700000","lon":"15.71881000"},
{"state":"Kraj Vysočina","name":"Přibyslav","lat":"49.57684000","lon":"15.73855000"},
{"state":"Kraj Vysočina","name":"Rouchovany","lat":"49.07036000","lon":"16.10760000"},
{"state":"Kraj Vysočina","name":"Stařeč","lat":"49.19783000","lon":"15.82791000"},
{"state":"Kraj Vysočina","name":"Štoky","lat":"49.50249000","lon":"15.58863000"},
{"state":"Kraj Vysočina","name":"Světlá nad Sázavou","lat":"49.66801000","lon":"15.40393000"},
{"state":"Kraj Vysočina","name":"Svratka","lat":"49.71066000","lon":"16.03214000"},
{"state":"Kraj Vysočina","name":"Telč","lat":"49.18418000","lon":"15.45275000"},
{"state":"Kraj Vysočina","name":"Třebíč","lat":"49.21492000","lon":"15.88166000"},
{"state":"Kraj Vysočina","name":"Třešť","lat":"49.29092000","lon":"15.48211000"},
{"state":"Kraj Vysočina","name":"Velká Bíteš","lat":"49.28838000","lon":"16.22742000"},
{"state":"Kraj Vysočina","name":"Velké Meziříčí","lat":"49.35522000","lon":"16.01224000"},
{"state":"Kraj Vysočina","name":"Velký Beranov","lat":"49.40504000","lon":"15.66700000"},
{"state":"Kraj Vysočina","name":"Vilémov","lat":"49.81566000","lon":"15.53584000"},
{"state":"Kraj Vysočina","name":"Vladislav","lat":"49.21017000","lon":"15.98830000"},
{"state":"Kraj Vysočina","name":"Žďár nad Sázavou","lat":"49.56263000","lon":"15.93924000"},
{"state":"Kraj Vysočina","name":"Žďár nad Sázavou Druhy","lat":"49.58726000","lon":"15.93215000"},
{"state":"Kraj Vysočina","name":"Želetava","lat":"49.14187000","lon":"15.67300000"},
{"state":"Kraj Vysočina","name":"Želiv","lat":"49.52984000","lon":"15.22181000"},
{"state":"Kraj Vysočina","name":"Žirovnice","lat":"49.25318000","lon":"15.18824000"},
{"state":"Královéhradecký kraj","name":"Albrechtice nad Orlicí","lat":"50.13979000","lon":"16.06437000"},
{"state":"Královéhradecký kraj","name":"Bílá Třemešná","lat":"50.44465000","lon":"15.74101000"},
{"state":"Královéhradecký kraj","name":"Borohrádek","lat":"50.09777000","lon":"16.09326000"},
{"state":"Královéhradecký kraj","name":"Broumov","lat":"50.58566000","lon":"16.33181000"},
{"state":"Královéhradecký kraj","name":"Častolovice","lat":"50.12910000","lon":"16.18128000"},
{"state":"Královéhradecký kraj","name":"Černilov","lat":"50.26265000","lon":"15.92254000"},
{"state":"Královéhradecký kraj","name":"Černožice","lat":"50.31863000","lon":"15.87403000"},
{"state":"Královéhradecký kraj","name":"Červený Kostelec","lat":"50.47626000","lon":"16.09289000"},
{"state":"Královéhradecký kraj","name":"Česká Skalice","lat":"50.39467000","lon":"16.04276000"},
{"state":"Královéhradecký kraj","name":"České Meziříčí","lat":"50.28680000","lon":"16.04428000"},
{"state":"Královéhradecký kraj","name":"Chlumec nad Cidlinou","lat":"50.15440000","lon":"15.46026000"},
{"state":"Královéhradecký kraj","name":"Dobruška","lat":"50.29201000","lon":"16.16001000"},
{"state":"Královéhradecký kraj","name":"Dolní Černilov","lat":"50.26110000","lon":"15.96107000"},
{"state":"Královéhradecký kraj","name":"Doudleby nad Orlicí","lat":"50.10742000","lon":"16.26131000"},
{"state":"Královéhradecký kraj","name":"Dvůr Králové nad Labem","lat":"50.43172000","lon":"15.81402000"},
{"state":"Královéhradecký kraj","name":"Hořice","lat":"50.36609000","lon":"15.63183000"},
{"state":"Královéhradecký kraj","name":"Hostinné","lat":"50.54066000","lon":"15.72334000"},
{"state":"Královéhradecký kraj","name":"Hradec Králové","lat":"50.20923000","lon":"15.83277000"},
{"state":"Královéhradecký kraj","name":"Hronov","lat":"50.47968000","lon":"16.18230000"},
{"state":"Královéhradecký kraj","name":"Jaroměř","lat":"50.35620000","lon":"15.92136000"},
{"state":"Královéhradecký kraj","name":"Jičín","lat":"50.43723000","lon":"15.35162000"},
{"state":"Královéhradecký kraj","name":"Kopidlno","lat":"50.33085000","lon":"15.27029000"},
{"state":"Královéhradecký kraj","name":"Kostelec nad Orlicí","lat":"50.12267000","lon":"16.21319000"},
{"state":"Královéhradecký kraj","name":"Kvasiny","lat":"50.21250000","lon":"16.26323000"},
{"state":"Královéhradecký kraj","name":"Lázně Bělohrad","lat":"50.42874000","lon":"15.58269000"},
{"state":"Královéhradecký kraj","name":"Libáň","lat":"50.37542000","lon":"15.21684000"},
{"state":"Královéhradecký kraj","name":"Machov","lat":"50.49927000","lon":"16.27690000"},
{"state":"Královéhradecký kraj","name":"Malé Svatoňovice","lat":"50.53395000","lon":"16.04978000"},
{"state":"Královéhradecký kraj","name":"Meziměstí","lat":"50.62461000","lon":"16.24207000"},
{"state":"Královéhradecký kraj","name":"Mladé Buky","lat":"50.60643000","lon":"15.83348000"},
{"state":"Královéhradecký kraj","name":"Mostek","lat":"50.48623000","lon":"15.69622000"},
{"state":"Královéhradecký kraj","name":"Náchod","lat":"50.41670000","lon":"16.16289000"},
{"state":"Královéhradecký kraj","name":"Nechanice","lat":"50.23737000","lon":"15.63276000"},
{"state":"Královéhradecký kraj","name":"Nová Paka","lat":"50.49449000","lon":"15.51503000"},
{"state":"Královéhradecký kraj","name":"Nové Město nad Metují","lat":"50.34456000","lon":"16.15147000"},
{"state":"Královéhradecký kraj","name":"Nový Bydžov","lat":"50.24150000","lon":"15.49082000"},
{"state":"Královéhradecký kraj","name":"Okres Hradec Králové","lat":"50.25000000","lon":"15.66667000"},
{"state":"Královéhradecký kraj","name":"Okres Jičín","lat":"50.41667000","lon":"15.41667000"},
{"state":"Královéhradecký kraj","name":"Okres Náchod","lat":"50.41667000","lon":"16.16667000"},
{"state":"Královéhradecký kraj","name":"Okres Rychnov nad Kněžnou","lat":"50.23333000","lon":"16.28333000"},
{"state":"Královéhradecký kraj","name":"Okres Trutnov","lat":"50.58333000","lon":"15.83333000"},
{"state":"Královéhradecký kraj","name":"Opočno","lat":"50.26742000","lon":"16.11480000"},
{"state":"Královéhradecký kraj","name":"Ostroměř","lat":"50.37246000","lon":"15.54949000"},
{"state":"Královéhradecký kraj","name":"Pecka","lat":"50.48034000","lon":"15.60822000"},
{"state":"Královéhradecký kraj","name":"Pilníkov","lat":"50.53247000","lon":"15.82020000"},
{"state":"Královéhradecký kraj","name":"Police nad Metují","lat":"50.53687000","lon":"16.23350000"},
{"state":"Královéhradecký kraj","name":"Předměřice nad Labem","lat":"50.25633000","lon":"15.81556000"},
{"state":"Královéhradecký kraj","name":"Provodov-Šonov","lat":"50.38711000","lon":"16.10797000"},
{"state":"Královéhradecký kraj","name":"Radvanice","lat":"50.56745000","lon":"16.06172000"},
{"state":"Královéhradecký kraj","name":"Rokytnice v Orlických Horách","lat":"50.16473000","lon":"16.46567000"},
{"state":"Královéhradecký kraj","name":"Rtyně v Podkrkonoší","lat":"50.50523000","lon":"16.07187000"},
{"state":"Královéhradecký kraj","name":"Rudník","lat":"50.59517000","lon":"15.73362000"},
{"state":"Královéhradecký kraj","name":"Rychnov nad Kněžnou","lat":"50.16284000","lon":"16.27488000"},
{"state":"Královéhradecký kraj","name":"Skuhrov nad Bělou","lat":"50.22946000","lon":"16.29230000"},
{"state":"Královéhradecký kraj","name":"Smidary","lat":"50.29146000","lon":"15.47725000"},
{"state":"Královéhradecký kraj","name":"Smiřice","lat":"50.29978000","lon":"15.86508000"},
{"state":"Královéhradecký kraj","name":"Sobotka","lat":"50.46741000","lon":"15.17619000"},
{"state":"Královéhradecký kraj","name":"Solnice","lat":"50.20366000","lon":"16.23762000"},
{"state":"Královéhradecký kraj","name":"Špindlerův Mlýn","lat":"50.72615000","lon":"15.60944000"},
{"state":"Královéhradecký kraj","name":"Stará Paka","lat":"50.51032000","lon":"15.49444000"},
{"state":"Královéhradecký kraj","name":"Staré Nechanice","lat":"50.24298000","lon":"15.61787000"},
{"state":"Královéhradecký kraj","name":"Stěžery","lat":"50.21572000","lon":"15.74831000"},
{"state":"Královéhradecký kraj","name":"Svoboda nad Úpou","lat":"50.62596000","lon":"15.81648000"},
{"state":"Královéhradecký kraj","name":"Teplice nad Metují","lat":"50.59332000","lon":"16.17026000"},
{"state":"Královéhradecký kraj","name":"Třebechovice pod Orebem","lat":"50.20097000","lon":"15.99223000"},
{"state":"Královéhradecký kraj","name":"Trutnov","lat":"50.56101000","lon":"15.91270000"},
{"state":"Královéhradecký kraj","name":"Týniště nad Orlicí","lat":"50.15136000","lon":"16.07770000"},
{"state":"Královéhradecký kraj","name":"Úpice","lat":"50.51237000","lon":"16.01607000"},
{"state":"Královéhradecký kraj","name":"Valdice","lat":"50.45501000","lon":"15.38488000"},
{"state":"Královéhradecký kraj","name":"Vamberk","lat":"50.11756000","lon":"16.29067000"},
{"state":"Královéhradecký kraj","name":"Velké Poříčí","lat":"50.46177000","lon":"16.18931000"},
{"state":"Královéhradecký kraj","name":"Velké Svatoňovice","lat":"50.53164000","lon":"16.02853000"},
{"state":"Královéhradecký kraj","name":"Vrchlabí","lat":"50.62697000","lon":"15.60937000"},
{"state":"Královéhradecký kraj","name":"Všestary","lat":"50.25660000","lon":"15.75983000"},
{"state":"Královéhradecký kraj","name":"Žacléř","lat":"50.66329000","lon":"15.91063000"},
{"state":"Královéhradecký kraj","name":"Zadní Mostek","lat":"50.49670000","lon":"15.69804000"},
{"state":"Královéhradecký kraj","name":"Železnice","lat":"50.47274000","lon":"15.38459000"},
{"state":"Liberecký kraj","name":"Benecko","lat":"50.66633000","lon":"15.54816000"},
{"state":"Liberecký kraj","name":"Brniště","lat":"50.72919000","lon":"14.70338000"},
{"state":"Liberecký kraj","name":"Česká Lípa","lat":"50.68551000","lon":"14.53764000"},
{"state":"Liberecký kraj","name":"Český Dub","lat":"50.66054000","lon":"14.99617000"},
{"state":"Liberecký kraj","name":"Chrastava","lat":"50.81693000","lon":"14.96884000"},
{"state":"Liberecký kraj","name":"Cvikov","lat":"50.77668000","lon":"14.63298000"},
{"state":"Liberecký kraj","name":"Desná","lat":"50.75987000","lon":"15.30284000"},
{"state":"Liberecký kraj","name":"Doksy","lat":"50.56471000","lon":"14.65553000"},
{"state":"Liberecký kraj","name":"Dubá","lat":"50.54034000","lon":"14.54023000"},
{"state":"Liberecký kraj","name":"Frýdlant","lat":"50.92139000","lon":"15.07974000"},
{"state":"Liberecký kraj","name":"Harrachov","lat":"50.77209000","lon":"15.43141000"},
{"state":"Liberecký kraj","name":"Hejnice","lat":"50.87720000","lon":"15.18168000"},
{"state":"Liberecký kraj","name":"Hodkovice nad Mohelkou","lat":"50.66586000","lon":"15.08985000"},
{"state":"Liberecký kraj","name":"Horní Branná","lat":"50.60826000","lon":"15.57146000"},
{"state":"Liberecký kraj","name":"Hrádek nad Nisou","lat":"50.85279000","lon":"14.84455000"},
{"state":"Liberecký kraj","name":"Jablonec nad Jizerou","lat":"50.70347000","lon":"15.42959000"},
{"state":"Liberecký kraj","name":"Jablonec nad Nisou","lat":"50.72431000","lon":"15.17108000"},
{"state":"Liberecký kraj","name":"Jablonné v Podještědí","lat":"50.76528000","lon":"14.76052000"},
{"state":"Liberecký kraj","name":"Janov nad Nisou","lat":"50.77204000","lon":"15.16913000"},
{"state":"Liberecký kraj","name":"Jilemnice","lat":"50.60890000","lon":"15.50653000"},
{"state":"Liberecký kraj","name":"Josefův Důl","lat":"50.78191000","lon":"15.23146000"},
{"state":"Liberecký kraj","name":"Kamenický Šenov","lat":"50.77359000","lon":"14.47287000"},
{"state":"Liberecký kraj","name":"Kořenov","lat":"50.75926000","lon":"15.36532000"},
{"state":"Liberecký kraj","name":"Košťálov","lat":"50.57165000","lon":"15.40403000"},
{"state":"Liberecký kraj","name":"Liberec","lat":"50.76711000","lon":"15.05619000"},
{"state":"Liberecký kraj","name":"Lomnice nad Popelkou","lat":"50.53062000","lon":"15.37341000"},
{"state":"Liberecký kraj","name":"Lučany nad Nisou","lat":"50.74136000","lon":"15.22046000"},
{"state":"Liberecký kraj","name":"Malá Skála","lat":"50.64631000","lon":"15.19543000"},
{"state":"Liberecký kraj","name":"Mimoň","lat":"50.65869000","lon":"14.72474000"},
{"state":"Liberecký kraj","name":"Mníšek","lat":"50.83163000","lon":"15.05630000"},
{"state":"Liberecký kraj","name":"Nové Město pod Smrkem","lat":"50.92491000","lon":"15.22943000"},
{"state":"Liberecký kraj","name":"Nový Bor","lat":"50.75761000","lon":"14.55555000"},
{"state":"Liberecký kraj","name":"Ohrazenice","lat":"50.59765000","lon":"15.12596000"},
{"state":"Liberecký kraj","name":"Okres Česká Lípa","lat":"50.66667000","lon":"14.66667000"},
{"state":"Liberecký kraj","name":"Okres Jablonec nad Nisou","lat":"50.75000000","lon":"15.25000000"},
{"state":"Liberecký kraj","name":"Okres Liberec","lat":"50.83333000","lon":"15.08333000"},
{"state":"Liberecký kraj","name":"Okres Semily","lat":"50.61667000","lon":"15.41667000"},
{"state":"Liberecký kraj","name":"Osečná","lat":"50.69489000","lon":"14.92138000"},
{"state":"Liberecký kraj","name":"Pěnčín","lat":"50.68769000","lon":"15.23593000"},
{"state":"Liberecký kraj","name":"Plavy","lat":"50.70324000","lon":"15.31736000"},
{"state":"Liberecký kraj","name":"Poniklá","lat":"50.66152000","lon":"15.46329000"},
{"state":"Liberecký kraj","name":"Příšovice","lat":"50.57813000","lon":"15.08390000"},
{"state":"Liberecký kraj","name":"Raspenava","lat":"50.90415000","lon":"15.11465000"},
{"state":"Liberecký kraj","name":"Rokytnice nad Jizerou","lat":"50.72561000","lon":"15.43357000"},
{"state":"Liberecký kraj","name":"Rovensko pod Troskami","lat":"50.53532000","lon":"15.25941000"},
{"state":"Liberecký kraj","name":"Semily","lat":"50.60191000","lon":"15.33552000"},
{"state":"Liberecký kraj","name":"Smržovka","lat":"50.73820000","lon":"15.24639000"},
{"state":"Liberecký kraj","name":"Stráž nad Nisou","lat":"50.79099000","lon":"15.02683000"},
{"state":"Liberecký kraj","name":"Stráž pod Ralskem","lat":"50.70280000","lon":"14.80102000"},
{"state":"Liberecký kraj","name":"Studenec","lat":"50.55344000","lon":"15.54936000"},
{"state":"Liberecký kraj","name":"Tanvald","lat":"50.73735000","lon":"15.30585000"},
{"state":"Liberecký kraj","name":"Turnov","lat":"50.58356000","lon":"15.15186000"},
{"state":"Liberecký kraj","name":"Valdice","lat":"50.58350000","lon":"15.41248000"},
{"state":"Liberecký kraj","name":"Velké Hamry","lat":"50.71373000","lon":"15.31539000"},
{"state":"Liberecký kraj","name":"Višňova","lat":"50.96663000","lon":"15.02495000"},
{"state":"Liberecký kraj","name":"Vysoké nad Jizerou","lat":"50.68559000","lon":"15.40152000"},
{"state":"Liberecký kraj","name":"Zákupy","lat":"50.68475000","lon":"14.64522000"},
{"state":"Liberecký kraj","name":"Žandov","lat":"50.71394000","lon":"14.39623000"},
{"state":"Liberecký kraj","name":"Železný Brod","lat":"50.64274000","lon":"15.25408000"},
{"state":"Moravskoslezský kraj","name":"Albrechtice","lat":"49.78645000","lon":"18.52444000"},
{"state":"Moravskoslezský kraj","name":"Bartošovice","lat":"49.66884000","lon":"18.05461000"},
{"state":"Moravskoslezský kraj","name":"Baška","lat":"49.64584000","lon":"18.37233000"},
{"state":"Moravskoslezský kraj","name":"Bílovec","lat":"49.75639000","lon":"18.01581000"},
{"state":"Moravskoslezský kraj","name":"Bohumín","lat":"49.90411000","lon":"18.35755000"},
{"state":"Moravskoslezský kraj","name":"Bohuslavice","lat":"49.94232000","lon":"18.12866000"},
{"state":"Moravskoslezský kraj","name":"Bolatice","lat":"49.95172000","lon":"18.08358000"},
{"state":"Moravskoslezský kraj","name":"Brantice","lat":"50.06351000","lon":"17.62911000"},
{"state":"Moravskoslezský kraj","name":"Březová","lat":"49.79158000","lon":"17.86556000"},
{"state":"Moravskoslezský kraj","name":"Břidličná","lat":"49.91167000","lon":"17.37107000"},
{"state":"Moravskoslezský kraj","name":"Brumovice","lat":"50.01530000","lon":"17.74958000"},
{"state":"Moravskoslezský kraj","name":"Bruntál","lat":"49.98844000","lon":"17.46470000"},
{"state":"Moravskoslezský kraj","name":"Brušperk","lat":"49.70010000","lon":"18.22210000"},
{"state":"Moravskoslezský kraj","name":"Budišov nad Budišovkou","lat":"49.79511000","lon":"17.62969000"},
{"state":"Moravskoslezský kraj","name":"Bukovec","lat":"49.55114000","lon":"18.82683000"},
{"state":"Moravskoslezský kraj","name":"Bystřice","lat":"49.63657000","lon":"18.72038000"},
{"state":"Moravskoslezský kraj","name":"Čeladná","lat":"49.54873000","lon":"18.33759000"},
{"state":"Moravskoslezský kraj","name":"Český Těšín","lat":"49.74613000","lon":"18.62613000"},
{"state":"Moravskoslezský kraj","name":"Chlebičov","lat":"49.95942000","lon":"17.96748000"},
{"state":"Moravskoslezský kraj","name":"Chotěbuz","lat":"49.76849000","lon":"18.56912000"},
{"state":"Moravskoslezský kraj","name":"Chuchelná","lat":"49.98664000","lon":"18.11656000"},
{"state":"Moravskoslezský kraj","name":"Darkovice","lat":"49.93592000","lon":"18.22213000"},
{"state":"Moravskoslezský kraj","name":"Dětmarovice","lat":"49.89412000","lon":"18.46079000"},
{"state":"Moravskoslezský kraj","name":"Dobrá","lat":"49.67383000","lon":"18.41393000"},
{"state":"Moravskoslezský kraj","name":"Dobratice","lat":"49.66039000","lon":"18.49226000"},
{"state":"Moravskoslezský kraj","name":"Dolní Benešov","lat":"49.92101000","lon":"18.10835000"},
{"state":"Moravskoslezský kraj","name":"Dolní Lhota","lat":"49.84236000","lon":"18.09241000"},
{"state":"Moravskoslezský kraj","name":"Dolní Lutyně","lat":"49.89876000","lon":"18.42815000"},
{"state":"Moravskoslezský kraj","name":"Dolní Životice","lat":"49.89732000","lon":"17.77969000"},
{"state":"Moravskoslezský kraj","name":"Doubrava","lat":"49.85873000","lon":"18.48018000"},
{"state":"Moravskoslezský kraj","name":"Dvorce","lat":"49.83332000","lon":"17.54762000"},
{"state":"Moravskoslezský kraj","name":"Frenštát pod Radhoštěm","lat":"49.54835000","lon":"18.21078000"},
{"state":"Moravskoslezský kraj","name":"Fryčovice","lat":"49.66677000","lon":"18.22321000"},
{"state":"Moravskoslezský kraj","name":"Frýdek-Místek","lat":"49.68333000","lon":"18.35000000"},
{"state":"Moravskoslezský kraj","name":"Frýdlant nad Ostravicí","lat":"49.59280000","lon":"18.35967000"},
{"state":"Moravskoslezský kraj","name":"Fulnek","lat":"49.71238000","lon":"17.90319000"},
{"state":"Moravskoslezský kraj","name":"Háj ve Slezsku","lat":"49.89856000","lon":"18.09540000"},
{"state":"Moravskoslezský kraj","name":"Hať","lat":"49.94644000","lon":"18.23931000"},
{"state":"Moravskoslezský kraj","name":"Havířov","lat":"49.77984000","lon":"18.43688000"},
{"state":"Moravskoslezský kraj","name":"Hlučín","lat":"49.89795000","lon":"18.19196000"},
{"state":"Moravskoslezský kraj","name":"Hněvošice","lat":"50.00299000","lon":"18.00829000"},
{"state":"Moravskoslezský kraj","name":"Hnojník","lat":"49.68250000","lon":"18.54143000"},
{"state":"Moravskoslezský kraj","name":"Hodslavice","lat":"49.53856000","lon":"18.02367000"},
{"state":"Moravskoslezský kraj","name":"Holasovice","lat":"49.99843000","lon":"17.80847000"},
{"state":"Moravskoslezský kraj","name":"Horní Benešov","lat":"49.96682000","lon":"17.60262000"},
{"state":"Moravskoslezský kraj","name":"Horní Bludovice","lat":"49.74965000","lon":"18.43677000"},
{"state":"Moravskoslezský kraj","name":"Horní Město","lat":"49.90845000","lon":"17.21112000"},
{"state":"Moravskoslezský kraj","name":"Horní Suchá","lat":"49.79780000","lon":"18.48189000"},
{"state":"Moravskoslezský kraj","name":"Horní Těrlicko","lat":"49.75177000","lon":"18.48290000"},
{"state":"Moravskoslezský kraj","name":"Hrabyně","lat":"49.88249000","lon":"18.05483000"},
{"state":"Moravskoslezský kraj","name":"Hradec nad Moravici","lat":"49.87042000","lon":"17.87843000"},
{"state":"Moravskoslezský kraj","name":"Hrádek","lat":"49.61661000","lon":"18.73720000"},
{"state":"Moravskoslezský kraj","name":"Hukvaldy","lat":"49.62381000","lon":"18.22189000"},
{"state":"Moravskoslezský kraj","name":"Jablunkov","lat":"49.57672000","lon":"18.76458000"},
{"state":"Moravskoslezský kraj","name":"Jakartovice","lat":"49.91510000","lon":"17.68400000"},
{"state":"Moravskoslezský kraj","name":"Janovice","lat":"49.62141000","lon":"18.40602000"},
{"state":"Moravskoslezský kraj","name":"Jeseník nad Odrou","lat":"49.61194000","lon":"17.90526000"},
{"state":"Moravskoslezský kraj","name":"Jindřichov","lat":"50.25184000","lon":"17.51903000"},
{"state":"Moravskoslezský kraj","name":"Jistebník","lat":"49.75400000","lon":"18.13063000"},
{"state":"Moravskoslezský kraj","name":"Karlovice","lat":"50.10564000","lon":"17.44563000"},
{"state":"Moravskoslezský kraj","name":"Karviná","lat":"49.85400000","lon":"18.54169000"},
{"state":"Moravskoslezský kraj","name":"Klimkovice","lat":"49.78809000","lon":"18.12585000"},
{"state":"Moravskoslezský kraj","name":"Kobeřice","lat":"49.98548000","lon":"18.05212000"},
{"state":"Moravskoslezský kraj","name":"Komorní Lhotka","lat":"49.65811000","lon":"18.52777000"},
{"state":"Moravskoslezský kraj","name":"Kopřivnice","lat":"49.59947000","lon":"18.14480000"},
{"state":"Moravskoslezský kraj","name":"Kozlovice","lat":"49.59040000","lon":"18.25656000"},
{"state":"Moravskoslezský kraj","name":"Kozmice","lat":"49.91280000","lon":"18.15584000"},
{"state":"Moravskoslezský kraj","name":"Kravaře","lat":"49.93203000","lon":"18.00472000"},
{"state":"Moravskoslezský kraj","name":"Krmelín","lat":"49.72914000","lon":"18.23541000"},
{"state":"Moravskoslezský kraj","name":"Krnov","lat":"50.08967000","lon":"17.70385000"},
{"state":"Moravskoslezský kraj","name":"Kunčice pod Ondřejníkem","lat":"49.55070000","lon":"18.26113000"},
{"state":"Moravskoslezský kraj","name":"Kunín","lat":"49.63377000","lon":"17.98965000"},
{"state":"Moravskoslezský kraj","name":"Lichnov","lat":"50.00786000","lon":"17.62640000"},
{"state":"Moravskoslezský kraj","name":"Lichnov (o. Nový Jičín)","lat":"49.56423000","lon":"18.16898000"},
{"state":"Moravskoslezský kraj","name":"Lučina","lat":"49.72082000","lon":"18.44776000"},
{"state":"Moravskoslezský kraj","name":"Ludgeřovice","lat":"49.89042000","lon":"18.24008000"},
{"state":"Moravskoslezský kraj","name":"Markvartovice","lat":"49.90595000","lon":"18.23602000"},
{"state":"Moravskoslezský kraj","name":"Město Albrechtice","lat":"50.16294000","lon":"17.57481000"},
{"state":"Moravskoslezský kraj","name":"Metylovice","lat":"49.60666000","lon":"18.33911000"},
{"state":"Moravskoslezský kraj","name":"Milíkov","lat":"49.58565000","lon":"18.71943000"},
{"state":"Moravskoslezský kraj","name":"Mokré Lazce","lat":"49.90462000","lon":"18.02954000"},
{"state":"Moravskoslezský kraj","name":"Morávka","lat":"49.59607000","lon":"18.52471000"},
{"state":"Moravskoslezský kraj","name":"Mořkov","lat":"49.53684000","lon":"18.05968000"},
{"state":"Moravskoslezský kraj","name":"Mosty u Jablunkova","lat":"49.52737000","lon":"18.75417000"},
{"state":"Moravskoslezský kraj","name":"Návsí u Jablunkova","lat":"49.58720000","lon":"18.75907000"},
{"state":"Moravskoslezský kraj","name":"Nový Jičín","lat":"49.59438000","lon":"18.01028000"},
{"state":"Moravskoslezský kraj","name":"Nýdek","lat":"49.65609000","lon":"18.75687000"},
{"state":"Moravskoslezský kraj","name":"Odry","lat":"49.66255000","lon":"17.83084000"},
{"state":"Moravskoslezský kraj","name":"Okres Bruntál","lat":"50.00000000","lon":"17.41667000"},
{"state":"Moravskoslezský kraj","name":"Okres Frýdek-Místek","lat":"49.58333000","lon":"18.50000000"},
{"state":"Moravskoslezský kraj","name":"Okres Karviná","lat":"49.83333000","lon":"18.50000000"},
{"state":"Moravskoslezský kraj","name":"Okres Nový Jičín","lat":"49.66667000","lon":"18.00000000"},
{"state":"Moravskoslezský kraj","name":"Okres Opava","lat":"49.83333000","lon":"17.91667000"},
{"state":"Moravskoslezský kraj","name":"Okres Ostrava-město","lat":"49.83333000","lon":"18.25000000"},
{"state":"Moravskoslezský kraj","name":"Oldřišov","lat":"49.99130000","lon":"17.96074000"},
{"state":"Moravskoslezský kraj","name":"Opava","lat":"49.93866000","lon":"17.90257000"},
{"state":"Moravskoslezský kraj","name":"Orlová","lat":"49.84527000","lon":"18.43011000"},
{"state":"Moravskoslezský kraj","name":"Osoblaha","lat":"50.27517000","lon":"17.71523000"},
{"state":"Moravskoslezský kraj","name":"Ostrava","lat":"49.83465000","lon":"18.28204000"},
{"state":"Moravskoslezský kraj","name":"Ostravice","lat":"49.53510000","lon":"18.39164000"},
{"state":"Moravskoslezský kraj","name":"Otice","lat":"49.91684000","lon":"17.86982000"},
{"state":"Moravskoslezský kraj","name":"Palkovice","lat":"49.63467000","lon":"18.31508000"},
{"state":"Moravskoslezský kraj","name":"Paskov","lat":"49.73179000","lon":"18.29037000"},
{"state":"Moravskoslezský kraj","name":"Petrovice u Karviné","lat":"49.89587000","lon":"18.54779000"},
{"state":"Moravskoslezský kraj","name":"Petřvald","lat":"49.83100000","lon":"18.38940000"},
{"state":"Moravskoslezský kraj","name":"Písek","lat":"49.55924000","lon":"18.80231000"},
{"state":"Moravskoslezský kraj","name":"Píšť","lat":"49.97857000","lon":"18.19349000"},
{"state":"Moravskoslezský kraj","name":"Pražmo","lat":"49.60876000","lon":"18.48617000"},
{"state":"Moravskoslezský kraj","name":"Příbor","lat":"49.64094000","lon":"18.14499000"},
{"state":"Moravskoslezský kraj","name":"Pustá Polom","lat":"49.84917000","lon":"17.99790000"},
{"state":"Moravskoslezský kraj","name":"Raškovice","lat":"49.61975000","lon":"18.47286000"},
{"state":"Moravskoslezský kraj","name":"Řepiště","lat":"49.73338000","lon":"18.31707000"},
{"state":"Moravskoslezský kraj","name":"Ropice","lat":"49.70536000","lon":"18.61345000"},
{"state":"Moravskoslezský kraj","name":"Rybí","lat":"49.60073000","lon":"18.07592000"},
{"state":"Moravskoslezský kraj","name":"Rychvald","lat":"49.86625000","lon":"18.37626000"},
{"state":"Moravskoslezský kraj","name":"Rýmařov","lat":"49.93183000","lon":"17.27177000"},
{"state":"Moravskoslezský kraj","name":"Sedliště","lat":"49.71836000","lon":"18.36869000"},
{"state":"Moravskoslezský kraj","name":"Sedlnice","lat":"49.65770000","lon":"18.08690000"},
{"state":"Moravskoslezský kraj","name":"Šenov","lat":"49.79315000","lon":"18.37607000"},
{"state":"Moravskoslezský kraj","name":"Šilheřovice","lat":"49.92602000","lon":"18.27017000"},
{"state":"Moravskoslezský kraj","name":"Slavkov","lat":"49.92180000","lon":"17.83641000"},
{"state":"Moravskoslezský kraj","name":"Stará Ves nad Ondřejnicí","lat":"49.72775000","lon":"18.18850000"},
{"state":"Moravskoslezský kraj","name":"Staré Město","lat":"49.66992000","lon":"18.36349000"},
{"state":"Moravskoslezský kraj","name":"Staříč","lat":"49.68594000","lon":"18.27281000"},
{"state":"Moravskoslezský kraj","name":"Starý Bohumín","lat":"49.91690000","lon":"18.33619000"},
{"state":"Moravskoslezský kraj","name":"Starý Jičín","lat":"49.57686000","lon":"17.96169000"},
{"state":"Moravskoslezský kraj","name":"Stěbořice","lat":"49.93708000","lon":"17.80547000"},
{"state":"Moravskoslezský kraj","name":"Štěpánkovice","lat":"49.95738000","lon":"18.03741000"},
{"state":"Moravskoslezský kraj","name":"Štítina","lat":"49.91487000","lon":"18.01245000"},
{"state":"Moravskoslezský kraj","name":"Stonava","lat":"49.81691000","lon":"18.52518000"},
{"state":"Moravskoslezský kraj","name":"Štramberk","lat":"49.59181000","lon":"18.11741000"},
{"state":"Moravskoslezský kraj","name":"Studénka","lat":"49.72342000","lon":"18.07853000"},
{"state":"Moravskoslezský kraj","name":"Sviadnov","lat":"49.68926000","lon":"18.32762000"},
{"state":"Moravskoslezský kraj","name":"Tichá","lat":"49.56999000","lon":"18.22148000"},
{"state":"Moravskoslezský kraj","name":"Třinec","lat":"49.67763000","lon":"18.67078000"},
{"state":"Moravskoslezský kraj","name":"Trojanovice","lat":"49.52039000","lon":"18.23800000"},
{"state":"Moravskoslezský kraj","name":"Václavovice","lat":"49.75531000","lon":"18.37220000"},
{"state":"Moravskoslezský kraj","name":"Velká Polom","lat":"49.86359000","lon":"18.09331000"},
{"state":"Moravskoslezský kraj","name":"Velké Heraltice","lat":"49.97493000","lon":"17.72879000"},
{"state":"Moravskoslezský kraj","name":"Velké Hoštice","lat":"49.93609000","lon":"17.97380000"},
{"state":"Moravskoslezský kraj","name":"Vendryně","lat":"49.66662000","lon":"18.71307000"},
{"state":"Moravskoslezský kraj","name":"Veřovice","lat":"49.53916000","lon":"18.11425000"},
{"state":"Moravskoslezský kraj","name":"Vítkov","lat":"49.77445000","lon":"17.74941000"},
{"state":"Moravskoslezský kraj","name":"Vlčnov","lat":"49.57866000","lon":"17.95458000"},
{"state":"Moravskoslezský kraj","name":"Vratimov","lat":"49.76995000","lon":"18.31015000"},
{"state":"Moravskoslezský kraj","name":"Vrbice","lat":"49.88333000","lon":"18.31667000"},
{"state":"Moravskoslezský kraj","name":"Vrbno pod Pradědem","lat":"50.12095000","lon":"17.38316000"},
{"state":"Moravskoslezský kraj","name":"Vřesina","lat":"49.82418000","lon":"18.12569000"},
{"state":"Moravskoslezský kraj","name":"Zátor","lat":"50.03413000","lon":"17.59296000"},
{"state":"Olomoucký kraj","name":"Bedihošť","lat":"49.44826000","lon":"17.16643000"},
{"state":"Olomoucký kraj","name":"Bělotín","lat":"49.59120000","lon":"17.80654000"},
{"state":"Olomoucký kraj","name":"Bílá Lhota","lat":"49.70953000","lon":"16.97507000"},
{"state":"Olomoucký kraj","name":"Bludov","lat":"49.94080000","lon":"16.92849000"},
{"state":"Olomoucký kraj","name":"Bohuňovice","lat":"49.66301000","lon":"17.28693000"},
{"state":"Olomoucký kraj","name":"Bouzov","lat":"49.70426000","lon":"16.89288000"},
{"state":"Olomoucký kraj","name":"Brodek u Přerova","lat":"49.48419000","lon":"17.33825000"},
{"state":"Olomoucký kraj","name":"Čelechovice na Hané","lat":"49.51626000","lon":"17.09379000"},
{"state":"Olomoucký kraj","name":"Červenka","lat":"49.72068000","lon":"17.07773000"},
{"state":"Olomoucký kraj","name":"Česká Ves","lat":"50.25736000","lon":"17.22805000"},
{"state":"Olomoucký kraj","name":"Dolany","lat":"49.64987000","lon":"17.32240000"},
{"state":"Olomoucký kraj","name":"Dolní Bohdíkov","lat":"50.00996000","lon":"16.90433000"},
{"state":"Olomoucký kraj","name":"Dolní Studénky","lat":"49.93506000","lon":"16.97107000"},
{"state":"Olomoucký kraj","name":"Dolní Újezd","lat":"49.54597000","lon":"17.53547000"},
{"state":"Olomoucký kraj","name":"Doloplazy","lat":"49.56876000","lon":"17.41393000"},
{"state":"Olomoucký kraj","name":"Drahanovice","lat":"49.57856000","lon":"17.07701000"},
{"state":"Olomoucký kraj","name":"Dřevohostice","lat":"49.42594000","lon":"17.59204000"},
{"state":"Olomoucký kraj","name":"Dub nad Moravou","lat":"49.48249000","lon":"17.27723000"},
{"state":"Olomoucký kraj","name":"Dubicko","lat":"49.82806000","lon":"16.96266000"},
{"state":"Olomoucký kraj","name":"Grygov","lat":"49.53841000","lon":"17.30887000"},
{"state":"Olomoucký kraj","name":"Hanušovice","lat":"50.08049000","lon":"16.93641000"},
{"state":"Olomoucký kraj","name":"Hlubočky","lat":"49.61783000","lon":"17.39436000"},
{"state":"Olomoucký kraj","name":"Hněvotín","lat":"49.57205000","lon":"17.17954000"},
{"state":"Olomoucký kraj","name":"Horka nad Moravou","lat":"49.64009000","lon":"17.21070000"},
{"state":"Olomoucký kraj","name":"Horní Moštěnice","lat":"49.41213000","lon":"17.45879000"},
{"state":"Olomoucký kraj","name":"Horní Štěpánov","lat":"49.54901000","lon":"16.79078000"},
{"state":"Olomoucký kraj","name":"Hranice","lat":"49.54796000","lon":"17.73469000"},
{"state":"Olomoucký kraj","name":"Hustopeče Nad Bečvou","lat":"49.53053000","lon":"17.86994000"},
{"state":"Olomoucký kraj","name":"Javorník","lat":"50.39077000","lon":"17.00272000"},
{"state":"Olomoucký kraj","name":"Jeseník","lat":"50.22937000","lon":"17.20464000"},
{"state":"Olomoucký kraj","name":"Kojetín","lat":"49.35179000","lon":"17.30207000"},
{"state":"Olomoucký kraj","name":"Kokory","lat":"49.49482000","lon":"17.37544000"},
{"state":"Olomoucký kraj","name":"Konice","lat":"49.59030000","lon":"16.88911000"},
{"state":"Olomoucký kraj","name":"Kostelec na Hané","lat":"49.51398000","lon":"17.05824000"},
{"state":"Olomoucký kraj","name":"Kralice na Hané","lat":"49.46296000","lon":"17.18048000"},
{"state":"Olomoucký kraj","name":"Leština","lat":"49.86879000","lon":"16.92748000"},
{"state":"Olomoucký kraj","name":"Lipník nad Bečvou","lat":"49.52721000","lon":"17.58594000"},
{"state":"Olomoucký kraj","name":"Litovel","lat":"49.70121000","lon":"17.07615000"},
{"state":"Olomoucký kraj","name":"Loštice","lat":"49.74470000","lon":"16.92892000"},
{"state":"Olomoucký kraj","name":"Loučná nad Desnou","lat":"50.07433000","lon":"17.09052000"},
{"state":"Olomoucký kraj","name":"Lutín","lat":"49.55845000","lon":"17.13572000"},
{"state":"Olomoucký kraj","name":"Majetín","lat":"49.49808000","lon":"17.33314000"},
{"state":"Olomoucký kraj","name":"Medlov","lat":"49.78754000","lon":"17.06261000"},
{"state":"Olomoucký kraj","name":"Město Libavá","lat":"49.72162000","lon":"17.52013000"},
{"state":"Olomoucký kraj","name":"Mikulovice","lat":"50.29854000","lon":"17.32155000"},
{"state":"Olomoucký kraj","name":"Mohelnice","lat":"49.77698000","lon":"16.91946000"},
{"state":"Olomoucký kraj","name":"Moravičany","lat":"49.75694000","lon":"16.96042000"},
{"state":"Olomoucký kraj","name":"Moravský Beroun","lat":"49.79374000","lon":"17.44212000"},
{"state":"Olomoucký kraj","name":"Mostkovice","lat":"49.47215000","lon":"17.05212000"},
{"state":"Olomoucký kraj","name":"Náklo","lat":"49.65462000","lon":"17.12969000"},
{"state":"Olomoucký kraj","name":"Náměšť na Hané","lat":"49.60213000","lon":"17.06539000"},
{"state":"Olomoucký kraj","name":"Němčice nad Hanou","lat":"49.34181000","lon":"17.20596000"},
{"state":"Olomoucký kraj","name":"Nezamyslice","lat":"49.32543000","lon":"17.17326000"},
{"state":"Olomoucký kraj","name":"Nový Malín","lat":"49.94262000","lon":"17.03191000"},
{"state":"Olomoucký kraj","name":"Okres Jeseník","lat":"50.25000000","lon":"17.16667000"},
{"state":"Olomoucký kraj","name":"Okres Olomouc","lat":"49.66667000","lon":"17.25000000"},
{"state":"Olomoucký kraj","name":"Okres Přerov","lat":"49.50000000","lon":"17.55000000"},
{"state":"Olomoucký kraj","name":"Okres Prostějov","lat":"49.50000000","lon":"17.03333000"},
{"state":"Olomoucký kraj","name":"Okres Šumperk","lat":"50.00000000","lon":"17.00000000"},
{"state":"Olomoucký kraj","name":"Olomouc","lat":"49.59552000","lon":"17.25175000"},
{"state":"Olomoucký kraj","name":"Olšany","lat":"49.96509000","lon":"16.85894000"},
{"state":"Olomoucký kraj","name":"Osek nad Bečvou","lat":"49.51121000","lon":"17.52829000"},
{"state":"Olomoucký kraj","name":"Oskava","lat":"49.89523000","lon":"17.13214000"},
{"state":"Olomoucký kraj","name":"Otaslavice","lat":"49.38833000","lon":"17.07108000"},
{"state":"Olomoucký kraj","name":"Paseka","lat":"49.79644000","lon":"17.22276000"},
{"state":"Olomoucký kraj","name":"Písečná","lat":"50.27303000","lon":"17.25373000"},
{"state":"Olomoucký kraj","name":"Plumlov","lat":"49.46614000","lon":"17.01502000"},
{"state":"Olomoucký kraj","name":"Postřelmov","lat":"49.90756000","lon":"16.91226000"},
{"state":"Olomoucký kraj","name":"Potštát","lat":"49.63693000","lon":"17.65174000"},
{"state":"Olomoucký kraj","name":"Přáslavice","lat":"49.58568000","lon":"17.38209000"},
{"state":"Olomoucký kraj","name":"Přemyslovice","lat":"49.55637000","lon":"16.95581000"},
{"state":"Olomoucký kraj","name":"Přerov","lat":"49.45511000","lon":"17.45090000"},
{"state":"Olomoucký kraj","name":"Příkazy","lat":"49.64360000","lon":"17.14337000"},
{"state":"Olomoucký kraj","name":"Prostějov","lat":"49.47188000","lon":"17.11184000"},
{"state":"Olomoucký kraj","name":"Protivanov","lat":"49.48351000","lon":"16.83594000"},
{"state":"Olomoucký kraj","name":"Ptení","lat":"49.51163000","lon":"16.96110000"},
{"state":"Olomoucký kraj","name":"Radslavice","lat":"49.47817000","lon":"17.51656000"},
{"state":"Olomoucký kraj","name":"Rapotín","lat":"50.01094000","lon":"17.03121000"},
{"state":"Olomoucký kraj","name":"Rokytnice","lat":"49.46592000","lon":"17.39120000"},
{"state":"Olomoucký kraj","name":"Ruda nad Moravou","lat":"49.98100000","lon":"16.87782000"},
{"state":"Olomoucký kraj","name":"Samotíšky","lat":"49.63042000","lon":"17.32807000"},
{"state":"Olomoucký kraj","name":"Senice na Hané","lat":"49.62401000","lon":"17.08578000"},
{"state":"Olomoucký kraj","name":"Skrbeň","lat":"49.64115000","lon":"17.17650000"},
{"state":"Olomoucký kraj","name":"Slatinice","lat":"49.56155000","lon":"17.09992000"},
{"state":"Olomoucký kraj","name":"Smržice","lat":"49.50569000","lon":"17.10698000"},
{"state":"Olomoucký kraj","name":"Sobotín","lat":"50.01039000","lon":"17.09129000"},
{"state":"Olomoucký kraj","name":"Staré Město","lat":"50.16174000","lon":"16.94734000"},
{"state":"Olomoucký kraj","name":"Štěpánov","lat":"49.68404000","lon":"17.22041000"},
{"state":"Olomoucký kraj","name":"Šternberk","lat":"49.73044000","lon":"17.29889000"},
{"state":"Olomoucký kraj","name":"Štíty","lat":"49.96122000","lon":"16.76576000"},
{"state":"Olomoucký kraj","name":"Strážná","lat":"49.83104000","lon":"17.13275000"},
{"state":"Olomoucký kraj","name":"Sudkov","lat":"49.91903000","lon":"16.94516000"},
{"state":"Olomoucký kraj","name":"Šumperk","lat":"49.96528000","lon":"16.97061000"},
{"state":"Olomoucký kraj","name":"Těšetice","lat":"49.59317000","lon":"17.12607000"},
{"state":"Olomoucký kraj","name":"Tovačov","lat":"49.43083000","lon":"17.28795000"},
{"state":"Olomoucký kraj","name":"Troubelice","lat":"49.81731000","lon":"17.08100000"},
{"state":"Olomoucký kraj","name":"Troubky","lat":"49.43215000","lon":"17.34914000"},
{"state":"Olomoucký kraj","name":"Tršice","lat":"49.54237000","lon":"17.42483000"},
{"state":"Olomoucký kraj","name":"Újezd","lat":"49.76397000","lon":"17.18040000"},
{"state":"Olomoucký kraj","name":"Uničov","lat":"49.77092000","lon":"17.12144000"},
{"state":"Olomoucký kraj","name":"Určice","lat":"49.43045000","lon":"17.07291000"},
{"state":"Olomoucký kraj","name":"Úsov","lat":"49.79831000","lon":"17.01055000"},
{"state":"Olomoucký kraj","name":"Vápenná","lat":"50.28338000","lon":"17.09762000"},
{"state":"Olomoucký kraj","name":"Velká Bystřice","lat":"49.59480000","lon":"17.36544000"},
{"state":"Olomoucký kraj","name":"Velké Losiny","lat":"50.03197000","lon":"17.04058000"},
{"state":"Olomoucký kraj","name":"Velký Týnec","lat":"49.54994000","lon":"17.33359000"},
{"state":"Olomoucký kraj","name":"Velký Újezd","lat":"49.57858000","lon":"17.48347000"},
{"state":"Olomoucký kraj","name":"Věrovany","lat":"49.46109000","lon":"17.28795000"},
{"state":"Olomoucký kraj","name":"Vidnava","lat":"50.37234000","lon":"17.18626000"},
{"state":"Olomoucký kraj","name":"Vikýřovice","lat":"49.97792000","lon":"17.01234000"},
{"state":"Olomoucký kraj","name":"Vrbátky","lat":"49.50805000","lon":"17.19994000"},
{"state":"Olomoucký kraj","name":"Zábřeh","lat":"49.88260000","lon":"16.87223000"},
{"state":"Olomoucký kraj","name":"Zlaté Hory","lat":"50.26380000","lon":"17.39602000"},
{"state":"Olomoucký kraj","name":"Žulová","lat":"50.30933000","lon":"17.09871000"},
{"state":"Pardubický kraj","name":"Brandýs nad Orlicí","lat":"50.00194000","lon":"16.28528000"},
{"state":"Pardubický kraj","name":"Březová nad Svitavou","lat":"49.64418000","lon":"16.51799000"},
{"state":"Pardubický kraj","name":"Brněnec","lat":"49.62735000","lon":"16.52202000"},
{"state":"Pardubický kraj","name":"Býšť","lat":"50.13243000","lon":"15.91116000"},
{"state":"Pardubický kraj","name":"Bystré","lat":"49.62846000","lon":"16.34679000"},
{"state":"Pardubický kraj","name":"Bystřec","lat":"50.01168000","lon":"16.61900000"},
{"state":"Pardubický kraj","name":"Červená Voda","lat":"50.04029000","lon":"16.74268000"},
{"state":"Pardubický kraj","name":"Česká Třebová","lat":"49.90436000","lon":"16.44413000"},
{"state":"Pardubický kraj","name":"Choceň","lat":"50.00161000","lon":"16.22303000"},
{"state":"Pardubický kraj","name":"Chrast","lat":"49.90205000","lon":"15.93396000"},
{"state":"Pardubický kraj","name":"Chroustovice","lat":"49.95553000","lon":"15.99143000"},
{"state":"Pardubický kraj","name":"Chrudim","lat":"49.95109000","lon":"15.79558000"},
{"state":"Pardubický kraj","name":"Chvaletice","lat":"50.03443000","lon":"15.41846000"},
{"state":"Pardubický kraj","name":"Dašice","lat":"50.02844000","lon":"15.91244000"},
{"state":"Pardubický kraj","name":"Dlouhá Třebová","lat":"49.94040000","lon":"16.42329000"},
{"state":"Pardubický kraj","name":"Dolní Čermná","lat":"49.97954000","lon":"16.56475000"},
{"state":"Pardubický kraj","name":"Dolní Dobrouč","lat":"49.99273000","lon":"16.49766000"},
{"state":"Pardubický kraj","name":"Dolní Roveň","lat":"50.02927000","lon":"15.96774000"},
{"state":"Pardubický kraj","name":"Dolní Sloupnice","lat":"49.92721000","lon":"16.29401000"},
{"state":"Pardubický kraj","name":"Dolní Újezd","lat":"49.82562000","lon":"16.25461000"},
{"state":"Pardubický kraj","name":"Heřmanův Městec","lat":"49.94707000","lon":"15.66492000"},
{"state":"Pardubický kraj","name":"Hlinsko","lat":"49.76213000","lon":"15.90756000"},
{"state":"Pardubický kraj","name":"Holice","lat":"50.06601000","lon":"15.98590000"},
{"state":"Pardubický kraj","name":"Horní Čermná","lat":"49.97053000","lon":"16.60772000"},
{"state":"Pardubický kraj","name":"Horní Jelení","lat":"50.04901000","lon":"16.08396000"},
{"state":"Pardubický kraj","name":"Horní Sloupnice","lat":"49.92138000","lon":"16.33948000"},
{"state":"Pardubický kraj","name":"Hradec nad Svitavou","lat":"49.71143000","lon":"16.48058000"},
{"state":"Pardubický kraj","name":"Hrochův Týnec","lat":"49.95946000","lon":"15.91054000"},
{"state":"Pardubický kraj","name":"Jablonné nad Orlicí","lat":"50.02964000","lon":"16.60059000"},
{"state":"Pardubický kraj","name":"Jaroměřice","lat":"49.62556000","lon":"16.75185000"},
{"state":"Pardubický kraj","name":"Jedlová","lat":"49.66100000","lon":"16.30608000"},
{"state":"Pardubický kraj","name":"Jevíčko","lat":"49.63220000","lon":"16.71125000"},
{"state":"Pardubický kraj","name":"Králíky","lat":"50.08384000","lon":"16.76054000"},
{"state":"Pardubický kraj","name":"Krouna","lat":"49.77240000","lon":"16.02674000"},
{"state":"Pardubický kraj","name":"Kunčina","lat":"49.79455000","lon":"16.62763000"},
{"state":"Pardubický kraj","name":"Kunvald","lat":"50.12927000","lon":"16.49996000"},
{"state":"Pardubický kraj","name":"Lanškroun","lat":"49.91217000","lon":"16.61190000"},
{"state":"Pardubický kraj","name":"Lázně Bohdaneč","lat":"50.07560000","lon":"15.67978000"},
{"state":"Pardubický kraj","name":"Letohrad","lat":"50.03580000","lon":"16.49879000"},
{"state":"Pardubický kraj","name":"Litomyšl","lat":"49.86809000","lon":"16.31298000"},
{"state":"Pardubický kraj","name":"Lukavice","lat":"50.06029000","lon":"16.48207000"},
{"state":"Pardubický kraj","name":"Luže","lat":"49.89341000","lon":"16.02850000"},
{"state":"Pardubický kraj","name":"Městečko Trnávka","lat":"49.70926000","lon":"16.72744000"},
{"state":"Pardubický kraj","name":"Miřetice","lat":"49.84126000","lon":"15.88472000"},
{"state":"Pardubický kraj","name":"Moravany","lat":"50.00095000","lon":"15.94071000"},
{"state":"Pardubický kraj","name":"Moravská Třebová","lat":"49.75793000","lon":"16.66426000"},
{"state":"Pardubický kraj","name":"Nasavrky","lat":"49.84450000","lon":"15.80461000"},
{"state":"Pardubický kraj","name":"Okres Chrudim","lat":"49.83333000","lon":"15.83333000"},
{"state":"Pardubický kraj","name":"Okres Pardubice","lat":"50.08333000","lon":"15.75000000"},
{"state":"Pardubický kraj","name":"Okres Svitavy","lat":"49.73333000","lon":"16.50000000"},
{"state":"Pardubický kraj","name":"Okres Ústí nad Orlicí","lat":"50.00000000","lon":"16.53333000"},
{"state":"Pardubický kraj","name":"Opatov","lat":"49.82500000","lon":"16.50458000"},
{"state":"Pardubický kraj","name":"Opatovice nad Labem","lat":"50.14541000","lon":"15.79045000"},
{"state":"Pardubický kraj","name":"Osík","lat":"49.84355000","lon":"16.28467000"},
{"state":"Pardubický kraj","name":"Pardubice","lat":"50.04075000","lon":"15.77659000"},
{"state":"Pardubický kraj","name":"Polička","lat":"49.71465000","lon":"16.26543000"},
{"state":"Pardubický kraj","name":"Pomezí","lat":"49.71026000","lon":"16.31729000"},
{"state":"Pardubický kraj","name":"Prachovice","lat":"49.89379000","lon":"15.62872000"},
{"state":"Pardubický kraj","name":"Přelouč","lat":"50.03985000","lon":"15.56031000"},
{"state":"Pardubický kraj","name":"Proseč","lat":"49.80590000","lon":"16.11621000"},
{"state":"Pardubický kraj","name":"Radiměř","lat":"49.69850000","lon":"16.44070000"},
{"state":"Pardubický kraj","name":"Řečany nad Labem","lat":"50.03589000","lon":"15.47735000"},
{"state":"Pardubický kraj","name":"Ronov nad Doubravou","lat":"49.88825000","lon":"15.53144000"},
{"state":"Pardubický kraj","name":"Rosice","lat":"49.92226000","lon":"15.95127000"},
{"state":"Pardubický kraj","name":"Rybitví","lat":"50.06015000","lon":"15.70472000"},
{"state":"Pardubický kraj","name":"Seč","lat":"49.84694000","lon":"15.65643000"},
{"state":"Pardubický kraj","name":"Sezemice","lat":"50.06651000","lon":"15.85270000"},
{"state":"Pardubický kraj","name":"Skuteč","lat":"49.84347000","lon":"15.99655000"},
{"state":"Pardubický kraj","name":"Slatiňany","lat":"49.92110000","lon":"15.81377000"},
{"state":"Pardubický kraj","name":"Staré Hradiště","lat":"50.06540000","lon":"15.77885000"},
{"state":"Pardubický kraj","name":"Svitavy","lat":"49.75594000","lon":"16.46829000"},
{"state":"Pardubický kraj","name":"Třemošnice","lat":"49.86912000","lon":"15.58002000"},
{"state":"Pardubický kraj","name":"Ústí nad Orlicí","lat":"49.97387000","lon":"16.39361000"},
{"state":"Pardubický kraj","name":"Vysoké Mýto","lat":"49.95320000","lon":"16.16169000"},
{"state":"Pardubický kraj","name":"Žamberk","lat":"50.08601000","lon":"16.46738000"},
{"state":"Plzeň-jih","name":"Bělá nad Radbuzou","lat":"49.59115000","lon":"12.71761000"},
{"state":"Plzeň-jih","name":"Bezdružice","lat":"49.90724000","lon":"12.97110000"},
{"state":"Plzeň-jih","name":"Blížejov","lat":"49.50000000","lon":"12.98926000"},
{"state":"Plzeň-jih","name":"Blovice","lat":"49.58220000","lon":"13.54009000"},
{"state":"Plzeň-jih","name":"Bor","lat":"49.71159000","lon":"12.77516000"},
{"state":"Plzeň-jih","name":"Břasy","lat":"49.83700000","lon":"13.57833000"},
{"state":"Plzeň-jih","name":"Černošín","lat":"49.81613000","lon":"12.88381000"},
{"state":"Plzeň-jih","name":"Chlumčany","lat":"49.63256000","lon":"13.31323000"},
{"state":"Plzeň-jih","name":"Chodová Planá","lat":"49.89321000","lon":"12.73014000"},
{"state":"Plzeň-jih","name":"Chotěšov","lat":"49.65408000","lon":"13.20271000"},
{"state":"Plzeň-jih","name":"Chrást","lat":"49.79320000","lon":"13.49358000"},
{"state":"Plzeň-jih","name":"Dobřany","lat":"49.65482000","lon":"13.29307000"},
{"state":"Plzeň-jih","name":"Dobřív","lat":"49.71566000","lon":"13.68681000"},
{"state":"Plzeň-jih","name":"Domažlice","lat":"49.44049000","lon":"12.92976000"},
{"state":"Plzeň-jih","name":"Dýšina","lat":"49.77735000","lon":"13.49150000"},
{"state":"Plzeň-jih","name":"Hartmanice","lat":"49.16948000","lon":"13.45455000"},
{"state":"Plzeň-jih","name":"Heřmanova Huť","lat":"49.70679000","lon":"13.10069000"},
{"state":"Plzeň-jih","name":"Holoubkov","lat":"49.77598000","lon":"13.69246000"},
{"state":"Plzeň-jih","name":"Holýšov","lat":"49.59361000","lon":"13.10129000"},
{"state":"Plzeň-jih","name":"Horažďovice","lat":"49.32069000","lon":"13.70100000"},
{"state":"Plzeň-jih","name":"Horní Bříza","lat":"49.84012000","lon":"13.35558000"},
{"state":"Plzeň-jih","name":"Horšovský Týn","lat":"49.52965000","lon":"12.94405000"},
{"state":"Plzeň-jih","name":"Hostouň","lat":"49.55971000","lon":"12.77147000"},
{"state":"Plzeň-jih","name":"Hrádek","lat":"49.71316000","lon":"13.65296000"},
{"state":"Plzeň-jih","name":"Hromnice","lat":"49.84907000","lon":"13.44146000"},
{"state":"Plzeň-jih","name":"Janovice nad Úhlavou","lat":"49.34515000","lon":"13.21813000"},
{"state":"Plzeň-jih","name":"Kasejovice","lat":"49.46270000","lon":"13.74060000"},
{"state":"Plzeň-jih","name":"Kašperské Hory","lat":"49.14289000","lon":"13.55616000"},
{"state":"Plzeň-jih","name":"Kaznějov","lat":"49.89313000","lon":"13.38295000"},
{"state":"Plzeň-jih","name":"Kdyně","lat":"49.39077000","lon":"13.03968000"},
{"state":"Plzeň-jih","name":"Kladruby","lat":"49.71498000","lon":"12.98232000"},
{"state":"Plzeň-jih","name":"Klatovy","lat":"49.39552000","lon":"13.29505000"},
{"state":"Plzeň-jih","name":"Klenčí pod Čerchovem","lat":"49.43484000","lon":"12.81473000"},
{"state":"Plzeň-jih","name":"Kolinec","lat":"49.29895000","lon":"13.43900000"},
{"state":"Plzeň-jih","name":"Kout na Šumavě","lat":"49.40255000","lon":"13.00208000"},
{"state":"Plzeň-jih","name":"Kožlany","lat":"49.99389000","lon":"13.54107000"},
{"state":"Plzeň-jih","name":"Kralovice","lat":"49.98192000","lon":"13.48747000"},
{"state":"Plzeň-jih","name":"Líně","lat":"49.69472000","lon":"13.25693000"},
{"state":"Plzeň-jih","name":"Manětín","lat":"49.99177000","lon":"13.23319000"},
{"state":"Plzeň-jih","name":"Měčín","lat":"49.48009000","lon":"13.40289000"},
{"state":"Plzeň-jih","name":"Meclov","lat":"49.50556000","lon":"12.88082000"},
{"state":"Plzeň-jih","name":"Merklín","lat":"49.56043000","lon":"13.19790000"},
{"state":"Plzeň-jih","name":"Město Touškov","lat":"49.77587000","lon":"13.25108000"},
{"state":"Plzeň-jih","name":"Mirošov","lat":"49.68782000","lon":"13.65807000"},
{"state":"Plzeň-jih","name":"Mrákov","lat":"49.40314000","lon":"12.95120000"},
{"state":"Plzeň-jih","name":"Mýto","lat":"49.78904000","lon":"13.73461000"},
{"state":"Plzeň-jih","name":"Nepomuk","lat":"49.48616000","lon":"13.58225000"},
{"state":"Plzeň-jih","name":"Nezvěstice","lat":"49.64043000","lon":"13.51962000"},
{"state":"Plzeň-jih","name":"Nýřany","lat":"49.71145000","lon":"13.21185000"},
{"state":"Plzeň-jih","name":"Nýrsko","lat":"49.29387000","lon":"13.14353000"},
{"state":"Plzeň-jih","name":"Okres Domažlice","lat":"49.50000000","lon":"12.91667000"},
{"state":"Plzeň-jih","name":"Okres Klatovy","lat":"49.25000000","lon":"13.41667000"},
{"state":"Plzeň-jih","name":"Okres Plzeň-jih","lat":"49.58333000","lon":"13.50000000"},
{"state":"Plzeň-jih","name":"Okres Plzeň-město","lat":"49.75000000","lon":"13.36667000"},
{"state":"Plzeň-jih","name":"Okres Plzeň-sever","lat":"49.91667000","lon":"13.25000000"},
{"state":"Plzeň-jih","name":"Okres Rokycany","lat":"49.78333000","lon":"13.66667000"},
{"state":"Plzeň-jih","name":"Okres Tachov","lat":"49.76667000","lon":"12.75000000"},
{"state":"Plzeň-jih","name":"Osek","lat":"49.77594000","lon":"13.59060000"},
{"state":"Plzeň-jih","name":"Pilsen","lat":"49.74747000","lon":"13.37759000"},
{"state":"Plzeň-jih","name":"Planá","lat":"49.86816000","lon":"12.74378000"},
{"state":"Plzeň-jih","name":"Plánice","lat":"49.38993000","lon":"13.47106000"},
{"state":"Plzeň-jih","name":"Plasy","lat":"49.93449000","lon":"13.39035000"},
{"state":"Plzeň-jih","name":"Poběžovice","lat":"49.51029000","lon":"12.80261000"},
{"state":"Plzeň-jih","name":"Postřekov","lat":"49.45827000","lon":"12.80678000"},
{"state":"Plzeň-jih","name":"Přeštice","lat":"49.57298000","lon":"13.33350000"},
{"state":"Plzeň-jih","name":"Přimda","lat":"49.67488000","lon":"12.67366000"},
{"state":"Plzeň-jih","name":"Radnice","lat":"49.85677000","lon":"13.60570000"},
{"state":"Plzeň-jih","name":"Rokycany","lat":"49.74270000","lon":"13.59459000"},
{"state":"Plzeň-jih","name":"Spálené Poříčí","lat":"49.61371000","lon":"13.60556000"},
{"state":"Plzeň-jih","name":"Šťáhlavy","lat":"49.67555000","lon":"13.50394000"},
{"state":"Plzeň-jih","name":"Staňkov","lat":"49.55348000","lon":"13.06976000"},
{"state":"Plzeň-jih","name":"Starý Plzenec","lat":"49.69768000","lon":"13.47350000"},
{"state":"Plzeň-jih","name":"Štěnovice","lat":"49.67051000","lon":"13.39963000"},
{"state":"Plzeň-jih","name":"Stod","lat":"49.63909000","lon":"13.16474000"},
{"state":"Plzeň-jih","name":"Strašice","lat":"49.73552000","lon":"13.75755000"},
{"state":"Plzeň-jih","name":"Stráž","lat":"49.66878000","lon":"12.77546000"},
{"state":"Plzeň-jih","name":"Strážov","lat":"49.30326000","lon":"13.24623000"},
{"state":"Plzeň-jih","name":"Stříbro","lat":"49.75565000","lon":"12.99700000"},
{"state":"Plzeň-jih","name":"Sušice","lat":"49.23106000","lon":"13.52018000"},
{"state":"Plzeň-jih","name":"Švihov","lat":"49.48136000","lon":"13.28417000"},
{"state":"Plzeň-jih","name":"Tachov","lat":"49.79528000","lon":"12.63365000"},
{"state":"Plzeň-jih","name":"Tlučná","lat":"49.72425000","lon":"13.23534000"},
{"state":"Plzeň-jih","name":"Třemošná","lat":"49.81584000","lon":"13.39499000"},
{"state":"Plzeň-jih","name":"Vejprnice","lat":"49.72988000","lon":"13.27628000"},
{"state":"Plzeň-jih","name":"Všeruby","lat":"49.84167000","lon":"13.22943000"},
{"state":"Plzeň-jih","name":"Zbiroh","lat":"49.86024000","lon":"13.77262000"},
{"state":"Plzeň-jih","name":"Zbůch","lat":"49.67840000","lon":"13.22564000"},
{"state":"Plzeň-jih","name":"Železná Ruda","lat":"49.13743000","lon":"13.23520000"},
{"state":"Plzeň-jih","name":"Žihle","lat":"50.04491000","lon":"13.37502000"},
{"state":"Praha, Hlavní město","name":"Braník","lat":"50.03498000","lon":"14.41518000"},
{"state":"Praha, Hlavní město","name":"Černý Most","lat":"50.10475000","lon":"14.57974000"},
{"state":"Praha, Hlavní město","name":"Dolní Počernice","lat":"50.08760000","lon":"14.57199000"},
{"state":"Praha, Hlavní město","name":"Hodkovičky","lat":"50.02346000","lon":"14.41415000"},
{"state":"Praha, Hlavní město","name":"Horní Počernice","lat":"50.11210000","lon":"14.61036000"},
{"state":"Praha, Hlavní město","name":"Hostavice","lat":"50.09283000","lon":"14.55822000"},
{"state":"Praha, Hlavní město","name":"Karlín","lat":"50.09272000","lon":"14.44711000"},
{"state":"Praha, Hlavní město","name":"Kbely","lat":"50.13333000","lon":"14.55000000"},
{"state":"Praha, Hlavní město","name":"Letňany","lat":"50.13333000","lon":"14.51667000"},
{"state":"Praha, Hlavní město","name":"Libeň","lat":"50.10819000","lon":"14.47457000"},
{"state":"Praha, Hlavní město","name":"Malá Strana","lat":"50.08774000","lon":"14.40449000"},
{"state":"Praha, Hlavní město","name":"Modřany","lat":"50.01116000","lon":"14.40960000"},
{"state":"Praha, Hlavní město","name":"Prague","lat":"50.08804000","lon":"14.42076000"},
{"state":"Praha, Hlavní město","name":"Praha 1","lat":"50.08802000","lon":"14.42166000"},
{"state":"Praha, Hlavní město","name":"Praha 16","lat":"49.98357000","lon":"14.36110000"},
{"state":"Praha, Hlavní město","name":"Praha 20","lat":"50.11568000","lon":"14.61122000"},
{"state":"Praha, Hlavní město","name":"Praha 21","lat":"50.07521000","lon":"14.66898000"},
{"state":"Praha, Hlavní město","name":"Prosek","lat":"50.11525000","lon":"14.50685000"},
{"state":"Praha, Hlavní město","name":"Satalice","lat":"50.12484000","lon":"14.57191000"},
{"state":"Praha, Hlavní město","name":"Staré Město","lat":"50.08700000","lon":"14.42024000"},
{"state":"Praha, Hlavní město","name":"Střížkov","lat":"50.12674000","lon":"14.49363000"},
{"state":"Praha, Hlavní město","name":"Vysehrad","lat":"50.06509000","lon":"14.41711000"},
{"state":"Praha, Hlavní město","name":"Vysočany","lat":"50.10938000","lon":"14.51667000"},
{"state":"Středočeský kraj","name":"Bakov nad Jizerou","lat":"50.48230000","lon":"14.94149000"},
{"state":"Středočeský kraj","name":"Bělá pod Bezdězem","lat":"50.50121000","lon":"14.80418000"},
{"state":"Středočeský kraj","name":"Benátky nad Jizerou","lat":"50.29085000","lon":"14.82343000"},
{"state":"Středočeský kraj","name":"Benešov","lat":"49.78162000","lon":"14.68697000"},
{"state":"Středočeský kraj","name":"Beroun","lat":"49.96382000","lon":"14.07200000"},
{"state":"Středočeský kraj","name":"Bohutín","lat":"49.65551000","lon":"13.94389000"},
{"state":"Středočeský kraj","name":"Brandýs nad Labem-Stará Boleslav","lat":"50.18709000","lon":"14.66326000"},
{"state":"Středočeský kraj","name":"Brandýsek","lat":"50.18923000","lon":"14.16199000"},
{"state":"Středočeský kraj","name":"Březnice","lat":"49.55763000","lon":"13.95063000"},
{"state":"Středočeský kraj","name":"Buštěhrad","lat":"50.15594000","lon":"14.18897000"},
{"state":"Středočeský kraj","name":"Byšice","lat":"50.31044000","lon":"14.61136000"},
{"state":"Středočeský kraj","name":"Bystřice","lat":"49.73213000","lon":"14.66740000"},
{"state":"Středočeský kraj","name":"Čáslav","lat":"49.91099000","lon":"15.38972000"},
{"state":"Středočeský kraj","name":"Čechtice","lat":"49.62403000","lon":"15.04824000"},
{"state":"Středočeský kraj","name":"Čelákovice","lat":"50.16038000","lon":"14.75005000"},
{"state":"Středočeský kraj","name":"Čerčany","lat":"49.85293000","lon":"14.70299000"},
{"state":"Středočeský kraj","name":"Cerhenice","lat":"50.07127000","lon":"15.07203000"},
{"state":"Středočeský kraj","name":"Černošice","lat":"49.96008000","lon":"14.31979000"},
{"state":"Středočeský kraj","name":"Červené Pečky","lat":"49.97822000","lon":"15.20856000"},
{"state":"Středočeský kraj","name":"Český Brod","lat":"50.07420000","lon":"14.86081000"},
{"state":"Středočeský kraj","name":"Chyňava","lat":"50.02736000","lon":"14.07398000"},
{"state":"Středočeský kraj","name":"Církvice","lat":"49.94560000","lon":"15.33505000"},
{"state":"Středočeský kraj","name":"Cítov","lat":"50.37225000","lon":"14.39813000"},
{"state":"Středočeský kraj","name":"Davle","lat":"49.89218000","lon":"14.40037000"},
{"state":"Středočeský kraj","name":"Divišov","lat":"49.78849000","lon":"14.87579000"},
{"state":"Středočeský kraj","name":"Dobřichovice","lat":"49.92749000","lon":"14.27469000"},
{"state":"Středočeský kraj","name":"Dobříš","lat":"49.78113000","lon":"14.16717000"},
{"state":"Středočeský kraj","name":"Dobrovice","lat":"50.36933000","lon":"14.96233000"},
{"state":"Středočeský kraj","name":"Doksy","lat":"50.11900000","lon":"14.04782000"},
{"state":"Středočeský kraj","name":"Dolní Beřkovice","lat":"50.39313000","lon":"14.45024000"},
{"state":"Středočeský kraj","name":"Dolní Bousov","lat":"50.43825000","lon":"15.12812000"},
{"state":"Středočeský kraj","name":"Dolní Břežany","lat":"49.96321000","lon":"14.45850000"},
{"state":"Středočeský kraj","name":"Horní Počaply","lat":"50.42440000","lon":"14.38993000"},
{"state":"Středočeský kraj","name":"Horoměřice","lat":"50.13173000","lon":"14.33879000"},
{"state":"Středočeský kraj","name":"Hořovice","lat":"49.83597000","lon":"13.90268000"},
{"state":"Středočeský kraj","name":"Hostivice","lat":"50.08158000","lon":"14.25856000"},
{"state":"Středočeský kraj","name":"Hostomice","lat":"49.82526000","lon":"14.04560000"},
{"state":"Středočeský kraj","name":"Hovorčovice","lat":"50.17866000","lon":"14.51789000"},
{"state":"Středočeský kraj","name":"Hradištko","lat":"49.86828000","lon":"14.40935000"},
{"state":"Středočeský kraj","name":"Hřebeč","lat":"50.13595000","lon":"14.16446000"},
{"state":"Středočeský kraj","name":"Hudlice","lat":"49.96096000","lon":"13.97063000"},
{"state":"Středočeský kraj","name":"Hýskov","lat":"49.99072000","lon":"14.05055000"},
{"state":"Středočeský kraj","name":"Jeneč","lat":"50.08730000","lon":"14.21482000"},
{"state":"Středočeský kraj","name":"Jesenice","lat":"49.96814000","lon":"14.51350000"},
{"state":"Středočeský kraj","name":"Jílové u Prahy","lat":"49.89545000","lon":"14.49333000"},
{"state":"Středočeský kraj","name":"Jince","lat":"49.78624000","lon":"13.97867000"},
{"state":"Středočeský kraj","name":"Jirny","lat":"50.11578000","lon":"14.69923000"},
{"state":"Středočeský kraj","name":"Kačice","lat":"50.16261000","lon":"13.98815000"},
{"state":"Středočeský kraj","name":"Kamenice","lat":"49.90151000","lon":"14.58242000"},
{"state":"Středočeský kraj","name":"Kamenné Žehrovice","lat":"50.12697000","lon":"14.01809000"},
{"state":"Středočeský kraj","name":"Kamenný Přívoz","lat":"49.86299000","lon":"14.50339000"},
{"state":"Středočeský kraj","name":"Kladno","lat":"50.14734000","lon":"14.10285000"},
{"state":"Středočeský kraj","name":"Klecany","lat":"50.17599000","lon":"14.41148000"},
{"state":"Středočeský kraj","name":"Klobuky","lat":"50.29401000","lon":"13.98748000"},
{"state":"Středočeský kraj","name":"Kněžmost","lat":"50.48917000","lon":"15.03829000"},
{"state":"Středočeský kraj","name":"Kolín","lat":"50.02806000","lon":"15.19980000"},
{"state":"Středočeský kraj","name":"Komárov","lat":"49.80650000","lon":"13.85636000"},
{"state":"Středočeský kraj","name":"Kosmonosy","lat":"50.43850000","lon":"14.93000000"},
{"state":"Středočeský kraj","name":"Kosova Hora","lat":"49.65414000","lon":"14.47173000"},
{"state":"Středočeský kraj","name":"Kostelec nad Černými Lesy","lat":"49.99403000","lon":"14.85922000"},
{"state":"Středočeský kraj","name":"Kostelec nad Labem","lat":"50.22653000","lon":"14.58552000"},
{"state":"Středočeský kraj","name":"Kouřim","lat":"50.00306000","lon":"14.97703000"},
{"state":"Středočeský kraj","name":"Kralupy nad Vltavou","lat":"50.24107000","lon":"14.31149000"},
{"state":"Středočeský kraj","name":"Králův Dvůr","lat":"49.94981000","lon":"14.03445000"},
{"state":"Středočeský kraj","name":"Krásná Hora nad Vltavou","lat":"49.60461000","lon":"14.27742000"},
{"state":"Středočeský kraj","name":"Křinec","lat":"50.26449000","lon":"15.13782000"},
{"state":"Středočeský kraj","name":"Kutná Hora","lat":"49.94839000","lon":"15.26816000"},
{"state":"Středočeský kraj","name":"Lány","lat":"50.12471000","lon":"13.95041000"},
{"state":"Středočeský kraj","name":"Libčice nad Vltavou","lat":"50.19778000","lon":"14.36385000"},
{"state":"Středočeský kraj","name":"Líbeznice","lat":"50.19198000","lon":"14.49357000"},
{"state":"Středočeský kraj","name":"Libice nad Cidlinou","lat":"50.12677000","lon":"15.17820000"},
{"state":"Středočeský kraj","name":"Libiš","lat":"50.27417000","lon":"14.50240000"},
{"state":"Středočeský kraj","name":"Libušín","lat":"50.16819000","lon":"14.05458000"},
{"state":"Středočeský kraj","name":"Lochovice","lat":"49.85318000","lon":"13.98126000"},
{"state":"Středočeský kraj","name":"Loděnice","lat":"49.99486000","lon":"14.15785000"},
{"state":"Středočeský kraj","name":"Loučeň","lat":"50.28537000","lon":"15.02049000"},
{"state":"Středočeský kraj","name":"Luštěnice","lat":"50.32296000","lon":"14.93667000"},
{"state":"Středočeský kraj","name":"Lužec nad Vltavou","lat":"50.32138000","lon":"14.40022000"},
{"state":"Středočeský kraj","name":"Lužná","lat":"50.12377000","lon":"13.77004000"},
{"state":"Středočeský kraj","name":"Lysá nad Labem","lat":"50.20143000","lon":"14.83281000"},
{"state":"Středočeský kraj","name":"Mělník","lat":"50.35050000","lon":"14.47411000"},
{"state":"Středočeský kraj","name":"Měšice","lat":"50.19799000","lon":"14.51992000"},
{"state":"Středočeský kraj","name":"Městec Králové","lat":"50.20718000","lon":"15.29758000"},
{"state":"Středočeský kraj","name":"Milín","lat":"49.63192000","lon":"14.04600000"},
{"state":"Středočeský kraj","name":"Milovice","lat":"50.22596000","lon":"14.88863000"},
{"state":"Středočeský kraj","name":"Mladá Boleslav","lat":"50.41135000","lon":"14.90318000"},
{"state":"Středočeský kraj","name":"Mnichovice","lat":"49.93601000","lon":"14.70907000"},
{"state":"Středočeský kraj","name":"Mnichovo Hradiště","lat":"50.52720000","lon":"14.97134000"},
{"state":"Středočeský kraj","name":"Mníšek pod Brdy","lat":"49.86650000","lon":"14.26176000"},
{"state":"Středočeský kraj","name":"Mšeno","lat":"50.43809000","lon":"14.63250000"},
{"state":"Středočeský kraj","name":"Mukařov","lat":"49.99115000","lon":"14.74155000"},
{"state":"Středočeský kraj","name":"Načeradec","lat":"49.61018000","lon":"14.90633000"},
{"state":"Středočeský kraj","name":"Nehvizdy","lat":"50.13056000","lon":"14.72993000"},
{"state":"Středočeský kraj","name":"Nelahozeves","lat":"50.26148000","lon":"14.29881000"},
{"state":"Středočeský kraj","name":"Neratovice","lat":"50.25926000","lon":"14.51759000"},
{"state":"Středočeský kraj","name":"Netvořice","lat":"49.81569000","lon":"14.51827000"},
{"state":"Středočeský kraj","name":"Neveklov","lat":"49.75373000","lon":"14.53291000"},
{"state":"Středočeský kraj","name":"Nižbor","lat":"49.99995000","lon":"14.00237000"},
{"state":"Středočeský kraj","name":"Nové Strašecí","lat":"50.15272000","lon":"13.90043000"},
{"state":"Středočeský kraj","name":"Nový Knín","lat":"49.78800000","lon":"14.29355000"},
{"state":"Středočeský kraj","name":"Nymburk","lat":"50.18605000","lon":"15.04167000"},
{"state":"Středočeský kraj","name":"Obecnice","lat":"49.71615000","lon":"13.94731000"},
{"state":"Středočeský kraj","name":"Odolena Voda","lat":"50.23341000","lon":"14.41078000"},
{"state":"Středočeský kraj","name":"Okres Benešov","lat":"49.66667000","lon":"14.75000000"},
{"state":"Středočeský kraj","name":"Okres Beroun","lat":"49.83333000","lon":"14.08333000"},
{"state":"Středočeský kraj","name":"Okres Kladno","lat":"50.16667000","lon":"14.16667000"},
{"state":"Středočeský kraj","name":"Okres Kolín","lat":"50.00000000","lon":"15.00000000"},
{"state":"Středočeský kraj","name":"Okres Kutná Hora","lat":"49.83333000","lon":"15.25000000"},
{"state":"Středočeský kraj","name":"Okres Mělník","lat":"50.33333000","lon":"14.50000000"},
{"state":"Středočeský kraj","name":"Okres Mladá Boleslav","lat":"50.41667000","lon":"14.91667000"},
{"state":"Středočeský kraj","name":"Okres Nymburk","lat":"50.16667000","lon":"15.16667000"},
{"state":"Středočeský kraj","name":"Okres Praha-východ","lat":"50.11768000","lon":"14.70836000"},
{"state":"Středočeský kraj","name":"Okres Praha-západ","lat":"49.83333000","lon":"14.33333000"},
{"state":"Středočeský kraj","name":"Okres Příbram","lat":"49.66667000","lon":"14.16667000"},
{"state":"Středočeský kraj","name":"Okres Rakovník","lat":"50.10000000","lon":"13.70000000"},
{"state":"Středočeský kraj","name":"Ondřejov","lat":"49.90461000","lon":"14.78420000"},
{"state":"Středočeský kraj","name":"Pavlíkov","lat":"50.05599000","lon":"13.73636000"},
{"state":"Středočeský kraj","name":"Pchery","lat":"50.19378000","lon":"14.11782000"},
{"state":"Středočeský kraj","name":"Pečky","lat":"50.09043000","lon":"15.03017000"},
{"state":"Středočeský kraj","name":"Petrovice","lat":"49.55426000","lon":"14.33737000"},
{"state":"Středočeský kraj","name":"Plaňany","lat":"50.05010000","lon":"15.02944000"},
{"state":"Středočeský kraj","name":"Poděbrady","lat":"50.14242000","lon":"15.11881000"},
{"state":"Středočeský kraj","name":"Poříčany","lat":"50.10806000","lon":"14.91818000"},
{"state":"Středočeský kraj","name":"Poříčí nad Sázavou","lat":"49.83895000","lon":"14.67446000"},
{"state":"Středočeský kraj","name":"Postupice","lat":"49.72798000","lon":"14.77722000"},
{"state":"Středočeský kraj","name":"Přerov nad Labem","lat":"50.16027000","lon":"14.82502000"},
{"state":"Středočeský kraj","name":"Příbram","lat":"49.68988000","lon":"14.01043000"},
{"state":"Středočeský kraj","name":"Průhonice","lat":"49.99962000","lon":"14.55017000"},
{"state":"Středočeský kraj","name":"Psáry","lat":"49.93622000","lon":"14.51276000"},
{"state":"Středočeský kraj","name":"Pyšely","lat":"49.87678000","lon":"14.67713000"},
{"state":"Středočeský kraj","name":"Rakovník","lat":"50.10370000","lon":"13.73340000"},
{"state":"Středočeský kraj","name":"Řevnice","lat":"49.91395000","lon":"14.23589000"},
{"state":"Středočeský kraj","name":"Řevničov","lat":"50.18489000","lon":"13.80823000"},
{"state":"Středočeský kraj","name":"Řež","lat":"50.17734000","lon":"14.35733000"},
{"state":"Středočeský kraj","name":"Říčany","lat":"49.99168000","lon":"14.65427000"},
{"state":"Středočeský kraj","name":"Rožďalovice","lat":"50.30476000","lon":"15.16962000"},
{"state":"Středočeský kraj","name":"Rožmitál pod Třemšínem","lat":"49.60196000","lon":"13.86430000"},
{"state":"Středočeský kraj","name":"Roztoky","lat":"50.15841000","lon":"14.39760000"},
{"state":"Středočeský kraj","name":"Rudná","lat":"50.03502000","lon":"14.23435000"},
{"state":"Středočeský kraj","name":"Sadská","lat":"50.13596000","lon":"14.98633000"},
{"state":"Středočeský kraj","name":"Sázava","lat":"49.87164000","lon":"14.89674000"},
{"state":"Středočeský kraj","name":"Sedlčany","lat":"49.66057000","lon":"14.42664000"},
{"state":"Středočeský kraj","name":"Sedlec","lat":"49.96391000","lon":"15.28846000"},
{"state":"Středočeský kraj","name":"Šestajovice","lat":"50.10845000","lon":"14.68013000"},
{"state":"Středočeský kraj","name":"Slaný","lat":"50.23046000","lon":"14.08693000"},
{"state":"Středočeský kraj","name":"Smečno","lat":"50.18844000","lon":"14.04037000"},
{"state":"Středočeský kraj","name":"Stará Huť","lat":"49.78225000","lon":"14.19735000"},
{"state":"Středočeský kraj","name":"Starý Kolín","lat":"50.00977000","lon":"15.29388000"},
{"state":"Středočeský kraj","name":"Štěchovice","lat":"49.85109000","lon":"14.40543000"},
{"state":"Středočeský kraj","name":"Stochov","lat":"50.14631000","lon":"13.96345000"},
{"state":"Středočeský kraj","name":"Strančice","lat":"49.94811000","lon":"14.67745000"},
{"state":"Středočeský kraj","name":"Suchdol","lat":"49.95247000","lon":"15.16651000"},
{"state":"Středočeský kraj","name":"Tišice","lat":"50.26980000","lon":"14.55411000"},
{"state":"Středočeský kraj","name":"Třebotov","lat":"49.97244000","lon":"14.29127000"},
{"state":"Středočeský kraj","name":"Trhový Štěpánov","lat":"49.71147000","lon":"15.01356000"},
{"state":"Středočeský kraj","name":"Tuchlovice","lat":"50.13803000","lon":"13.99115000"},
{"state":"Středočeský kraj","name":"Tuchoměřice","lat":"50.13543000","lon":"14.28218000"},
{"state":"Středočeský kraj","name":"Týnec nad Labem","lat":"50.04202000","lon":"15.35836000"},
{"state":"Středočeský kraj","name":"Týnec nad Sázavou","lat":"49.83348000","lon":"14.58983000"},
{"state":"Středočeský kraj","name":"Uhlířské Janovice","lat":"49.88019000","lon":"15.06481000"},
{"state":"Středočeský kraj","name":"Unhošť","lat":"50.08535000","lon":"14.13007000"},
{"state":"Středočeský kraj","name":"Úvaly","lat":"50.07394000","lon":"14.73080000"},
{"state":"Středočeský kraj","name":"Velim","lat":"50.05965000","lon":"15.10711000"},
{"state":"Středočeský kraj","name":"Velká Dobrá","lat":"50.10964000","lon":"14.06980000"},
{"state":"Středočeský kraj","name":"Velké Popovice","lat":"49.92252000","lon":"14.63934000"},
{"state":"Středočeský kraj","name":"Velké Přílepy","lat":"50.16050000","lon":"14.31447000"},
{"state":"Středočeský kraj","name":"Velký Osek","lat":"50.09867000","lon":"15.18629000"},
{"state":"Středočeský kraj","name":"Veltruby","lat":"50.07059000","lon":"15.18454000"},
{"state":"Středočeský kraj","name":"Veltrusy","lat":"50.27046000","lon":"14.32857000"},
{"state":"Středočeský kraj","name":"Velvary","lat":"50.28152000","lon":"14.23616000"},
{"state":"Středočeský kraj","name":"Vestec","lat":"49.98050000","lon":"14.50487000"},
{"state":"Středočeský kraj","name":"Vinařice","lat":"50.17585000","lon":"14.09106000"},
{"state":"Středočeský kraj","name":"Vlašim","lat":"49.70632000","lon":"14.89881000"},
{"state":"Středočeský kraj","name":"Votice","lat":"49.64013000","lon":"14.63809000"},
{"state":"Středočeský kraj","name":"Vrané nad Vltavou","lat":"49.93585000","lon":"14.37706000"},
{"state":"Středočeský kraj","name":"Vrdy","lat":"49.92153000","lon":"15.47243000"},
{"state":"Středočeský kraj","name":"Všenory","lat":"49.92883000","lon":"14.30392000"},
{"state":"Středočeský kraj","name":"Všetaty","lat":"50.28187000","lon":"14.59297000"},
{"state":"Středočeský kraj","name":"Zaječov","lat":"49.77435000","lon":"13.84072000"},
{"state":"Středočeský kraj","name":"Zásmuky","lat":"49.95470000","lon":"15.03058000"},
{"state":"Středočeský kraj","name":"Zbraslavice","lat":"49.81179000","lon":"15.18319000"},
{"state":"Středočeský kraj","name":"Žďár","lat":"50.54366000","lon":"15.08034000"},
{"state":"Středočeský kraj","name":"Zdiby","lat":"50.16799000","lon":"14.45118000"},
{"state":"Středočeský kraj","name":"Zdice","lat":"49.91207000","lon":"13.97747000"},
{"state":"Středočeský kraj","name":"Žebrák","lat":"49.87574000","lon":"13.89735000"},
{"state":"Středočeský kraj","name":"Zeleneč","lat":"50.13362000","lon":"14.66070000"},
{"state":"Středočeský kraj","name":"Žiželice","lat":"50.13192000","lon":"15.39320000"},
{"state":"Středočeský kraj","name":"Žleby","lat":"49.88958000","lon":"15.48853000"},
{"state":"Středočeský kraj","name":"Zlonice","lat":"50.28750000","lon":"14.09214000"},
{"state":"Středočeský kraj","name":"Zruč nad Sázavou","lat":"49.74010000","lon":"15.10606000"},
{"state":"Středočeský kraj","name":"Zvole","lat":"49.93466000","lon":"14.41769000"},
{"state":"Ústecký kraj","name":"Bechlín","lat":"50.41615000","lon":"14.34092000"},
{"state":"Ústecký kraj","name":"Bečov","lat":"50.44972000","lon":"13.71784000"},
{"state":"Ústecký kraj","name":"Benešov nad Ploučnicí","lat":"50.74159000","lon":"14.31239000"},
{"state":"Ústecký kraj","name":"Bílina","lat":"50.54854000","lon":"13.77535000"},
{"state":"Ústecký kraj","name":"Bílina Kyselka","lat":"50.55000000","lon":"13.76667000"},
{"state":"Ústecký kraj","name":"Bohušovice nad Ohří","lat":"50.49316000","lon":"14.15048000"},
{"state":"Ústecký kraj","name":"Braňany","lat":"50.54295000","lon":"13.70017000"},
{"state":"Ústecký kraj","name":"Březno","lat":"50.40185000","lon":"13.42118000"},
{"state":"Ústecký kraj","name":"Budyně nad Ohří","lat":"50.40427000","lon":"14.12591000"},
{"state":"Ústecký kraj","name":"Bystřany","lat":"50.62867000","lon":"13.86419000"},
{"state":"Ústecký kraj","name":"Černčice","lat":"50.36138000","lon":"13.84521000"},
{"state":"Ústecký kraj","name":"Česká Kamenice","lat":"50.79780000","lon":"14.41767000"},
{"state":"Ústecký kraj","name":"Chabařovice","lat":"50.67318000","lon":"13.94184000"},
{"state":"Ústecký kraj","name":"Chlumec","lat":"50.69972000","lon":"13.93964000"},
{"state":"Ústecký kraj","name":"Chomutov","lat":"50.46048000","lon":"13.41779000"},
{"state":"Ústecký kraj","name":"Chřibská","lat":"50.86079000","lon":"14.48444000"},
{"state":"Ústecký kraj","name":"Čížkovice","lat":"50.48418000","lon":"14.02839000"},
{"state":"Ústecký kraj","name":"Děčín","lat":"50.78215000","lon":"14.21478000"},
{"state":"Ústecký kraj","name":"Dobroměřice","lat":"50.37009000","lon":"13.79473000"},
{"state":"Ústecký kraj","name":"Dolní Podluží","lat":"50.87988000","lon":"14.59503000"},
{"state":"Ústecký kraj","name":"Dolní Poustevna","lat":"50.98251000","lon":"14.28684000"},
{"state":"Ústecký kraj","name":"Dubí","lat":"50.68558000","lon":"13.78561000"},
{"state":"Ústecký kraj","name":"Duchcov","lat":"50.60376000","lon":"13.74621000"},
{"state":"Ústecký kraj","name":"Horní Jiřetín","lat":"50.57309000","lon":"13.54717000"},
{"state":"Ústecký kraj","name":"Hošťka","lat":"50.48859000","lon":"14.33500000"},
{"state":"Ústecký kraj","name":"Hostomice","lat":"50.58770000","lon":"13.80803000"},
{"state":"Ústecký kraj","name":"Hrob","lat":"50.65919000","lon":"13.72676000"},
{"state":"Ústecký kraj","name":"Jílové","lat":"50.76082000","lon":"14.10383000"},
{"state":"Ústecký kraj","name":"Jiříkov","lat":"50.99514000","lon":"14.56910000"},
{"state":"Ústecký kraj","name":"Jirkov","lat":"50.49979000","lon":"13.44769000"},
{"state":"Ústecký kraj","name":"Kadaň","lat":"50.38333000","lon":"13.26667000"},
{"state":"Ústecký kraj","name":"Klášterec nad Ohří","lat":"50.38860000","lon":"13.18342000"},
{"state":"Ústecký kraj","name":"Košťany","lat":"50.65507000","lon":"13.75554000"},
{"state":"Ústecký kraj","name":"Kovářská","lat":"50.43821000","lon":"13.05388000"},
{"state":"Ústecký kraj","name":"Krásná Lípa","lat":"50.48378000","lon":"13.35750000"},
{"state":"Ústecký kraj","name":"Křešice","lat":"50.52259000","lon":"14.21450000"},
{"state":"Ústecký kraj","name":"Krupka","lat":"50.68449000","lon":"13.85815000"},
{"state":"Ústecký kraj","name":"Kryry","lat":"50.17437000","lon":"13.42660000"},
{"state":"Ústecký kraj","name":"Lenešice","lat":"50.37516000","lon":"13.76590000"},
{"state":"Ústecký kraj","name":"Liběšice","lat":"50.56886000","lon":"14.28906000"},
{"state":"Ústecký kraj","name":"Libochovice","lat":"50.40626000","lon":"14.04439000"},
{"state":"Ústecký kraj","name":"Libouchec","lat":"50.75854000","lon":"14.04071000"},
{"state":"Ústecký kraj","name":"Litoměřice","lat":"50.53348000","lon":"14.13180000"},
{"state":"Ústecký kraj","name":"Litvínov","lat":"50.60420000","lon":"13.61812000"},
{"state":"Ústecký kraj","name":"Lom u Mostu","lat":"50.59328000","lon":"13.65729000"},
{"state":"Ústecký kraj","name":"Louny","lat":"50.35699000","lon":"13.79667000"},
{"state":"Ústecký kraj","name":"Lovosice","lat":"50.51504000","lon":"14.05103000"},
{"state":"Ústecký kraj","name":"Lubenec","lat":"50.13207000","lon":"13.31319000"},
{"state":"Ústecký kraj","name":"Měcholupy","lat":"50.26666000","lon":"13.53737000"},
{"state":"Ústecký kraj","name":"Meziboři","lat":"50.62115000","lon":"13.59870000"},
{"state":"Ústecký kraj","name":"Mikulášovice","lat":"50.96507000","lon":"14.36368000"},
{"state":"Ústecký kraj","name":"Most","lat":"50.50301000","lon":"13.63617000"},
{"state":"Ústecký kraj","name":"Novosedlice","lat":"50.65633000","lon":"13.82304000"},
{"state":"Ústecký kraj","name":"Obrnice","lat":"50.50498000","lon":"13.69540000"},
{"state":"Ústecký kraj","name":"Okres Chomutov","lat":"50.41667000","lon":"13.33333000"},
{"state":"Ústecký kraj","name":"Okres Děčín","lat":"50.82905000","lon":"14.34325000"},
{"state":"Ústecký kraj","name":"Okres Litoměřice","lat":"50.50000000","lon":"14.16667000"},
{"state":"Ústecký kraj","name":"Okres Louny","lat":"50.33333000","lon":"13.66667000"},
{"state":"Ústecký kraj","name":"Okres Most","lat":"50.55000000","lon":"13.63333000"},
{"state":"Ústecký kraj","name":"Okres Teplice","lat":"50.63333000","lon":"13.83333000"},
{"state":"Ústecký kraj","name":"Okres Ústí nad Labem","lat":"50.66667000","lon":"14.05000000"},
{"state":"Ústecký kraj","name":"Osek","lat":"50.62115000","lon":"13.69274000"},
{"state":"Ústecký kraj","name":"Perštejn","lat":"50.38166000","lon":"13.11020000"},
{"state":"Ústecký kraj","name":"Peruc","lat":"50.34250000","lon":"13.95986000"},
{"state":"Ústecký kraj","name":"Podbořany","lat":"50.22937000","lon":"13.41192000"},
{"state":"Ústecký kraj","name":"Polepy","lat":"50.50563000","lon":"14.26447000"},
{"state":"Ústecký kraj","name":"Postoloprty","lat":"50.35979000","lon":"13.70291000"},
{"state":"Ústecký kraj","name":"Povrly","lat":"50.67276000","lon":"14.16033000"},
{"state":"Ústecký kraj","name":"Proboštov","lat":"50.66773000","lon":"13.83601000"},
{"state":"Ústecký kraj","name":"Radonice","lat":"50.29803000","lon":"13.28464000"},
{"state":"Ústecký kraj","name":"Řehlovice","lat":"50.60712000","lon":"13.95412000"},
{"state":"Ústecký kraj","name":"Roudnice nad Labem","lat":"50.42528000","lon":"14.26175000"},
{"state":"Ústecký kraj","name":"Rumburk","lat":"50.95151000","lon":"14.55699000"},
{"state":"Ústecký kraj","name":"Šluknov","lat":"51.00369000","lon":"14.45258000"},
{"state":"Ústecký kraj","name":"Staré Křečany","lat":"50.95044000","lon":"14.49617000"},
{"state":"Ústecký kraj","name":"Štětí","lat":"50.45298000","lon":"14.37421000"},
{"state":"Ústecký kraj","name":"Teplice","lat":"50.64040000","lon":"13.82451000"},
{"state":"Ústecký kraj","name":"Terezín","lat":"50.51100000","lon":"14.15055000"},
{"state":"Ústecký kraj","name":"Třebenice","lat":"50.47632000","lon":"13.99005000"},
{"state":"Ústecký kraj","name":"Trmice","lat":"50.64286000","lon":"13.99449000"},
{"state":"Ústecký kraj","name":"Údlice","lat":"50.44060000","lon":"13.45738000"},
{"state":"Ústecký kraj","name":"Úštěk","lat":"50.58474000","lon":"14.34332000"},
{"state":"Ústecký kraj","name":"Varnsdorf","lat":"50.91154000","lon":"14.61824000"},
{"state":"Ústecký kraj","name":"Vejprty","lat":"50.49232000","lon":"13.03212000"},
{"state":"Ústecký kraj","name":"Velemín","lat":"50.53898000","lon":"13.97675000"},
{"state":"Ústecký kraj","name":"Velké Březno","lat":"50.66270000","lon":"14.14174000"},
{"state":"Ústecký kraj","name":"Velký Šenov","lat":"50.99078000","lon":"14.37428000"},
{"state":"Ústecký kraj","name":"Verneřice","lat":"50.66114000","lon":"14.30114000"},
{"state":"Ústecký kraj","name":"Vilémov","lat":"50.99054000","lon":"14.33531000"},
{"state":"Ústecký kraj","name":"Vroutek","lat":"50.17999000","lon":"13.37986000"},
{"state":"Ústecký kraj","name":"Zabrušany","lat":"50.60495000","lon":"13.78748000"},
{"state":"Ústecký kraj","name":"Žatec","lat":"50.32717000","lon":"13.54577000"},
{"state":"Ústecký kraj","name":"Žitenice","lat":"50.55528000","lon":"14.15665000"},
{"state":"Zlín","name":"Babice","lat":"49.12167000","lon":"17.48075000"},
{"state":"Zlín","name":"Bánov","lat":"48.98801000","lon":"17.71752000"},
{"state":"Zlín","name":"Bílovice","lat":"49.09965000","lon":"17.54961000"},
{"state":"Zlín","name":"Bojkovice","lat":"49.03864000","lon":"17.81487000"},
{"state":"Zlín","name":"Boršice","lat":"49.06254000","lon":"17.35084000"},
{"state":"Zlín","name":"Březnice","lat":"49.18643000","lon":"17.66277000"},
{"state":"Zlín","name":"Březolupy","lat":"49.12138000","lon":"17.58034000"},
{"state":"Zlín","name":"Březová","lat":"48.92543000","lon":"17.73986000"},
{"state":"Zlín","name":"Buchlovice","lat":"49.08627000","lon":"17.33852000"},
{"state":"Zlín","name":"Bystřice pod Hostýnem","lat":"49.39924000","lon":"17.67401000"},
{"state":"Zlín","name":"Chropyně","lat":"49.35644000","lon":"17.36451000"},
{"state":"Zlín","name":"Chvalčov","lat":"49.38918000","lon":"17.71149000"},
{"state":"Zlín","name":"Dolní Bečva","lat":"49.45498000","lon":"18.19419000"},
{"state":"Zlín","name":"Dolní Němčí","lat":"48.96837000","lon":"17.58585000"},
{"state":"Zlín","name":"Francova Lhota","lat":"49.20174000","lon":"18.11175000"},
{"state":"Zlín","name":"Fryšták","lat":"49.28520000","lon":"17.68346000"},
{"state":"Zlín","name":"Halenkov","lat":"49.31740000","lon":"18.14749000"},
{"state":"Zlín","name":"Halenkovice","lat":"49.17102000","lon":"17.47156000"},
{"state":"Zlín","name":"Hluk","lat":"48.98805000","lon":"17.52744000"},
{"state":"Zlín","name":"Holešov","lat":"49.33331000","lon":"17.57832000"},
{"state":"Zlín","name":"Horní Bečva","lat":"49.43216000","lon":"18.28859000"},
{"state":"Zlín","name":"Horní Lideč","lat":"49.18121000","lon":"18.06099000"},
{"state":"Zlín","name":"Hošťálková","lat":"49.35467000","lon":"17.86944000"},
{"state":"Zlín","name":"Hovězí","lat":"49.30365000","lon":"18.06062000"},
{"state":"Zlín","name":"Hulín","lat":"49.31689000","lon":"17.46374000"},
{"state":"Zlín","name":"Hvozdná","lat":"49.24848000","lon":"17.75163000"},
{"state":"Zlín","name":"Jablůnka","lat":"49.38355000","lon":"17.95021000"},
{"state":"Zlín","name":"Jalubí","lat":"49.11626000","lon":"17.42788000"},
{"state":"Zlín","name":"Karolinka","lat":"49.35128000","lon":"18.24006000"},
{"state":"Zlín","name":"Kelč","lat":"49.47844000","lon":"17.81533000"},
{"state":"Zlín","name":"Kněžpole","lat":"49.09855000","lon":"17.51671000"},
{"state":"Zlín","name":"Koryčany","lat":"49.10639000","lon":"17.16433000"},
{"state":"Zlín","name":"Kroměříž","lat":"49.29785000","lon":"17.39312000"},
{"state":"Zlín","name":"Kunovice","lat":"49.04499000","lon":"17.47011000"},
{"state":"Zlín","name":"Kvasice","lat":"49.24223000","lon":"17.46974000"},
{"state":"Zlín","name":"Lešná","lat":"49.52055000","lon":"17.93004000"},
{"state":"Zlín","name":"Lidečko","lat":"49.20303000","lon":"18.05130000"},
{"state":"Zlín","name":"Liptál","lat":"49.29051000","lon":"17.92177000"},
{"state":"Zlín","name":"Luhačovice","lat":"49.09982000","lon":"17.75747000"},
{"state":"Zlín","name":"Lukov","lat":"49.29027000","lon":"17.72959000"},
{"state":"Zlín","name":"Mistřice","lat":"49.08668000","lon":"17.53597000"},
{"state":"Zlín","name":"Napajedla","lat":"49.17156000","lon":"17.51194000"},
{"state":"Zlín","name":"Nedakonice","lat":"49.03159000","lon":"17.38141000"},
{"state":"Zlín","name":"Nedašov","lat":"49.10778000","lon":"18.07036000"},
{"state":"Zlín","name":"Nivnice","lat":"48.97465000","lon":"17.64757000"},
{"state":"Zlín","name":"Nový Hrozenkov","lat":"49.33697000","lon":"18.19793000"},
{"state":"Zlín","name":"Okres Kroměříž","lat":"49.33333000","lon":"17.50000000"},
{"state":"Zlín","name":"Okres Uherské Hradiště","lat":"49.01667000","lon":"17.55000000"},
{"state":"Zlín","name":"Okres Vsetín","lat":"49.36667000","lon":"18.08333000"},
{"state":"Zlín","name":"Okres Zlín","lat":"49.21667000","lon":"17.78333000"},
{"state":"Zlín","name":"Ostrožská Lhota","lat":"48.97559000","lon":"17.46751000"},
{"state":"Zlín","name":"Ostrožská Nová Ves","lat":"49.00434000","lon":"17.43632000"},
{"state":"Zlín","name":"Otrokovice","lat":"49.20934000","lon":"17.53944000"},
{"state":"Zlín","name":"Polešovice","lat":"49.03390000","lon":"17.34064000"},
{"state":"Zlín","name":"Popovice","lat":"49.05255000","lon":"17.52712000"},
{"state":"Zlín","name":"Pozlovice","lat":"49.12921000","lon":"17.76925000"},
{"state":"Zlín","name":"Prostřední Bečva","lat":"49.43609000","lon":"18.25200000"},
{"state":"Zlín","name":"Prusinovice","lat":"49.37898000","lon":"17.58710000"},
{"state":"Zlín","name":"Rataje","lat":"49.27130000","lon":"17.33555000"},
{"state":"Zlín","name":"Ratiboř","lat":"49.36769000","lon":"17.91499000"},
{"state":"Zlín","name":"Rožnov pod Radhoštěm","lat":"49.45853000","lon":"18.14302000"},
{"state":"Zlín","name":"Slavičín","lat":"49.08799000","lon":"17.87349000"},
{"state":"Zlín","name":"Slušovice","lat":"49.24782000","lon":"17.80150000"},
{"state":"Zlín","name":"Spytihněv","lat":"49.14115000","lon":"17.49808000"},
{"state":"Zlín","name":"Staré Město","lat":"49.07515000","lon":"17.43338000"},
{"state":"Zlín","name":"Štítná nad Vláří","lat":"49.06881000","lon":"17.98274000"},
{"state":"Zlín","name":"Strání","lat":"48.90216000","lon":"17.70671000"},
{"state":"Zlín","name":"Suchá Loz","lat":"48.97001000","lon":"17.71379000"},
{"state":"Zlín","name":"Šumice","lat":"49.02858000","lon":"17.72205000"},
{"state":"Zlín","name":"Tečovice","lat":"49.22107000","lon":"17.58733000"},
{"state":"Zlín","name":"Tlumačov","lat":"49.25351000","lon":"17.49559000"},
{"state":"Zlín","name":"Topolná","lat":"49.12187000","lon":"17.54434000"},
{"state":"Zlín","name":"Traplice","lat":"49.13088000","lon":"17.43622000"},
{"state":"Zlín","name":"Trnava","lat":"49.29603000","lon":"17.84191000"},
{"state":"Zlín","name":"Tupesy","lat":"49.08427000","lon":"17.36983000"},
{"state":"Zlín","name":"Uherské Hradiště","lat":"49.06975000","lon":"17.45969000"},
{"state":"Zlín","name":"Uherský Brod","lat":"49.02513000","lon":"17.64715000"},
{"state":"Zlín","name":"Uherský Ostroh","lat":"48.98556000","lon":"17.38984000"},
{"state":"Zlín","name":"Újezd","lat":"49.16809000","lon":"17.90610000"},
{"state":"Zlín","name":"Valašská Bystřice","lat":"49.41507000","lon":"18.10977000"},
{"state":"Zlín","name":"Valašská Polanka","lat":"49.26215000","lon":"17.99667000"},
{"state":"Zlín","name":"Valašské Klobouky","lat":"49.14064000","lon":"18.00760000"},
{"state":"Zlín","name":"Valašské Meziříčí","lat":"49.47181000","lon":"17.97113000"},
{"state":"Zlín","name":"Velehrad","lat":"49.10543000","lon":"17.39426000"},
{"state":"Zlín","name":"Velké Karlovice","lat":"49.36064000","lon":"18.28355000"},
{"state":"Zlín","name":"Vidče","lat":"49.44151000","lon":"18.09473000"},
{"state":"Zlín","name":"Vizovice","lat":"49.22287000","lon":"17.85455000"},
{"state":"Zlín","name":"Vlachovice","lat":"49.12377000","lon":"17.94001000"},
{"state":"Zlín","name":"Vlčnov","lat":"49.00990000","lon":"17.58183000"},
{"state":"Zlín","name":"Všemina","lat":"49.28100000","lon":"17.87682000"},
{"state":"Zlín","name":"Vsetín","lat":"49.33871000","lon":"17.99619000"},
{"state":"Zlín","name":"Záhorovice","lat":"49.02266000","lon":"17.77922000"},
{"state":"Zlín","name":"Zašová","lat":"49.47410000","lon":"18.04436000"},
{"state":"Zlín","name":"Zborovice","lat":"49.24889000","lon":"17.28464000"},
{"state":"Zlín","name":"Zdounky","lat":"49.22771000","lon":"17.31899000"},
{"state":"Zlín","name":"Zlechov","lat":"49.07396000","lon":"17.37938000"},
{"state":"Zlín","name":"Zlín","lat":"49.22645000","lon":"17.67065000"},
{"state":"Zlín","name":"Žlutava","lat":"49.19976000","lon":"17.49037000"},
{"state":"Zlín","name":"Zubří","lat":"49.46603000","lon":"18.09249000"}]