[{"name":"Capital Region of Denmark","native":null,"cities":[{"name":"Åkirkeby","native":null,"lat":"55.07080000","lon":"14.91978000"},{"name":"Albertslund","native":null,"lat":"55.65691000","lon":"12.36381000"},{"name":"Albertslund Kommune","native":null,"lat":"55.68022000","lon":"12.34797000"},{"name":"Allerød Kommune","native":null,"lat":"55.85856000","lon":"12.32558000"},{"name":"Ballerup","native":null,"lat":"55.73165000","lon":"12.36328000"},{"name":"Ballerup Kommune","native":null,"lat":"55.73248000","lon":"12.35793000"},{"name":"Birkerød","native":null,"lat":"55.84759000","lon":"12.42791000"},{"name":"Blovstrød","native":null,"lat":"55.87038000","lon":"12.38640000"},{"name":"Bornholm Kommune","native":null,"lat":"55.12386000","lon":"14.91115000"},{"name":"Brøndby Kommune","native":null,"lat":"55.64290000","lon":"12.41101000"},{"name":"Charlottenlund","native":null,"lat":"55.75238000","lon":"12.57450000"},{"name":"Christianshavn","native":null,"lat":"55.67383000","lon":"12.59541000"},{"name":"Christiansø","native":null,"lat":"55.31982000","lon":"15.18783000"},{"name":"Copenhagen","native":null,"lat":"55.67594000","lon":"12.56553000"},{"name":"Dragør","native":null,"lat":"55.59280000","lon":"12.67221000"},{"name":"Dragør Kommune","native":null,"lat":"55.58233000","lon":"12.62756000"},{"name":"Egedal Kommune","native":null,"lat":"55.75556000","lon":"12.22778000"},{"name":"Espergærde","native":null,"lat":"55.99464000","lon":"12.54733000"},{"name":"Farum","native":null,"lat":"55.80858000","lon":"12.36066000"},{"name":"Fløng","native":null,"lat":"55.66212000","lon":"12.18698000"},{"name":"Fredensborg","native":null,"lat":"55.97558000","lon":"12.40314000"},{"name":"Fredensborg Kommune","native":null,"lat":"55.95000000","lon":"12.45000000"},{"name":"Frederiksberg","native":null,"lat":"55.67938000","lon":"12.53463000"},{"name":"Frederiksberg Kommune","native":null,"lat":"55.67856000","lon":"12.52216000"},{"name":"Frederikssund","native":null,"lat":"55.83956000","lon":"12.06896000"},{"name":"Frederikssund Kommune","native":null,"lat":"55.80957000","lon":"12.04038000"},{"name":"Frederiksværk","native":null,"lat":"55.97073000","lon":"12.02250000"},{"name":"Furesø Kommune","native":null,"lat":"55.78333000","lon":"12.34167000"},{"name":"Ganløse","native":null,"lat":"55.79124000","lon":"12.26421000"},{"name":"Gentofte Kommune","native":null,"lat":"55.75000000","lon":"12.55000000"},{"name":"Gilleleje","native":null,"lat":"56.12196000","lon":"12.31056000"},{"name":"Gladsaxe Municipality","native":null,"lat":"55.76667000","lon":"12.43333000"},{"name":"Glostrup","native":null,"lat":"55.66660000","lon":"12.40377000"},{"name":"Glostrup Kommune","native":null,"lat":"55.68188000","lon":"12.41018000"},{"name":"Græsted","native":null,"lat":"56.06558000","lon":"12.28512000"},{"name":"Gribskov Kommune","native":null,"lat":"56.05833000","lon":"12.24167000"},{"name":"Halsnæs Kommune","native":null,"lat":"55.96765000","lon":"11.94214000"},{"name":"Hellebæk","native":null,"lat":"56.06823000","lon":"12.55782000"},{"name":"Helsinge","native":null,"lat":"56.02283000","lon":"12.19752000"},{"name":"Helsingør","native":null,"lat":"56.03606000","lon":"12.61360000"},{"name":"Helsingør Kommune","native":null,"lat":"56.05000000","lon":"12.50000000"},{"name":"Herlev Kommune","native":null,"lat":"55.73317000","lon":"12.43106000"},{"name":"Hillerød","native":null,"lat":"55.92791000","lon":"12.30081000"},{"name":"Hillerød Kommune","native":null,"lat":"55.92319000","lon":"12.23794000"},{"name":"Hornbæk","native":null,"lat":"56.09027000","lon":"12.45693000"},{"name":"Høje-Taastrup Kommune","native":null,"lat":"55.65643000","lon":"12.24854000"},{"name":"Hørsholm","native":null,"lat":"55.88098000","lon":"12.50111000"},{"name":"Hørsholm Kommune","native":null,"lat":"55.88759000","lon":"12.48566000"},{"name":"Humlebæk","native":null,"lat":"55.96180000","lon":"12.53410000"},{"name":"Hundested","native":null,"lat":"55.96397000","lon":"11.85044000"},{"name":"Hvidovre","native":null,"lat":"55.65719000","lon":"12.47364000"},{"name":"Hvidovre Kommune","native":null,"lat":"55.63166000","lon":"12.46615000"},{"name":"Ishøj","native":null,"lat":"55.61543000","lon":"12.35182000"},{"name":"Ishøj Kommune","native":null,"lat":"55.62299000","lon":"12.30567000"},{"name":"Jægerspris","native":null,"lat":"55.85248000","lon":"11.98565000"},{"name":"Kokkedal","native":null,"lat":"55.91179000","lon":"12.49952000"},{"name":"Kongens Lyngby","native":null,"lat":"55.77044000","lon":"12.50378000"},{"name":"København","native":null,"lat":"55.67110000","lon":"12.56529000"},{"name":"Lillerød","native":null,"lat":"55.87496000","lon":"12.34579000"},{"name":"Liseleje","native":null,"lat":"56.01295000","lon":"11.96544000"},{"name":"Lyngby-Tårbæk Kommune","native":null,"lat":"55.78456000","lon":"12.50508000"},{"name":"Lynge","native":null,"lat":"55.83941000","lon":"12.27725000"},{"name":"Måløv","native":null,"lat":"55.75528000","lon":"12.32327000"},{"name":"Nexø","native":null,"lat":"55.06067000","lon":"15.13058000"},{"name":"Nivå","native":null,"lat":"55.93405000","lon":"12.50485000"},{"name":"Nødebo","native":null,"lat":"55.97877000","lon":"12.34685000"},{"name":"Ølstykke","native":null,"lat":"55.79567000","lon":"12.15509000"},{"name":"Rødovre","native":null,"lat":"55.68062000","lon":"12.45373000"},{"name":"Rødovre Kommune","native":null,"lat":"55.68852000","lon":"12.44834000"},{"name":"Rønne","native":null,"lat":"55.10091000","lon":"14.70664000"},{"name":"Rudersdal Kommune","native":null,"lat":"55.82500000","lon":"12.49167000"},{"name":"Skævinge","native":null,"lat":"55.90785000","lon":"12.15036000"},{"name":"Skibby","native":null,"lat":"55.75122000","lon":"11.96083000"},{"name":"Slangerup","native":null,"lat":"55.85000000","lon":"12.18333000"},{"name":"Smørumnedre","native":null,"lat":"55.74232000","lon":"12.30276000"},{"name":"Stavnsholt","native":null,"lat":"55.81479000","lon":"12.40545000"},{"name":"Stenløse","native":null,"lat":"55.76828000","lon":"12.19723000"},{"name":"Taastrup","native":null,"lat":"55.65006000","lon":"12.30160000"},{"name":"Tårnby","native":null,"lat":"55.63030000","lon":"12.60035000"},{"name":"Tårnby Kommune","native":null,"lat":"55.60391000","lon":"12.59599000"},{"name":"Trørød","native":null,"lat":"55.83946000","lon":"12.54432000"},{"name":"Vallensbæk","native":null,"lat":"55.62199000","lon":"12.38511000"},{"name":"Vallensbæk Kommune","native":null,"lat":"55.63128000","lon":"12.37369000"},{"name":"Vanløse","native":null,"lat":"55.68361000","lon":"12.48713000"},{"name":"Værløse","native":null,"lat":"55.78251000","lon":"12.36856000"},{"name":"Veksø","native":null,"lat":"55.75473000","lon":"12.23837000"}]},{"name":"Central Denmark Region","native":null,"cities":[{"name":"Allingåbro","native":null,"lat":"56.46432000","lon":"10.31957000"},{"name":"Århus","native":null,"lat":"56.15674000","lon":"10.21076000"},{"name":"Århus Kommune","native":null,"lat":"56.16317000","lon":"10.16897000"},{"name":"Assentoft","native":null,"lat":"56.44210000","lon":"10.15170000"},{"name":"Auning","native":null,"lat":"56.43079000","lon":"10.37818000"},{"name":"Avlum","native":null,"lat":"56.26539000","lon":"8.79256000"},{"name":"Beder","native":null,"lat":"56.06025000","lon":"10.21179000"},{"name":"Bjerringbro","native":null,"lat":"56.37797000","lon":"9.66065000"},{"name":"Bording Kirkeby","native":null,"lat":"56.16871000","lon":"9.24384000"},{"name":"Brande","native":null,"lat":"55.94316000","lon":"9.12798000"},{"name":"Brædstrup","native":null,"lat":"55.97153000","lon":"9.61129000"},{"name":"Ebeltoft","native":null,"lat":"56.19442000","lon":"10.68210000"},{"name":"Favrskov Kommune","native":null,"lat":"56.31667000","lon":"9.94000000"},{"name":"Framlev","native":null,"lat":"56.15664000","lon":"10.01318000"},{"name":"Galten","native":null,"lat":"56.15902000","lon":"9.91691000"},{"name":"Gjellerup","native":null,"lat":"56.14616000","lon":"9.05467000"},{"name":"Grenaa","native":null,"lat":"56.41578000","lon":"10.87825000"},{"name":"Hadsten","native":null,"lat":"56.32819000","lon":"10.04931000"},{"name":"Hammel","native":null,"lat":"56.25762000","lon":"9.86316000"},{"name":"Hammerum","native":null,"lat":"56.13361000","lon":"9.06121000"},{"name":"Harboøre","native":null,"lat":"56.61752000","lon":"8.18069000"},{"name":"Hedensted","native":null,"lat":"55.77043000","lon":"9.70110000"},{"name":"Hedensted Kommune","native":null,"lat":"55.79680000","lon":"9.74400000"},{"name":"Herning","native":null,"lat":"56.13615000","lon":"8.97662000"},{"name":"Herning Kommune","native":null,"lat":"56.14997000","lon":"8.89712000"},{"name":"Hinnerup","native":null,"lat":"56.26608000","lon":"10.06299000"},{"name":"Hjortshøj","native":null,"lat":"56.24811000","lon":"10.26533000"},{"name":"Holstebro","native":null,"lat":"56.36009000","lon":"8.61607000"},{"name":"Holstebro Kommune","native":null,"lat":"56.35916000","lon":"8.59631000"},{"name":"Hornslet","native":null,"lat":"56.31550000","lon":"10.32041000"},{"name":"Hornsyld","native":null,"lat":"55.75621000","lon":"9.85643000"},{"name":"Horsens","native":null,"lat":"55.86066000","lon":"9.85034000"},{"name":"Horsens Kommune","native":null,"lat":"55.92740000","lon":"9.77377000"},{"name":"Hørning","native":null,"lat":"56.08701000","lon":"10.03716000"},{"name":"Hvide Sande","native":null,"lat":"55.99866000","lon":"8.12605000"},{"name":"Ikast","native":null,"lat":"56.13883000","lon":"9.15768000"},{"name":"Ikast-Brande Kommune","native":null,"lat":"55.98333000","lon":"9.21667000"},{"name":"Juelsminde","native":null,"lat":"55.70876000","lon":"10.01668000"},{"name":"Karup","native":null,"lat":"56.30673000","lon":"9.16835000"},{"name":"Kibæk","native":null,"lat":"56.03170000","lon":"8.85697000"},{"name":"Kjellerup","native":null,"lat":"56.28581000","lon":"9.43528000"},{"name":"Kolt","native":null,"lat":"56.10845000","lon":"10.06986000"},{"name":"Langå","native":null,"lat":"56.39026000","lon":"9.89486000"},{"name":"Lemvig","native":null,"lat":"56.54856000","lon":"8.31019000"},{"name":"Lemvig Kommune","native":null,"lat":"56.49136000","lon":"8.29927000"},{"name":"Lind","native":null,"lat":"56.10600000","lon":"8.97915000"},{"name":"Løgten","native":null,"lat":"56.27459000","lon":"10.31181000"},{"name":"Lystrup","native":null,"lat":"56.23750000","lon":"10.23778000"},{"name":"Malling","native":null,"lat":"56.03632000","lon":"10.19632000"},{"name":"Mårslet","native":null,"lat":"56.06690000","lon":"10.16112000"},{"name":"Norddjurs Kommune","native":null,"lat":"56.44124000","lon":"10.76660000"},{"name":"Odder","native":null,"lat":"55.97313000","lon":"10.15300000"},{"name":"Odder Kommune","native":null,"lat":"55.92967000","lon":"10.15304000"},{"name":"Randers","native":null,"lat":"56.46070000","lon":"10.03639000"},{"name":"Randers Kommune","native":null,"lat":"56.51561000","lon":"10.06901000"},{"name":"Ringkøbing","native":null,"lat":"56.09006000","lon":"8.24402000"},{"name":"Ringkøbing-Skjern Kommune","native":null,"lat":"56.01000000","lon":"8.39667000"},{"name":"Rønde","native":null,"lat":"56.30145000","lon":"10.47505000"},{"name":"Ry","native":null,"lat":"56.09038000","lon":"9.76505000"},{"name":"Ryomgård","native":null,"lat":"56.38430000","lon":"10.50295000"},{"name":"Sabro","native":null,"lat":"56.21333000","lon":"10.03441000"},{"name":"Samsø Kommune","native":null,"lat":"55.85245000","lon":"10.60045000"},{"name":"Silkeborg","native":null,"lat":"56.16970000","lon":"9.54508000"},{"name":"Silkeborg Kommune","native":null,"lat":"56.17495000","lon":"9.54666000"},{"name":"Skanderborg","native":null,"lat":"56.03434000","lon":"9.93177000"},{"name":"Skanderborg Kommune","native":null,"lat":"56.07956000","lon":"9.89868000"},{"name":"Skive","native":null,"lat":"56.56699000","lon":"9.02707000"},{"name":"Skive Kommune","native":null,"lat":"56.64478000","lon":"8.97660000"},{"name":"Skjern","native":null,"lat":"55.95000000","lon":"8.50000000"},{"name":"Skovby","native":null,"lat":"56.15672000","lon":"9.94523000"},{"name":"Snejbjerg","native":null,"lat":"56.13291000","lon":"8.90353000"},{"name":"Solbjerg","native":null,"lat":"56.04271000","lon":"10.08631000"},{"name":"Søften","native":null,"lat":"56.23801000","lon":"10.08510000"},{"name":"Spentrup","native":null,"lat":"56.53703000","lon":"10.03792000"},{"name":"Stavtrup","native":null,"lat":"56.13124000","lon":"10.11987000"},{"name":"Stilling","native":null,"lat":"56.06224000","lon":"9.98822000"},{"name":"Stoholm","native":null,"lat":"56.48454000","lon":"9.14617000"},{"name":"Struer","native":null,"lat":"56.49205000","lon":"8.59397000"},{"name":"Struer Kommune","native":null,"lat":"56.46667000","lon":"8.58333000"},{"name":"Sunds","native":null,"lat":"56.20743000","lon":"9.01386000"},{"name":"Svejbæk","native":null,"lat":"56.13255000","lon":"9.63289000"},{"name":"Syddjurs Kommune","native":null,"lat":"56.31250000","lon":"10.52083000"},{"name":"Tarm","native":null,"lat":"55.90861000","lon":"8.53041000"},{"name":"Thyborøn","native":null,"lat":"56.69846000","lon":"8.21238000"},{"name":"Tørring","native":null,"lat":"55.85000000","lon":"9.48333000"},{"name":"Tranbjerg","native":null,"lat":"56.09519000","lon":"10.13605000"},{"name":"Trige","native":null,"lat":"56.25291000","lon":"10.14840000"},{"name":"Ulfborg","native":null,"lat":"56.26725000","lon":"8.32167000"},{"name":"Ulstrup","native":null,"lat":"56.38994000","lon":"9.79354000"},{"name":"Viborg","native":null,"lat":"56.45319000","lon":"9.40201000"},{"name":"Viborg Kommune","native":null,"lat":"56.45000000","lon":"9.36667000"},{"name":"Videbæk","native":null,"lat":"56.08760000","lon":"8.62852000"},{"name":"Vildbjerg","native":null,"lat":"56.20000000","lon":"8.76667000"},{"name":"Vinderup","native":null,"lat":"56.48176000","lon":"8.77991000"},{"name":"Virklund","native":null,"lat":"56.13218000","lon":"9.55582000"}]},{"name":"North Denmark Region","native":null,"cities":[{"name":"Aalborg","native":null,"lat":"57.04800000","lon":"9.91870000"},{"name":"Aars","native":null,"lat":"56.80399000","lon":"9.51441000"},{"name":"Åbybro","native":null,"lat":"57.16249000","lon":"9.72996000"},{"name":"Ålborg Kommune","native":null,"lat":"57.00000000","lon":"9.95000000"},{"name":"Ålestrup","native":null,"lat":"56.69470000","lon":"9.49336000"},{"name":"Arden","native":null,"lat":"56.76899000","lon":"9.86184000"},{"name":"Brovst","native":null,"lat":"57.09750000","lon":"9.52264000"},{"name":"Brønderslev","native":null,"lat":"57.27021000","lon":"9.94102000"},{"name":"Brønderslev Kommune","native":null,"lat":"57.23506000","lon":"10.10061000"},{"name":"Dronninglund","native":null,"lat":"57.16035000","lon":"10.29287000"},{"name":"Farsø","native":null,"lat":"56.77276000","lon":"9.33925000"},{"name":"Fjerritslev","native":null,"lat":"57.08822000","lon":"9.26622000"},{"name":"Frederikshavn","native":null,"lat":"57.44073000","lon":"10.53661000"},{"name":"Frederikshavn Kommune","native":null,"lat":"57.43347000","lon":"10.42507000"},{"name":"Frejlev","native":null,"lat":"57.00623000","lon":"9.81711000"},{"name":"Gistrup","native":null,"lat":"56.99430000","lon":"9.99085000"},{"name":"Hadsund","native":null,"lat":"56.71482000","lon":"10.11682000"},{"name":"Hals","native":null,"lat":"56.99609000","lon":"10.30807000"},{"name":"Hanstholm","native":null,"lat":"57.11667000","lon":"8.61667000"},{"name":"Hirtshals","native":null,"lat":"57.58812000","lon":"9.95922000"},{"name":"Hjallerup","native":null,"lat":"57.16466000","lon":"10.14571000"},{"name":"Hjørring","native":null,"lat":"57.46417000","lon":"9.98229000"},{"name":"Hjørring Kommune","native":null,"lat":"57.45682000","lon":"10.05859000"},{"name":"Hobro","native":null,"lat":"56.64306000","lon":"9.79029000"},{"name":"Hurup","native":null,"lat":"56.74944000","lon":"8.41953000"},{"name":"Jammerbugt Kommune","native":null,"lat":"57.14583000","lon":"9.56250000"},{"name":"Kås","native":null,"lat":"57.19774000","lon":"9.67173000"},{"name":"Klarup","native":null,"lat":"57.01194000","lon":"10.05617000"},{"name":"Læso Kommune","native":null,"lat":"57.26774000","lon":"11.02265000"},{"name":"Løgstør","native":null,"lat":"56.96245000","lon":"9.25830000"},{"name":"Løkken","native":null,"lat":"57.37047000","lon":"9.71466000"},{"name":"Mariager","native":null,"lat":"56.64985000","lon":"9.97515000"},{"name":"Mariagerfjord Kommune","native":null,"lat":"56.69722000","lon":"9.84722000"},{"name":"Morsø Kommune","native":null,"lat":"56.79622000","lon":"8.73272000"},{"name":"Nibe","native":null,"lat":"56.98150000","lon":"9.63917000"},{"name":"Nørresundby","native":null,"lat":"57.05877000","lon":"9.92284000"},{"name":"Nykøbing Mors","native":null,"lat":"56.79334000","lon":"8.85282000"},{"name":"Pandrup","native":null,"lat":"57.22147000","lon":"9.67569000"},{"name":"Rebild Kommune","native":null,"lat":"56.80556000","lon":"9.77778000"},{"name":"Sæby","native":null,"lat":"57.33188000","lon":"10.52251000"},{"name":"Sindal","native":null,"lat":"57.47117000","lon":"10.20312000"},{"name":"Skagen","native":null,"lat":"57.72093000","lon":"10.58394000"},{"name":"Skørping","native":null,"lat":"56.83626000","lon":"9.89255000"},{"name":"Storvorde","native":null,"lat":"57.00392000","lon":"10.10125000"},{"name":"Støvring","native":null,"lat":"56.88536000","lon":"9.83839000"},{"name":"Strandby","native":null,"lat":"57.49150000","lon":"10.49609000"},{"name":"Svenstrup","native":null,"lat":"56.97230000","lon":"9.84806000"},{"name":"Tårs","native":null,"lat":"57.38333000","lon":"10.11667000"},{"name":"Thisted","native":null,"lat":"56.95523000","lon":"8.69491000"},{"name":"Thisted Kommune","native":null,"lat":"57.00397000","lon":"8.61834000"},{"name":"Vadum","native":null,"lat":"57.11790000","lon":"9.85700000"},{"name":"Vestbjerg","native":null,"lat":"57.13166000","lon":"9.95942000"},{"name":"Vester Hassing","native":null,"lat":"57.06767000","lon":"10.12558000"},{"name":"Vesthimmerland Kommune","native":null,"lat":"56.80000000","lon":"9.37083000"},{"name":"Vodskov","native":null,"lat":"57.10854000","lon":"10.02215000"},{"name":"Vrå","native":null,"lat":"57.35370000","lon":"9.94176000"}]},{"name":"Region of Southern Denmark","native":null,"cities":[{"name":"Aabenraa","native":null,"lat":"55.04434000","lon":"9.41741000"},{"name":"Aabenraa Kommune","native":null,"lat":"54.98980000","lon":"9.31282000"},{"name":"Årslev","native":null,"lat":"55.30353000","lon":"10.46428000"},{"name":"Årup","native":null,"lat":"55.37315000","lon":"10.04131000"},{"name":"Assens","native":null,"lat":"55.27023000","lon":"9.90081000"},{"name":"Assens Kommune","native":null,"lat":"55.29958000","lon":"10.07952000"},{"name":"Augustenborg","native":null,"lat":"54.95201000","lon":"9.87216000"},{"name":"Ærø Kommune","native":null,"lat":"54.85833000","lon":"10.43333000"},{"name":"Ærøskøbing","native":null,"lat":"54.88803000","lon":"10.41117000"},{"name":"Bellinge","native":null,"lat":"55.33535000","lon":"10.32045000"},{"name":"Billund","native":null,"lat":"55.73349000","lon":"9.10785000"},{"name":"Billund Kommune","native":null,"lat":"55.73079000","lon":"8.96844000"},{"name":"Bogense","native":null,"lat":"55.56691000","lon":"10.08863000"},{"name":"Børkop","native":null,"lat":"55.64195000","lon":"9.64958000"},{"name":"Bramming","native":null,"lat":"55.46946000","lon":"8.70007000"},{"name":"Brejning","native":null,"lat":"55.66594000","lon":"9.67217000"},{"name":"Brenderup","native":null,"lat":"55.48407000","lon":"9.97908000"},{"name":"Broager","native":null,"lat":"54.88940000","lon":"9.67465000"},{"name":"Brørup","native":null,"lat":"55.48194000","lon":"9.01756000"},{"name":"Bullerup","native":null,"lat":"55.42686000","lon":"10.47137000"},{"name":"Christiansfeld","native":null,"lat":"55.35817000","lon":"9.48701000"},{"name":"Dybbøl","native":null,"lat":"54.91079000","lon":"9.73601000"},{"name":"Egtved","native":null,"lat":"55.61613000","lon":"9.30763000"},{"name":"Ejby","native":null,"lat":"55.43010000","lon":"9.92973000"},{"name":"Esbjerg","native":null,"lat":"55.47028000","lon":"8.45187000"},{"name":"Esbjerg Kommune","native":null,"lat":"55.46893000","lon":"8.46222000"},{"name":"Faaborg","native":null,"lat":"55.09510000","lon":"10.24226000"},{"name":"Faaborg-Midtfyn Kommune","native":null,"lat":"55.22667000","lon":"10.40667000"},{"name":"Fanø Kommune","native":null,"lat":"55.41667000","lon":"8.41667000"},{"name":"Fredericia","native":null,"lat":"55.56568000","lon":"9.75257000"},{"name":"Fredericia Kommune","native":null,"lat":"55.57271000","lon":"9.69489000"},{"name":"Give","native":null,"lat":"55.84523000","lon":"9.23769000"},{"name":"Glamsbjerg","native":null,"lat":"55.27237000","lon":"10.10483000"},{"name":"Gram","native":null,"lat":"55.28948000","lon":"9.04913000"},{"name":"Gråsten","native":null,"lat":"54.91918000","lon":"9.59523000"},{"name":"Grindsted","native":null,"lat":"55.75726000","lon":"8.92750000"},{"name":"Guderup","native":null,"lat":"54.98978000","lon":"9.87174000"},{"name":"Haderslev","native":null,"lat":"55.24943000","lon":"9.48771000"},{"name":"Haderslev Kommune","native":null,"lat":"55.24441000","lon":"9.32261000"},{"name":"Hårby","native":null,"lat":"55.22357000","lon":"10.12268000"},{"name":"Holsted","native":null,"lat":"55.51086000","lon":"8.91872000"},{"name":"Højby","native":null,"lat":"55.33177000","lon":"10.43725000"},{"name":"Høruphav","native":null,"lat":"54.91017000","lon":"9.89872000"},{"name":"Jelling","native":null,"lat":"55.75588000","lon":"9.42580000"},{"name":"Kerteminde","native":null,"lat":"55.44903000","lon":"10.65769000"},{"name":"Kerteminde Kommune","native":null,"lat":"55.45498000","lon":"10.62220000"},{"name":"Kolding","native":null,"lat":"55.49040000","lon":"9.47216000"},{"name":"Kolding Kommune","native":null,"lat":"55.45006000","lon":"9.45807000"},{"name":"Kruså","native":null,"lat":"54.85097000","lon":"9.40129000"},{"name":"Langeland Kommune","native":null,"lat":"54.90000000","lon":"10.77222000"},{"name":"Langeskov","native":null,"lat":"55.35655000","lon":"10.58447000"},{"name":"Løgumkloster","native":null,"lat":"55.05941000","lon":"8.95508000"},{"name":"Løjt Kirkeby","native":null,"lat":"55.08959000","lon":"9.46084000"},{"name":"Lunderskov","native":null,"lat":"55.48375000","lon":"9.29917000"},{"name":"Marstal","native":null,"lat":"54.85621000","lon":"10.51726000"},{"name":"Middelfart","native":null,"lat":"55.50591000","lon":"9.73054000"},{"name":"Middelfart Kommune","native":null,"lat":"55.45782000","lon":"9.88100000"},{"name":"Munkebo","native":null,"lat":"55.45553000","lon":"10.55433000"},{"name":"Neder Holluf","native":null,"lat":"55.36451000","lon":"10.44824000"},{"name":"Nordborg","native":null,"lat":"55.05732000","lon":"9.74080000"},{"name":"Nordby","native":null,"lat":"55.44603000","lon":"8.39786000"},{"name":"Nordfyns Kommune","native":null,"lat":"55.52222000","lon":"10.22222000"},{"name":"Nørre Åby","native":null,"lat":"55.46107000","lon":"9.87940000"},{"name":"Nyborg","native":null,"lat":"55.31274000","lon":"10.78964000"},{"name":"Nyborg Kommune","native":null,"lat":"55.29473000","lon":"10.70310000"},{"name":"Odense","native":null,"lat":"55.39594000","lon":"10.38831000"},{"name":"Odense Kommune","native":null,"lat":"55.39570000","lon":"10.37761000"},{"name":"Oksbøl","native":null,"lat":"55.62680000","lon":"8.28757000"},{"name":"Otterup","native":null,"lat":"55.51527000","lon":"10.39756000"},{"name":"Ølgod","native":null,"lat":"55.80682000","lon":"8.62859000"},{"name":"Padborg","native":null,"lat":"54.82657000","lon":"9.36247000"},{"name":"Ribe","native":null,"lat":"55.33051000","lon":"8.76966000"},{"name":"Ringe","native":null,"lat":"55.23828000","lon":"10.47860000"},{"name":"Rødding","native":null,"lat":"55.36569000","lon":"9.06316000"},{"name":"Rødekro","native":null,"lat":"55.07076000","lon":"9.33531000"},{"name":"Rudkøbing","native":null,"lat":"54.93639000","lon":"10.71019000"},{"name":"Seden","native":null,"lat":"55.42648000","lon":"10.44265000"},{"name":"Skaerbaek","native":null,"lat":"55.15735000","lon":"8.76901000"},{"name":"Snoghøj","native":null,"lat":"55.52253000","lon":"9.72125000"},{"name":"Sønder Bjert","native":null,"lat":"55.45272000","lon":"9.56741000"},{"name":"Sønderborg","native":null,"lat":"54.90896000","lon":"9.78917000"},{"name":"Sønderborg Kommune","native":null,"lat":"54.91667000","lon":"9.80000000"},{"name":"Søndersø","native":null,"lat":"55.48526000","lon":"10.25540000"},{"name":"Starup","native":null,"lat":"55.24097000","lon":"9.53503000"},{"name":"Stige","native":null,"lat":"55.43941000","lon":"10.40940000"},{"name":"Strib","native":null,"lat":"55.54021000","lon":"9.76748000"},{"name":"Svendborg","native":null,"lat":"55.05982000","lon":"10.60677000"},{"name":"Svendborg Kommune","native":null,"lat":"55.08410000","lon":"10.61391000"},{"name":"Taulov","native":null,"lat":"55.54582000","lon":"9.61553000"},{"name":"Thurø By","native":null,"lat":"55.04740000","lon":"10.66385000"},{"name":"Tinglev","native":null,"lat":"54.93788000","lon":"9.25547000"},{"name":"Tjæreborg","native":null,"lat":"55.46457000","lon":"8.57968000"},{"name":"Toftlund","native":null,"lat":"55.18858000","lon":"9.06925000"},{"name":"Tommerup","native":null,"lat":"55.31952000","lon":"10.20659000"},{"name":"Tommerup Stationsby","native":null,"lat":"55.34535000","lon":"10.17594000"},{"name":"Tønder","native":null,"lat":"54.93306000","lon":"8.86674000"},{"name":"Tønder Kommune","native":null,"lat":"55.07304000","lon":"8.87214000"},{"name":"Ullerslev","native":null,"lat":"55.36172000","lon":"10.65190000"},{"name":"Vamdrup","native":null,"lat":"55.42764000","lon":"9.28435000"},{"name":"Varde","native":null,"lat":"55.62112000","lon":"8.48069000"},{"name":"Varde Kommune","native":null,"lat":"55.61667000","lon":"8.50000000"},{"name":"Vejen","native":null,"lat":"55.48117000","lon":"9.13795000"},{"name":"Vejen Kommune","native":null,"lat":"55.46312000","lon":"9.05004000"},{"name":"Vejle","native":null,"lat":"55.70927000","lon":"9.53570000"},{"name":"Vejle Kommune","native":null,"lat":"55.74874000","lon":"9.40421000"},{"name":"Vester-Skerninge","native":null,"lat":"55.07322000","lon":"10.45536000"},{"name":"Vindeby","native":null,"lat":"55.04489000","lon":"10.61309000"},{"name":"Vissenbjerg","native":null,"lat":"55.38482000","lon":"10.13784000"},{"name":"Vojens","native":null,"lat":"55.24639000","lon":"9.30603000"}]},{"name":"Region Zealand","native":null,"cities":[{"name":"Asnæs","native":null,"lat":"55.81229000","lon":"11.50129000"},{"name":"Bjæverskov","native":null,"lat":"55.45756000","lon":"12.03651000"},{"name":"Borup","native":null,"lat":"55.49472000","lon":"11.97584000"},{"name":"Dianalund","native":null,"lat":"55.53133000","lon":"11.49250000"},{"name":"Ejby","native":null,"lat":"55.48580000","lon":"12.08171000"},{"name":"Faxe","native":null,"lat":"55.25561000","lon":"12.11926000"},{"name":"Faxe Kommune","native":null,"lat":"55.29444000","lon":"12.06111000"},{"name":"Faxe Ladeplads","native":null,"lat":"55.21981000","lon":"12.17013000"},{"name":"Fensmark","native":null,"lat":"55.27919000","lon":"11.80382000"},{"name":"Forlev","native":null,"lat":"55.37445000","lon":"11.25966000"},{"name":"Frederiksberg","native":null,"lat":"55.41618000","lon":"11.56934000"},{"name":"Fuglebjerg","native":null,"lat":"55.30604000","lon":"11.54766000"},{"name":"Gørlev","native":null,"lat":"55.53926000","lon":"11.22708000"},{"name":"Greve","native":null,"lat":"55.58333000","lon":"12.30000000"},{"name":"Greve Kommune","native":null,"lat":"55.58770000","lon":"12.25060000"},{"name":"Guldborgsund Kommune","native":null,"lat":"54.76944000","lon":"11.83611000"},{"name":"Gundsømagle","native":null,"lat":"55.73565000","lon":"12.15158000"},{"name":"Hårlev","native":null,"lat":"55.34936000","lon":"12.23382000"},{"name":"Haslev","native":null,"lat":"55.32346000","lon":"11.96389000"},{"name":"Havdrup","native":null,"lat":"55.54481000","lon":"12.12392000"},{"name":"Holbæk","native":null,"lat":"55.71750000","lon":"11.71279000"},{"name":"Holbæk Kommune","native":null,"lat":"55.65919000","lon":"11.62049000"},{"name":"Holeby","native":null,"lat":"54.71148000","lon":"11.46416000"},{"name":"Høng","native":null,"lat":"55.50736000","lon":"11.28873000"},{"name":"Hørve","native":null,"lat":"55.75292000","lon":"11.45298000"},{"name":"Jyderup","native":null,"lat":"55.66399000","lon":"11.42029000"},{"name":"Jyllinge","native":null,"lat":"55.75295000","lon":"12.10315000"},{"name":"Kalundborg","native":null,"lat":"55.67954000","lon":"11.08864000"},{"name":"Kalundborg Kommune","native":null,"lat":"55.63545000","lon":"11.19993000"},{"name":"Kirke Hvalsø","native":null,"lat":"55.59170000","lon":"11.86253000"},{"name":"Korsør","native":null,"lat":"55.32993000","lon":"11.13857000"},{"name":"Køge","native":null,"lat":"55.45802000","lon":"12.18214000"},{"name":"Køge Kommune","native":null,"lat":"55.45668000","lon":"12.07332000"},{"name":"Lejre","native":null,"lat":"55.60461000","lon":"11.97477000"},{"name":"Lejre Kommune","native":null,"lat":"55.63375000","lon":"11.92234000"},{"name":"Lolland Kommune","native":null,"lat":"54.80238000","lon":"11.29524000"},{"name":"Maribo","native":null,"lat":"54.77662000","lon":"11.50017000"},{"name":"Nakskov","native":null,"lat":"54.83038000","lon":"11.13567000"},{"name":"Næstved","native":null,"lat":"55.22992000","lon":"11.76092000"},{"name":"Næstved Kommune","native":null,"lat":"55.25855000","lon":"11.74615000"},{"name":"Neder Vindinge","native":null,"lat":"55.03211000","lon":"11.88356000"},{"name":"Nørre Alslev","native":null,"lat":"54.89784000","lon":"11.88414000"},{"name":"Nykøbing Falster","native":null,"lat":"54.76906000","lon":"11.87425000"},{"name":"Nykøbing Sjælland","native":null,"lat":"55.92491000","lon":"11.67109000"},{"name":"Nyråd","native":null,"lat":"55.00511000","lon":"11.96060000"},{"name":"Odsherred Kommune","native":null,"lat":"55.88333000","lon":"11.59444000"},{"name":"Osted","native":null,"lat":"55.56228000","lon":"11.95786000"},{"name":"Ørslev","native":null,"lat":"55.04356000","lon":"11.96792000"},{"name":"Præstø","native":null,"lat":"55.12374000","lon":"12.04477000"},{"name":"Ringsted","native":null,"lat":"55.44260000","lon":"11.79011000"},{"name":"Ringsted Kommune","native":null,"lat":"55.44721000","lon":"11.81720000"},{"name":"Roskilde","native":null,"lat":"55.64152000","lon":"12.08035000"},{"name":"Roskilde Kommune","native":null,"lat":"55.65000000","lon":"12.10000000"},{"name":"Rødby","native":null,"lat":"54.69495000","lon":"11.38885000"},{"name":"Rødbyhavn","native":null,"lat":"54.65944000","lon":"11.35504000"},{"name":"Rødvig","native":null,"lat":"55.25540000","lon":"12.37936000"},{"name":"Rønnede","native":null,"lat":"55.25710000","lon":"12.02125000"},{"name":"Sakskøbing","native":null,"lat":"54.79970000","lon":"11.62599000"},{"name":"Skælskør","native":null,"lat":"55.25058000","lon":"11.29352000"},{"name":"Slagelse","native":null,"lat":"55.40276000","lon":"11.35459000"},{"name":"Slagelse Kommune","native":null,"lat":"55.34546000","lon":"11.33390000"},{"name":"Solrød","native":null,"lat":"55.53628000","lon":"12.18270000"},{"name":"Solrød Kommune","native":null,"lat":"55.53553000","lon":"12.17337000"},{"name":"Solrød Strand","native":null,"lat":"55.53285000","lon":"12.22227000"},{"name":"Sorø","native":null,"lat":"55.43184000","lon":"11.55547000"},{"name":"Sorø Kommune","native":null,"lat":"55.48268000","lon":"11.55693000"},{"name":"Stege","native":null,"lat":"54.98704000","lon":"12.28461000"},{"name":"Stenlille","native":null,"lat":"55.53888000","lon":"11.59120000"},{"name":"Stevns Kommune","native":null,"lat":"55.33373000","lon":"12.30692000"},{"name":"Store Heddinge","native":null,"lat":"55.30965000","lon":"12.38885000"},{"name":"Strøby Egede","native":null,"lat":"55.41382000","lon":"12.24502000"},{"name":"Stubbekøbing","native":null,"lat":"54.88875000","lon":"12.04102000"},{"name":"Sundby","native":null,"lat":"54.76711000","lon":"11.84979000"},{"name":"Svebølle","native":null,"lat":"55.65183000","lon":"11.28658000"},{"name":"Svinninge","native":null,"lat":"55.72111000","lon":"11.46547000"},{"name":"Svogerslev","native":null,"lat":"55.63423000","lon":"12.01465000"},{"name":"Tølløse","native":null,"lat":"55.61250000","lon":"11.77034000"},{"name":"Tune","native":null,"lat":"55.59287000","lon":"12.16968000"},{"name":"Viby","native":null,"lat":"55.54872000","lon":"12.02391000"},{"name":"Vindinge","native":null,"lat":"55.62298000","lon":"12.13870000"},{"name":"Vipperød","native":null,"lat":"55.66768000","lon":"11.73967000"},{"name":"Vordingborg","native":null,"lat":"55.00801000","lon":"11.91057000"},{"name":"Vordingborg Kommune","native":null,"lat":"55.01383000","lon":"12.10008000"}]}]