[{"state":"Capital Region of Denmark","name":"Åkirkeby","lat":"55.07080000","lon":"14.91978000"},
{"state":"Capital Region of Denmark","name":"Albertslund","lat":"55.65691000","lon":"12.36381000"},
{"state":"Capital Region of Denmark","name":"Albertslund Kommune","lat":"55.68022000","lon":"12.34797000"},
{"state":"Capital Region of Denmark","name":"Allerød Kommune","lat":"55.85856000","lon":"12.32558000"},
{"state":"Capital Region of Denmark","name":"Ballerup","lat":"55.73165000","lon":"12.36328000"},
{"state":"Capital Region of Denmark","name":"Ballerup Kommune","lat":"55.73248000","lon":"12.35793000"},
{"state":"Capital Region of Denmark","name":"Birkerød","lat":"55.84759000","lon":"12.42791000"},
{"state":"Capital Region of Denmark","name":"Blovstrød","lat":"55.87038000","lon":"12.38640000"},
{"state":"Capital Region of Denmark","name":"Bornholm Kommune","lat":"55.12386000","lon":"14.91115000"},
{"state":"Capital Region of Denmark","name":"Brøndby Kommune","lat":"55.64290000","lon":"12.41101000"},
{"state":"Capital Region of Denmark","name":"Charlottenlund","lat":"55.75238000","lon":"12.57450000"},
{"state":"Capital Region of Denmark","name":"Christianshavn","lat":"55.67383000","lon":"12.59541000"},
{"state":"Capital Region of Denmark","name":"Christiansø","lat":"55.31982000","lon":"15.18783000"},
{"state":"Capital Region of Denmark","name":"Copenhagen","lat":"55.67594000","lon":"12.56553000"},
{"state":"Capital Region of Denmark","name":"Dragør","lat":"55.59280000","lon":"12.67221000"},
{"state":"Capital Region of Denmark","name":"Dragør Kommune","lat":"55.58233000","lon":"12.62756000"},
{"state":"Capital Region of Denmark","name":"Egedal Kommune","lat":"55.75556000","lon":"12.22778000"},
{"state":"Capital Region of Denmark","name":"Espergærde","lat":"55.99464000","lon":"12.54733000"},
{"state":"Capital Region of Denmark","name":"Farum","lat":"55.80858000","lon":"12.36066000"},
{"state":"Capital Region of Denmark","name":"Fløng","lat":"55.66212000","lon":"12.18698000"},
{"state":"Capital Region of Denmark","name":"Fredensborg","lat":"55.97558000","lon":"12.40314000"},
{"state":"Capital Region of Denmark","name":"Fredensborg Kommune","lat":"55.95000000","lon":"12.45000000"},
{"state":"Capital Region of Denmark","name":"Frederiksberg","lat":"55.67938000","lon":"12.53463000"},
{"state":"Capital Region of Denmark","name":"Frederiksberg Kommune","lat":"55.67856000","lon":"12.52216000"},
{"state":"Capital Region of Denmark","name":"Frederikssund","lat":"55.83956000","lon":"12.06896000"},
{"state":"Capital Region of Denmark","name":"Frederikssund Kommune","lat":"55.80957000","lon":"12.04038000"},
{"state":"Capital Region of Denmark","name":"Frederiksværk","lat":"55.97073000","lon":"12.02250000"},
{"state":"Capital Region of Denmark","name":"Furesø Kommune","lat":"55.78333000","lon":"12.34167000"},
{"state":"Capital Region of Denmark","name":"Ganløse","lat":"55.79124000","lon":"12.26421000"},
{"state":"Capital Region of Denmark","name":"Gentofte Kommune","lat":"55.75000000","lon":"12.55000000"},
{"state":"Capital Region of Denmark","name":"Gilleleje","lat":"56.12196000","lon":"12.31056000"},
{"state":"Capital Region of Denmark","name":"Gladsaxe Municipality","lat":"55.76667000","lon":"12.43333000"},
{"state":"Capital Region of Denmark","name":"Glostrup","lat":"55.66660000","lon":"12.40377000"},
{"state":"Capital Region of Denmark","name":"Glostrup Kommune","lat":"55.68188000","lon":"12.41018000"},
{"state":"Capital Region of Denmark","name":"Græsted","lat":"56.06558000","lon":"12.28512000"},
{"state":"Capital Region of Denmark","name":"Gribskov Kommune","lat":"56.05833000","lon":"12.24167000"},
{"state":"Capital Region of Denmark","name":"Halsnæs Kommune","lat":"55.96765000","lon":"11.94214000"},
{"state":"Capital Region of Denmark","name":"Hellebæk","lat":"56.06823000","lon":"12.55782000"},
{"state":"Capital Region of Denmark","name":"Helsinge","lat":"56.02283000","lon":"12.19752000"},
{"state":"Capital Region of Denmark","name":"Helsingør","lat":"56.03606000","lon":"12.61360000"},
{"state":"Capital Region of Denmark","name":"Helsingør Kommune","lat":"56.05000000","lon":"12.50000000"},
{"state":"Capital Region of Denmark","name":"Herlev Kommune","lat":"55.73317000","lon":"12.43106000"},
{"state":"Capital Region of Denmark","name":"Hillerød","lat":"55.92791000","lon":"12.30081000"},
{"state":"Capital Region of Denmark","name":"Hillerød Kommune","lat":"55.92319000","lon":"12.23794000"},
{"state":"Capital Region of Denmark","name":"Hornbæk","lat":"56.09027000","lon":"12.45693000"},
{"state":"Capital Region of Denmark","name":"Høje-Taastrup Kommune","lat":"55.65643000","lon":"12.24854000"},
{"state":"Capital Region of Denmark","name":"Hørsholm","lat":"55.88098000","lon":"12.50111000"},
{"state":"Capital Region of Denmark","name":"Hørsholm Kommune","lat":"55.88759000","lon":"12.48566000"},
{"state":"Capital Region of Denmark","name":"Humlebæk","lat":"55.96180000","lon":"12.53410000"},
{"state":"Capital Region of Denmark","name":"Hundested","lat":"55.96397000","lon":"11.85044000"},
{"state":"Capital Region of Denmark","name":"Hvidovre","lat":"55.65719000","lon":"12.47364000"},
{"state":"Capital Region of Denmark","name":"Hvidovre Kommune","lat":"55.63166000","lon":"12.46615000"},
{"state":"Capital Region of Denmark","name":"Ishøj","lat":"55.61543000","lon":"12.35182000"},
{"state":"Capital Region of Denmark","name":"Ishøj Kommune","lat":"55.62299000","lon":"12.30567000"},
{"state":"Capital Region of Denmark","name":"Jægerspris","lat":"55.85248000","lon":"11.98565000"},
{"state":"Capital Region of Denmark","name":"Kokkedal","lat":"55.91179000","lon":"12.49952000"},
{"state":"Capital Region of Denmark","name":"Kongens Lyngby","lat":"55.77044000","lon":"12.50378000"},
{"state":"Capital Region of Denmark","name":"København","lat":"55.67110000","lon":"12.56529000"},
{"state":"Capital Region of Denmark","name":"Lillerød","lat":"55.87496000","lon":"12.34579000"},
{"state":"Capital Region of Denmark","name":"Liseleje","lat":"56.01295000","lon":"11.96544000"},
{"state":"Capital Region of Denmark","name":"Lyngby-Tårbæk Kommune","lat":"55.78456000","lon":"12.50508000"},
{"state":"Capital Region of Denmark","name":"Lynge","lat":"55.83941000","lon":"12.27725000"},
{"state":"Capital Region of Denmark","name":"Måløv","lat":"55.75528000","lon":"12.32327000"},
{"state":"Capital Region of Denmark","name":"Nexø","lat":"55.06067000","lon":"15.13058000"},
{"state":"Capital Region of Denmark","name":"Nivå","lat":"55.93405000","lon":"12.50485000"},
{"state":"Capital Region of Denmark","name":"Nødebo","lat":"55.97877000","lon":"12.34685000"},
{"state":"Capital Region of Denmark","name":"Ølstykke","lat":"55.79567000","lon":"12.15509000"},
{"state":"Capital Region of Denmark","name":"Rødovre","lat":"55.68062000","lon":"12.45373000"},
{"state":"Capital Region of Denmark","name":"Rødovre Kommune","lat":"55.68852000","lon":"12.44834000"},
{"state":"Capital Region of Denmark","name":"Rønne","lat":"55.10091000","lon":"14.70664000"},
{"state":"Capital Region of Denmark","name":"Rudersdal Kommune","lat":"55.82500000","lon":"12.49167000"},
{"state":"Capital Region of Denmark","name":"Skævinge","lat":"55.90785000","lon":"12.15036000"},
{"state":"Capital Region of Denmark","name":"Skibby","lat":"55.75122000","lon":"11.96083000"},
{"state":"Capital Region of Denmark","name":"Slangerup","lat":"55.85000000","lon":"12.18333000"},
{"state":"Capital Region of Denmark","name":"Smørumnedre","lat":"55.74232000","lon":"12.30276000"},
{"state":"Capital Region of Denmark","name":"Stavnsholt","lat":"55.81479000","lon":"12.40545000"},
{"state":"Capital Region of Denmark","name":"Stenløse","lat":"55.76828000","lon":"12.19723000"},
{"state":"Capital Region of Denmark","name":"Taastrup","lat":"55.65006000","lon":"12.30160000"},
{"state":"Capital Region of Denmark","name":"Tårnby","lat":"55.63030000","lon":"12.60035000"},
{"state":"Capital Region of Denmark","name":"Tårnby Kommune","lat":"55.60391000","lon":"12.59599000"},
{"state":"Capital Region of Denmark","name":"Trørød","lat":"55.83946000","lon":"12.54432000"},
{"state":"Capital Region of Denmark","name":"Vallensbæk","lat":"55.62199000","lon":"12.38511000"},
{"state":"Capital Region of Denmark","name":"Vallensbæk Kommune","lat":"55.63128000","lon":"12.37369000"},
{"state":"Capital Region of Denmark","name":"Vanløse","lat":"55.68361000","lon":"12.48713000"},
{"state":"Capital Region of Denmark","name":"Værløse","lat":"55.78251000","lon":"12.36856000"},
{"state":"Capital Region of Denmark","name":"Veksø","lat":"55.75473000","lon":"12.23837000"},
{"state":"Central Denmark Region","name":"Allingåbro","lat":"56.46432000","lon":"10.31957000"},
{"state":"Central Denmark Region","name":"Århus","lat":"56.15674000","lon":"10.21076000"},
{"state":"Central Denmark Region","name":"Århus Kommune","lat":"56.16317000","lon":"10.16897000"},
{"state":"Central Denmark Region","name":"Assentoft","lat":"56.44210000","lon":"10.15170000"},
{"state":"Central Denmark Region","name":"Auning","lat":"56.43079000","lon":"10.37818000"},
{"state":"Central Denmark Region","name":"Avlum","lat":"56.26539000","lon":"8.79256000"},
{"state":"Central Denmark Region","name":"Beder","lat":"56.06025000","lon":"10.21179000"},
{"state":"Central Denmark Region","name":"Bjerringbro","lat":"56.37797000","lon":"9.66065000"},
{"state":"Central Denmark Region","name":"Bording Kirkeby","lat":"56.16871000","lon":"9.24384000"},
{"state":"Central Denmark Region","name":"Brande","lat":"55.94316000","lon":"9.12798000"},
{"state":"Central Denmark Region","name":"Brædstrup","lat":"55.97153000","lon":"9.61129000"},
{"state":"Central Denmark Region","name":"Ebeltoft","lat":"56.19442000","lon":"10.68210000"},
{"state":"Central Denmark Region","name":"Favrskov Kommune","lat":"56.31667000","lon":"9.94000000"},
{"state":"Central Denmark Region","name":"Framlev","lat":"56.15664000","lon":"10.01318000"},
{"state":"Central Denmark Region","name":"Galten","lat":"56.15902000","lon":"9.91691000"},
{"state":"Central Denmark Region","name":"Gjellerup","lat":"56.14616000","lon":"9.05467000"},
{"state":"Central Denmark Region","name":"Grenaa","lat":"56.41578000","lon":"10.87825000"},
{"state":"Central Denmark Region","name":"Hadsten","lat":"56.32819000","lon":"10.04931000"},
{"state":"Central Denmark Region","name":"Hammel","lat":"56.25762000","lon":"9.86316000"},
{"state":"Central Denmark Region","name":"Hammerum","lat":"56.13361000","lon":"9.06121000"},
{"state":"Central Denmark Region","name":"Harboøre","lat":"56.61752000","lon":"8.18069000"},
{"state":"Central Denmark Region","name":"Hedensted","lat":"55.77043000","lon":"9.70110000"},
{"state":"Central Denmark Region","name":"Hedensted Kommune","lat":"55.79680000","lon":"9.74400000"},
{"state":"Central Denmark Region","name":"Herning","lat":"56.13615000","lon":"8.97662000"},
{"state":"Central Denmark Region","name":"Herning Kommune","lat":"56.14997000","lon":"8.89712000"},
{"state":"Central Denmark Region","name":"Hinnerup","lat":"56.26608000","lon":"10.06299000"},
{"state":"Central Denmark Region","name":"Hjortshøj","lat":"56.24811000","lon":"10.26533000"},
{"state":"Central Denmark Region","name":"Holstebro","lat":"56.36009000","lon":"8.61607000"},
{"state":"Central Denmark Region","name":"Holstebro Kommune","lat":"56.35916000","lon":"8.59631000"},
{"state":"Central Denmark Region","name":"Hornslet","lat":"56.31550000","lon":"10.32041000"},
{"state":"Central Denmark Region","name":"Hornsyld","lat":"55.75621000","lon":"9.85643000"},
{"state":"Central Denmark Region","name":"Horsens","lat":"55.86066000","lon":"9.85034000"},
{"state":"Central Denmark Region","name":"Horsens Kommune","lat":"55.92740000","lon":"9.77377000"},
{"state":"Central Denmark Region","name":"Hørning","lat":"56.08701000","lon":"10.03716000"},
{"state":"Central Denmark Region","name":"Hvide Sande","lat":"55.99866000","lon":"8.12605000"},
{"state":"Central Denmark Region","name":"Ikast","lat":"56.13883000","lon":"9.15768000"},
{"state":"Central Denmark Region","name":"Ikast-Brande Kommune","lat":"55.98333000","lon":"9.21667000"},
{"state":"Central Denmark Region","name":"Juelsminde","lat":"55.70876000","lon":"10.01668000"},
{"state":"Central Denmark Region","name":"Karup","lat":"56.30673000","lon":"9.16835000"},
{"state":"Central Denmark Region","name":"Kibæk","lat":"56.03170000","lon":"8.85697000"},
{"state":"Central Denmark Region","name":"Kjellerup","lat":"56.28581000","lon":"9.43528000"},
{"state":"Central Denmark Region","name":"Kolt","lat":"56.10845000","lon":"10.06986000"},
{"state":"Central Denmark Region","name":"Langå","lat":"56.39026000","lon":"9.89486000"},
{"state":"Central Denmark Region","name":"Lemvig","lat":"56.54856000","lon":"8.31019000"},
{"state":"Central Denmark Region","name":"Lemvig Kommune","lat":"56.49136000","lon":"8.29927000"},
{"state":"Central Denmark Region","name":"Lind","lat":"56.10600000","lon":"8.97915000"},
{"state":"Central Denmark Region","name":"Løgten","lat":"56.27459000","lon":"10.31181000"},
{"state":"Central Denmark Region","name":"Lystrup","lat":"56.23750000","lon":"10.23778000"},
{"state":"Central Denmark Region","name":"Malling","lat":"56.03632000","lon":"10.19632000"},
{"state":"Central Denmark Region","name":"Mårslet","lat":"56.06690000","lon":"10.16112000"},
{"state":"Central Denmark Region","name":"Norddjurs Kommune","lat":"56.44124000","lon":"10.76660000"},
{"state":"Central Denmark Region","name":"Odder","lat":"55.97313000","lon":"10.15300000"},
{"state":"Central Denmark Region","name":"Odder Kommune","lat":"55.92967000","lon":"10.15304000"},
{"state":"Central Denmark Region","name":"Randers","lat":"56.46070000","lon":"10.03639000"},
{"state":"Central Denmark Region","name":"Randers Kommune","lat":"56.51561000","lon":"10.06901000"},
{"state":"Central Denmark Region","name":"Ringkøbing","lat":"56.09006000","lon":"8.24402000"},
{"state":"Central Denmark Region","name":"Ringkøbing-Skjern Kommune","lat":"56.01000000","lon":"8.39667000"},
{"state":"Central Denmark Region","name":"Rønde","lat":"56.30145000","lon":"10.47505000"},
{"state":"Central Denmark Region","name":"Ry","lat":"56.09038000","lon":"9.76505000"},
{"state":"Central Denmark Region","name":"Ryomgård","lat":"56.38430000","lon":"10.50295000"},
{"state":"Central Denmark Region","name":"Sabro","lat":"56.21333000","lon":"10.03441000"},
{"state":"Central Denmark Region","name":"Samsø Kommune","lat":"55.85245000","lon":"10.60045000"},
{"state":"Central Denmark Region","name":"Silkeborg","lat":"56.16970000","lon":"9.54508000"},
{"state":"Central Denmark Region","name":"Silkeborg Kommune","lat":"56.17495000","lon":"9.54666000"},
{"state":"Central Denmark Region","name":"Skanderborg","lat":"56.03434000","lon":"9.93177000"},
{"state":"Central Denmark Region","name":"Skanderborg Kommune","lat":"56.07956000","lon":"9.89868000"},
{"state":"Central Denmark Region","name":"Skive","lat":"56.56699000","lon":"9.02707000"},
{"state":"Central Denmark Region","name":"Skive Kommune","lat":"56.64478000","lon":"8.97660000"},
{"state":"Central Denmark Region","name":"Skjern","lat":"55.95000000","lon":"8.50000000"},
{"state":"Central Denmark Region","name":"Skovby","lat":"56.15672000","lon":"9.94523000"},
{"state":"Central Denmark Region","name":"Snejbjerg","lat":"56.13291000","lon":"8.90353000"},
{"state":"Central Denmark Region","name":"Solbjerg","lat":"56.04271000","lon":"10.08631000"},
{"state":"Central Denmark Region","name":"Søften","lat":"56.23801000","lon":"10.08510000"},
{"state":"Central Denmark Region","name":"Spentrup","lat":"56.53703000","lon":"10.03792000"},
{"state":"Central Denmark Region","name":"Stavtrup","lat":"56.13124000","lon":"10.11987000"},
{"state":"Central Denmark Region","name":"Stilling","lat":"56.06224000","lon":"9.98822000"},
{"state":"Central Denmark Region","name":"Stoholm","lat":"56.48454000","lon":"9.14617000"},
{"state":"Central Denmark Region","name":"Struer","lat":"56.49205000","lon":"8.59397000"},
{"state":"Central Denmark Region","name":"Struer Kommune","lat":"56.46667000","lon":"8.58333000"},
{"state":"Central Denmark Region","name":"Sunds","lat":"56.20743000","lon":"9.01386000"},
{"state":"Central Denmark Region","name":"Svejbæk","lat":"56.13255000","lon":"9.63289000"},
{"state":"Central Denmark Region","name":"Syddjurs Kommune","lat":"56.31250000","lon":"10.52083000"},
{"state":"Central Denmark Region","name":"Tarm","lat":"55.90861000","lon":"8.53041000"},
{"state":"Central Denmark Region","name":"Thyborøn","lat":"56.69846000","lon":"8.21238000"},
{"state":"Central Denmark Region","name":"Tørring","lat":"55.85000000","lon":"9.48333000"},
{"state":"Central Denmark Region","name":"Tranbjerg","lat":"56.09519000","lon":"10.13605000"},
{"state":"Central Denmark Region","name":"Trige","lat":"56.25291000","lon":"10.14840000"},
{"state":"Central Denmark Region","name":"Ulfborg","lat":"56.26725000","lon":"8.32167000"},
{"state":"Central Denmark Region","name":"Ulstrup","lat":"56.38994000","lon":"9.79354000"},
{"state":"Central Denmark Region","name":"Viborg","lat":"56.45319000","lon":"9.40201000"},
{"state":"Central Denmark Region","name":"Viborg Kommune","lat":"56.45000000","lon":"9.36667000"},
{"state":"Central Denmark Region","name":"Videbæk","lat":"56.08760000","lon":"8.62852000"},
{"state":"Central Denmark Region","name":"Vildbjerg","lat":"56.20000000","lon":"8.76667000"},
{"state":"Central Denmark Region","name":"Vinderup","lat":"56.48176000","lon":"8.77991000"},
{"state":"Central Denmark Region","name":"Virklund","lat":"56.13218000","lon":"9.55582000"},
{"state":"North Denmark Region","name":"Aalborg","lat":"57.04800000","lon":"9.91870000"},
{"state":"North Denmark Region","name":"Aars","lat":"56.80399000","lon":"9.51441000"},
{"state":"North Denmark Region","name":"Åbybro","lat":"57.16249000","lon":"9.72996000"},
{"state":"North Denmark Region","name":"Ålborg Kommune","lat":"57.00000000","lon":"9.95000000"},
{"state":"North Denmark Region","name":"Ålestrup","lat":"56.69470000","lon":"9.49336000"},
{"state":"North Denmark Region","name":"Arden","lat":"56.76899000","lon":"9.86184000"},
{"state":"North Denmark Region","name":"Brovst","lat":"57.09750000","lon":"9.52264000"},
{"state":"North Denmark Region","name":"Brønderslev","lat":"57.27021000","lon":"9.94102000"},
{"state":"North Denmark Region","name":"Brønderslev Kommune","lat":"57.23506000","lon":"10.10061000"},
{"state":"North Denmark Region","name":"Dronninglund","lat":"57.16035000","lon":"10.29287000"},
{"state":"North Denmark Region","name":"Farsø","lat":"56.77276000","lon":"9.33925000"},
{"state":"North Denmark Region","name":"Fjerritslev","lat":"57.08822000","lon":"9.26622000"},
{"state":"North Denmark Region","name":"Frederikshavn","lat":"57.44073000","lon":"10.53661000"},
{"state":"North Denmark Region","name":"Frederikshavn Kommune","lat":"57.43347000","lon":"10.42507000"},
{"state":"North Denmark Region","name":"Frejlev","lat":"57.00623000","lon":"9.81711000"},
{"state":"North Denmark Region","name":"Gistrup","lat":"56.99430000","lon":"9.99085000"},
{"state":"North Denmark Region","name":"Hadsund","lat":"56.71482000","lon":"10.11682000"},
{"state":"North Denmark Region","name":"Hals","lat":"56.99609000","lon":"10.30807000"},
{"state":"North Denmark Region","name":"Hanstholm","lat":"57.11667000","lon":"8.61667000"},
{"state":"North Denmark Region","name":"Hirtshals","lat":"57.58812000","lon":"9.95922000"},
{"state":"North Denmark Region","name":"Hjallerup","lat":"57.16466000","lon":"10.14571000"},
{"state":"North Denmark Region","name":"Hjørring","lat":"57.46417000","lon":"9.98229000"},
{"state":"North Denmark Region","name":"Hjørring Kommune","lat":"57.45682000","lon":"10.05859000"},
{"state":"North Denmark Region","name":"Hobro","lat":"56.64306000","lon":"9.79029000"},
{"state":"North Denmark Region","name":"Hurup","lat":"56.74944000","lon":"8.41953000"},
{"state":"North Denmark Region","name":"Jammerbugt Kommune","lat":"57.14583000","lon":"9.56250000"},
{"state":"North Denmark Region","name":"Kås","lat":"57.19774000","lon":"9.67173000"},
{"state":"North Denmark Region","name":"Klarup","lat":"57.01194000","lon":"10.05617000"},
{"state":"North Denmark Region","name":"Læso Kommune","lat":"57.26774000","lon":"11.02265000"},
{"state":"North Denmark Region","name":"Løgstør","lat":"56.96245000","lon":"9.25830000"},
{"state":"North Denmark Region","name":"Løkken","lat":"57.37047000","lon":"9.71466000"},
{"state":"North Denmark Region","name":"Mariager","lat":"56.64985000","lon":"9.97515000"},
{"state":"North Denmark Region","name":"Mariagerfjord Kommune","lat":"56.69722000","lon":"9.84722000"},
{"state":"North Denmark Region","name":"Morsø Kommune","lat":"56.79622000","lon":"8.73272000"},
{"state":"North Denmark Region","name":"Nibe","lat":"56.98150000","lon":"9.63917000"},
{"state":"North Denmark Region","name":"Nørresundby","lat":"57.05877000","lon":"9.92284000"},
{"state":"North Denmark Region","name":"Nykøbing Mors","lat":"56.79334000","lon":"8.85282000"},
{"state":"North Denmark Region","name":"Pandrup","lat":"57.22147000","lon":"9.67569000"},
{"state":"North Denmark Region","name":"Rebild Kommune","lat":"56.80556000","lon":"9.77778000"},
{"state":"North Denmark Region","name":"Sæby","lat":"57.33188000","lon":"10.52251000"},
{"state":"North Denmark Region","name":"Sindal","lat":"57.47117000","lon":"10.20312000"},
{"state":"North Denmark Region","name":"Skagen","lat":"57.72093000","lon":"10.58394000"},
{"state":"North Denmark Region","name":"Skørping","lat":"56.83626000","lon":"9.89255000"},
{"state":"North Denmark Region","name":"Storvorde","lat":"57.00392000","lon":"10.10125000"},
{"state":"North Denmark Region","name":"Støvring","lat":"56.88536000","lon":"9.83839000"},
{"state":"North Denmark Region","name":"Strandby","lat":"57.49150000","lon":"10.49609000"},
{"state":"North Denmark Region","name":"Svenstrup","lat":"56.97230000","lon":"9.84806000"},
{"state":"North Denmark Region","name":"Tårs","lat":"57.38333000","lon":"10.11667000"},
{"state":"North Denmark Region","name":"Thisted","lat":"56.95523000","lon":"8.69491000"},
{"state":"North Denmark Region","name":"Thisted Kommune","lat":"57.00397000","lon":"8.61834000"},
{"state":"North Denmark Region","name":"Vadum","lat":"57.11790000","lon":"9.85700000"},
{"state":"North Denmark Region","name":"Vestbjerg","lat":"57.13166000","lon":"9.95942000"},
{"state":"North Denmark Region","name":"Vester Hassing","lat":"57.06767000","lon":"10.12558000"},
{"state":"North Denmark Region","name":"Vesthimmerland Kommune","lat":"56.80000000","lon":"9.37083000"},
{"state":"North Denmark Region","name":"Vodskov","lat":"57.10854000","lon":"10.02215000"},
{"state":"North Denmark Region","name":"Vrå","lat":"57.35370000","lon":"9.94176000"},
{"state":"Region of Southern Denmark","name":"Aabenraa","lat":"55.04434000","lon":"9.41741000"},
{"state":"Region of Southern Denmark","name":"Aabenraa Kommune","lat":"54.98980000","lon":"9.31282000"},
{"state":"Region of Southern Denmark","name":"Årslev","lat":"55.30353000","lon":"10.46428000"},
{"state":"Region of Southern Denmark","name":"Årup","lat":"55.37315000","lon":"10.04131000"},
{"state":"Region of Southern Denmark","name":"Assens","lat":"55.27023000","lon":"9.90081000"},
{"state":"Region of Southern Denmark","name":"Assens Kommune","lat":"55.29958000","lon":"10.07952000"},
{"state":"Region of Southern Denmark","name":"Augustenborg","lat":"54.95201000","lon":"9.87216000"},
{"state":"Region of Southern Denmark","name":"Ærø Kommune","lat":"54.85833000","lon":"10.43333000"},
{"state":"Region of Southern Denmark","name":"Ærøskøbing","lat":"54.88803000","lon":"10.41117000"},
{"state":"Region of Southern Denmark","name":"Bellinge","lat":"55.33535000","lon":"10.32045000"},
{"state":"Region of Southern Denmark","name":"Billund","lat":"55.73349000","lon":"9.10785000"},
{"state":"Region of Southern Denmark","name":"Billund Kommune","lat":"55.73079000","lon":"8.96844000"},
{"state":"Region of Southern Denmark","name":"Bogense","lat":"55.56691000","lon":"10.08863000"},
{"state":"Region of Southern Denmark","name":"Børkop","lat":"55.64195000","lon":"9.64958000"},
{"state":"Region of Southern Denmark","name":"Bramming","lat":"55.46946000","lon":"8.70007000"},
{"state":"Region of Southern Denmark","name":"Brejning","lat":"55.66594000","lon":"9.67217000"},
{"state":"Region of Southern Denmark","name":"Brenderup","lat":"55.48407000","lon":"9.97908000"},
{"state":"Region of Southern Denmark","name":"Broager","lat":"54.88940000","lon":"9.67465000"},
{"state":"Region of Southern Denmark","name":"Brørup","lat":"55.48194000","lon":"9.01756000"},
{"state":"Region of Southern Denmark","name":"Bullerup","lat":"55.42686000","lon":"10.47137000"},
{"state":"Region of Southern Denmark","name":"Christiansfeld","lat":"55.35817000","lon":"9.48701000"},
{"state":"Region of Southern Denmark","name":"Dybbøl","lat":"54.91079000","lon":"9.73601000"},
{"state":"Region of Southern Denmark","name":"Egtved","lat":"55.61613000","lon":"9.30763000"},
{"state":"Region of Southern Denmark","name":"Ejby","lat":"55.43010000","lon":"9.92973000"},
{"state":"Region of Southern Denmark","name":"Esbjerg","lat":"55.47028000","lon":"8.45187000"},
{"state":"Region of Southern Denmark","name":"Esbjerg Kommune","lat":"55.46893000","lon":"8.46222000"},
{"state":"Region of Southern Denmark","name":"Faaborg","lat":"55.09510000","lon":"10.24226000"},
{"state":"Region of Southern Denmark","name":"Faaborg-Midtfyn Kommune","lat":"55.22667000","lon":"10.40667000"},
{"state":"Region of Southern Denmark","name":"Fanø Kommune","lat":"55.41667000","lon":"8.41667000"},
{"state":"Region of Southern Denmark","name":"Fredericia","lat":"55.56568000","lon":"9.75257000"},
{"state":"Region of Southern Denmark","name":"Fredericia Kommune","lat":"55.57271000","lon":"9.69489000"},
{"state":"Region of Southern Denmark","name":"Give","lat":"55.84523000","lon":"9.23769000"},
{"state":"Region of Southern Denmark","name":"Glamsbjerg","lat":"55.27237000","lon":"10.10483000"},
{"state":"Region of Southern Denmark","name":"Gram","lat":"55.28948000","lon":"9.04913000"},
{"state":"Region of Southern Denmark","name":"Gråsten","lat":"54.91918000","lon":"9.59523000"},
{"state":"Region of Southern Denmark","name":"Grindsted","lat":"55.75726000","lon":"8.92750000"},
{"state":"Region of Southern Denmark","name":"Guderup","lat":"54.98978000","lon":"9.87174000"},
{"state":"Region of Southern Denmark","name":"Haderslev","lat":"55.24943000","lon":"9.48771000"},
{"state":"Region of Southern Denmark","name":"Haderslev Kommune","lat":"55.24441000","lon":"9.32261000"},
{"state":"Region of Southern Denmark","name":"Hårby","lat":"55.22357000","lon":"10.12268000"},
{"state":"Region of Southern Denmark","name":"Holsted","lat":"55.51086000","lon":"8.91872000"},
{"state":"Region of Southern Denmark","name":"Højby","lat":"55.33177000","lon":"10.43725000"},
{"state":"Region of Southern Denmark","name":"Høruphav","lat":"54.91017000","lon":"9.89872000"},
{"state":"Region of Southern Denmark","name":"Jelling","lat":"55.75588000","lon":"9.42580000"},
{"state":"Region of Southern Denmark","name":"Kerteminde","lat":"55.44903000","lon":"10.65769000"},
{"state":"Region of Southern Denmark","name":"Kerteminde Kommune","lat":"55.45498000","lon":"10.62220000"},
{"state":"Region of Southern Denmark","name":"Kolding","lat":"55.49040000","lon":"9.47216000"},
{"state":"Region of Southern Denmark","name":"Kolding Kommune","lat":"55.45006000","lon":"9.45807000"},
{"state":"Region of Southern Denmark","name":"Kruså","lat":"54.85097000","lon":"9.40129000"},
{"state":"Region of Southern Denmark","name":"Langeland Kommune","lat":"54.90000000","lon":"10.77222000"},
{"state":"Region of Southern Denmark","name":"Langeskov","lat":"55.35655000","lon":"10.58447000"},
{"state":"Region of Southern Denmark","name":"Løgumkloster","lat":"55.05941000","lon":"8.95508000"},
{"state":"Region of Southern Denmark","name":"Løjt Kirkeby","lat":"55.08959000","lon":"9.46084000"},
{"state":"Region of Southern Denmark","name":"Lunderskov","lat":"55.48375000","lon":"9.29917000"},
{"state":"Region of Southern Denmark","name":"Marstal","lat":"54.85621000","lon":"10.51726000"},
{"state":"Region of Southern Denmark","name":"Middelfart","lat":"55.50591000","lon":"9.73054000"},
{"state":"Region of Southern Denmark","name":"Middelfart Kommune","lat":"55.45782000","lon":"9.88100000"},
{"state":"Region of Southern Denmark","name":"Munkebo","lat":"55.45553000","lon":"10.55433000"},
{"state":"Region of Southern Denmark","name":"Neder Holluf","lat":"55.36451000","lon":"10.44824000"},
{"state":"Region of Southern Denmark","name":"Nordborg","lat":"55.05732000","lon":"9.74080000"},
{"state":"Region of Southern Denmark","name":"Nordby","lat":"55.44603000","lon":"8.39786000"},
{"state":"Region of Southern Denmark","name":"Nordfyns Kommune","lat":"55.52222000","lon":"10.22222000"},
{"state":"Region of Southern Denmark","name":"Nørre Åby","lat":"55.46107000","lon":"9.87940000"},
{"state":"Region of Southern Denmark","name":"Nyborg","lat":"55.31274000","lon":"10.78964000"},
{"state":"Region of Southern Denmark","name":"Nyborg Kommune","lat":"55.29473000","lon":"10.70310000"},
{"state":"Region of Southern Denmark","name":"Odense","lat":"55.39594000","lon":"10.38831000"},
{"state":"Region of Southern Denmark","name":"Odense Kommune","lat":"55.39570000","lon":"10.37761000"},
{"state":"Region of Southern Denmark","name":"Oksbøl","lat":"55.62680000","lon":"8.28757000"},
{"state":"Region of Southern Denmark","name":"Otterup","lat":"55.51527000","lon":"10.39756000"},
{"state":"Region of Southern Denmark","name":"Ølgod","lat":"55.80682000","lon":"8.62859000"},
{"state":"Region of Southern Denmark","name":"Padborg","lat":"54.82657000","lon":"9.36247000"},
{"state":"Region of Southern Denmark","name":"Ribe","lat":"55.33051000","lon":"8.76966000"},
{"state":"Region of Southern Denmark","name":"Ringe","lat":"55.23828000","lon":"10.47860000"},
{"state":"Region of Southern Denmark","name":"Rødding","lat":"55.36569000","lon":"9.06316000"},
{"state":"Region of Southern Denmark","name":"Rødekro","lat":"55.07076000","lon":"9.33531000"},
{"state":"Region of Southern Denmark","name":"Rudkøbing","lat":"54.93639000","lon":"10.71019000"},
{"state":"Region of Southern Denmark","name":"Seden","lat":"55.42648000","lon":"10.44265000"},
{"state":"Region of Southern Denmark","name":"Skaerbaek","lat":"55.15735000","lon":"8.76901000"},
{"state":"Region of Southern Denmark","name":"Snoghøj","lat":"55.52253000","lon":"9.72125000"},
{"state":"Region of Southern Denmark","name":"Sønder Bjert","lat":"55.45272000","lon":"9.56741000"},
{"state":"Region of Southern Denmark","name":"Sønderborg","lat":"54.90896000","lon":"9.78917000"},
{"state":"Region of Southern Denmark","name":"Sønderborg Kommune","lat":"54.91667000","lon":"9.80000000"},
{"state":"Region of Southern Denmark","name":"Søndersø","lat":"55.48526000","lon":"10.25540000"},
{"state":"Region of Southern Denmark","name":"Starup","lat":"55.24097000","lon":"9.53503000"},
{"state":"Region of Southern Denmark","name":"Stige","lat":"55.43941000","lon":"10.40940000"},
{"state":"Region of Southern Denmark","name":"Strib","lat":"55.54021000","lon":"9.76748000"},
{"state":"Region of Southern Denmark","name":"Svendborg","lat":"55.05982000","lon":"10.60677000"},
{"state":"Region of Southern Denmark","name":"Svendborg Kommune","lat":"55.08410000","lon":"10.61391000"},
{"state":"Region of Southern Denmark","name":"Taulov","lat":"55.54582000","lon":"9.61553000"},
{"state":"Region of Southern Denmark","name":"Thurø By","lat":"55.04740000","lon":"10.66385000"},
{"state":"Region of Southern Denmark","name":"Tinglev","lat":"54.93788000","lon":"9.25547000"},
{"state":"Region of Southern Denmark","name":"Tjæreborg","lat":"55.46457000","lon":"8.57968000"},
{"state":"Region of Southern Denmark","name":"Toftlund","lat":"55.18858000","lon":"9.06925000"},
{"state":"Region of Southern Denmark","name":"Tommerup","lat":"55.31952000","lon":"10.20659000"},
{"state":"Region of Southern Denmark","name":"Tommerup Stationsby","lat":"55.34535000","lon":"10.17594000"},
{"state":"Region of Southern Denmark","name":"Tønder","lat":"54.93306000","lon":"8.86674000"},
{"state":"Region of Southern Denmark","name":"Tønder Kommune","lat":"55.07304000","lon":"8.87214000"},
{"state":"Region of Southern Denmark","name":"Ullerslev","lat":"55.36172000","lon":"10.65190000"},
{"state":"Region of Southern Denmark","name":"Vamdrup","lat":"55.42764000","lon":"9.28435000"},
{"state":"Region of Southern Denmark","name":"Varde","lat":"55.62112000","lon":"8.48069000"},
{"state":"Region of Southern Denmark","name":"Varde Kommune","lat":"55.61667000","lon":"8.50000000"},
{"state":"Region of Southern Denmark","name":"Vejen","lat":"55.48117000","lon":"9.13795000"},
{"state":"Region of Southern Denmark","name":"Vejen Kommune","lat":"55.46312000","lon":"9.05004000"},
{"state":"Region of Southern Denmark","name":"Vejle","lat":"55.70927000","lon":"9.53570000"},
{"state":"Region of Southern Denmark","name":"Vejle Kommune","lat":"55.74874000","lon":"9.40421000"},
{"state":"Region of Southern Denmark","name":"Vester-Skerninge","lat":"55.07322000","lon":"10.45536000"},
{"state":"Region of Southern Denmark","name":"Vindeby","lat":"55.04489000","lon":"10.61309000"},
{"state":"Region of Southern Denmark","name":"Vissenbjerg","lat":"55.38482000","lon":"10.13784000"},
{"state":"Region of Southern Denmark","name":"Vojens","lat":"55.24639000","lon":"9.30603000"},
{"state":"Region Zealand","name":"Asnæs","lat":"55.81229000","lon":"11.50129000"},
{"state":"Region Zealand","name":"Bjæverskov","lat":"55.45756000","lon":"12.03651000"},
{"state":"Region Zealand","name":"Borup","lat":"55.49472000","lon":"11.97584000"},
{"state":"Region Zealand","name":"Dianalund","lat":"55.53133000","lon":"11.49250000"},
{"state":"Region Zealand","name":"Ejby","lat":"55.48580000","lon":"12.08171000"},
{"state":"Region Zealand","name":"Faxe","lat":"55.25561000","lon":"12.11926000"},
{"state":"Region Zealand","name":"Faxe Kommune","lat":"55.29444000","lon":"12.06111000"},
{"state":"Region Zealand","name":"Faxe Ladeplads","lat":"55.21981000","lon":"12.17013000"},
{"state":"Region Zealand","name":"Fensmark","lat":"55.27919000","lon":"11.80382000"},
{"state":"Region Zealand","name":"Forlev","lat":"55.37445000","lon":"11.25966000"},
{"state":"Region Zealand","name":"Frederiksberg","lat":"55.41618000","lon":"11.56934000"},
{"state":"Region Zealand","name":"Fuglebjerg","lat":"55.30604000","lon":"11.54766000"},
{"state":"Region Zealand","name":"Gørlev","lat":"55.53926000","lon":"11.22708000"},
{"state":"Region Zealand","name":"Greve","lat":"55.58333000","lon":"12.30000000"},
{"state":"Region Zealand","name":"Greve Kommune","lat":"55.58770000","lon":"12.25060000"},
{"state":"Region Zealand","name":"Guldborgsund Kommune","lat":"54.76944000","lon":"11.83611000"},
{"state":"Region Zealand","name":"Gundsømagle","lat":"55.73565000","lon":"12.15158000"},
{"state":"Region Zealand","name":"Hårlev","lat":"55.34936000","lon":"12.23382000"},
{"state":"Region Zealand","name":"Haslev","lat":"55.32346000","lon":"11.96389000"},
{"state":"Region Zealand","name":"Havdrup","lat":"55.54481000","lon":"12.12392000"},
{"state":"Region Zealand","name":"Holbæk","lat":"55.71750000","lon":"11.71279000"},
{"state":"Region Zealand","name":"Holbæk Kommune","lat":"55.65919000","lon":"11.62049000"},
{"state":"Region Zealand","name":"Holeby","lat":"54.71148000","lon":"11.46416000"},
{"state":"Region Zealand","name":"Høng","lat":"55.50736000","lon":"11.28873000"},
{"state":"Region Zealand","name":"Hørve","lat":"55.75292000","lon":"11.45298000"},
{"state":"Region Zealand","name":"Jyderup","lat":"55.66399000","lon":"11.42029000"},
{"state":"Region Zealand","name":"Jyllinge","lat":"55.75295000","lon":"12.10315000"},
{"state":"Region Zealand","name":"Kalundborg","lat":"55.67954000","lon":"11.08864000"},
{"state":"Region Zealand","name":"Kalundborg Kommune","lat":"55.63545000","lon":"11.19993000"},
{"state":"Region Zealand","name":"Kirke Hvalsø","lat":"55.59170000","lon":"11.86253000"},
{"state":"Region Zealand","name":"Korsør","lat":"55.32993000","lon":"11.13857000"},
{"state":"Region Zealand","name":"Køge","lat":"55.45802000","lon":"12.18214000"},
{"state":"Region Zealand","name":"Køge Kommune","lat":"55.45668000","lon":"12.07332000"},
{"state":"Region Zealand","name":"Lejre","lat":"55.60461000","lon":"11.97477000"},
{"state":"Region Zealand","name":"Lejre Kommune","lat":"55.63375000","lon":"11.92234000"},
{"state":"Region Zealand","name":"Lolland Kommune","lat":"54.80238000","lon":"11.29524000"},
{"state":"Region Zealand","name":"Maribo","lat":"54.77662000","lon":"11.50017000"},
{"state":"Region Zealand","name":"Nakskov","lat":"54.83038000","lon":"11.13567000"},
{"state":"Region Zealand","name":"Næstved","lat":"55.22992000","lon":"11.76092000"},
{"state":"Region Zealand","name":"Næstved Kommune","lat":"55.25855000","lon":"11.74615000"},
{"state":"Region Zealand","name":"Neder Vindinge","lat":"55.03211000","lon":"11.88356000"},
{"state":"Region Zealand","name":"Nørre Alslev","lat":"54.89784000","lon":"11.88414000"},
{"state":"Region Zealand","name":"Nykøbing Falster","lat":"54.76906000","lon":"11.87425000"},
{"state":"Region Zealand","name":"Nykøbing Sjælland","lat":"55.92491000","lon":"11.67109000"},
{"state":"Region Zealand","name":"Nyråd","lat":"55.00511000","lon":"11.96060000"},
{"state":"Region Zealand","name":"Odsherred Kommune","lat":"55.88333000","lon":"11.59444000"},
{"state":"Region Zealand","name":"Osted","lat":"55.56228000","lon":"11.95786000"},
{"state":"Region Zealand","name":"Ørslev","lat":"55.04356000","lon":"11.96792000"},
{"state":"Region Zealand","name":"Præstø","lat":"55.12374000","lon":"12.04477000"},
{"state":"Region Zealand","name":"Ringsted","lat":"55.44260000","lon":"11.79011000"},
{"state":"Region Zealand","name":"Ringsted Kommune","lat":"55.44721000","lon":"11.81720000"},
{"state":"Region Zealand","name":"Roskilde","lat":"55.64152000","lon":"12.08035000"},
{"state":"Region Zealand","name":"Roskilde Kommune","lat":"55.65000000","lon":"12.10000000"},
{"state":"Region Zealand","name":"Rødby","lat":"54.69495000","lon":"11.38885000"},
{"state":"Region Zealand","name":"Rødbyhavn","lat":"54.65944000","lon":"11.35504000"},
{"state":"Region Zealand","name":"Rødvig","lat":"55.25540000","lon":"12.37936000"},
{"state":"Region Zealand","name":"Rønnede","lat":"55.25710000","lon":"12.02125000"},
{"state":"Region Zealand","name":"Sakskøbing","lat":"54.79970000","lon":"11.62599000"},
{"state":"Region Zealand","name":"Skælskør","lat":"55.25058000","lon":"11.29352000"},
{"state":"Region Zealand","name":"Slagelse","lat":"55.40276000","lon":"11.35459000"},
{"state":"Region Zealand","name":"Slagelse Kommune","lat":"55.34546000","lon":"11.33390000"},
{"state":"Region Zealand","name":"Solrød","lat":"55.53628000","lon":"12.18270000"},
{"state":"Region Zealand","name":"Solrød Kommune","lat":"55.53553000","lon":"12.17337000"},
{"state":"Region Zealand","name":"Solrød Strand","lat":"55.53285000","lon":"12.22227000"},
{"state":"Region Zealand","name":"Sorø","lat":"55.43184000","lon":"11.55547000"},
{"state":"Region Zealand","name":"Sorø Kommune","lat":"55.48268000","lon":"11.55693000"},
{"state":"Region Zealand","name":"Stege","lat":"54.98704000","lon":"12.28461000"},
{"state":"Region Zealand","name":"Stenlille","lat":"55.53888000","lon":"11.59120000"},
{"state":"Region Zealand","name":"Stevns Kommune","lat":"55.33373000","lon":"12.30692000"},
{"state":"Region Zealand","name":"Store Heddinge","lat":"55.30965000","lon":"12.38885000"},
{"state":"Region Zealand","name":"Strøby Egede","lat":"55.41382000","lon":"12.24502000"},
{"state":"Region Zealand","name":"Stubbekøbing","lat":"54.88875000","lon":"12.04102000"},
{"state":"Region Zealand","name":"Sundby","lat":"54.76711000","lon":"11.84979000"},
{"state":"Region Zealand","name":"Svebølle","lat":"55.65183000","lon":"11.28658000"},
{"state":"Region Zealand","name":"Svinninge","lat":"55.72111000","lon":"11.46547000"},
{"state":"Region Zealand","name":"Svogerslev","lat":"55.63423000","lon":"12.01465000"},
{"state":"Region Zealand","name":"Tølløse","lat":"55.61250000","lon":"11.77034000"},
{"state":"Region Zealand","name":"Tune","lat":"55.59287000","lon":"12.16968000"},
{"state":"Region Zealand","name":"Viby","lat":"55.54872000","lon":"12.02391000"},
{"state":"Region Zealand","name":"Vindinge","lat":"55.62298000","lon":"12.13870000"},
{"state":"Region Zealand","name":"Vipperød","lat":"55.66768000","lon":"11.73967000"},
{"state":"Region Zealand","name":"Vordingborg","lat":"55.00801000","lon":"11.91057000"},
{"state":"Region Zealand","name":"Vordingborg Kommune","lat":"55.01383000","lon":"12.10008000"}]