[{"state":"Saint Andrew Parish","name":"Calibishie","lat":"15.59297000","lon":"-61.34901000"},
{"state":"Saint Andrew Parish","name":"Marigot","lat":"15.53886000","lon":"-61.28375000"},
{"state":"Saint Andrew Parish","name":"Wesley","lat":"15.56667000","lon":"-61.31667000"},
{"state":"Saint Andrew Parish","name":"Woodford Hill","lat":"15.58093000","lon":"-61.33149000"},
{"state":"Saint David Parish","name":"Castle Bruce","lat":"15.44397000","lon":"-61.25723000"},
{"state":"Saint David Parish","name":"Rosalie","lat":"15.36667000","lon":"-61.26667000"},
{"state":"Saint George Parish","name":"Roseau","lat":"15.30174000","lon":"-61.38808000"},
{"state":"Saint John Parish","name":"Portsmouth","lat":"15.58333000","lon":"-61.46667000"},
{"state":"Saint Joseph Parish","name":"Saint Joseph","lat":"15.40000000","lon":"-61.43333000"},
{"state":"Saint Joseph Parish","name":"Salisbury","lat":"15.43689000","lon":"-61.43637000"},
{"state":"Saint Luke Parish","name":"Pointe Michel","lat":"15.25976000","lon":"-61.37452000"},
{"state":"Saint Mark Parish","name":"Soufrière","lat":"15.23374000","lon":"-61.35881000"},
{"state":"Saint Patrick Parish","name":"Berekua","lat":"15.23333000","lon":"-61.31667000"},
{"state":"Saint Patrick Parish","name":"La Plaine","lat":"15.32768000","lon":"-61.24753000"},
{"state":"Saint Paul Parish","name":"Mahaut","lat":"15.36357000","lon":"-61.39701000"},
{"state":"Saint Paul Parish","name":"Pont Cassé","lat":"15.36667000","lon":"-61.35000000"},
{"state":"Saint Peter Parish","name":"Colihaut","lat":"15.48478000","lon":"-61.46215000"}]