[{"state":"Azua Province","name":"Azua","lat":"18.45319000","lon":"-70.73490000"},
{"state":"Azua Province","name":"El Guayabal","lat":"18.74960000","lon":"-70.83690000"},
{"state":"Azua Province","name":"Estebanía","lat":"18.45770000","lon":"-70.64350000"},
{"state":"Azua Province","name":"Las Charcas","lat":"18.45026000","lon":"-70.61724000"},
{"state":"Azua Province","name":"Padre Las Casas","lat":"18.75000000","lon":"-70.88333000"},
{"state":"Azua Province","name":"Palmar de Ocoa","lat":"18.29656000","lon":"-70.58635000"},
{"state":"Azua Province","name":"Peralta","lat":"18.58164000","lon":"-70.77029000"},
{"state":"Azua Province","name":"Pueblo Viejo","lat":"18.40000000","lon":"-70.76765000"},
{"state":"Azua Province","name":"Sabana Yegua","lat":"18.71667000","lon":"-71.01667000"},
{"state":"Azua Province","name":"Tábara Arriba","lat":"18.56999000","lon":"-70.87978000"},
{"state":"Azua Province","name":"Villarpando","lat":"18.65860000","lon":"-71.03916000"},
{"state":"Azua Province","name":"Yayas de Viajama","lat":"18.60710000","lon":"-70.92753000"},
{"state":"Baoruco Province","name":"El Palmar","lat":"18.41139000","lon":"-71.24558000"},
{"state":"Baoruco Province","name":"Galván","lat":"18.50228000","lon":"-71.34271000"},
{"state":"Baoruco Province","name":"La Uvilla","lat":"18.36186000","lon":"-71.21046000"},
{"state":"Baoruco Province","name":"Los Ríos","lat":"18.52131000","lon":"-71.59106000"},
{"state":"Baoruco Province","name":"Neiba","lat":"18.48137000","lon":"-71.41965000"},
{"state":"Baoruco Province","name":"Tamayo","lat":"18.50000000","lon":"-71.16667000"},
{"state":"Baoruco Province","name":"Villa Jaragua","lat":"18.49077000","lon":"-71.48377000"},
{"state":"Barahona Province","name":"Cabral","lat":"18.19991000","lon":"-71.24660000"},
{"state":"Barahona Province","name":"Cachón","lat":"18.24833000","lon":"-71.18912000"},
{"state":"Barahona Province","name":"Canoa","lat":"18.35499000","lon":"-71.15851000"},
{"state":"Barahona Province","name":"El Peñón","lat":"18.29643000","lon":"-71.18410000"},
{"state":"Barahona Province","name":"Enriquillo","lat":"17.91667000","lon":"-71.25000000"},
{"state":"Barahona Province","name":"Fundación","lat":"18.28668000","lon":"-71.18147000"},
{"state":"Barahona Province","name":"Jaquimeyes","lat":"18.31173000","lon":"-71.16145000"},
{"state":"Barahona Province","name":"La Ciénaga","lat":"18.06858000","lon":"-71.10651000"},
{"state":"Barahona Province","name":"Las Salinas","lat":"18.27485000","lon":"-71.31596000"},
{"state":"Barahona Province","name":"Paraíso","lat":"18.02652000","lon":"-71.20889000"},
{"state":"Barahona Province","name":"Pescadería","lat":"18.26766000","lon":"-71.16612000"},
{"state":"Barahona Province","name":"Polo","lat":"18.07873000","lon":"-71.28723000"},
{"state":"Barahona Province","name":"Santa Cruz de Barahona","lat":"18.20854000","lon":"-71.10077000"},
{"state":"Barahona Province","name":"Vicente Noble","lat":"18.38443000","lon":"-71.18009000"},
{"state":"Dajabón Province","name":"Dajabón","lat":"19.54878000","lon":"-71.70829000"},
{"state":"Dajabón Province","name":"El Pino","lat":"19.43537000","lon":"-71.47540000"},
{"state":"Dajabón Province","name":"Loma de Cabrera","lat":"19.41667000","lon":"-71.58333000"},
{"state":"Dajabón Province","name":"Partido","lat":"19.48403000","lon":"-71.54730000"},
{"state":"Dajabón Province","name":"Restauración","lat":"19.31532000","lon":"-71.69239000"},
{"state":"Distrito Nacional","name":"Bella Vista","lat":"18.45539000","lon":"-69.94540000"},
{"state":"Distrito Nacional","name":"Ciudad Nueva","lat":"18.46707000","lon":"-69.89339000"},
{"state":"Distrito Nacional","name":"Cristo Rey","lat":"18.50000000","lon":"-69.93333000"},
{"state":"Distrito Nacional","name":"Ensanche Luperón","lat":"18.50000000","lon":"-69.90000000"},
{"state":"Distrito Nacional","name":"La Agustina","lat":"18.50000000","lon":"-69.93333000"},
{"state":"Distrito Nacional","name":"La Julia","lat":"18.46667000","lon":"-69.93333000"},
{"state":"Distrito Nacional","name":"San Carlos","lat":"18.48333000","lon":"-69.90000000"},
{"state":"Distrito Nacional","name":"Santo Domingo","lat":"18.47186000","lon":"-69.89232000"},
{"state":"Distrito Nacional","name":"Villa Consuelo","lat":"18.48333000","lon":"-69.90000000"},
{"state":"Distrito Nacional","name":"Villa Francisca","lat":"18.48278000","lon":"-69.88914000"},
{"state":"Duarte Province","name":"Agua Santa del Yuna","lat":"19.15072000","lon":"-69.80069000"},
{"state":"Duarte Province","name":"Arenoso","lat":"19.18732000","lon":"-69.85917000"},
{"state":"Duarte Province","name":"Castillo","lat":"19.25000000","lon":"-70.00000000"},
{"state":"Duarte Province","name":"Hostos","lat":"19.18043000","lon":"-70.02046000"},
{"state":"Duarte Province","name":"Las Guáranas","lat":"19.19310000","lon":"-70.20835000"},
{"state":"Duarte Province","name":"Pimentel","lat":"19.21667000","lon":"-70.16667000"},
{"state":"Duarte Province","name":"San Francisco de Macorís","lat":"19.30099000","lon":"-70.25259000"},
{"state":"Duarte Province","name":"Villa Riva","lat":"19.15051000","lon":"-69.88370000"},
{"state":"El Seibo Province","name":"Miches","lat":"18.98364000","lon":"-69.04760000"},
{"state":"El Seibo Province","name":"Pedro Sánchez","lat":"18.86375000","lon":"-69.10868000"},
{"state":"El Seibo Province","name":"Santa Cruz de El Seibo","lat":"18.76559000","lon":"-69.03886000"},
{"state":"Espaillat Province","name":"Cayetano Germosén","lat":"19.34285000","lon":"-70.47573000"},
{"state":"Espaillat Province","name":"Gaspar Hernández","lat":"19.62748000","lon":"-70.27772000"},
{"state":"Espaillat Province","name":"Jamao al Norte","lat":"19.63552000","lon":"-70.44664000"},
{"state":"Espaillat Province","name":"Joba Arriba","lat":"19.56667000","lon":"-70.26667000"},
{"state":"Espaillat Province","name":"Juan López Abajo","lat":"19.43333000","lon":"-70.50000000"},
{"state":"Espaillat Province","name":"Moca","lat":"19.50000000","lon":"-70.50000000"},
{"state":"Espaillat Province","name":"San Víctor Arriba","lat":"19.47741000","lon":"-70.53585000"},
{"state":"Espaillat Province","name":"Veragua Arriba","lat":"19.58333000","lon":"-70.33333000"},
{"state":"Hato Mayor Province","name":"El Valle","lat":"18.93333000","lon":"-69.38333000"},
{"state":"Hato Mayor Province","name":"Guayabo Dulce","lat":"18.65000000","lon":"-69.28333000"},
{"state":"Hato Mayor Province","name":"Hato Mayor del Rey","lat":"18.76278000","lon":"-69.25681000"},
{"state":"Hato Mayor Province","name":"Sabana de la Mar","lat":"19.03333000","lon":"-69.41667000"},
{"state":"Hermanas Mirabal Province","name":"Salcedo","lat":"19.41667000","lon":"-70.38333000"},
{"state":"Hermanas Mirabal Province","name":"Salsipuedes","lat":"19.40552000","lon":"-70.37985000"},
{"state":"Hermanas Mirabal Province","name":"Tenares","lat":"19.37439000","lon":"-70.35087000"},
{"state":"Hermanas Mirabal Province","name":"Villa Tapia","lat":"19.30084000","lon":"-70.42199000"},
{"state":"Independencia","name":"Cristóbal","lat":"18.29405000","lon":"-71.29298000"},
{"state":"Independencia","name":"Duvergé","lat":"18.31634000","lon":"-71.59451000"},
{"state":"Independencia","name":"Guayabal","lat":"18.59810000","lon":"-71.64184000"},
{"state":"Independencia","name":"Jimaní","lat":"18.49169000","lon":"-71.85022000"},
{"state":"Independencia","name":"La Descubierta","lat":"18.57053000","lon":"-71.72967000"},
{"state":"Independencia","name":"Mella","lat":"18.35871000","lon":"-71.41716000"},
{"state":"Independencia","name":"Postrer Río","lat":"18.54374000","lon":"-71.63561000"},
{"state":"La Altagracia Province","name":"Boca de Yuma","lat":"18.37825000","lon":"-68.60900000"},
{"state":"La Altagracia Province","name":"Higüey","lat":"18.70000000","lon":"-68.66667000"},
{"state":"La Altagracia Province","name":"Otra Banda","lat":"18.65017000","lon":"-68.66281000"},
{"state":"La Altagracia Province","name":"Punta Cana","lat":"18.58182000","lon":"-68.40431000"},
{"state":"La Altagracia Province","name":"Salvaleón de Higüey","lat":"18.61501000","lon":"-68.70798000"},
{"state":"La Altagracia Province","name":"San Rafael del Yuma","lat":"18.42993000","lon":"-68.67390000"},
{"state":"La Romana Province","name":"Guaymate","lat":"18.58793000","lon":"-68.97867000"},
{"state":"La Romana Province","name":"La Romana","lat":"18.42733000","lon":"-68.97285000"},
{"state":"La Vega Province","name":"Concepción de La Vega","lat":"19.22207000","lon":"-70.52956000"},
{"state":"La Vega Province","name":"Constanza","lat":"18.90919000","lon":"-70.74499000"},
{"state":"La Vega Province","name":"Jarabacoa","lat":"19.11683000","lon":"-70.63595000"},
{"state":"La Vega Province","name":"Jima Abajo","lat":"19.13292000","lon":"-70.37607000"},
{"state":"La Vega Province","name":"Rincón","lat":"19.11938000","lon":"-70.40632000"},
{"state":"La Vega Province","name":"Río Verde Arriba","lat":"19.31583000","lon":"-70.56643000"},
{"state":"La Vega Province","name":"Tireo Arriba","lat":"18.93537000","lon":"-70.68850000"},
{"state":"María Trinidad Sánchez Province","name":"Arroyo Salado","lat":"19.50000000","lon":"-69.90000000"},
{"state":"María Trinidad Sánchez Province","name":"Cabrera","lat":"19.64260000","lon":"-69.90489000"},
{"state":"María Trinidad Sánchez Province","name":"El Factor","lat":"19.31834000","lon":"-69.88827000"},
{"state":"María Trinidad Sánchez Province","name":"La Entrada","lat":"19.55367000","lon":"-69.90762000"},
{"state":"María Trinidad Sánchez Province","name":"Nagua","lat":"19.38320000","lon":"-69.84740000"},
{"state":"María Trinidad Sánchez Province","name":"Río San Juan","lat":"19.55022000","lon":"-70.07703000"},
{"state":"Monseñor Nouel Province","name":"Bonao","lat":"18.91667000","lon":"-70.46667000"},
{"state":"Monseñor Nouel Province","name":"Juan Adrián","lat":"18.76365000","lon":"-70.33732000"},
{"state":"Monseñor Nouel Province","name":"Maimón","lat":"18.88333000","lon":"-70.30000000"},
{"state":"Monseñor Nouel Province","name":"Piedra Blanca","lat":"18.84431000","lon":"-70.31688000"},
{"state":"Monseñor Nouel Province","name":"Sabana del Puerto","lat":"19.06667000","lon":"-70.41667000"},
{"state":"Monte Cristi Province","name":"Cana Chapetón","lat":"19.60703000","lon":"-71.25734000"},
{"state":"Monte Cristi Province","name":"Castañuelas","lat":"19.71387000","lon":"-71.49876000"},
{"state":"Monte Cristi Province","name":"Guayubín","lat":"19.61667000","lon":"-71.33333000"},
{"state":"Monte Cristi Province","name":"Hatillo Palma","lat":"19.66256000","lon":"-71.19406000"},
{"state":"Monte Cristi Province","name":"Las Matas de Santa Cruz","lat":"19.67119000","lon":"-71.50471000"},
{"state":"Monte Cristi Province","name":"Monte Cristi","lat":"19.83333000","lon":"-71.61667000"},
{"state":"Monte Cristi Province","name":"Pepillo Salcedo","lat":"19.66667000","lon":"-71.66667000"},
{"state":"Monte Cristi Province","name":"San Fernando de Monte Cristi","lat":"19.84826000","lon":"-71.64597000"},
{"state":"Monte Cristi Province","name":"Villa Elisa","lat":"19.68560000","lon":"-71.27007000"},
{"state":"Monte Cristi Province","name":"Villa Vásquez","lat":"19.80791000","lon":"-71.44000000"},
{"state":"Monte Plata Province","name":"Bayaguana","lat":"18.78333000","lon":"-69.60000000"},
{"state":"Monte Plata Province","name":"Don Juan","lat":"18.82774000","lon":"-69.94629000"},
{"state":"Monte Plata Province","name":"Esperalvillo","lat":"18.81509000","lon":"-70.03557000"},
{"state":"Monte Plata Province","name":"Gonzalo","lat":"18.95147000","lon":"-69.75114000"},
{"state":"Monte Plata Province","name":"Los Botados","lat":"18.73226000","lon":"-69.99536000"},
{"state":"Monte Plata Province","name":"Majagual","lat":"19.04134000","lon":"-69.83616000"},
{"state":"Monte Plata Province","name":"Monte Plata","lat":"18.80700000","lon":"-69.78399000"},
{"state":"Monte Plata Province","name":"Sabana Grande de Boyá","lat":"18.94498000","lon":"-69.79331000"},
{"state":"Monte Plata Province","name":"Yamasá","lat":"18.77315000","lon":"-70.02583000"},
{"state":"Pedernales Province","name":"Juancho","lat":"17.85782000","lon":"-71.29311000"},
{"state":"Pedernales Province","name":"Oviedo","lat":"17.80136000","lon":"-71.40100000"},
{"state":"Pedernales Province","name":"Pedernales","lat":"18.08333000","lon":"-71.60000000"},
{"state":"Peravia Province","name":"Baní","lat":"18.27964000","lon":"-70.33185000"},
{"state":"Peravia Province","name":"Matanzas","lat":"18.24297000","lon":"-70.41768000"},
{"state":"Peravia Province","name":"Nizao","lat":"18.24697000","lon":"-70.21053000"},
{"state":"Peravia Province","name":"Paya","lat":"18.26196000","lon":"-70.29560000"},
{"state":"Peravia Province","name":"Pizarrete","lat":"18.29935000","lon":"-70.22648000"},
{"state":"Peravia Province","name":"Sabana Buey","lat":"18.27351000","lon":"-70.52352000"},
{"state":"Puerto Plata Province","name":"Altamira","lat":"19.70000000","lon":"-70.83333000"},
{"state":"Puerto Plata Province","name":"Cabarete","lat":"19.74982000","lon":"-70.40829000"},
{"state":"Puerto Plata Province","name":"Estero Hondo","lat":"19.82712000","lon":"-71.17411000"},
{"state":"Puerto Plata Province","name":"Guananico","lat":"19.72693000","lon":"-70.92294000"},
{"state":"Puerto Plata Province","name":"Imbert","lat":"19.75371000","lon":"-70.82906000"},
{"state":"Puerto Plata Province","name":"Los Hidalgos","lat":"19.73333000","lon":"-71.03333000"},
{"state":"Puerto Plata Province","name":"Luperón","lat":"19.89131000","lon":"-70.96204000"},
{"state":"Puerto Plata Province","name":"Monte Llano","lat":"19.73460000","lon":"-70.59915000"},
{"state":"Puerto Plata Province","name":"Puerto Plata","lat":"19.75119000","lon":"-70.70251000"},
{"state":"Puerto Plata Province","name":"Río Grande","lat":"19.66667000","lon":"-70.76667000"},
{"state":"Puerto Plata Province","name":"Sosúa","lat":"19.75220000","lon":"-70.51995000"},
{"state":"Puerto Plata Province","name":"Villa Isabela","lat":"19.81564000","lon":"-71.06056000"},
{"state":"Samaná Province","name":"Las Terrenas","lat":"19.31102000","lon":"-69.54280000"},
{"state":"Samaná Province","name":"Samaná","lat":"19.20561000","lon":"-69.33685000"},
{"state":"Samaná Province","name":"Sánchez","lat":"19.22810000","lon":"-69.61370000"},
{"state":"San Cristóbal Province","name":"Bajos de Haina","lat":"18.41667000","lon":"-70.03333000"},
{"state":"San Cristóbal Province","name":"Cambita Garabitos","lat":"18.50000000","lon":"-70.23333000"},
{"state":"San Cristóbal Province","name":"El Cacao","lat":"18.52719000","lon":"-70.29585000"},
{"state":"San Cristóbal Province","name":"El Carril","lat":"18.44905000","lon":"-70.02785000"},
{"state":"San Cristóbal Province","name":"Sabana Grande de Palenque","lat":"18.26256000","lon":"-70.14821000"},
{"state":"San Cristóbal Province","name":"San Cristóbal","lat":"18.41667000","lon":"-70.13333000"},
{"state":"San Cristóbal Province","name":"San Gregorio de Nigua","lat":"18.38333000","lon":"-70.08333000"},
{"state":"San Cristóbal Province","name":"Villa Altagracia","lat":"18.63333000","lon":"-70.25000000"},
{"state":"San Cristóbal Province","name":"Yaguate","lat":"18.33333000","lon":"-70.18333000"},
{"state":"San José de Ocoa Province","name":"San José de Ocoa","lat":"18.54661000","lon":"-70.50631000"},
{"state":"San Juan Province","name":"Bohechío","lat":"18.77515000","lon":"-70.98889000"},
{"state":"San Juan Province","name":"Cercado Abajo","lat":"18.72681000","lon":"-71.51742000"},
{"state":"San Juan Province","name":"El Cercado","lat":"18.70000000","lon":"-71.46667000"},
{"state":"San Juan Province","name":"Juan de Herrera","lat":"18.87402000","lon":"-71.23830000"},
{"state":"San Juan Province","name":"Las Matas de Farfán","lat":"18.91667000","lon":"-71.50000000"},
{"state":"San Juan Province","name":"Matayaya","lat":"18.89036000","lon":"-71.59459000"},
{"state":"San Juan Province","name":"Pedro Corto","lat":"18.84856000","lon":"-71.41041000"},
{"state":"San Juan Province","name":"San Juan de la Maguana","lat":"18.80588000","lon":"-71.22991000"},
{"state":"San Juan Province","name":"Vallejuelo","lat":"18.65354000","lon":"-71.33431000"},
{"state":"San Pedro de Macorís","name":"El Puerto","lat":"18.78333000","lon":"-69.46667000"},
{"state":"San Pedro de Macorís","name":"Los Llanos","lat":"18.62035000","lon":"-69.49581000"},
{"state":"San Pedro de Macorís","name":"Quisqueya","lat":"18.55542000","lon":"-69.40814000"},
{"state":"San Pedro de Macorís","name":"Ramón Santana","lat":"18.54224000","lon":"-69.17979000"},
{"state":"San Pedro de Macorís","name":"San Pedro de Macorís","lat":"18.45390000","lon":"-69.30864000"},
{"state":"Sánchez Ramírez Province","name":"Cevicos","lat":"19.00449000","lon":"-69.97896000"},
{"state":"Sánchez Ramírez Province","name":"Cotuí","lat":"19.05272000","lon":"-70.14939000"},
{"state":"Sánchez Ramírez Province","name":"Fantino","lat":"19.11667000","lon":"-70.30000000"},
{"state":"Santiago Province","name":"Baitoa","lat":"19.32512000","lon":"-70.70357000"},
{"state":"Santiago Province","name":"Bisonó","lat":"19.58333000","lon":"-70.86667000"},
{"state":"Santiago Province","name":"Juncalito Abajo","lat":"19.21990000","lon":"-70.81905000"},
{"state":"Santiago Province","name":"La Canela","lat":"19.47341000","lon":"-70.81629000"},
{"state":"Santiago Province","name":"Licey al Medio","lat":"19.45000000","lon":"-70.60000000"},
{"state":"Santiago Province","name":"Palmar Arriba","lat":"19.53957000","lon":"-70.73826000"},
{"state":"Santiago Province","name":"Pedro García","lat":"19.59202000","lon":"-70.65256000"},
{"state":"Santiago Province","name":"Sabana Iglesia","lat":"19.32114000","lon":"-70.75992000"},
{"state":"Santiago Province","name":"San José de Las Matas","lat":"19.33915000","lon":"-70.93819000"},
{"state":"Santiago Province","name":"Santiago de los Caballeros","lat":"19.45170000","lon":"-70.69703000"},
{"state":"Santiago Province","name":"Santo Tomás de Jánico","lat":"19.23528000","lon":"-70.79515000"},
{"state":"Santiago Province","name":"Tamboril","lat":"19.48538000","lon":"-70.61104000"},
{"state":"Santiago Province","name":"Villa Bisonó","lat":"19.56378000","lon":"-70.87582000"},
{"state":"Santiago Province","name":"Villa González","lat":"19.54057000","lon":"-70.78853000"},
{"state":"Santiago Rodríguez Province","name":"Monción","lat":"19.46667000","lon":"-71.16667000"},
{"state":"Santiago Rodríguez Province","name":"Sabaneta","lat":"19.47793000","lon":"-71.34125000"},
{"state":"Santiago Rodríguez Province","name":"San Ignacio de Sabaneta","lat":"19.38333000","lon":"-71.35000000"},
{"state":"Santo Domingo Province","name":"Boca Chica","lat":"18.45000000","lon":"-69.60000000"},
{"state":"Santo Domingo Province","name":"Santo Domingo Este","lat":"18.48847000","lon":"-69.85707000"},
{"state":"Santo Domingo Province","name":"Santo Domingo Oeste","lat":"18.50000000","lon":"-70.00000000"},
{"state":"Valverde Province","name":"Amina","lat":"19.54813000","lon":"-70.99599000"},
{"state":"Valverde Province","name":"Esperanza","lat":"19.62379000","lon":"-70.97141000"},
{"state":"Valverde Province","name":"Guatapanal","lat":"19.50705000","lon":"-70.91713000"},
{"state":"Valverde Province","name":"Jaibón","lat":"19.61169000","lon":"-71.14847000"},
{"state":"Valverde Province","name":"Jicomé","lat":"19.64955000","lon":"-70.94927000"},
{"state":"Valverde Province","name":"La Caya","lat":"19.69981000","lon":"-71.12084000"},
{"state":"Valverde Province","name":"Laguna Salada","lat":"19.70000000","lon":"-71.13333000"},
{"state":"Valverde Province","name":"Maizal","lat":"19.63655000","lon":"-71.02734000"},
{"state":"Valverde Province","name":"Mao","lat":"19.55186000","lon":"-71.07813000"}]