[{"name":"Adrar","native":null,"cities":[{"name":"Adrar","native":null,"lat":"27.87429000","lon":"-0.29388000"},{"name":"Aoulef","native":null,"lat":"26.96667000","lon":"1.08333000"},{"name":"Reggane","native":null,"lat":"26.71576000","lon":"0.17140000"},{"name":"Timimoun","native":null,"lat":"29.26388000","lon":"0.23098000"}]},{"name":"Aïn Defla","native":null,"cities":[{"name":"Aïn Defla","native":null,"lat":"36.26405000","lon":"1.96790000"},{"name":"El Abadia","native":null,"lat":"36.26951000","lon":"1.68609000"},{"name":"El Attaf","native":null,"lat":"36.22393000","lon":"1.67187000"},{"name":"Khemis Miliana","native":null,"lat":"36.26104000","lon":"2.22015000"},{"name":"Theniet el Had","native":null,"lat":"35.87111000","lon":"2.02806000"}]},{"name":"Aïn Témouchent","native":null,"cities":[{"name":"Aïn Temouchent","native":null,"lat":"35.29749000","lon":"-1.14037000"},{"name":"Beni Saf","native":null,"lat":"35.30099000","lon":"-1.38226000"},{"name":"El Amria","native":null,"lat":"35.52439000","lon":"-1.01577000"},{"name":"El Malah","native":null,"lat":"35.39137000","lon":"-1.09238000"},{"name":"Hammam Bou Hadjar","native":null,"lat":"35.37889000","lon":"-0.96778000"}]},{"name":"Algiers","native":null,"cities":[{"name":"Aïn Taya","native":null,"lat":"36.79333000","lon":"3.28694000"},{"name":"Algiers","native":null,"lat":"36.73225000","lon":"3.08746000"},{"name":"Bab Ezzouar","native":null,"lat":"36.72615000","lon":"3.18291000"},{"name":"Birkhadem","native":null,"lat":"36.71499000","lon":"3.05002000"},{"name":"Bordj el Kiffan","native":null,"lat":"36.74871000","lon":"3.19249000"},{"name":"Dar el Beïda","native":null,"lat":"36.71333000","lon":"3.21250000"},{"name":"Rouiba","native":null,"lat":"36.73829000","lon":"3.28079000"}]},{"name":"Annaba","native":null,"cities":[{"name":"Annaba","native":null,"lat":"36.90000000","lon":"7.76667000"},{"name":"Berrahal","native":null,"lat":"36.83528000","lon":"7.45333000"},{"name":"Drean","native":null,"lat":"36.68482000","lon":"7.75111000"},{"name":"El Hadjar","native":null,"lat":"36.80377000","lon":"7.73684000"}]},{"name":"Batna","native":null,"cities":[{"name":"Aïn Touta","native":null,"lat":"35.37675000","lon":"5.90001000"},{"name":"Arris","native":null,"lat":"35.25881000","lon":"6.34706000"},{"name":"Barika","native":null,"lat":"35.38901000","lon":"5.36584000"},{"name":"Batna","native":null,"lat":"35.55597000","lon":"6.17414000"},{"name":"Boumagueur","native":null,"lat":"35.50520000","lon":"5.55250000"},{"name":"Merouana","native":null,"lat":"35.63106000","lon":"5.91186000"},{"name":"Râs el Aïoun","native":null,"lat":"35.67384000","lon":"5.64530000"},{"name":"Tazoult-Lambese","native":null,"lat":"35.48171000","lon":"6.26074000"}]},{"name":"Béchar","native":null,"cities":[{"name":"Béchar","native":null,"lat":"31.61667000","lon":"-2.21667000"}]},{"name":"Béjaïa","native":null,"cities":[{"name":"Akbou","native":null,"lat":"36.45750000","lon":"4.53494000"},{"name":"Amizour","native":null,"lat":"36.64022000","lon":"4.90131000"},{"name":"Barbacha","native":null,"lat":"36.56667000","lon":"4.96667000"},{"name":"Bejaïa","native":null,"lat":"36.75587000","lon":"5.08433000"},{"name":"el hed","native":null,"lat":"36.65000000","lon":"4.77361000"},{"name":"El Kseur","native":null,"lat":"36.67942000","lon":"4.85550000"},{"name":"Feraoun","native":null,"lat":"36.56041000","lon":"4.85454000"},{"name":"Seddouk","native":null,"lat":"36.54722000","lon":"4.68611000"}]},{"name":"Béni Abbès","native":null,"cities":[]},{"name":"Biskra","native":null,"cities":[{"name":"Biskra","native":null,"lat":"34.85038000","lon":"5.72805000"},{"name":"Oumache","native":null,"lat":"34.69292000","lon":"5.68092000"},{"name":"Sidi Khaled","native":null,"lat":"34.38700000","lon":"4.98785000"},{"name":"Sidi Okba","native":null,"lat":"34.74512000","lon":"5.89833000"},{"name":"Tolga","native":null,"lat":"34.72224000","lon":"5.37845000"},{"name":"Zeribet el Oued","native":null,"lat":"34.68284000","lon":"6.51109000"}]},{"name":"Blida","native":null,"cities":[{"name":"Beni Mered","native":null,"lat":"36.52389000","lon":"2.86131000"},{"name":"Blida","native":null,"lat":"36.47004000","lon":"2.82770000"},{"name":"Boû Arfa","native":null,"lat":"36.46298000","lon":"2.81464000"},{"name":"Boufarik","native":null,"lat":"36.57413000","lon":"2.91214000"},{"name":"Bougara","native":null,"lat":"36.54178000","lon":"3.08100000"},{"name":"Bouinan","native":null,"lat":"36.53167000","lon":"2.99194000"},{"name":"Chebli","native":null,"lat":"36.57722000","lon":"3.00917000"},{"name":"Chiffa","native":null,"lat":"36.46293000","lon":"2.73873000"},{"name":"Larbaâ","native":null,"lat":"36.56471000","lon":"3.15434000"},{"name":"Meftah","native":null,"lat":"36.62040000","lon":"3.22248000"},{"name":"Sidi Moussa","native":null,"lat":"36.60637000","lon":"3.08783000"},{"name":"Souma","native":null,"lat":"36.51833000","lon":"2.90528000"}]},{"name":"Bordj Baji Mokhtar","native":null,"cities":[]},{"name":"Bordj Bou Arréridj","native":null,"cities":[{"name":"Bordj Bou Arreridj","native":null,"lat":"36.07321000","lon":"4.76108000"},{"name":"Bordj Ghdir","native":null,"lat":"35.90111000","lon":"4.89806000"},{"name":"Bordj Zemoura","native":null,"lat":"36.27462000","lon":"4.85668000"},{"name":"El Achir","native":null,"lat":"36.06386000","lon":"4.62744000"},{"name":"Mansourah","native":null,"lat":"36.08725000","lon":"4.45192000"},{"name":"Melouza","native":null,"lat":"35.97999000","lon":"4.18665000"},{"name":"Râs el Oued","native":null,"lat":"35.94410000","lon":"5.03107000"}]},{"name":"Bouïra","native":null,"cities":[{"name":"Aïn Bessem","native":null,"lat":"36.29333000","lon":"3.67319000"},{"name":"Bouïra","native":null,"lat":"36.37489000","lon":"3.90200000"},{"name":"Chorfa","native":null,"lat":"36.36505000","lon":"4.32636000"},{"name":"Draa el Mizan","native":null,"lat":"36.53628000","lon":"3.83340000"},{"name":"Lakhdaria","native":null,"lat":"36.56463000","lon":"3.59330000"},{"name":"Sour el Ghozlane","native":null,"lat":"36.14766000","lon":"3.69123000"}]},{"name":"Boumerdès","native":null,"cities":[{"name":"Arbatache","native":null,"lat":"36.63773000","lon":"3.37127000"},{"name":"Beni Amrane","native":null,"lat":"36.66774000","lon":"3.59115000"},{"name":"Boudouaou","native":null,"lat":"36.72735000","lon":"3.40995000"},{"name":"Boumerdas","native":null,"lat":"36.76639000","lon":"3.47717000"},{"name":"Chabet el Ameur","native":null,"lat":"36.63709000","lon":"3.69474000"},{"name":"Dellys","native":null,"lat":"36.91716000","lon":"3.91311000"},{"name":"Khemis el Khechna","native":null,"lat":"36.64997000","lon":"3.33080000"},{"name":"Makouda","native":null,"lat":"36.78567000","lon":"4.06273000"},{"name":"Naciria","native":null,"lat":"36.74625000","lon":"3.83163000"},{"name":"Ouled Moussa","native":null,"lat":"36.68394000","lon":"3.36661000"},{"name":"Reghaïa","native":null,"lat":"36.73587000","lon":"3.34018000"},{"name":"Tadmaït","native":null,"lat":"36.74413000","lon":"3.90045000"},{"name":"Thenia","native":null,"lat":"36.72544000","lon":"3.55665000"},{"name":"Tizi Gheniff","native":null,"lat":"36.58839000","lon":"3.77445000"}]},{"name":"Chlef","native":null,"cities":[{"name":"Abou el Hassan","native":null,"lat":"36.41657000","lon":"1.19616000"},{"name":"Boukadir","native":null,"lat":"36.06629000","lon":"1.12602000"},{"name":"Chlef","native":null,"lat":"36.16525000","lon":"1.33452000"},{"name":"Ech Chettia","native":null,"lat":"36.19591000","lon":"1.25537000"},{"name":"Oued Fodda","native":null,"lat":"36.18503000","lon":"1.53299000"},{"name":"Oued Sly","native":null,"lat":"36.10124000","lon":"1.19949000"},{"name":"Sidi Akkacha","native":null,"lat":"36.46472000","lon":"1.30258000"}]},{"name":"Constantine","native":null,"cities":[{"name":"’Aïn Abid","native":null,"lat":"36.23194000","lon":"6.94333000"},{"name":"Aïn Smara","native":null,"lat":"36.26740000","lon":"6.50135000"},{"name":"Constantine","native":null,"lat":"36.36500000","lon":"6.61472000"},{"name":"Didouche Mourad","native":null,"lat":"36.45250000","lon":"6.63639000"},{"name":"El Khroub","native":null,"lat":"36.26333000","lon":"6.69361000"},{"name":"Hamma Bouziane","native":null,"lat":"36.41205000","lon":"6.59603000"}]},{"name":"Djanet","native":null,"cities":[]},{"name":"Djelfa","native":null,"cities":[{"name":"’Aïn el Bell","native":null,"lat":"34.34381000","lon":"3.22475000"},{"name":"Aïn Oussera","native":null,"lat":"35.45139000","lon":"2.90583000"},{"name":"Birine","native":null,"lat":"35.63500000","lon":"3.22500000"},{"name":"Charef","native":null,"lat":"34.62098000","lon":"2.79503000"},{"name":"Dar Chioukh","native":null,"lat":"34.89638000","lon":"3.48543000"},{"name":"Djelfa","native":null,"lat":"34.67279000","lon":"3.26300000"},{"name":"El Idrissia","native":null,"lat":"34.44542000","lon":"2.52749000"},{"name":"Messaad","native":null,"lat":"34.15429000","lon":"3.50309000"}]},{"name":"El Bayadh","native":null,"cities":[{"name":"Brezina","native":null,"lat":"33.09892000","lon":"1.26082000"},{"name":"El Abiodh Sidi Cheikh","native":null,"lat":"32.89300000","lon":"0.54839000"},{"name":"El Bayadh","native":null,"lat":"33.68318000","lon":"1.01927000"}]},{"name":"El M'ghair","native":null,"cities":[]},{"name":"El Menia","native":null,"cities":[]},{"name":"El Oued","native":null,"cities":[{"name":"Debila","native":null,"lat":"33.51667000","lon":"6.95000000"},{"name":"El Oued","native":null,"lat":"33.35608000","lon":"6.86319000"},{"name":"Reguiba","native":null,"lat":"33.56391000","lon":"6.70326000"},{"name":"Robbah","native":null,"lat":"33.27967000","lon":"6.90984000"}]},{"name":"El Tarf","native":null,"cities":[{"name":"Ben Mehidi","native":null,"lat":"36.76967000","lon":"7.90641000"},{"name":"Besbes","native":null,"lat":"36.70222000","lon":"7.84722000"},{"name":"El Kala","native":null,"lat":"36.89556000","lon":"8.44333000"},{"name":"El Tarf","native":null,"lat":"36.76720000","lon":"8.31377000"}]},{"name":"Ghardaïa","native":null,"cities":[{"name":"Berriane","native":null,"lat":"32.82648000","lon":"3.76689000"},{"name":"Ghardaïa","native":null,"lat":"32.49094000","lon":"3.67347000"},{"name":"Metlili Chaamba","native":null,"lat":"32.26667000","lon":"3.63333000"}]},{"name":"Guelma","native":null,"cities":[{"name":"Boumahra Ahmed","native":null,"lat":"36.45833000","lon":"7.51389000"},{"name":"Guelma","native":null,"lat":"36.46214000","lon":"7.42608000"},{"name":"Héliopolis","native":null,"lat":"36.50361000","lon":"7.44278000"}]},{"name":"Illizi","native":null,"cities":[{"name":"Illizi","native":null,"lat":"26.48333000","lon":"8.46667000"}]},{"name":"In Guezzam","native":null,"cities":[]},{"name":"In Salah","native":null,"cities":[]},{"name":"Jijel","native":null,"cities":[{"name":"Jijel","native":null,"lat":"36.82055000","lon":"5.76671000"}]},{"name":"Khenchela","native":null,"cities":[{"name":"Khenchela","native":null,"lat":"35.43583000","lon":"7.14333000"}]},{"name":"Laghouat","native":null,"cities":[{"name":"Aflou","native":null,"lat":"34.11279000","lon":"2.10228000"},{"name":"Laghouat","native":null,"lat":"33.80000000","lon":"2.86514000"}]},{"name":"M'Sila","native":null,"cities":[{"name":"‘Aïn el Hadjel","native":null,"lat":"35.67003000","lon":"3.88153000"},{"name":"’Aïn el Melh","native":null,"lat":"34.84146000","lon":"4.16383000"},{"name":"M’Sila","native":null,"lat":"35.70583000","lon":"4.54194000"},{"name":"Sidi Aïssa","native":null,"lat":"35.88548000","lon":"3.77236000"}]},{"name":"Mascara","native":null,"cities":[{"name":"Bou Hanifia el Hamamat","native":null,"lat":"35.31473000","lon":"-0.05037000"},{"name":"Mascara","native":null,"lat":"35.39664000","lon":"0.14027000"},{"name":"Oued el Abtal","native":null,"lat":"35.45595000","lon":"0.68778000"},{"name":"Sig","native":null,"lat":"35.52832000","lon":"-0.19369000"}]},{"name":"Médéa","native":null,"cities":[{"name":"’Aïn Boucif","native":null,"lat":"35.89123000","lon":"3.15850000"},{"name":"Berrouaghia","native":null,"lat":"36.13516000","lon":"2.91085000"},{"name":"Ksar el Boukhari","native":null,"lat":"35.88889000","lon":"2.74905000"},{"name":"Médéa","native":null,"lat":"36.26417000","lon":"2.75393000"}]},{"name":"Mila","native":null,"cities":[{"name":"Chelghoum el Aïd","native":null,"lat":"36.16286000","lon":"6.16651000"},{"name":"Mila","native":null,"lat":"36.45028000","lon":"6.26444000"},{"name":"Rouached","native":null,"lat":"36.45774000","lon":"6.04267000"},{"name":"Sidi Mérouane","native":null,"lat":"36.52056000","lon":"6.26111000"},{"name":"Telerghma","native":null,"lat":"36.11653000","lon":"6.35434000"}]},{"name":"Mostaganem","native":null,"cities":[{"name":"Mostaganem","native":null,"lat":"35.93115000","lon":"0.08918000"}]},{"name":"Naama","native":null,"cities":[{"name":"Aïn Sefra","native":null,"lat":"32.75000000","lon":"-0.58333000"},{"name":"Naama","native":null,"lat":"33.26667000","lon":"-0.31667000"}]},{"name":"Oran","native":null,"cities":[{"name":"’Aïn el Turk","native":null,"lat":"35.74381000","lon":"-0.76930000"},{"name":"Aïn el Bya","native":null,"lat":"35.80389000","lon":"-0.30178000"},{"name":"Bir el Djir","native":null,"lat":"35.72000000","lon":"-0.54500000"},{"name":"Bou Tlelis","native":null,"lat":"35.57272000","lon":"-0.89960000"},{"name":"Es Senia","native":null,"lat":"35.64779000","lon":"-0.62397000"},{"name":"Mers el Kebir","native":null,"lat":"35.72790000","lon":"-0.70810000"},{"name":"Oran","native":null,"lat":"35.69906000","lon":"-0.63588000"},{"name":"Sidi ech Chahmi","native":null,"lat":"35.65903000","lon":"-0.52168000"}]},{"name":"Ouargla","native":null,"cities":[{"name":"Djamaa","native":null,"lat":"33.53388000","lon":"5.99306000"},{"name":"El Hadjira","native":null,"lat":"32.61336000","lon":"5.51259000"},{"name":"Hassi Messaoud","native":null,"lat":"31.68041000","lon":"6.07286000"},{"name":"Megarine","native":null,"lat":"33.19195000","lon":"6.08695000"},{"name":"Ouargla","native":null,"lat":"31.94932000","lon":"5.32502000"},{"name":"Rouissat","native":null,"lat":"31.92427000","lon":"5.35018000"},{"name":"Sidi Amrane","native":null,"lat":"33.49885000","lon":"6.00803000"},{"name":"Tebesbest","native":null,"lat":"33.11667000","lon":"6.08333000"},{"name":"Touggourt","native":null,"lat":"33.10527000","lon":"6.05796000"}]},{"name":"Ouled Djellal","native":null,"cities":[]},{"name":"Oum El Bouaghi","native":null,"cities":[{"name":"Aïn Beïda","native":null,"lat":"35.79639000","lon":"7.39278000"},{"name":"Aïn Fakroun","native":null,"lat":"35.97108000","lon":"6.87374000"},{"name":"Aïn Kercha","native":null,"lat":"35.92472000","lon":"6.69528000"},{"name":"El Aouinet","native":null,"lat":"35.86691000","lon":"7.88673000"},{"name":"Meskiana","native":null,"lat":"35.63058000","lon":"7.66606000"},{"name":"Oum el Bouaghi","native":null,"lat":"35.87541000","lon":"7.11353000"}]},{"name":"Relizane","native":null,"cities":[{"name":"’Aïn Merane","native":null,"lat":"36.16277000","lon":"0.97037000"},{"name":"Ammi Moussa","native":null,"lat":"35.86781000","lon":"1.11143000"},{"name":"Djidiouia","native":null,"lat":"35.92989000","lon":"0.82871000"},{"name":"Mazouna","native":null,"lat":"36.12232000","lon":"0.89865000"},{"name":"Oued Rhiou","native":null,"lat":"35.96124000","lon":"0.91896000"},{"name":"Relizane","native":null,"lat":"35.73734000","lon":"0.55599000"},{"name":"Smala","native":null,"lat":"35.71652000","lon":"0.75437000"},{"name":"Zemoura","native":null,"lat":"35.72251000","lon":"0.75509000"}]},{"name":"Saïda","native":null,"cities":[{"name":"’Aïn el Hadjar","native":null,"lat":"34.75846000","lon":"0.14528000"},{"name":"Saïda","native":null,"lat":"34.83033000","lon":"0.15171000"}]},{"name":"Sétif","native":null,"cities":[{"name":"Aïn Arnat","native":null,"lat":"36.18683000","lon":"5.31347000"},{"name":"BABOR - VILLE","native":null,"lat":"36.48994000","lon":"5.53930000"},{"name":"Bougaa","native":null,"lat":"36.33293000","lon":"5.08843000"},{"name":"El Eulma","native":null,"lat":"36.15281000","lon":"5.69016000"},{"name":"Salah Bey","native":null,"lat":"35.85451000","lon":"5.29053000"},{"name":"Sétif","native":null,"lat":"36.19112000","lon":"5.41373000"}]},{"name":"Sidi Bel Abbès","native":null,"cities":[{"name":"Aïn El Berd District","native":null,"lat":"35.35000000","lon":"-0.51667000"},{"name":"Balidat Ameur","native":null,"lat":"32.95138900","lon":"5.98055600"},{"name":"Belarbi","native":null,"lat":"35.15149480","lon":"-0.45679090"},{"name":"Ben Badis Sid Bel Abbés","native":null,"lat":"34.95277778","lon":"-0.91444444"},{"name":"Djamaa","native":null,"lat":"33.53137870","lon":"5.99098210"},{"name":"El Bour","native":null,"lat":"32.16305556","lon":"5.34527778"},{"name":"El Hadjira","native":null,"lat":"32.61666667","lon":"5.51666667"},{"name":"Haoud El Hamra","native":null,"lat":"31.88944444","lon":"5.97305556"},{"name":"Hassi Messaoud","native":null,"lat":"31.70000000","lon":"6.06666667"},{"name":"Lamtar","native":null,"lat":"35.07062700","lon":"-0.79814000"},{"name":"Marhoum","native":null,"lat":"34.44600420","lon":"-0.19502440"},{"name":"Megarine","native":null,"lat":"33.19262320","lon":"6.09346390"},{"name":"Merine","native":null,"lat":"34.78074720","lon":"-0.45104030"},{"name":"Mezaourou","native":null,"lat":"34.81732670","lon":"-0.62331890"},{"name":"Moggar","native":null,"lat":"33.26722222","lon":"6.06777778"},{"name":"Moulay Slissen","native":null,"lat":"34.81666667","lon":"-0.76666667"},{"name":"N'Goussa","native":null,"lat":"32.14087970","lon":"5.30828480"},{"name":"Ouargla","native":null,"lat":"31.95000000","lon":"5.31666667"},{"name":"Rouissat","native":null,"lat":"31.93657600","lon":"5.33540730"},{"name":"Sfissef","native":null,"lat":"35.23440280","lon":"-0.24341580"},{"name":"Sidi Ali Boussidi","native":null,"lat":"35.10000000","lon":"-0.83333333"},{"name":"Sidi Amrane","native":null,"lat":"33.50000000","lon":"6.01666667"},{"name":"Sidi Bel Abbès","native":null,"lat":"35.20000000","lon":"-0.63333333"},{"name":"Sidi Brahim","native":null,"lat":"35.26055600","lon":"-0.56750000"},{"name":"Sidi Hamadouche","native":null,"lat":"35.29916667","lon":"-0.54888889"},{"name":"Sidi Slimane","native":null,"lat":"33.28861111","lon":"6.09472222"},{"name":"Sidi Yacoub","native":null,"lat":"35.13333333","lon":"-0.78333333"},{"name":"Sidi Yahia","native":null,"lat":"33.52166667","lon":"5.94555556"},{"name":"Tabia Sid Bel Abbés","native":null,"lat":"35.01783660","lon":"-0.73385240"},{"name":"Taibet","native":null,"lat":"33.08391890","lon":"6.39996530"},{"name":"Tamellaht","native":null,"lat":"33.01190000","lon":"6.00972000"},{"name":"Tamerna Djedida","native":null,"lat":"33.44640000","lon":"5.95639000"},{"name":"Tebesbest","native":null,"lat":"33.12001290","lon":"6.08007430"},{"name":"Teghalimet","native":null,"lat":"34.88283300","lon":"-0.56000230"},{"name":"Telagh","native":null,"lat":"34.78490640","lon":"-0.57317730"},{"name":"Tenezara","native":null,"lat":"34.96341170","lon":"-0.61446190"},{"name":"Tenira","native":null,"lat":"35.01966420","lon":"-0.53206440"},{"name":"Tessala","native":null,"lat":"35.24300000","lon":"-0.77316300"},{"name":"Touggourt","native":null,"lat":"33.10000000","lon":"6.06666667"},{"name":"Zerouala","native":null,"lat":"35.24232450","lon":"-0.52219390"}]},{"name":"Skikda","native":null,"cities":[{"name":"Azzaba","native":null,"lat":"36.73944000","lon":"7.10528000"},{"name":"Karkira","native":null,"lat":"36.92917000","lon":"6.58556000"},{"name":"Skikda","native":null,"lat":"36.87617000","lon":"6.90921000"},{"name":"Tamalous","native":null,"lat":"36.83763000","lon":"6.64018000"}]},{"name":"Souk Ahras","native":null,"cities":[{"name":"Sedrata","native":null,"lat":"36.12868000","lon":"7.53376000"},{"name":"Souk Ahras","native":null,"lat":"36.28639000","lon":"7.95111000"}]},{"name":"Tamanghasset","native":null,"cities":[{"name":"I-n-Salah","native":null,"lat":"27.19351000","lon":"2.46069000"},{"name":"Tamanrasset","native":null,"lat":"22.78500000","lon":"5.52278000"}]},{"name":"Tébessa","native":null,"cities":[{"name":"Bir el Ater","native":null,"lat":"34.74488000","lon":"8.06024000"},{"name":"Cheria","native":null,"lat":"35.27306000","lon":"7.75194000"},{"name":"Hammamet","native":null,"lat":"35.44862000","lon":"7.95184000"},{"name":"Tébessa","native":null,"lat":"35.40417000","lon":"8.12417000"}]},{"name":"Tiaret","native":null,"cities":[{"name":"’Aïn Deheb","native":null,"lat":"34.84218000","lon":"1.54697000"},{"name":"Djebilet Rosfa","native":null,"lat":"34.86375000","lon":"0.83496000"},{"name":"Frenda","native":null,"lat":"35.06544000","lon":"1.04945000"},{"name":"Ksar Chellala","native":null,"lat":"35.21222000","lon":"2.31889000"},{"name":"Mehdia daira de meghila","native":null,"lat":"35.43058000","lon":"1.75714000"},{"name":"Sougueur","native":null,"lat":"35.18568000","lon":"1.49612000"},{"name":"Tiaret","native":null,"lat":"35.37103000","lon":"1.31699000"}]},{"name":"Timimoun","native":null,"cities":[]},{"name":"Tindouf","native":null,"cities":[{"name":"Tindouf","native":null,"lat":"27.67111000","lon":"-8.14743000"}]},{"name":"Tipasa","native":null,"cities":[{"name":"’Aïn Benian","native":null,"lat":"36.80277000","lon":"2.92185000"},{"name":"Baraki","native":null,"lat":"36.66655000","lon":"3.09606000"},{"name":"Bou Ismaïl","native":null,"lat":"36.64262000","lon":"2.69007000"},{"name":"Cheraga","native":null,"lat":"36.76775000","lon":"2.95924000"},{"name":"Douera","native":null,"lat":"36.67000000","lon":"2.94444000"},{"name":"El Affroun","native":null,"lat":"36.47010000","lon":"2.62528000"},{"name":"Hadjout","native":null,"lat":"36.51257000","lon":"2.41382000"},{"name":"Kolea","native":null,"lat":"36.63888000","lon":"2.76845000"},{"name":"Mouzaïa","native":null,"lat":"36.46695000","lon":"2.68991000"},{"name":"Oued el Alleug","native":null,"lat":"36.55528000","lon":"2.79028000"},{"name":"Saoula","native":null,"lat":"36.70456000","lon":"3.02462000"},{"name":"Tipasa","native":null,"lat":"36.58972000","lon":"2.44750000"},{"name":"Zeralda","native":null,"lat":"36.71169000","lon":"2.84244000"}]},{"name":"Tissemsilt","native":null,"cities":[{"name":"Lardjem","native":null,"lat":"35.74922000","lon":"1.54778000"},{"name":"Tissemsilt","native":null,"lat":"35.60722000","lon":"1.81081000"}]},{"name":"Tizi Ouzou","native":null,"cities":[{"name":"’Aïn el Hammam","native":null,"lat":"36.56471000","lon":"4.30619000"},{"name":"Arhribs","native":null,"lat":"36.79361000","lon":"4.31158000"},{"name":"Azazga","native":null,"lat":"36.74472000","lon":"4.37222000"},{"name":"Beni Douala","native":null,"lat":"36.61954000","lon":"4.08282000"},{"name":"Boghni","native":null,"lat":"36.54222000","lon":"3.95306000"},{"name":"Boudjima","native":null,"lat":"36.80218000","lon":"4.15187000"},{"name":"Chemini","native":null,"lat":"36.60000000","lon":"4.61667000"},{"name":"Draa Ben Khedda","native":null,"lat":"36.73436000","lon":"3.96223000"},{"name":"Freha","native":null,"lat":"36.75234000","lon":"4.31550000"},{"name":"Ighram","native":null,"lat":"36.46295000","lon":"4.50532000"},{"name":"L’Arbaa Naït Irathen","native":null,"lat":"36.63112000","lon":"4.19864000"},{"name":"Mekla","native":null,"lat":"36.68178000","lon":"4.26378000"},{"name":"Timizart","native":null,"lat":"36.80000000","lon":"4.26667000"},{"name":"Tirmitine","native":null,"lat":"36.65393000","lon":"3.98143000"},{"name":"Tizi Ouzou","native":null,"lat":"36.71182000","lon":"4.04591000"},{"name":"Tizi Rached","native":null,"lat":"36.67176000","lon":"4.19176000"},{"name":"Tizi-n-Tleta","native":null,"lat":"36.54569000","lon":"4.05712000"}]},{"name":"Tlemcen","native":null,"cities":[{"name":"Beni Mester","native":null,"lat":"34.87045000","lon":"-1.42319000"},{"name":"Bensekrane","native":null,"lat":"35.07465000","lon":"-1.22431000"},{"name":"Chetouane","native":null,"lat":"34.92129000","lon":"-1.29512000"},{"name":"Hennaya","native":null,"lat":"34.95139000","lon":"-1.36806000"},{"name":"Mansoûra","native":null,"lat":"34.86158000","lon":"-1.33935000"},{"name":"Nedroma","native":null,"lat":"35.01361000","lon":"-1.74799000"},{"name":"Ouled Mimoun","native":null,"lat":"34.90472000","lon":"-1.03394000"},{"name":"Remchi","native":null,"lat":"35.06196000","lon":"-1.43362000"},{"name":"Sebdou","native":null,"lat":"34.63703000","lon":"-1.33143000"},{"name":"Sidi Abdelli","native":null,"lat":"35.06937000","lon":"-1.13706000"},{"name":"Sidi Senoussi سيدي سنوسي","native":null,"lat":"34.99691000","lon":"-1.09449000"},{"name":"Tlemcen","native":null,"lat":"34.87833000","lon":"-1.31500000"}]},{"name":"Touggourt","native":null,"cities":[]}]