[{"state":"Adrar","name":"Adrar","lat":"27.87429000","lon":"-0.29388000"},
{"state":"Adrar","name":"Aoulef","lat":"26.96667000","lon":"1.08333000"},
{"state":"Adrar","name":"Reggane","lat":"26.71576000","lon":"0.17140000"},
{"state":"Adrar","name":"Timimoun","lat":"29.26388000","lon":"0.23098000"},
{"state":"Aïn Defla","name":"Aïn Defla","lat":"36.26405000","lon":"1.96790000"},
{"state":"Aïn Defla","name":"El Abadia","lat":"36.26951000","lon":"1.68609000"},
{"state":"Aïn Defla","name":"El Attaf","lat":"36.22393000","lon":"1.67187000"},
{"state":"Aïn Defla","name":"Khemis Miliana","lat":"36.26104000","lon":"2.22015000"},
{"state":"Aïn Defla","name":"Theniet el Had","lat":"35.87111000","lon":"2.02806000"},
{"state":"Aïn Témouchent","name":"Aïn Temouchent","lat":"35.29749000","lon":"-1.14037000"},
{"state":"Aïn Témouchent","name":"Beni Saf","lat":"35.30099000","lon":"-1.38226000"},
{"state":"Aïn Témouchent","name":"El Amria","lat":"35.52439000","lon":"-1.01577000"},
{"state":"Aïn Témouchent","name":"El Malah","lat":"35.39137000","lon":"-1.09238000"},
{"state":"Aïn Témouchent","name":"Hammam Bou Hadjar","lat":"35.37889000","lon":"-0.96778000"},
{"state":"Algiers","name":"Aïn Taya","lat":"36.79333000","lon":"3.28694000"},
{"state":"Algiers","name":"Algiers","lat":"36.73225000","lon":"3.08746000"},
{"state":"Algiers","name":"Bab Ezzouar","lat":"36.72615000","lon":"3.18291000"},
{"state":"Algiers","name":"Birkhadem","lat":"36.71499000","lon":"3.05002000"},
{"state":"Algiers","name":"Bordj el Kiffan","lat":"36.74871000","lon":"3.19249000"},
{"state":"Algiers","name":"Dar el Beïda","lat":"36.71333000","lon":"3.21250000"},
{"state":"Algiers","name":"Rouiba","lat":"36.73829000","lon":"3.28079000"},
{"state":"Annaba","name":"Annaba","lat":"36.90000000","lon":"7.76667000"},
{"state":"Annaba","name":"Berrahal","lat":"36.83528000","lon":"7.45333000"},
{"state":"Annaba","name":"Drean","lat":"36.68482000","lon":"7.75111000"},
{"state":"Annaba","name":"El Hadjar","lat":"36.80377000","lon":"7.73684000"},
{"state":"Batna","name":"Aïn Touta","lat":"35.37675000","lon":"5.90001000"},
{"state":"Batna","name":"Arris","lat":"35.25881000","lon":"6.34706000"},
{"state":"Batna","name":"Barika","lat":"35.38901000","lon":"5.36584000"},
{"state":"Batna","name":"Batna","lat":"35.55597000","lon":"6.17414000"},
{"state":"Batna","name":"Boumagueur","lat":"35.50520000","lon":"5.55250000"},
{"state":"Batna","name":"Merouana","lat":"35.63106000","lon":"5.91186000"},
{"state":"Batna","name":"Râs el Aïoun","lat":"35.67384000","lon":"5.64530000"},
{"state":"Batna","name":"Tazoult-Lambese","lat":"35.48171000","lon":"6.26074000"},
{"state":"Béchar","name":"Béchar","lat":"31.61667000","lon":"-2.21667000"},
{"state":"Béjaïa","name":"Akbou","lat":"36.45750000","lon":"4.53494000"},
{"state":"Béjaïa","name":"Amizour","lat":"36.64022000","lon":"4.90131000"},
{"state":"Béjaïa","name":"Barbacha","lat":"36.56667000","lon":"4.96667000"},
{"state":"Béjaïa","name":"Bejaïa","lat":"36.75587000","lon":"5.08433000"},
{"state":"Béjaïa","name":"el hed","lat":"36.65000000","lon":"4.77361000"},
{"state":"Béjaïa","name":"El Kseur","lat":"36.67942000","lon":"4.85550000"},
{"state":"Béjaïa","name":"Feraoun","lat":"36.56041000","lon":"4.85454000"},
{"state":"Béjaïa","name":"Seddouk","lat":"36.54722000","lon":"4.68611000"},
{"state":"Biskra","name":"Biskra","lat":"34.85038000","lon":"5.72805000"},
{"state":"Biskra","name":"Oumache","lat":"34.69292000","lon":"5.68092000"},
{"state":"Biskra","name":"Sidi Khaled","lat":"34.38700000","lon":"4.98785000"},
{"state":"Biskra","name":"Sidi Okba","lat":"34.74512000","lon":"5.89833000"},
{"state":"Biskra","name":"Tolga","lat":"34.72224000","lon":"5.37845000"},
{"state":"Biskra","name":"Zeribet el Oued","lat":"34.68284000","lon":"6.51109000"},
{"state":"Blida","name":"Beni Mered","lat":"36.52389000","lon":"2.86131000"},
{"state":"Blida","name":"Blida","lat":"36.47004000","lon":"2.82770000"},
{"state":"Blida","name":"Boû Arfa","lat":"36.46298000","lon":"2.81464000"},
{"state":"Blida","name":"Boufarik","lat":"36.57413000","lon":"2.91214000"},
{"state":"Blida","name":"Bougara","lat":"36.54178000","lon":"3.08100000"},
{"state":"Blida","name":"Bouinan","lat":"36.53167000","lon":"2.99194000"},
{"state":"Blida","name":"Chebli","lat":"36.57722000","lon":"3.00917000"},
{"state":"Blida","name":"Chiffa","lat":"36.46293000","lon":"2.73873000"},
{"state":"Blida","name":"Larbaâ","lat":"36.56471000","lon":"3.15434000"},
{"state":"Blida","name":"Meftah","lat":"36.62040000","lon":"3.22248000"},
{"state":"Blida","name":"Sidi Moussa","lat":"36.60637000","lon":"3.08783000"},
{"state":"Blida","name":"Souma","lat":"36.51833000","lon":"2.90528000"},
{"state":"Bordj Bou Arréridj","name":"Bordj Bou Arreridj","lat":"36.07321000","lon":"4.76108000"},
{"state":"Bordj Bou Arréridj","name":"Bordj Ghdir","lat":"35.90111000","lon":"4.89806000"},
{"state":"Bordj Bou Arréridj","name":"Bordj Zemoura","lat":"36.27462000","lon":"4.85668000"},
{"state":"Bordj Bou Arréridj","name":"El Achir","lat":"36.06386000","lon":"4.62744000"},
{"state":"Bordj Bou Arréridj","name":"Mansourah","lat":"36.08725000","lon":"4.45192000"},
{"state":"Bordj Bou Arréridj","name":"Melouza","lat":"35.97999000","lon":"4.18665000"},
{"state":"Bordj Bou Arréridj","name":"Râs el Oued","lat":"35.94410000","lon":"5.03107000"},
{"state":"Bouïra","name":"Aïn Bessem","lat":"36.29333000","lon":"3.67319000"},
{"state":"Bouïra","name":"Bouïra","lat":"36.37489000","lon":"3.90200000"},
{"state":"Bouïra","name":"Chorfa","lat":"36.36505000","lon":"4.32636000"},
{"state":"Bouïra","name":"Draa el Mizan","lat":"36.53628000","lon":"3.83340000"},
{"state":"Bouïra","name":"Lakhdaria","lat":"36.56463000","lon":"3.59330000"},
{"state":"Bouïra","name":"Sour el Ghozlane","lat":"36.14766000","lon":"3.69123000"},
{"state":"Boumerdès","name":"Arbatache","lat":"36.63773000","lon":"3.37127000"},
{"state":"Boumerdès","name":"Beni Amrane","lat":"36.66774000","lon":"3.59115000"},
{"state":"Boumerdès","name":"Boudouaou","lat":"36.72735000","lon":"3.40995000"},
{"state":"Boumerdès","name":"Boumerdas","lat":"36.76639000","lon":"3.47717000"},
{"state":"Boumerdès","name":"Chabet el Ameur","lat":"36.63709000","lon":"3.69474000"},
{"state":"Boumerdès","name":"Dellys","lat":"36.91716000","lon":"3.91311000"},
{"state":"Boumerdès","name":"Khemis el Khechna","lat":"36.64997000","lon":"3.33080000"},
{"state":"Boumerdès","name":"Makouda","lat":"36.78567000","lon":"4.06273000"},
{"state":"Boumerdès","name":"Naciria","lat":"36.74625000","lon":"3.83163000"},
{"state":"Boumerdès","name":"Ouled Moussa","lat":"36.68394000","lon":"3.36661000"},
{"state":"Boumerdès","name":"Reghaïa","lat":"36.73587000","lon":"3.34018000"},
{"state":"Boumerdès","name":"Tadmaït","lat":"36.74413000","lon":"3.90045000"},
{"state":"Boumerdès","name":"Thenia","lat":"36.72544000","lon":"3.55665000"},
{"state":"Boumerdès","name":"Tizi Gheniff","lat":"36.58839000","lon":"3.77445000"},
{"state":"Chlef","name":"Abou el Hassan","lat":"36.41657000","lon":"1.19616000"},
{"state":"Chlef","name":"Boukadir","lat":"36.06629000","lon":"1.12602000"},
{"state":"Chlef","name":"Chlef","lat":"36.16525000","lon":"1.33452000"},
{"state":"Chlef","name":"Ech Chettia","lat":"36.19591000","lon":"1.25537000"},
{"state":"Chlef","name":"Oued Fodda","lat":"36.18503000","lon":"1.53299000"},
{"state":"Chlef","name":"Oued Sly","lat":"36.10124000","lon":"1.19949000"},
{"state":"Chlef","name":"Sidi Akkacha","lat":"36.46472000","lon":"1.30258000"},
{"state":"Constantine","name":"’Aïn Abid","lat":"36.23194000","lon":"6.94333000"},
{"state":"Constantine","name":"Aïn Smara","lat":"36.26740000","lon":"6.50135000"},
{"state":"Constantine","name":"Constantine","lat":"36.36500000","lon":"6.61472000"},
{"state":"Constantine","name":"Didouche Mourad","lat":"36.45250000","lon":"6.63639000"},
{"state":"Constantine","name":"El Khroub","lat":"36.26333000","lon":"6.69361000"},
{"state":"Constantine","name":"Hamma Bouziane","lat":"36.41205000","lon":"6.59603000"},
{"state":"Djelfa","name":"’Aïn el Bell","lat":"34.34381000","lon":"3.22475000"},
{"state":"Djelfa","name":"Aïn Oussera","lat":"35.45139000","lon":"2.90583000"},
{"state":"Djelfa","name":"Birine","lat":"35.63500000","lon":"3.22500000"},
{"state":"Djelfa","name":"Charef","lat":"34.62098000","lon":"2.79503000"},
{"state":"Djelfa","name":"Dar Chioukh","lat":"34.89638000","lon":"3.48543000"},
{"state":"Djelfa","name":"Djelfa","lat":"34.67279000","lon":"3.26300000"},
{"state":"Djelfa","name":"El Idrissia","lat":"34.44542000","lon":"2.52749000"},
{"state":"Djelfa","name":"Messaad","lat":"34.15429000","lon":"3.50309000"},
{"state":"El Bayadh","name":"Brezina","lat":"33.09892000","lon":"1.26082000"},
{"state":"El Bayadh","name":"El Abiodh Sidi Cheikh","lat":"32.89300000","lon":"0.54839000"},
{"state":"El Bayadh","name":"El Bayadh","lat":"33.68318000","lon":"1.01927000"},
{"state":"El Oued","name":"Debila","lat":"33.51667000","lon":"6.95000000"},
{"state":"El Oued","name":"El Oued","lat":"33.35608000","lon":"6.86319000"},
{"state":"El Oued","name":"Reguiba","lat":"33.56391000","lon":"6.70326000"},
{"state":"El Oued","name":"Robbah","lat":"33.27967000","lon":"6.90984000"},
{"state":"El Tarf","name":"Ben Mehidi","lat":"36.76967000","lon":"7.90641000"},
{"state":"El Tarf","name":"Besbes","lat":"36.70222000","lon":"7.84722000"},
{"state":"El Tarf","name":"El Kala","lat":"36.89556000","lon":"8.44333000"},
{"state":"El Tarf","name":"El Tarf","lat":"36.76720000","lon":"8.31377000"},
{"state":"Ghardaïa","name":"Berriane","lat":"32.82648000","lon":"3.76689000"},
{"state":"Ghardaïa","name":"Ghardaïa","lat":"32.49094000","lon":"3.67347000"},
{"state":"Ghardaïa","name":"Metlili Chaamba","lat":"32.26667000","lon":"3.63333000"},
{"state":"Guelma","name":"Boumahra Ahmed","lat":"36.45833000","lon":"7.51389000"},
{"state":"Guelma","name":"Guelma","lat":"36.46214000","lon":"7.42608000"},
{"state":"Guelma","name":"Héliopolis","lat":"36.50361000","lon":"7.44278000"},
{"state":"Illizi","name":"Illizi","lat":"26.48333000","lon":"8.46667000"},
{"state":"Jijel","name":"Jijel","lat":"36.82055000","lon":"5.76671000"},
{"state":"Khenchela","name":"Khenchela","lat":"35.43583000","lon":"7.14333000"},
{"state":"Laghouat","name":"Aflou","lat":"34.11279000","lon":"2.10228000"},
{"state":"Laghouat","name":"Laghouat","lat":"33.80000000","lon":"2.86514000"},
{"state":"M'Sila","name":"‘Aïn el Hadjel","lat":"35.67003000","lon":"3.88153000"},
{"state":"M'Sila","name":"’Aïn el Melh","lat":"34.84146000","lon":"4.16383000"},
{"state":"M'Sila","name":"M’Sila","lat":"35.70583000","lon":"4.54194000"},
{"state":"M'Sila","name":"Sidi Aïssa","lat":"35.88548000","lon":"3.77236000"},
{"state":"Mascara","name":"Bou Hanifia el Hamamat","lat":"35.31473000","lon":"-0.05037000"},
{"state":"Mascara","name":"Mascara","lat":"35.39664000","lon":"0.14027000"},
{"state":"Mascara","name":"Oued el Abtal","lat":"35.45595000","lon":"0.68778000"},
{"state":"Mascara","name":"Sig","lat":"35.52832000","lon":"-0.19369000"},
{"state":"Médéa","name":"’Aïn Boucif","lat":"35.89123000","lon":"3.15850000"},
{"state":"Médéa","name":"Berrouaghia","lat":"36.13516000","lon":"2.91085000"},
{"state":"Médéa","name":"Ksar el Boukhari","lat":"35.88889000","lon":"2.74905000"},
{"state":"Médéa","name":"Médéa","lat":"36.26417000","lon":"2.75393000"},
{"state":"Mila","name":"Chelghoum el Aïd","lat":"36.16286000","lon":"6.16651000"},
{"state":"Mila","name":"Mila","lat":"36.45028000","lon":"6.26444000"},
{"state":"Mila","name":"Rouached","lat":"36.45774000","lon":"6.04267000"},
{"state":"Mila","name":"Sidi Mérouane","lat":"36.52056000","lon":"6.26111000"},
{"state":"Mila","name":"Telerghma","lat":"36.11653000","lon":"6.35434000"},
{"state":"Mostaganem","name":"Mostaganem","lat":"35.93115000","lon":"0.08918000"},
{"state":"Naama","name":"Aïn Sefra","lat":"32.75000000","lon":"-0.58333000"},
{"state":"Naama","name":"Naama","lat":"33.26667000","lon":"-0.31667000"},
{"state":"Oran","name":"’Aïn el Turk","lat":"35.74381000","lon":"-0.76930000"},
{"state":"Oran","name":"Aïn el Bya","lat":"35.80389000","lon":"-0.30178000"},
{"state":"Oran","name":"Bir el Djir","lat":"35.72000000","lon":"-0.54500000"},
{"state":"Oran","name":"Bou Tlelis","lat":"35.57272000","lon":"-0.89960000"},
{"state":"Oran","name":"Es Senia","lat":"35.64779000","lon":"-0.62397000"},
{"state":"Oran","name":"Mers el Kebir","lat":"35.72790000","lon":"-0.70810000"},
{"state":"Oran","name":"Oran","lat":"35.69906000","lon":"-0.63588000"},
{"state":"Oran","name":"Sidi ech Chahmi","lat":"35.65903000","lon":"-0.52168000"},
{"state":"Ouargla","name":"Djamaa","lat":"33.53388000","lon":"5.99306000"},
{"state":"Ouargla","name":"El Hadjira","lat":"32.61336000","lon":"5.51259000"},
{"state":"Ouargla","name":"Hassi Messaoud","lat":"31.68041000","lon":"6.07286000"},
{"state":"Ouargla","name":"Megarine","lat":"33.19195000","lon":"6.08695000"},
{"state":"Ouargla","name":"Ouargla","lat":"31.94932000","lon":"5.32502000"},
{"state":"Ouargla","name":"Rouissat","lat":"31.92427000","lon":"5.35018000"},
{"state":"Ouargla","name":"Sidi Amrane","lat":"33.49885000","lon":"6.00803000"},
{"state":"Ouargla","name":"Tebesbest","lat":"33.11667000","lon":"6.08333000"},
{"state":"Ouargla","name":"Touggourt","lat":"33.10527000","lon":"6.05796000"},
{"state":"Oum El Bouaghi","name":"Aïn Beïda","lat":"35.79639000","lon":"7.39278000"},
{"state":"Oum El Bouaghi","name":"Aïn Fakroun","lat":"35.97108000","lon":"6.87374000"},
{"state":"Oum El Bouaghi","name":"Aïn Kercha","lat":"35.92472000","lon":"6.69528000"},
{"state":"Oum El Bouaghi","name":"El Aouinet","lat":"35.86691000","lon":"7.88673000"},
{"state":"Oum El Bouaghi","name":"Meskiana","lat":"35.63058000","lon":"7.66606000"},
{"state":"Oum El Bouaghi","name":"Oum el Bouaghi","lat":"35.87541000","lon":"7.11353000"},
{"state":"Relizane","name":"’Aïn Merane","lat":"36.16277000","lon":"0.97037000"},
{"state":"Relizane","name":"Ammi Moussa","lat":"35.86781000","lon":"1.11143000"},
{"state":"Relizane","name":"Djidiouia","lat":"35.92989000","lon":"0.82871000"},
{"state":"Relizane","name":"Mazouna","lat":"36.12232000","lon":"0.89865000"},
{"state":"Relizane","name":"Oued Rhiou","lat":"35.96124000","lon":"0.91896000"},
{"state":"Relizane","name":"Relizane","lat":"35.73734000","lon":"0.55599000"},
{"state":"Relizane","name":"Smala","lat":"35.71652000","lon":"0.75437000"},
{"state":"Relizane","name":"Zemoura","lat":"35.72251000","lon":"0.75509000"},
{"state":"Saïda","name":"’Aïn el Hadjar","lat":"34.75846000","lon":"0.14528000"},
{"state":"Saïda","name":"Saïda","lat":"34.83033000","lon":"0.15171000"},
{"state":"Sétif","name":"Aïn Arnat","lat":"36.18683000","lon":"5.31347000"},
{"state":"Sétif","name":"BABOR - VILLE","lat":"36.48994000","lon":"5.53930000"},
{"state":"Sétif","name":"Bougaa","lat":"36.33293000","lon":"5.08843000"},
{"state":"Sétif","name":"El Eulma","lat":"36.15281000","lon":"5.69016000"},
{"state":"Sétif","name":"Salah Bey","lat":"35.85451000","lon":"5.29053000"},
{"state":"Sétif","name":"Sétif","lat":"36.19112000","lon":"5.41373000"},
{"state":"Sidi Bel Abbès","name":"Aïn El Berd District","lat":"35.35000000","lon":"-0.51667000"},
{"state":"Sidi Bel Abbès","name":"Balidat Ameur","lat":"32.95138900","lon":"5.98055600"},
{"state":"Sidi Bel Abbès","name":"Belarbi","lat":"35.15149480","lon":"-0.45679090"},
{"state":"Sidi Bel Abbès","name":"Ben Badis Sid Bel Abbés","lat":"34.95277778","lon":"-0.91444444"},
{"state":"Sidi Bel Abbès","name":"Djamaa","lat":"33.53137870","lon":"5.99098210"},
{"state":"Sidi Bel Abbès","name":"El Bour","lat":"32.16305556","lon":"5.34527778"},
{"state":"Sidi Bel Abbès","name":"El Hadjira","lat":"32.61666667","lon":"5.51666667"},
{"state":"Sidi Bel Abbès","name":"Haoud El Hamra","lat":"31.88944444","lon":"5.97305556"},
{"state":"Sidi Bel Abbès","name":"Hassi Messaoud","lat":"31.70000000","lon":"6.06666667"},
{"state":"Sidi Bel Abbès","name":"Lamtar","lat":"35.07062700","lon":"-0.79814000"},
{"state":"Sidi Bel Abbès","name":"Marhoum","lat":"34.44600420","lon":"-0.19502440"},
{"state":"Sidi Bel Abbès","name":"Megarine","lat":"33.19262320","lon":"6.09346390"},
{"state":"Sidi Bel Abbès","name":"Merine","lat":"34.78074720","lon":"-0.45104030"},
{"state":"Sidi Bel Abbès","name":"Mezaourou","lat":"34.81732670","lon":"-0.62331890"},
{"state":"Sidi Bel Abbès","name":"Moggar","lat":"33.26722222","lon":"6.06777778"},
{"state":"Sidi Bel Abbès","name":"Moulay Slissen","lat":"34.81666667","lon":"-0.76666667"},
{"state":"Sidi Bel Abbès","name":"N'Goussa","lat":"32.14087970","lon":"5.30828480"},
{"state":"Sidi Bel Abbès","name":"Ouargla","lat":"31.95000000","lon":"5.31666667"},
{"state":"Sidi Bel Abbès","name":"Rouissat","lat":"31.93657600","lon":"5.33540730"},
{"state":"Sidi Bel Abbès","name":"Sfissef","lat":"35.23440280","lon":"-0.24341580"},
{"state":"Sidi Bel Abbès","name":"Sidi Ali Boussidi","lat":"35.10000000","lon":"-0.83333333"},
{"state":"Sidi Bel Abbès","name":"Sidi Amrane","lat":"33.50000000","lon":"6.01666667"},
{"state":"Sidi Bel Abbès","name":"Sidi Bel Abbès","lat":"35.20000000","lon":"-0.63333333"},
{"state":"Sidi Bel Abbès","name":"Sidi Brahim","lat":"35.26055600","lon":"-0.56750000"},
{"state":"Sidi Bel Abbès","name":"Sidi Hamadouche","lat":"35.29916667","lon":"-0.54888889"},
{"state":"Sidi Bel Abbès","name":"Sidi Slimane","lat":"33.28861111","lon":"6.09472222"},
{"state":"Sidi Bel Abbès","name":"Sidi Yacoub","lat":"35.13333333","lon":"-0.78333333"},
{"state":"Sidi Bel Abbès","name":"Sidi Yahia","lat":"33.52166667","lon":"5.94555556"},
{"state":"Sidi Bel Abbès","name":"Tabia Sid Bel Abbés","lat":"35.01783660","lon":"-0.73385240"},
{"state":"Sidi Bel Abbès","name":"Taibet","lat":"33.08391890","lon":"6.39996530"},
{"state":"Sidi Bel Abbès","name":"Tamellaht","lat":"33.01190000","lon":"6.00972000"},
{"state":"Sidi Bel Abbès","name":"Tamerna Djedida","lat":"33.44640000","lon":"5.95639000"},
{"state":"Sidi Bel Abbès","name":"Tebesbest","lat":"33.12001290","lon":"6.08007430"},
{"state":"Sidi Bel Abbès","name":"Teghalimet","lat":"34.88283300","lon":"-0.56000230"},
{"state":"Sidi Bel Abbès","name":"Telagh","lat":"34.78490640","lon":"-0.57317730"},
{"state":"Sidi Bel Abbès","name":"Tenezara","lat":"34.96341170","lon":"-0.61446190"},
{"state":"Sidi Bel Abbès","name":"Tenira","lat":"35.01966420","lon":"-0.53206440"},
{"state":"Sidi Bel Abbès","name":"Tessala","lat":"35.24300000","lon":"-0.77316300"},
{"state":"Sidi Bel Abbès","name":"Touggourt","lat":"33.10000000","lon":"6.06666667"},
{"state":"Sidi Bel Abbès","name":"Zerouala","lat":"35.24232450","lon":"-0.52219390"},
{"state":"Skikda","name":"Azzaba","lat":"36.73944000","lon":"7.10528000"},
{"state":"Skikda","name":"Karkira","lat":"36.92917000","lon":"6.58556000"},
{"state":"Skikda","name":"Skikda","lat":"36.87617000","lon":"6.90921000"},
{"state":"Skikda","name":"Tamalous","lat":"36.83763000","lon":"6.64018000"},
{"state":"Souk Ahras","name":"Sedrata","lat":"36.12868000","lon":"7.53376000"},
{"state":"Souk Ahras","name":"Souk Ahras","lat":"36.28639000","lon":"7.95111000"},
{"state":"Tamanghasset","name":"I-n-Salah","lat":"27.19351000","lon":"2.46069000"},
{"state":"Tamanghasset","name":"Tamanrasset","lat":"22.78500000","lon":"5.52278000"},
{"state":"Tébessa","name":"Bir el Ater","lat":"34.74488000","lon":"8.06024000"},
{"state":"Tébessa","name":"Cheria","lat":"35.27306000","lon":"7.75194000"},
{"state":"Tébessa","name":"Hammamet","lat":"35.44862000","lon":"7.95184000"},
{"state":"Tébessa","name":"Tébessa","lat":"35.40417000","lon":"8.12417000"},
{"state":"Tiaret","name":"’Aïn Deheb","lat":"34.84218000","lon":"1.54697000"},
{"state":"Tiaret","name":"Djebilet Rosfa","lat":"34.86375000","lon":"0.83496000"},
{"state":"Tiaret","name":"Frenda","lat":"35.06544000","lon":"1.04945000"},
{"state":"Tiaret","name":"Ksar Chellala","lat":"35.21222000","lon":"2.31889000"},
{"state":"Tiaret","name":"Mehdia daira de meghila","lat":"35.43058000","lon":"1.75714000"},
{"state":"Tiaret","name":"Sougueur","lat":"35.18568000","lon":"1.49612000"},
{"state":"Tiaret","name":"Tiaret","lat":"35.37103000","lon":"1.31699000"},
{"state":"Tindouf","name":"Tindouf","lat":"27.67111000","lon":"-8.14743000"},
{"state":"Tipasa","name":"’Aïn Benian","lat":"36.80277000","lon":"2.92185000"},
{"state":"Tipasa","name":"Baraki","lat":"36.66655000","lon":"3.09606000"},
{"state":"Tipasa","name":"Bou Ismaïl","lat":"36.64262000","lon":"2.69007000"},
{"state":"Tipasa","name":"Cheraga","lat":"36.76775000","lon":"2.95924000"},
{"state":"Tipasa","name":"Douera","lat":"36.67000000","lon":"2.94444000"},
{"state":"Tipasa","name":"El Affroun","lat":"36.47010000","lon":"2.62528000"},
{"state":"Tipasa","name":"Hadjout","lat":"36.51257000","lon":"2.41382000"},
{"state":"Tipasa","name":"Kolea","lat":"36.63888000","lon":"2.76845000"},
{"state":"Tipasa","name":"Mouzaïa","lat":"36.46695000","lon":"2.68991000"},
{"state":"Tipasa","name":"Oued el Alleug","lat":"36.55528000","lon":"2.79028000"},
{"state":"Tipasa","name":"Saoula","lat":"36.70456000","lon":"3.02462000"},
{"state":"Tipasa","name":"Tipasa","lat":"36.58972000","lon":"2.44750000"},
{"state":"Tipasa","name":"Zeralda","lat":"36.71169000","lon":"2.84244000"},
{"state":"Tissemsilt","name":"Lardjem","lat":"35.74922000","lon":"1.54778000"},
{"state":"Tissemsilt","name":"Tissemsilt","lat":"35.60722000","lon":"1.81081000"},
{"state":"Tizi Ouzou","name":"’Aïn el Hammam","lat":"36.56471000","lon":"4.30619000"},
{"state":"Tizi Ouzou","name":"Arhribs","lat":"36.79361000","lon":"4.31158000"},
{"state":"Tizi Ouzou","name":"Azazga","lat":"36.74472000","lon":"4.37222000"},
{"state":"Tizi Ouzou","name":"Beni Douala","lat":"36.61954000","lon":"4.08282000"},
{"state":"Tizi Ouzou","name":"Boghni","lat":"36.54222000","lon":"3.95306000"},
{"state":"Tizi Ouzou","name":"Boudjima","lat":"36.80218000","lon":"4.15187000"},
{"state":"Tizi Ouzou","name":"Chemini","lat":"36.60000000","lon":"4.61667000"},
{"state":"Tizi Ouzou","name":"Draa Ben Khedda","lat":"36.73436000","lon":"3.96223000"},
{"state":"Tizi Ouzou","name":"Freha","lat":"36.75234000","lon":"4.31550000"},
{"state":"Tizi Ouzou","name":"Ighram","lat":"36.46295000","lon":"4.50532000"},
{"state":"Tizi Ouzou","name":"L’Arbaa Naït Irathen","lat":"36.63112000","lon":"4.19864000"},
{"state":"Tizi Ouzou","name":"Mekla","lat":"36.68178000","lon":"4.26378000"},
{"state":"Tizi Ouzou","name":"Timizart","lat":"36.80000000","lon":"4.26667000"},
{"state":"Tizi Ouzou","name":"Tirmitine","lat":"36.65393000","lon":"3.98143000"},
{"state":"Tizi Ouzou","name":"Tizi Ouzou","lat":"36.71182000","lon":"4.04591000"},
{"state":"Tizi Ouzou","name":"Tizi Rached","lat":"36.67176000","lon":"4.19176000"},
{"state":"Tizi Ouzou","name":"Tizi-n-Tleta","lat":"36.54569000","lon":"4.05712000"},
{"state":"Tlemcen","name":"Beni Mester","lat":"34.87045000","lon":"-1.42319000"},
{"state":"Tlemcen","name":"Bensekrane","lat":"35.07465000","lon":"-1.22431000"},
{"state":"Tlemcen","name":"Chetouane","lat":"34.92129000","lon":"-1.29512000"},
{"state":"Tlemcen","name":"Hennaya","lat":"34.95139000","lon":"-1.36806000"},
{"state":"Tlemcen","name":"Mansoûra","lat":"34.86158000","lon":"-1.33935000"},
{"state":"Tlemcen","name":"Nedroma","lat":"35.01361000","lon":"-1.74799000"},
{"state":"Tlemcen","name":"Ouled Mimoun","lat":"34.90472000","lon":"-1.03394000"},
{"state":"Tlemcen","name":"Remchi","lat":"35.06196000","lon":"-1.43362000"},
{"state":"Tlemcen","name":"Sebdou","lat":"34.63703000","lon":"-1.33143000"},
{"state":"Tlemcen","name":"Sidi Abdelli","lat":"35.06937000","lon":"-1.13706000"},
{"state":"Tlemcen","name":"Sidi Senoussi سيدي سنوسي","lat":"34.99691000","lon":"-1.09449000"},
{"state":"Tlemcen","name":"Tlemcen","lat":"34.87833000","lon":"-1.31500000"}]