[{"state":"Azuay","name":"Cantón San Fernando","lat":"-3.13349000","lon":"-79.26893000"},
{"state":"Azuay","name":"Cuenca","lat":"-2.90055000","lon":"-79.00453000"},
{"state":"Azuay","name":"Gualaceo","lat":"-2.89264000","lon":"-78.77814000"},
{"state":"Azuay","name":"La Unión","lat":"-2.85000000","lon":"-78.78333000"},
{"state":"Azuay","name":"Llacao","lat":"-2.86667000","lon":"-78.88333000"},
{"state":"Azuay","name":"Nulti","lat":"-2.91667000","lon":"-78.85000000"},
{"state":"Bolívar","name":"Guaranda","lat":"-1.59263000","lon":"-79.00098000"},
{"state":"Bolívar","name":"San Miguel","lat":"-1.70884000","lon":"-79.04311000"},
{"state":"Cañar","name":"Azogues","lat":"-2.73969000","lon":"-78.84860000"},
{"state":"Cañar","name":"Cañar","lat":"-2.56062000","lon":"-78.93940000"},
{"state":"Cañar","name":"La Troncal","lat":"-2.42355000","lon":"-79.33977000"},
{"state":"Carchi","name":"El Ángel","lat":"0.62279000","lon":"-77.94003000"},
{"state":"Carchi","name":"San Gabriel","lat":"0.59318000","lon":"-77.83078000"},
{"state":"Carchi","name":"Tulcán","lat":"0.81187000","lon":"-77.71727000"},
{"state":"Chimborazo","name":"Alausí","lat":"-2.20329000","lon":"-78.84714000"},
{"state":"Chimborazo","name":"Guano","lat":"-1.60789000","lon":"-78.63105000"},
{"state":"Chimborazo","name":"Riobamba","lat":"-1.67098000","lon":"-78.64712000"},
{"state":"Cotopaxi","name":"La Maná","lat":"-0.94094000","lon":"-79.22506000"},
{"state":"Cotopaxi","name":"Latacunga","lat":"-0.93521000","lon":"-78.61554000"},
{"state":"Cotopaxi","name":"Pujilí","lat":"-0.95759000","lon":"-78.69636000"},
{"state":"Cotopaxi","name":"San Miguel de Salcedo","lat":"-1.04547000","lon":"-78.59063000"},
{"state":"Cotopaxi","name":"Saquisilí","lat":"-0.83990000","lon":"-78.66700000"},
{"state":"El Oro","name":"Huaquillas","lat":"-3.47523000","lon":"-80.23084000"},
{"state":"El Oro","name":"Machala","lat":"-3.25861000","lon":"-79.96053000"},
{"state":"El Oro","name":"Pasaje","lat":"-3.32561000","lon":"-79.80697000"},
{"state":"El Oro","name":"Piñas","lat":"-3.68107000","lon":"-79.68083000"},
{"state":"El Oro","name":"Portovelo","lat":"-3.72145000","lon":"-79.62187000"},
{"state":"El Oro","name":"Puerto Bolívar","lat":"-3.26649000","lon":"-79.99749000"},
{"state":"El Oro","name":"Santa Rosa","lat":"-3.44882000","lon":"-79.95952000"},
{"state":"El Oro","name":"Zaruma","lat":"-3.69132000","lon":"-79.61174000"},
{"state":"Esmeraldas","name":"Esmeraldas","lat":"0.95920000","lon":"-79.65397000"},
{"state":"Esmeraldas","name":"Muisne","lat":"0.61129000","lon":"-80.01863000"},
{"state":"Esmeraldas","name":"Pampanal de Bolívar","lat":"1.35251000","lon":"-78.89360000"},
{"state":"Esmeraldas","name":"Rio Verde","lat":"1.06235000","lon":"-79.39939000"},
{"state":"Esmeraldas","name":"Rosa Zarate","lat":"0.32779000","lon":"-79.47407000"},
{"state":"Esmeraldas","name":"San Lorenzo de Esmeraldas","lat":"1.28626000","lon":"-78.83514000"},
{"state":"Esmeraldas","name":"Valdez","lat":"1.24917000","lon":"-78.98306000"},
{"state":"Galápagos","name":"Puerto Ayora","lat":"-0.74018000","lon":"-90.31380000"},
{"state":"Galápagos","name":"Puerto Baquerizo Moreno","lat":"-0.90172000","lon":"-89.61021000"},
{"state":"Galápagos","name":"Puerto Villamil","lat":"-0.95542000","lon":"-90.96654000"},
{"state":"Guayas","name":"Alfredo Baquerizo Moreno","lat":"-1.91667000","lon":"-79.51667000"},
{"state":"Guayas","name":"Baláo","lat":"-2.91100000","lon":"-79.81441000"},
{"state":"Guayas","name":"Balzar","lat":"-1.36501000","lon":"-79.90494000"},
{"state":"Guayas","name":"Colimes","lat":"-1.54553000","lon":"-80.01165000"},
{"state":"Guayas","name":"Coronel Marcelino Maridueña","lat":"-2.20924000","lon":"-79.43248000"},
{"state":"Guayas","name":"El Triunfo","lat":"-1.93333000","lon":"-79.96667000"},
{"state":"Guayas","name":"Eloy Alfaro","lat":"-2.17579000","lon":"-79.85519000"},
{"state":"Guayas","name":"Guayaquil","lat":"-2.19616000","lon":"-79.88621000"},
{"state":"Guayas","name":"Lomas de Sargentillo","lat":"-1.88333000","lon":"-80.08333000"},
{"state":"Guayas","name":"Milagro","lat":"-2.13404000","lon":"-79.59415000"},
{"state":"Guayas","name":"Naranjal","lat":"-2.67364000","lon":"-79.61830000"},
{"state":"Guayas","name":"Naranjito","lat":"-2.16671000","lon":"-79.46540000"},
{"state":"Guayas","name":"Palestina","lat":"-1.93709000","lon":"-79.71396000"},
{"state":"Guayas","name":"Pedro Carbo","lat":"-1.81563000","lon":"-80.23309000"},
{"state":"Guayas","name":"Playas","lat":"-2.63199000","lon":"-80.38808000"},
{"state":"Guayas","name":"Samborondón","lat":"-1.96276000","lon":"-79.72402000"},
{"state":"Guayas","name":"Santa Lucía","lat":"-2.18333000","lon":"-80.00000000"},
{"state":"Guayas","name":"Velasco Ibarra","lat":"-1.04376000","lon":"-79.63837000"},
{"state":"Guayas","name":"Yaguachi Nuevo","lat":"-2.09680000","lon":"-79.69485000"},
{"state":"Imbabura","name":"Atuntaqui","lat":"0.33247000","lon":"-78.21371000"},
{"state":"Imbabura","name":"Cotacachi","lat":"0.30107000","lon":"-78.26428000"},
{"state":"Imbabura","name":"Ibarra","lat":"0.35171000","lon":"-78.12233000"},
{"state":"Imbabura","name":"Otavalo","lat":"0.23457000","lon":"-78.26248000"},
{"state":"Imbabura","name":"Pimampiro","lat":"0.39116000","lon":"-77.94068000"},
{"state":"Loja","name":"Loja","lat":"-3.99313000","lon":"-79.20422000"},
{"state":"Los Ríos","name":"Babahoyo","lat":"-1.80217000","lon":"-79.53443000"},
{"state":"Los Ríos","name":"Catarama","lat":"-1.57504000","lon":"-79.45998000"},
{"state":"Los Ríos","name":"Montalvo","lat":"-1.79008000","lon":"-79.28759000"},
{"state":"Los Ríos","name":"Palenque","lat":"-1.43795000","lon":"-79.75647000"},
{"state":"Los Ríos","name":"Quevedo","lat":"-1.02863000","lon":"-79.46352000"},
{"state":"Los Ríos","name":"Ventanas","lat":"-1.44158000","lon":"-79.45943000"},
{"state":"Los Ríos","name":"Vinces","lat":"-1.55611000","lon":"-79.75191000"},
{"state":"Manabí","name":"Bahía de Caráquez","lat":"-0.59792000","lon":"-80.42367000"},
{"state":"Manabí","name":"Calceta","lat":"-0.84582000","lon":"-80.16389000"},
{"state":"Manabí","name":"Cantón Portoviejo","lat":"-1.05000000","lon":"-80.45000000"},
{"state":"Manabí","name":"Chone","lat":"-0.69819000","lon":"-80.09361000"},
{"state":"Manabí","name":"Jipijapa","lat":"-1.34872000","lon":"-80.57875000"},
{"state":"Manabí","name":"Junín","lat":"-0.92777000","lon":"-80.20583000"},
{"state":"Manabí","name":"Manta","lat":"-0.96212000","lon":"-80.71271000"},
{"state":"Manabí","name":"Montecristi","lat":"-1.04576000","lon":"-80.65889000"},
{"state":"Manabí","name":"Paján","lat":"-1.55238000","lon":"-80.42958000"},
{"state":"Manabí","name":"Pedernales","lat":"0.07167000","lon":"-80.05250000"},
{"state":"Manabí","name":"Portoviejo","lat":"-1.05458000","lon":"-80.45445000"},
{"state":"Manabí","name":"Rocafuerte","lat":"-0.92360000","lon":"-80.44946000"},
{"state":"Manabí","name":"San Vicente","lat":"-0.60435000","lon":"-80.40267000"},
{"state":"Manabí","name":"Santa Ana","lat":"-1.20726000","lon":"-80.37132000"},
{"state":"Manabí","name":"Sucre","lat":"-1.27974000","lon":"-80.41885000"},
{"state":"Manabí","name":"Tosagua","lat":"-0.78679000","lon":"-80.23473000"},
{"state":"Morona-Santiago","name":"Gualaquiza","lat":"-3.40359000","lon":"-78.58166000"},
{"state":"Morona-Santiago","name":"Macas","lat":"-2.30868000","lon":"-78.11135000"},
{"state":"Morona-Santiago","name":"Palora","lat":"-1.70131000","lon":"-77.96516000"},
{"state":"Morona-Santiago","name":"Sucúa","lat":"-2.45866000","lon":"-78.17171000"},
{"state":"Napo","name":"Archidona","lat":"-0.90950000","lon":"-77.80772000"},
{"state":"Napo","name":"Tena","lat":"-0.99380000","lon":"-77.81286000"},
{"state":"Orellana","name":"Boca Suno","lat":"-0.69832000","lon":"-77.14083000"},
{"state":"Orellana","name":"Francisco de Orellana Canton","lat":"-0.46667000","lon":"-76.96667000"},
{"state":"Orellana","name":"Loreto Canton","lat":"-0.69487000","lon":"-77.30255000"},
{"state":"Orellana","name":"Puerto Francisco de Orellana","lat":"-0.46645000","lon":"-76.98719000"},
{"state":"Pastaza","name":"Puyo","lat":"-1.48369000","lon":"-78.00257000"},
{"state":"Pichincha","name":"Cayambe","lat":"0.04084000","lon":"-78.14524000"},
{"state":"Pichincha","name":"Machachi","lat":"-0.51011000","lon":"-78.56712000"},
{"state":"Pichincha","name":"Quito","lat":"-0.22985000","lon":"-78.52495000"},
{"state":"Pichincha","name":"Sangolquí","lat":"-0.33405000","lon":"-78.45217000"},
{"state":"Pichincha","name":"Tutamandahostel","lat":"-0.19727000","lon":"-78.49750000"},
{"state":"Santa Elena","name":"La Libertad","lat":"-2.23300000","lon":"-80.91039000"},
{"state":"Santa Elena","name":"Salinas","lat":"-2.21452000","lon":"-80.95151000"},
{"state":"Santa Elena","name":"Santa Elena","lat":"-2.22622000","lon":"-80.85873000"},
{"state":"Santo Domingo de los Tsáchilas","name":"Santo Domingo de los Colorados","lat":"-0.25305000","lon":"-79.17536000"},
{"state":"Sucumbíos","name":"Nueva Loja","lat":"0.08600000","lon":"-76.89528000"},
{"state":"Tungurahua","name":"Ambato","lat":"-1.24908000","lon":"-78.61675000"},
{"state":"Tungurahua","name":"Baños","lat":"-1.39699000","lon":"-78.42289000"},
{"state":"Tungurahua","name":"Pelileo","lat":"-1.32990000","lon":"-78.54341000"},
{"state":"Tungurahua","name":"Píllaro","lat":"-1.17414000","lon":"-78.54676000"},
{"state":"Zamora Chinchipe","name":"Yantzaza","lat":"-3.83261000","lon":"-78.76076000"},
{"state":"Zamora Chinchipe","name":"Zamora","lat":"-4.06685000","lon":"-78.95488000"}]