[{"name":"Azuay","native":null,"cities":[{"name":"Cantón San Fernando","native":null,"lat":"-3.13349000","lon":"-79.26893000"},{"name":"Cuenca","native":null,"lat":"-2.90055000","lon":"-79.00453000"},{"name":"Gualaceo","native":null,"lat":"-2.89264000","lon":"-78.77814000"},{"name":"La Unión","native":null,"lat":"-2.85000000","lon":"-78.78333000"},{"name":"Llacao","native":null,"lat":"-2.86667000","lon":"-78.88333000"},{"name":"Nulti","native":null,"lat":"-2.91667000","lon":"-78.85000000"}]},{"name":"Bolívar","native":null,"cities":[{"name":"Guaranda","native":null,"lat":"-1.59263000","lon":"-79.00098000"},{"name":"San Miguel","native":null,"lat":"-1.70884000","lon":"-79.04311000"}]},{"name":"Cañar","native":null,"cities":[{"name":"Azogues","native":null,"lat":"-2.73969000","lon":"-78.84860000"},{"name":"Cañar","native":null,"lat":"-2.56062000","lon":"-78.93940000"},{"name":"La Troncal","native":null,"lat":"-2.42355000","lon":"-79.33977000"}]},{"name":"Carchi","native":null,"cities":[{"name":"El Ángel","native":null,"lat":"0.62279000","lon":"-77.94003000"},{"name":"San Gabriel","native":null,"lat":"0.59318000","lon":"-77.83078000"},{"name":"Tulcán","native":null,"lat":"0.81187000","lon":"-77.71727000"}]},{"name":"Chimborazo","native":null,"cities":[{"name":"Alausí","native":null,"lat":"-2.20329000","lon":"-78.84714000"},{"name":"Guano","native":null,"lat":"-1.60789000","lon":"-78.63105000"},{"name":"Riobamba","native":null,"lat":"-1.67098000","lon":"-78.64712000"}]},{"name":"Cotopaxi","native":null,"cities":[{"name":"La Maná","native":null,"lat":"-0.94094000","lon":"-79.22506000"},{"name":"Latacunga","native":null,"lat":"-0.93521000","lon":"-78.61554000"},{"name":"Pujilí","native":null,"lat":"-0.95759000","lon":"-78.69636000"},{"name":"San Miguel de Salcedo","native":null,"lat":"-1.04547000","lon":"-78.59063000"},{"name":"Saquisilí","native":null,"lat":"-0.83990000","lon":"-78.66700000"}]},{"name":"El Oro","native":null,"cities":[{"name":"Huaquillas","native":null,"lat":"-3.47523000","lon":"-80.23084000"},{"name":"Machala","native":null,"lat":"-3.25861000","lon":"-79.96053000"},{"name":"Pasaje","native":null,"lat":"-3.32561000","lon":"-79.80697000"},{"name":"Piñas","native":null,"lat":"-3.68107000","lon":"-79.68083000"},{"name":"Portovelo","native":null,"lat":"-3.72145000","lon":"-79.62187000"},{"name":"Puerto Bolívar","native":null,"lat":"-3.26649000","lon":"-79.99749000"},{"name":"Santa Rosa","native":null,"lat":"-3.44882000","lon":"-79.95952000"},{"name":"Zaruma","native":null,"lat":"-3.69132000","lon":"-79.61174000"}]},{"name":"Esmeraldas","native":null,"cities":[{"name":"Esmeraldas","native":null,"lat":"0.95920000","lon":"-79.65397000"},{"name":"Muisne","native":null,"lat":"0.61129000","lon":"-80.01863000"},{"name":"Pampanal de Bolívar","native":null,"lat":"1.35251000","lon":"-78.89360000"},{"name":"Rio Verde","native":null,"lat":"1.06235000","lon":"-79.39939000"},{"name":"Rosa Zarate","native":null,"lat":"0.32779000","lon":"-79.47407000"},{"name":"San Lorenzo de Esmeraldas","native":null,"lat":"1.28626000","lon":"-78.83514000"},{"name":"Valdez","native":null,"lat":"1.24917000","lon":"-78.98306000"}]},{"name":"Galápagos","native":null,"cities":[{"name":"Puerto Ayora","native":null,"lat":"-0.74018000","lon":"-90.31380000"},{"name":"Puerto Baquerizo Moreno","native":null,"lat":"-0.90172000","lon":"-89.61021000"},{"name":"Puerto Villamil","native":null,"lat":"-0.95542000","lon":"-90.96654000"}]},{"name":"Guayas","native":null,"cities":[{"name":"Alfredo Baquerizo Moreno","native":null,"lat":"-1.91667000","lon":"-79.51667000"},{"name":"Baláo","native":null,"lat":"-2.91100000","lon":"-79.81441000"},{"name":"Balzar","native":null,"lat":"-1.36501000","lon":"-79.90494000"},{"name":"Colimes","native":null,"lat":"-1.54553000","lon":"-80.01165000"},{"name":"Coronel Marcelino Maridueña","native":null,"lat":"-2.20924000","lon":"-79.43248000"},{"name":"El Triunfo","native":null,"lat":"-1.93333000","lon":"-79.96667000"},{"name":"Eloy Alfaro","native":null,"lat":"-2.17579000","lon":"-79.85519000"},{"name":"Guayaquil","native":null,"lat":"-2.19616000","lon":"-79.88621000"},{"name":"Lomas de Sargentillo","native":null,"lat":"-1.88333000","lon":"-80.08333000"},{"name":"Milagro","native":null,"lat":"-2.13404000","lon":"-79.59415000"},{"name":"Naranjal","native":null,"lat":"-2.67364000","lon":"-79.61830000"},{"name":"Naranjito","native":null,"lat":"-2.16671000","lon":"-79.46540000"},{"name":"Palestina","native":null,"lat":"-1.93709000","lon":"-79.71396000"},{"name":"Pedro Carbo","native":null,"lat":"-1.81563000","lon":"-80.23309000"},{"name":"Playas","native":null,"lat":"-2.63199000","lon":"-80.38808000"},{"name":"Samborondón","native":null,"lat":"-1.96276000","lon":"-79.72402000"},{"name":"Santa Lucía","native":null,"lat":"-2.18333000","lon":"-80.00000000"},{"name":"Velasco Ibarra","native":null,"lat":"-1.04376000","lon":"-79.63837000"},{"name":"Yaguachi Nuevo","native":null,"lat":"-2.09680000","lon":"-79.69485000"}]},{"name":"Imbabura","native":null,"cities":[{"name":"Atuntaqui","native":null,"lat":"0.33247000","lon":"-78.21371000"},{"name":"Cotacachi","native":null,"lat":"0.30107000","lon":"-78.26428000"},{"name":"Ibarra","native":null,"lat":"0.35171000","lon":"-78.12233000"},{"name":"Otavalo","native":null,"lat":"0.23457000","lon":"-78.26248000"},{"name":"Pimampiro","native":null,"lat":"0.39116000","lon":"-77.94068000"}]},{"name":"Loja","native":null,"cities":[{"name":"Loja","native":null,"lat":"-3.99313000","lon":"-79.20422000"}]},{"name":"Los Ríos","native":null,"cities":[{"name":"Babahoyo","native":null,"lat":"-1.80217000","lon":"-79.53443000"},{"name":"Catarama","native":null,"lat":"-1.57504000","lon":"-79.45998000"},{"name":"Montalvo","native":null,"lat":"-1.79008000","lon":"-79.28759000"},{"name":"Palenque","native":null,"lat":"-1.43795000","lon":"-79.75647000"},{"name":"Quevedo","native":null,"lat":"-1.02863000","lon":"-79.46352000"},{"name":"Ventanas","native":null,"lat":"-1.44158000","lon":"-79.45943000"},{"name":"Vinces","native":null,"lat":"-1.55611000","lon":"-79.75191000"}]},{"name":"Manabí","native":null,"cities":[{"name":"Bahía de Caráquez","native":null,"lat":"-0.59792000","lon":"-80.42367000"},{"name":"Calceta","native":null,"lat":"-0.84582000","lon":"-80.16389000"},{"name":"Cantón Portoviejo","native":null,"lat":"-1.05000000","lon":"-80.45000000"},{"name":"Chone","native":null,"lat":"-0.69819000","lon":"-80.09361000"},{"name":"Jipijapa","native":null,"lat":"-1.34872000","lon":"-80.57875000"},{"name":"Junín","native":null,"lat":"-0.92777000","lon":"-80.20583000"},{"name":"Manta","native":null,"lat":"-0.96212000","lon":"-80.71271000"},{"name":"Montecristi","native":null,"lat":"-1.04576000","lon":"-80.65889000"},{"name":"Paján","native":null,"lat":"-1.55238000","lon":"-80.42958000"},{"name":"Pedernales","native":null,"lat":"0.07167000","lon":"-80.05250000"},{"name":"Portoviejo","native":null,"lat":"-1.05458000","lon":"-80.45445000"},{"name":"Rocafuerte","native":null,"lat":"-0.92360000","lon":"-80.44946000"},{"name":"San Vicente","native":null,"lat":"-0.60435000","lon":"-80.40267000"},{"name":"Santa Ana","native":null,"lat":"-1.20726000","lon":"-80.37132000"},{"name":"Sucre","native":null,"lat":"-1.27974000","lon":"-80.41885000"},{"name":"Tosagua","native":null,"lat":"-0.78679000","lon":"-80.23473000"}]},{"name":"Morona-Santiago","native":null,"cities":[{"name":"Gualaquiza","native":null,"lat":"-3.40359000","lon":"-78.58166000"},{"name":"Macas","native":null,"lat":"-2.30868000","lon":"-78.11135000"},{"name":"Palora","native":null,"lat":"-1.70131000","lon":"-77.96516000"},{"name":"Sucúa","native":null,"lat":"-2.45866000","lon":"-78.17171000"}]},{"name":"Napo","native":null,"cities":[{"name":"Archidona","native":null,"lat":"-0.90950000","lon":"-77.80772000"},{"name":"Tena","native":null,"lat":"-0.99380000","lon":"-77.81286000"}]},{"name":"Orellana","native":null,"cities":[{"name":"Boca Suno","native":null,"lat":"-0.69832000","lon":"-77.14083000"},{"name":"Francisco de Orellana Canton","native":null,"lat":"-0.46667000","lon":"-76.96667000"},{"name":"Loreto Canton","native":null,"lat":"-0.69487000","lon":"-77.30255000"},{"name":"Puerto Francisco de Orellana","native":null,"lat":"-0.46645000","lon":"-76.98719000"}]},{"name":"Pastaza","native":null,"cities":[{"name":"Puyo","native":null,"lat":"-1.48369000","lon":"-78.00257000"}]},{"name":"Pichincha","native":null,"cities":[{"name":"Cayambe","native":null,"lat":"0.04084000","lon":"-78.14524000"},{"name":"Machachi","native":null,"lat":"-0.51011000","lon":"-78.56712000"},{"name":"Quito","native":null,"lat":"-0.22985000","lon":"-78.52495000"},{"name":"Sangolquí","native":null,"lat":"-0.33405000","lon":"-78.45217000"},{"name":"Tutamandahostel","native":null,"lat":"-0.19727000","lon":"-78.49750000"}]},{"name":"Santa Elena","native":null,"cities":[{"name":"La Libertad","native":null,"lat":"-2.23300000","lon":"-80.91039000"},{"name":"Salinas","native":null,"lat":"-2.21452000","lon":"-80.95151000"},{"name":"Santa Elena","native":null,"lat":"-2.22622000","lon":"-80.85873000"}]},{"name":"Santo Domingo de los Tsáchilas","native":null,"cities":[{"name":"Santo Domingo de los Colorados","native":null,"lat":"-0.25305000","lon":"-79.17536000"}]},{"name":"Sucumbíos","native":null,"cities":[{"name":"Nueva Loja","native":null,"lat":"0.08600000","lon":"-76.89528000"}]},{"name":"Tungurahua","native":null,"cities":[{"name":"Ambato","native":null,"lat":"-1.24908000","lon":"-78.61675000"},{"name":"Baños","native":null,"lat":"-1.39699000","lon":"-78.42289000"},{"name":"Pelileo","native":null,"lat":"-1.32990000","lon":"-78.54341000"},{"name":"Píllaro","native":null,"lat":"-1.17414000","lon":"-78.54676000"}]},{"name":"Zamora Chinchipe","native":null,"cities":[{"name":"Yantzaza","native":null,"lat":"-3.83261000","lon":"-78.76076000"},{"name":"Zamora","native":null,"lat":"-4.06685000","lon":"-78.95488000"}]}]