[{"state":"Harju County","name":"Anija vald","lat":"59.27644000","lon":"25.48168000"},
{"state":"Harju County","name":"Aruküla","lat":"59.36686000","lon":"25.07618000"},
{"state":"Harju County","name":"Haabneeme","lat":"59.51358000","lon":"24.82225000"},
{"state":"Harju County","name":"Harku","lat":"59.38641000","lon":"24.57176000"},
{"state":"Harju County","name":"Harku vald","lat":"59.39157000","lon":"24.46206000"},
{"state":"Harju County","name":"Jõelähtme vald","lat":"59.43996000","lon":"25.13535000"},
{"state":"Harju County","name":"Jüri","lat":"59.35417000","lon":"24.89417000"},
{"state":"Harju County","name":"Kehra","lat":"59.33611000","lon":"25.32111000"},
{"state":"Harju County","name":"Keila","lat":"59.30361000","lon":"24.41306000"},
{"state":"Harju County","name":"Kiili","lat":"59.30775000","lon":"24.83776000"},
{"state":"Harju County","name":"Kiili vald","lat":"59.29672000","lon":"24.85292000"},
{"state":"Harju County","name":"Kose","lat":"59.46001000","lon":"24.87824000"},
{"state":"Harju County","name":"Kuusalu","lat":"59.44389000","lon":"25.44139000"},
{"state":"Harju County","name":"Laagri","lat":"59.35083000","lon":"24.61418000"},
{"state":"Harju County","name":"Loksa","lat":"59.57639000","lon":"25.72139000"},
{"state":"Harju County","name":"Loksa linn","lat":"59.57844000","lon":"25.71667000"},
{"state":"Harju County","name":"Loo","lat":"59.43123000","lon":"24.94949000"},
{"state":"Harju County","name":"Maardu","lat":"59.46529000","lon":"24.98215000"},
{"state":"Harju County","name":"Maardu linn","lat":"59.46385000","lon":"24.97350000"},
{"state":"Harju County","name":"Paldiski","lat":"59.35667000","lon":"24.05306000"},
{"state":"Harju County","name":"Pringi","lat":"59.53459000","lon":"24.79726000"},
{"state":"Harju County","name":"Raasiku","lat":"59.36639000","lon":"25.18306000"},
{"state":"Harju County","name":"Rae vald","lat":"59.33202000","lon":"24.93932000"},
{"state":"Harju County","name":"Riisipere","lat":"59.11417000","lon":"24.31056000"},
{"state":"Harju County","name":"Rummu","lat":"59.53528000","lon":"24.79972000"},
{"state":"Harju County","name":"Saku","lat":"59.30354000","lon":"24.66382000"},
{"state":"Harju County","name":"Saku vald","lat":"59.28069000","lon":"24.71649000"},
{"state":"Harju County","name":"Saue","lat":"59.32258000","lon":"24.54967000"},
{"state":"Harju County","name":"Saue vald","lat":"59.29255000","lon":"24.52503000"},
{"state":"Harju County","name":"Tabasalu","lat":"59.42607000","lon":"24.55330000"},
{"state":"Harju County","name":"Tallinn","lat":"59.43696000","lon":"24.75353000"},
{"state":"Harju County","name":"Turba","lat":"59.08306000","lon":"24.22500000"},
{"state":"Harju County","name":"Vaida","lat":"59.28546000","lon":"24.97897000"},
{"state":"Harju County","name":"Viimsi","lat":"59.50502000","lon":"24.84807000"},
{"state":"Harju County","name":"Viimsi vald","lat":"59.50204000","lon":"24.84833000"},
{"state":"Hiiu County","name":"Kärdla","lat":"58.99778000","lon":"22.74917000"},
{"state":"Ida-Viru County","name":"Iisaku","lat":"59.10139000","lon":"27.30806000"},
{"state":"Ida-Viru County","name":"Jõhvi","lat":"59.35917000","lon":"27.42111000"},
{"state":"Ida-Viru County","name":"Jõhvi vald","lat":"59.35653000","lon":"27.39304000"},
{"state":"Ida-Viru County","name":"Kiviõli","lat":"59.35306000","lon":"26.97111000"},
{"state":"Ida-Viru County","name":"Kohtla-Järve","lat":"59.39861000","lon":"27.27306000"},
{"state":"Ida-Viru County","name":"Kohtla-Nõmme","lat":"59.35167000","lon":"27.17500000"},
{"state":"Ida-Viru County","name":"Lüganuse vald","lat":"59.39262000","lon":"27.07641000"},
{"state":"Ida-Viru County","name":"Narva","lat":"59.37722000","lon":"28.19028000"},
{"state":"Ida-Viru County","name":"Narva-Jõesuu","lat":"59.45889000","lon":"28.04083000"},
{"state":"Ida-Viru County","name":"Narva-Jõesuu linn","lat":"59.44127000","lon":"28.02142000"},
{"state":"Ida-Viru County","name":"Püssi","lat":"59.36000000","lon":"27.04972000"},
{"state":"Ida-Viru County","name":"Sillamäe","lat":"59.39697000","lon":"27.76331000"},
{"state":"Ida-Viru County","name":"Toila","lat":"59.42127000","lon":"27.50807000"},
{"state":"Ida-Viru County","name":"Voka","lat":"59.40776000","lon":"27.58263000"},
{"state":"Järva County","name":"Järva-Jaani","lat":"59.03861000","lon":"25.88639000"},
{"state":"Järva County","name":"Koeru","lat":"58.96306000","lon":"26.03083000"},
{"state":"Järva County","name":"Paide","lat":"58.88556000","lon":"25.55722000"},
{"state":"Järva County","name":"Paide linn","lat":"58.88504000","lon":"25.56021000"},
{"state":"Järva County","name":"Särevere","lat":"58.79000000","lon":"25.42806000"},
{"state":"Järva County","name":"Türi","lat":"58.80861000","lon":"25.43250000"},
{"state":"Järva County","name":"Türi vald","lat":"58.74143000","lon":"25.46443000"},
{"state":"Jõgeva County","name":"Jõgeva","lat":"58.74667000","lon":"26.39389000"},
{"state":"Jõgeva County","name":"Jõgeva vald","lat":"58.78732000","lon":"26.38122000"},
{"state":"Jõgeva County","name":"Mustvee","lat":"58.84861000","lon":"26.93972000"},
{"state":"Jõgeva County","name":"Põltsamaa","lat":"58.65250000","lon":"25.97056000"},
{"state":"Jõgeva County","name":"Põltsamaa vald","lat":"58.64067000","lon":"26.00957000"},
{"state":"Lääne County","name":"Haapsalu","lat":"58.94306000","lon":"23.54139000"},
{"state":"Lääne County","name":"Haapsalu linn","lat":"58.93580000","lon":"23.53005000"},
{"state":"Lääne County","name":"Hullo","lat":"58.99004000","lon":"23.24441000"},
{"state":"Lääne County","name":"Lääne-Nigula vald","lat":"58.96045000","lon":"23.74489000"},
{"state":"Lääne County","name":"Taebla","lat":"58.95389000","lon":"23.75222000"},
{"state":"Lääne County","name":"Uuemõisa","lat":"58.93944000","lon":"23.58944000"},
{"state":"Lääne County","name":"Vormsi vald","lat":"58.99986000","lon":"23.23408000"},
{"state":"Lääne-Viru County","name":"Aseri","lat":"59.45056000","lon":"26.86750000"},
{"state":"Lääne-Viru County","name":"Haljala","lat":"59.43361000","lon":"26.26139000"},
{"state":"Lääne-Viru County","name":"Haljala vald","lat":"59.45427000","lon":"26.22015000"},
{"state":"Lääne-Viru County","name":"Kadrina","lat":"59.33472000","lon":"26.14500000"},
{"state":"Lääne-Viru County","name":"Kadrina vald","lat":"59.37463000","lon":"26.04150000"},
{"state":"Lääne-Viru County","name":"Kunda","lat":"59.49861000","lon":"26.52611000"},
{"state":"Lääne-Viru County","name":"Pajusti","lat":"59.27444000","lon":"26.42333000"},
{"state":"Lääne-Viru County","name":"Rakke","lat":"58.98167000","lon":"26.25444000"},
{"state":"Lääne-Viru County","name":"Rakvere","lat":"59.34639000","lon":"26.35583000"},
{"state":"Lääne-Viru County","name":"Rakvere vald","lat":"59.32457000","lon":"26.29757000"},
{"state":"Lääne-Viru County","name":"Sõmeru","lat":"59.36111000","lon":"26.43750000"},
{"state":"Lääne-Viru County","name":"Tamsalu","lat":"59.15861000","lon":"26.11528000"},
{"state":"Lääne-Viru County","name":"Tapa","lat":"59.26056000","lon":"25.95861000"},
{"state":"Lääne-Viru County","name":"Tapa vald","lat":"59.23821000","lon":"25.84572000"},
{"state":"Lääne-Viru County","name":"Vaiatu","lat":"59.35556000","lon":"25.99528000"},
{"state":"Lääne-Viru County","name":"Väike-Maarja","lat":"59.12639000","lon":"26.25000000"},
{"state":"Lääne-Viru County","name":"Väike-Maarja vald","lat":"59.06556000","lon":"26.31417000"},
{"state":"Lääne-Viru County","name":"Vinni","lat":"59.29583000","lon":"26.43222000"},
{"state":"Lääne-Viru County","name":"Vinni vald","lat":"59.23744000","lon":"26.62261000"},
{"state":"Lääne-Viru County","name":"Viru-Nigula vald","lat":"59.46387000","lon":"26.58585000"},
{"state":"Pärnu County","name":"Audru","lat":"58.40861000","lon":"24.37389000"},
{"state":"Pärnu County","name":"Kihnu vald","lat":"58.13000000","lon":"23.99002000"},
{"state":"Pärnu County","name":"Kilingi-Nõmme","lat":"58.15028000","lon":"24.96417000"},
{"state":"Pärnu County","name":"Lihula","lat":"58.68139000","lon":"23.84528000"},
{"state":"Pärnu County","name":"Linaküla","lat":"58.13722000","lon":"23.97444000"},
{"state":"Pärnu County","name":"Paikuse","lat":"58.37917000","lon":"24.63444000"},
{"state":"Pärnu County","name":"Pärnu","lat":"58.38588000","lon":"24.49711000"},
{"state":"Pärnu County","name":"Pärnu linn","lat":"58.37901000","lon":"24.52784000"},
{"state":"Pärnu County","name":"Pärnu-Jaagupi","lat":"58.61052000","lon":"24.50689000"},
{"state":"Pärnu County","name":"Saarde vald","lat":"58.13802000","lon":"24.95564000"},
{"state":"Pärnu County","name":"Sauga","lat":"58.42720000","lon":"24.49496000"},
{"state":"Pärnu County","name":"Sindi","lat":"58.40056000","lon":"24.66750000"},
{"state":"Pärnu County","name":"Tootsi","lat":"58.57806000","lon":"24.79250000"},
{"state":"Pärnu County","name":"Tori vald","lat":"58.48663000","lon":"24.88961000"},
{"state":"Pärnu County","name":"Uulu","lat":"58.28361000","lon":"24.58722000"},
{"state":"Pärnu County","name":"Vändra","lat":"58.64806000","lon":"25.03611000"},
{"state":"Põlva County","name":"Kanepi","lat":"57.98306000","lon":"26.75639000"},
{"state":"Põlva County","name":"Kanepi vald","lat":"57.98058000","lon":"26.76151000"},
{"state":"Põlva County","name":"Põlva","lat":"58.06028000","lon":"27.06944000"},
{"state":"Põlva County","name":"Põlva vald","lat":"58.08368000","lon":"26.98242000"},
{"state":"Põlva County","name":"Räpina","lat":"58.09806000","lon":"27.46361000"},
{"state":"Põlva County","name":"Räpina vald","lat":"58.10777000","lon":"27.38580000"},
{"state":"Rapla County","name":"Järvakandi","lat":"58.77889000","lon":"24.82583000"},
{"state":"Rapla County","name":"Kehtna","lat":"58.93028000","lon":"24.87806000"},
{"state":"Rapla County","name":"Kehtna vald","lat":"58.84274000","lon":"24.89002000"},
{"state":"Rapla County","name":"Kohila","lat":"59.16806000","lon":"24.75750000"},
{"state":"Rapla County","name":"Kohila vald","lat":"59.15283000","lon":"24.73337000"},
{"state":"Rapla County","name":"Märjamaa","lat":"58.90389000","lon":"24.43056000"},
{"state":"Rapla County","name":"Märjamaa vald","lat":"58.90262000","lon":"24.39423000"},
{"state":"Rapla County","name":"Rapla","lat":"59.00722000","lon":"24.79278000"},
{"state":"Rapla County","name":"Rapla vald","lat":"59.03309000","lon":"24.71793000"},
{"state":"Saare County","name":"Kuressaare","lat":"58.24806000","lon":"22.50389000"},
{"state":"Saare County","name":"Liiva","lat":"58.60194000","lon":"23.24694000"},
{"state":"Saare County","name":"Muhu vald","lat":"58.58486000","lon":"23.25609000"},
{"state":"Saare County","name":"Orissaare","lat":"58.55917000","lon":"23.08262000"},
{"state":"Saare County","name":"Ruhnu","lat":"57.80028000","lon":"23.24833000"},
{"state":"Saare County","name":"Ruhnu vald","lat":"57.80309000","lon":"23.24250000"},
{"state":"Saare County","name":"Tehumardi","lat":"58.18027000","lon":"22.24646000"},
{"state":"Tartu County","name":"Alatskivi","lat":"58.59806000","lon":"27.13361000"},
{"state":"Tartu County","name":"Elva","lat":"58.22250000","lon":"26.42111000"},
{"state":"Tartu County","name":"Kallaste","lat":"58.66312000","lon":"27.16164000"},
{"state":"Tartu County","name":"Kambja vald","lat":"58.20255000","lon":"26.68996000"},
{"state":"Tartu County","name":"Kõrveküla","lat":"58.42417000","lon":"26.78222000"},
{"state":"Tartu County","name":"Kurepalu","lat":"58.31861000","lon":"26.84083000"},
{"state":"Tartu County","name":"Luunja","lat":"58.35583000","lon":"26.88083000"},
{"state":"Tartu County","name":"Luunja vald","lat":"58.39178000","lon":"26.95574000"},
{"state":"Tartu County","name":"Nõo","lat":"58.27556000","lon":"26.53750000"},
{"state":"Tartu County","name":"Nõo vald","lat":"58.24199000","lon":"26.52499000"},
{"state":"Tartu County","name":"Peipsiääre vald","lat":"58.51559000","lon":"27.18444000"},
{"state":"Tartu County","name":"Puhja","lat":"58.34194000","lon":"26.31472000"},
{"state":"Tartu County","name":"Tartu","lat":"58.38062000","lon":"26.72509000"},
{"state":"Tartu County","name":"Tartu linn","lat":"58.37498000","lon":"26.73256000"},
{"state":"Tartu County","name":"Tartu vald","lat":"58.47800000","lon":"26.74956000"},
{"state":"Tartu County","name":"Ülenurme","lat":"58.31620000","lon":"26.72517000"},
{"state":"Valga County","name":"Otepää vald","lat":"58.02177000","lon":"26.45306000"},
{"state":"Valga County","name":"Tõrva","lat":"58.00278000","lon":"25.93500000"},
{"state":"Valga County","name":"Valga","lat":"57.77781000","lon":"26.04730000"},
{"state":"Viljandi County","name":"Abja-Paluoja","lat":"58.12528000","lon":"25.34972000"},
{"state":"Viljandi County","name":"Karksi-Nuia","lat":"58.10333000","lon":"25.56278000"},
{"state":"Viljandi County","name":"Mõisaküla","lat":"58.09222000","lon":"25.18639000"},
{"state":"Viljandi County","name":"Suure-Jaani","lat":"58.53611000","lon":"25.47056000"},
{"state":"Viljandi County","name":"Viiratsi","lat":"58.36000000","lon":"25.63722000"},
{"state":"Viljandi County","name":"Viljandi","lat":"58.36389000","lon":"25.59000000"},
{"state":"Viljandi County","name":"Viljandi vald","lat":"58.36392000","lon":"25.49103000"},
{"state":"Viljandi County","name":"Võhma","lat":"58.62833000","lon":"25.54833000"},
{"state":"Võru County","name":"Antsla","lat":"57.82556000","lon":"26.54056000"},
{"state":"Võru County","name":"Antsla vald","lat":"57.77738000","lon":"26.59520000"},
{"state":"Võru County","name":"Rõuge","lat":"57.72778000","lon":"26.90972000"},
{"state":"Võru County","name":"Rõuge vald","lat":"57.72780000","lon":"26.88033000"},
{"state":"Võru County","name":"Vana-Antsla","lat":"57.86611000","lon":"26.53222000"},
{"state":"Võru County","name":"Värska","lat":"57.95806000","lon":"27.63806000"},
{"state":"Võru County","name":"Võru","lat":"57.83389000","lon":"27.01944000"},
{"state":"Võru County","name":"Võru vald","lat":"57.86618000","lon":"26.97418000"}]