[{"state":"Alexandria","name":"Abu Qir","lat":"31.31666667","lon":"30.06666667"},
{"state":"Alexandria","name":"Agami","lat":"31.09590000","lon":"29.76040000"},
{"state":"Alexandria","name":"Alexandria","lat":"31.20176000","lon":"29.91582000"},
{"state":"Alexandria","name":"Ar-Raml","lat":"31.24821000","lon":"29.97368000"},
{"state":"Alexandria","name":"Borg El Arab","lat":"30.91666667","lon":"29.53333333"},
{"state":"Alexandria","name":"Montaza","lat":"31.28270000","lon":"30.02190000"},
{"state":"Alexandria","name":"New Borg El Arab","lat":"30.88525000","lon":"29.57721000"},
{"state":"Alexandria","name":"Sidi Bishr","lat":"31.25210000","lon":"29.99450000"},
{"state":"Aswan","name":"Abu Simbel","lat":"22.34570000","lon":"31.61624000"},
{"state":"Aswan","name":"Aswan","lat":"24.09082000","lon":"32.89942000"},
{"state":"Aswan","name":"Idfū","lat":"24.97916000","lon":"32.87722000"},
{"state":"Aswan","name":"Kawm Umbū","lat":"24.47669000","lon":"32.94626000"},
{"state":"Asyut","name":"Abnūb","lat":"27.26960000","lon":"31.15105000"},
{"state":"Asyut","name":"Abū Tīj","lat":"27.04411000","lon":"31.31897000"},
{"state":"Asyut","name":"Al Badārī","lat":"26.99257000","lon":"31.41554000"},
{"state":"Asyut","name":"Al Qūşīyah","lat":"27.44020000","lon":"30.81841000"},
{"state":"Asyut","name":"Asyūţ","lat":"27.18096000","lon":"31.18368000"},
{"state":"Asyut","name":"Dayrūţ","lat":"27.55602000","lon":"30.80764000"},
{"state":"Asyut","name":"Manfalūţ","lat":"27.31040000","lon":"30.97004000"},
{"state":"Beheira","name":"Abū al Maţāmīr","lat":"30.91018000","lon":"30.17438000"},
{"state":"Beheira","name":"Ad Dilinjāt","lat":"30.82796000","lon":"30.53552000"},
{"state":"Beheira","name":"Damanhūr","lat":"31.03408000","lon":"30.46823000"},
{"state":"Beheira","name":"Ḩawsh ‘Īsá","lat":"30.91280000","lon":"30.29019000"},
{"state":"Beheira","name":"Idkū","lat":"31.30730000","lon":"30.29810000"},
{"state":"Beheira","name":"Kafr ad Dawwār","lat":"31.13379000","lon":"30.12969000"},
{"state":"Beheira","name":"Kawm Ḩamādah","lat":"30.76128000","lon":"30.69972000"},
{"state":"Beheira","name":"Rosetta","lat":"31.39951000","lon":"30.41718000"},
{"state":"Beni Suef","name":"Al Fashn","lat":"28.82431000","lon":"30.89948000"},
{"state":"Beni Suef","name":"Banī Suwayf","lat":"29.07441000","lon":"31.09785000"},
{"state":"Beni Suef","name":"Būsh","lat":"29.14816000","lon":"31.12733000"},
{"state":"Beni Suef","name":"Sumusţā as Sulţānī","lat":"28.91667000","lon":"30.85000000"},
{"state":"Cairo","name":"Badr","lat":"30.13600000","lon":"31.71500000"},
{"state":"Cairo","name":"Bulaq","lat":"30.05300000","lon":"31.23000000"},
{"state":"Cairo","name":"Cairo","lat":"30.06263000","lon":"31.24967000"},
{"state":"Cairo","name":"El Mataria","lat":"30.12950000","lon":"31.28890000"},
{"state":"Cairo","name":"Fustat","lat":"30.00000000","lon":"31.23333333"},
{"state":"Cairo","name":"Hadayek El Kobba","lat":"30.09670000","lon":"31.31030000"},
{"state":"Cairo","name":"Heliopolis","lat":"30.13333333","lon":"31.30000000"},
{"state":"Cairo","name":"Helwan","lat":"29.84194444","lon":"31.33416667"},
{"state":"Cairo","name":"Maadi","lat":"29.96670000","lon":"31.25000000"},
{"state":"Cairo","name":"Musturud","lat":"30.13881944","lon":"31.29241111"},
{"state":"Cairo","name":"New Administrative Capital of Egypt","lat":"30.02750000","lon":"31.76500000"},
{"state":"Cairo","name":"Shubra","lat":"30.07250000","lon":"31.24080000"},
{"state":"Cairo","name":"Tura","lat":"29.93927900","lon":"31.29000700"},
{"state":"Dakahlia","name":"‘Izbat al Burj","lat":"31.50840000","lon":"31.84106000"},
{"state":"Dakahlia","name":"Ajā","lat":"30.94162000","lon":"31.29039000"},
{"state":"Dakahlia","name":"Al Jammālīyah","lat":"31.18065000","lon":"31.86497000"},
{"state":"Dakahlia","name":"Al Manşūrah","lat":"31.03637000","lon":"31.38069000"},
{"state":"Dakahlia","name":"Al Manzalah","lat":"31.15823000","lon":"31.93600000"},
{"state":"Dakahlia","name":"Al Maţarīyah","lat":"31.18287000","lon":"32.03108000"},
{"state":"Dakahlia","name":"Bilqās","lat":"31.21452000","lon":"31.35798000"},
{"state":"Dakahlia","name":"Dikirnis","lat":"31.08898000","lon":"31.59478000"},
{"state":"Dakahlia","name":"Minyat an Naşr","lat":"31.12624000","lon":"31.64313000"},
{"state":"Dakahlia","name":"Shirbīn","lat":"31.19688000","lon":"31.52430000"},
{"state":"Dakahlia","name":"Ţalkhā","lat":"31.05390000","lon":"31.37787000"},
{"state":"Damietta","name":"Az Zarqā","lat":"31.20864000","lon":"31.63528000"},
{"state":"Damietta","name":"Damietta","lat":"31.41648000","lon":"31.81332000"},
{"state":"Damietta","name":"Fāraskūr","lat":"31.32977000","lon":"31.71507000"},
{"state":"Faiyum","name":"Al Fayyūm","lat":"29.30995000","lon":"30.84180000"},
{"state":"Faiyum","name":"Al Wāsiţah","lat":"29.33778000","lon":"31.20556000"},
{"state":"Faiyum","name":"Ibshawāy","lat":"29.35896000","lon":"30.68061000"},
{"state":"Faiyum","name":"Iţsā","lat":"29.23760000","lon":"30.78944000"},
{"state":"Faiyum","name":"Ţāmiyah","lat":"29.47639000","lon":"30.96119000"},
{"state":"Gharbia","name":"Al Maḩallah al Kubrá","lat":"30.97063000","lon":"31.16690000"},
{"state":"Gharbia","name":"Basyūn","lat":"30.93976000","lon":"30.81338000"},
{"state":"Gharbia","name":"Kafr az Zayyāt","lat":"30.82480000","lon":"30.81805000"},
{"state":"Gharbia","name":"Quţūr","lat":"30.97225000","lon":"30.95614000"},
{"state":"Gharbia","name":"Samannūd","lat":"30.96160000","lon":"31.24069000"},
{"state":"Gharbia","name":"Tanda","lat":"30.78847000","lon":"31.00192000"},
{"state":"Gharbia","name":"Zefta","lat":"30.71420000","lon":"31.24425000"},
{"state":"Giza","name":"Al ‘Ayyāţ","lat":"29.61972000","lon":"31.25750000"},
{"state":"Giza","name":"Al Bawīţī","lat":"28.34919000","lon":"28.86591000"},
{"state":"Giza","name":"Al Ḩawāmidīyah","lat":"29.90000000","lon":"31.25000000"},
{"state":"Giza","name":"Aş Şaff","lat":"29.56472000","lon":"31.28111000"},
{"state":"Giza","name":"Awsīm","lat":"30.12303000","lon":"31.13571000"},
{"state":"Giza","name":"Giza","lat":"30.00808000","lon":"31.21093000"},
{"state":"Giza","name":"Madīnat Sittah Uktūbar","lat":"29.81667000","lon":"31.05000000"},
{"state":"Ismailia","name":"Ismailia","lat":"30.60427000","lon":"32.27225000"},
{"state":"Kafr el-Sheikh","name":"Al Ḩāmūl","lat":"31.31146000","lon":"31.14766000"},
{"state":"Kafr el-Sheikh","name":"Disūq","lat":"31.13259000","lon":"30.64784000"},
{"state":"Kafr el-Sheikh","name":"Fuwwah","lat":"31.20365000","lon":"30.54908000"},
{"state":"Kafr el-Sheikh","name":"Kafr ash Shaykh","lat":"31.11174000","lon":"30.93991000"},
{"state":"Kafr el-Sheikh","name":"Markaz Disūq","lat":"31.14590000","lon":"30.71609000"},
{"state":"Kafr el-Sheikh","name":"Munshāt ‘Alī Āghā","lat":"31.15791000","lon":"30.70177000"},
{"state":"Kafr el-Sheikh","name":"Sīdī Sālim","lat":"31.27133000","lon":"30.78617000"},
{"state":"Luxor","name":"Luxor","lat":"25.69893000","lon":"32.64210000"},
{"state":"Luxor","name":"Markaz al Uqşur","lat":"25.62986000","lon":"32.59017000"},
{"state":"Matrouh","name":"Al ‘Alamayn","lat":"30.83007000","lon":"28.95502000"},
{"state":"Matrouh","name":"Mersa Matruh","lat":"31.35290000","lon":"27.23725000"},
{"state":"Matrouh","name":"Siwa Oasis","lat":"29.20320000","lon":"25.51965000"},
{"state":"Minya","name":"Abū Qurqāş","lat":"27.93120000","lon":"30.83841000"},
{"state":"Minya","name":"Al Minyā","lat":"28.10988000","lon":"30.75030000"},
{"state":"Minya","name":"Banī Mazār","lat":"28.50360000","lon":"30.80040000"},
{"state":"Minya","name":"Dayr Mawās","lat":"27.64176000","lon":"30.84662000"},
{"state":"Minya","name":"Mallawī","lat":"27.73140000","lon":"30.84165000"},
{"state":"Minya","name":"Maţāy","lat":"28.41899000","lon":"30.77924000"},
{"state":"Minya","name":"Samālūţ","lat":"28.31214000","lon":"30.71007000"},
{"state":"Monufia","name":"Al Bājūr","lat":"30.43046000","lon":"31.03679000"},
{"state":"Monufia","name":"Ash Shuhadā’","lat":"30.59683000","lon":"30.89931000"},
{"state":"Monufia","name":"Ashmūn","lat":"30.29735000","lon":"30.97641000"},
{"state":"Monufia","name":"Munūf","lat":"30.46597000","lon":"30.93199000"},
{"state":"Monufia","name":"Quwaysinā","lat":"30.56482000","lon":"31.15777000"},
{"state":"Monufia","name":"Shibīn al Kawm","lat":"30.55258000","lon":"31.00904000"},
{"state":"Monufia","name":"Talā","lat":"30.67980000","lon":"30.94364000"},
{"state":"New Valley","name":"Al Khārijah","lat":"25.45141000","lon":"30.54635000"},
{"state":"New Valley","name":"Qaşr al Farāfirah","lat":"27.05680000","lon":"27.96979000"},
{"state":"North Sinai","name":"Arish","lat":"31.13159000","lon":"33.79844000"},
{"state":"Port Said","name":"Port Said","lat":"31.25654000","lon":"32.28411000"},
{"state":"Qalyubia","name":"Al Khānkah","lat":"30.21035000","lon":"31.36812000"},
{"state":"Qalyubia","name":"Al Qanāţir al Khayrīyah","lat":"30.19327000","lon":"31.13703000"},
{"state":"Qalyubia","name":"Banhā","lat":"30.45977000","lon":"31.18420000"},
{"state":"Qalyubia","name":"Qalyūb","lat":"30.17922000","lon":"31.20560000"},
{"state":"Qalyubia","name":"Shibīn al Qanāṭir","lat":"30.31269000","lon":"31.32018000"},
{"state":"Qalyubia","name":"Toukh","lat":"30.35487000","lon":"31.20105000"},
{"state":"Qena","name":"Dishnā","lat":"26.12467000","lon":"32.47598000"},
{"state":"Qena","name":"Farshūţ","lat":"26.05494000","lon":"32.16329000"},
{"state":"Qena","name":"Isnā","lat":"25.29336000","lon":"32.55402000"},
{"state":"Qena","name":"Kousa","lat":"25.91407000","lon":"32.76362000"},
{"state":"Qena","name":"Naja' Ḥammādī","lat":"26.04949000","lon":"32.24142000"},
{"state":"Qena","name":"Qinā","lat":"26.16418000","lon":"32.72671000"},
{"state":"Red Sea","name":"Al Quşayr","lat":"26.10426000","lon":"34.27793000"},
{"state":"Red Sea","name":"El Gouna","lat":"27.39417000","lon":"33.67825000"},
{"state":"Red Sea","name":"Hurghada","lat":"27.25738000","lon":"33.81291000"},
{"state":"Red Sea","name":"Makadi Bay","lat":"26.99123000","lon":"33.89952000"},
{"state":"Red Sea","name":"Marsa Alam","lat":"25.06305000","lon":"34.89005000"},
{"state":"Red Sea","name":"Ras Gharib","lat":"28.35831000","lon":"33.07829000"},
{"state":"Red Sea","name":"Safaga","lat":"26.74906000","lon":"33.93891000"},
{"state":"Sharqia","name":"10th of Ramadan","lat":"30.29939390","lon":"31.61417890"},
{"state":"Sharqia","name":"Al Qurein","lat":"26.29300660","lon":"31.84950350"},
{"state":"Sharqia","name":"Awlad Saqr","lat":"30.93096230","lon":"31.69132380"},
{"state":"Sharqia","name":"Bilbeis","lat":"30.41676920","lon":"31.55430480"},
{"state":"Sharqia","name":"Diyarb Negm","lat":"30.74800820","lon":"31.38893080"},
{"state":"Sharqia","name":"El Husseiniya","lat":"31.13933960","lon":"32.14949670"},
{"state":"Sharqia","name":"Faqous","lat":"30.72291740","lon":"31.76136580"},
{"state":"Sharqia","name":"Hihya","lat":"30.65516210","lon":"31.50671570"},
{"state":"Sharqia","name":"Kafr Saqr","lat":"30.77955140","lon":"31.61774120"},
{"state":"Sharqia","name":"Markaz Abū Ḩammād","lat":"30.53604430","lon":"31.65970230"},
{"state":"Sharqia","name":"Mashtoul El Souk","lat":"30.35570110","lon":"31.36278530"},
{"state":"Sharqia","name":"Minya El Qamh","lat":"30.50037450","lon":"31.23766850"},
{"state":"Sharqia","name":"New Salhia","lat":"30.62868790","lon":"31.92099060"},
{"state":"Sharqia","name":"Zagazig","lat":"30.58456230","lon":"31.34747790"},
{"state":"Sohag","name":"Akhmīm","lat":"26.56217000","lon":"31.74503000"},
{"state":"Sohag","name":"Al Balyanā","lat":"26.23568000","lon":"32.00347000"},
{"state":"Sohag","name":"Al Manshāh","lat":"26.47686000","lon":"31.80350000"},
{"state":"Sohag","name":"Jirjā","lat":"26.33826000","lon":"31.89161000"},
{"state":"Sohag","name":"Juhaynah","lat":"26.67319000","lon":"31.49760000"},
{"state":"Sohag","name":"Markaz Jirjā","lat":"26.30683000","lon":"31.84574000"},
{"state":"Sohag","name":"Markaz Sūhāj","lat":"26.53948000","lon":"31.67524000"},
{"state":"Sohag","name":"Sohag","lat":"26.55695000","lon":"31.69478000"},
{"state":"Sohag","name":"Ţahţā","lat":"26.76930000","lon":"31.50214000"},
{"state":"South Sinai","name":"Dahab","lat":"28.48208000","lon":"34.49505000"},
{"state":"South Sinai","name":"El-Tor","lat":"28.24168000","lon":"33.62220000"},
{"state":"South Sinai","name":"Nuwaybi‘a","lat":"29.04681000","lon":"34.66340000"},
{"state":"South Sinai","name":"Saint Catherine","lat":"28.56191000","lon":"33.94934000"},
{"state":"South Sinai","name":"Sharm el-Sheikh","lat":"27.91582000","lon":"34.32995000"},
{"state":"Suez","name":"Ain Sukhna","lat":"29.60018000","lon":"32.31671000"},
{"state":"Suez","name":"Suez","lat":"29.97371000","lon":"32.52627000"}]