[{"state":"A Coruña","name":"Abegondo","lat":"43.21667000","lon":"-8.28333000"},
{"state":"A Coruña","name":"Amés","lat":"42.90426000","lon":"-8.65551000"},
{"state":"A Coruña","name":"Aranga","lat":"43.23469000","lon":"-8.01705000"},
{"state":"A Coruña","name":"Ares","lat":"43.42995000","lon":"-8.24254000"},
{"state":"A Coruña","name":"Arteixo","lat":"43.30482000","lon":"-8.50749000"},
{"state":"A Coruña","name":"Arzúa","lat":"42.93333000","lon":"-8.15000000"},
{"state":"A Coruña","name":"As Pontes de García Rodríguez","lat":"43.45266000","lon":"-7.85178000"},
{"state":"A Coruña","name":"Baña A","lat":"0.00000000","lon":"0.00000000"},
{"state":"A Coruña","name":"Bergondo","lat":"43.31667000","lon":"-8.23333000"},
{"state":"A Coruña","name":"Betanzos","lat":"43.28042000","lon":"-8.21467000"},
{"state":"A Coruña","name":"Boimorto","lat":"43.00000000","lon":"-8.13333000"},
{"state":"A Coruña","name":"Boiro","lat":"42.64725000","lon":"-8.88459000"},
{"state":"A Coruña","name":"Boqueixón","lat":"0.00000000","lon":"0.00000000"},
{"state":"A Coruña","name":"Brión","lat":"0.00000000","lon":"0.00000000"},
{"state":"A Coruña","name":"Cabana de Bergantiños","lat":"0.00000000","lon":"0.00000000"},
{"state":"A Coruña","name":"Cabanas","lat":"0.00000000","lon":"0.00000000"},
{"state":"A Coruña","name":"Camariñas","lat":"43.13115000","lon":"-9.18172000"},
{"state":"A Coruña","name":"Cambre","lat":"43.29438000","lon":"-8.34736000"},
{"state":"A Coruña","name":"Capela A","lat":"0.00000000","lon":"0.00000000"},
{"state":"A Coruña","name":"Carballo","lat":"43.21300000","lon":"-8.69104000"},
{"state":"A Coruña","name":"Cariño","lat":"43.74134000","lon":"-7.86715000"},
{"state":"A Coruña","name":"Carnota","lat":"42.82330000","lon":"-9.08913000"},
{"state":"A Coruña","name":"Carral","lat":"43.22860000","lon":"-8.35545000"},
{"state":"A Coruña","name":"Cedeira","lat":"43.66044000","lon":"-8.05719000"},
{"state":"A Coruña","name":"Cee","lat":"42.95466000","lon":"-9.18800000"},
{"state":"A Coruña","name":"Cerceda","lat":"0.00000000","lon":"0.00000000"},
{"state":"A Coruña","name":"Cerdido","lat":"43.62063000","lon":"-7.99959000"},
{"state":"A Coruña","name":"Cesuras","lat":"43.17282000","lon":"-8.20061000"},
{"state":"A Coruña","name":"Coirós","lat":"43.25000000","lon":"-8.16667000"},
{"state":"A Coruña","name":"Corcubión","lat":"42.94414000","lon":"-9.19260000"},
{"state":"A Coruña","name":"Coristanco","lat":"43.20000000","lon":"-8.75000000"},
{"state":"A Coruña","name":"Coruña A","lat":"0.00000000","lon":"0.00000000"},
{"state":"A Coruña","name":"Culleredo","lat":"43.28788000","lon":"-8.38858000"},
{"state":"A Coruña","name":"Curtis","lat":"43.12374000","lon":"-8.14818000"},
{"state":"A Coruña","name":"Dodro","lat":"0.00000000","lon":"0.00000000"},
{"state":"A Coruña","name":"Dumbría","lat":"43.00836000","lon":"-9.11328000"},
{"state":"A Coruña","name":"Fene","lat":"43.45000000","lon":"-8.15000000"},
{"state":"A Coruña","name":"Ferrol","lat":"43.48961000","lon":"-8.21940000"},
{"state":"A Coruña","name":"Fisterra","lat":"42.90492000","lon":"-9.26289000"},
{"state":"A Coruña","name":"Frades","lat":"0.00000000","lon":"0.00000000"},
{"state":"A Coruña","name":"Irixoa","lat":"43.28470000","lon":"-8.05916000"},
{"state":"A Coruña","name":"Laracha A","lat":"0.00000000","lon":"0.00000000"},
{"state":"A Coruña","name":"Laxe","lat":"0.00000000","lon":"0.00000000"},
{"state":"A Coruña","name":"Lousame","lat":"42.76477000","lon":"-8.84926000"},
{"state":"A Coruña","name":"Malpica de Bergantiños","lat":"0.00000000","lon":"0.00000000"},
{"state":"A Coruña","name":"Mañón","lat":"0.00000000","lon":"0.00000000"},
{"state":"A Coruña","name":"Mazaricos","lat":"42.94033000","lon":"-8.97187000"},
{"state":"A Coruña","name":"Melide","lat":"0.00000000","lon":"0.00000000"},
{"state":"A Coruña","name":"Mesia","lat":"43.10000000","lon":"-8.26667000"},
{"state":"A Coruña","name":"Miño","lat":"43.35000000","lon":"-8.20000000"},
{"state":"A Coruña","name":"Moeche","lat":"43.55000000","lon":"-8.01667000"},
{"state":"A Coruña","name":"Monfero","lat":"43.33333000","lon":"-8.01667000"},
{"state":"A Coruña","name":"Mugardos","lat":"43.46040000","lon":"-8.25507000"},
{"state":"A Coruña","name":"Mugia","lat":"43.10414000","lon":"-9.21791000"},
{"state":"A Coruña","name":"Muros","lat":"42.77617000","lon":"-9.06032000"},
{"state":"A Coruña","name":"Muxía","lat":"0.00000000","lon":"0.00000000"},
{"state":"A Coruña","name":"Narón","lat":"43.50175000","lon":"-8.19082000"},
{"state":"A Coruña","name":"Neda","lat":"0.00000000","lon":"0.00000000"},
{"state":"A Coruña","name":"Negreira","lat":"42.90402000","lon":"-8.74273000"},
{"state":"A Coruña","name":"Noia","lat":"0.00000000","lon":"0.00000000"},
{"state":"A Coruña","name":"Oleiros","lat":"43.33333000","lon":"-8.31667000"},
{"state":"A Coruña","name":"Ordes","lat":"43.07654000","lon":"-8.40900000"},
{"state":"A Coruña","name":"Oroso","lat":"42.98333000","lon":"-8.43333000"},
{"state":"A Coruña","name":"Ortigueira","lat":"0.00000000","lon":"0.00000000"},
{"state":"A Coruña","name":"Outes","lat":"42.86189000","lon":"-8.90181000"},
{"state":"A Coruña","name":"Oza dos Ríos","lat":"0.00000000","lon":"0.00000000"},
{"state":"A Coruña","name":"Paderne","lat":"0.00000000","lon":"0.00000000"},
{"state":"A Coruña","name":"Padrón","lat":"42.73875000","lon":"-8.66057000"},
{"state":"A Coruña","name":"Pino O","lat":"0.00000000","lon":"0.00000000"},
{"state":"A Coruña","name":"Pobra do Caramiñal A","lat":"0.00000000","lon":"0.00000000"},
{"state":"A Coruña","name":"Ponteceso","lat":"0.00000000","lon":"0.00000000"},
{"state":"A Coruña","name":"Pontedeume","lat":"0.00000000","lon":"0.00000000"},
{"state":"A Coruña","name":"Pontes de García Rodríguez As","lat":"0.00000000","lon":"0.00000000"},
{"state":"A Coruña","name":"Porto do Son","lat":"42.72482000","lon":"-9.00527000"},
{"state":"A Coruña","name":"Rianxo","lat":"42.64977000","lon":"-8.81763000"},
{"state":"A Coruña","name":"Ribeira","lat":"42.74611000","lon":"-8.44392000"},
{"state":"A Coruña","name":"Rois","lat":"0.00000000","lon":"0.00000000"},
{"state":"A Coruña","name":"Sada","lat":"43.35619000","lon":"-8.25796000"},
{"state":"A Coruña","name":"San Sadurniño","lat":"0.00000000","lon":"0.00000000"},
{"state":"A Coruña","name":"Santa Comba","lat":"43.03306000","lon":"-8.80925000"},
{"state":"A Coruña","name":"Santiago de Compostela","lat":"42.88052000","lon":"-8.54569000"},
{"state":"A Coruña","name":"Santiso","lat":"42.87388000","lon":"-8.05497000"},
{"state":"A Coruña","name":"Sobrado","lat":"43.03882000","lon":"-8.02784000"},
{"state":"A Coruña","name":"Somozas As","lat":"0.00000000","lon":"0.00000000"},
{"state":"A Coruña","name":"Teo","lat":"42.75000000","lon":"-8.50000000"},
{"state":"A Coruña","name":"Toques","lat":"0.00000000","lon":"0.00000000"},
{"state":"A Coruña","name":"Tordoia","lat":"0.00000000","lon":"0.00000000"},
{"state":"A Coruña","name":"Touro","lat":"42.86812000","lon":"-8.30764000"},
{"state":"A Coruña","name":"Trazo","lat":"43.01667000","lon":"-8.53333000"},
{"state":"A Coruña","name":"Val do Dubra","lat":"0.00000000","lon":"0.00000000"},
{"state":"A Coruña","name":"Valdoviño","lat":"43.60000000","lon":"-8.13333000"},
{"state":"A Coruña","name":"Vedra","lat":"42.77817000","lon":"-8.47636000"},
{"state":"A Coruña","name":"Vilarmaior","lat":"0.00000000","lon":"0.00000000"},
{"state":"A Coruña","name":"Vilasantar","lat":"43.07106000","lon":"-8.12163000"},
{"state":"A Coruña","name":"Vimianzo","lat":"43.10988000","lon":"-9.03351000"},
{"state":"A Coruña","name":"Zas","lat":"43.09885000","lon":"-8.91558000"},
{"state":"Albacete","name":"Abengibre","lat":"0.00000000","lon":"0.00000000"},
{"state":"Albacete","name":"Alatoz","lat":"0.00000000","lon":"0.00000000"},
{"state":"Albacete","name":"Albacete","lat":"0.00000000","lon":"0.00000000"},
{"state":"Albacete","name":"Albatana","lat":"0.00000000","lon":"0.00000000"},
{"state":"Albacete","name":"Alborea","lat":"0.00000000","lon":"0.00000000"},
{"state":"Albacete","name":"Alcadozo","lat":"0.00000000","lon":"0.00000000"},
{"state":"Albacete","name":"Alcalá del Júcar","lat":"0.00000000","lon":"0.00000000"},
{"state":"Albacete","name":"Alcaraz","lat":"0.00000000","lon":"0.00000000"},
{"state":"Albacete","name":"Almansa","lat":"0.00000000","lon":"0.00000000"},
{"state":"Albacete","name":"Alpera","lat":"0.00000000","lon":"0.00000000"},
{"state":"Albacete","name":"Ayna","lat":"0.00000000","lon":"0.00000000"},
{"state":"Albacete","name":"Balazote","lat":"0.00000000","lon":"0.00000000"},
{"state":"Albacete","name":"Ballestero El","lat":"0.00000000","lon":"0.00000000"},
{"state":"Albacete","name":"Balsa de Ves","lat":"0.00000000","lon":"0.00000000"},
{"state":"Albacete","name":"Barrax","lat":"0.00000000","lon":"0.00000000"},
{"state":"Albacete","name":"Bienservida","lat":"0.00000000","lon":"0.00000000"},
{"state":"Albacete","name":"Bogarra","lat":"0.00000000","lon":"0.00000000"},
{"state":"Albacete","name":"Bonete","lat":"0.00000000","lon":"0.00000000"},
{"state":"Albacete","name":"Bonillo El","lat":"0.00000000","lon":"0.00000000"},
{"state":"Albacete","name":"Carcelén","lat":"0.00000000","lon":"0.00000000"},
{"state":"Albacete","name":"Casas de Juan Núñez","lat":"0.00000000","lon":"0.00000000"},
{"state":"Albacete","name":"Casas de Lázaro","lat":"0.00000000","lon":"0.00000000"},
{"state":"Albacete","name":"Casas de Ves","lat":"0.00000000","lon":"0.00000000"},
{"state":"Albacete","name":"Casas-Ibáñez","lat":"0.00000000","lon":"0.00000000"},
{"state":"Albacete","name":"Caudete","lat":"0.00000000","lon":"0.00000000"},
{"state":"Albacete","name":"Cenizate","lat":"0.00000000","lon":"0.00000000"},
{"state":"Albacete","name":"Chinchilla de Monte-Aragón","lat":"0.00000000","lon":"0.00000000"},
{"state":"Albacete","name":"Corral-Rubio","lat":"0.00000000","lon":"0.00000000"},
{"state":"Albacete","name":"Cotillas","lat":"0.00000000","lon":"0.00000000"},
{"state":"Albacete","name":"Elche de la Sierra","lat":"0.00000000","lon":"0.00000000"},
{"state":"Albacete","name":"Férez","lat":"0.00000000","lon":"0.00000000"},
{"state":"Albacete","name":"Fuensanta","lat":"0.00000000","lon":"0.00000000"},
{"state":"Albacete","name":"Fuente-Álamo","lat":"0.00000000","lon":"0.00000000"},
{"state":"Albacete","name":"Fuentealbilla","lat":"0.00000000","lon":"0.00000000"},
{"state":"Albacete","name":"Gineta La","lat":"0.00000000","lon":"0.00000000"},
{"state":"Albacete","name":"Golosalvo","lat":"0.00000000","lon":"0.00000000"},
{"state":"Albacete","name":"Hellín","lat":"0.00000000","lon":"0.00000000"},
{"state":"Albacete","name":"Herrera La","lat":"0.00000000","lon":"0.00000000"},
{"state":"Albacete","name":"Higueruela","lat":"0.00000000","lon":"0.00000000"},
{"state":"Albacete","name":"Hoya-Gonzalo","lat":"0.00000000","lon":"0.00000000"},
{"state":"Albacete","name":"Jorquera","lat":"0.00000000","lon":"0.00000000"},
{"state":"Albacete","name":"Letur","lat":"0.00000000","lon":"0.00000000"},
{"state":"Albacete","name":"Lezuza","lat":"0.00000000","lon":"0.00000000"},
{"state":"Albacete","name":"Liétor","lat":"0.00000000","lon":"0.00000000"},
{"state":"Albacete","name":"Madrigueras","lat":"0.00000000","lon":"0.00000000"},
{"state":"Albacete","name":"Mahora","lat":"0.00000000","lon":"0.00000000"},
{"state":"Albacete","name":"Masegoso","lat":"0.00000000","lon":"0.00000000"},
{"state":"Albacete","name":"Minaya","lat":"0.00000000","lon":"0.00000000"},
{"state":"Albacete","name":"Molinicos","lat":"0.00000000","lon":"0.00000000"},
{"state":"Albacete","name":"Montalvos","lat":"0.00000000","lon":"0.00000000"},
{"state":"Albacete","name":"Montealegre del Castillo","lat":"0.00000000","lon":"0.00000000"},
{"state":"Albacete","name":"Motilleja","lat":"0.00000000","lon":"0.00000000"},
{"state":"Albacete","name":"Munera","lat":"0.00000000","lon":"0.00000000"},
{"state":"Albacete","name":"Navas de Jorquera","lat":"0.00000000","lon":"0.00000000"},
{"state":"Albacete","name":"Nerpio","lat":"0.00000000","lon":"0.00000000"},
{"state":"Albacete","name":"Ontur","lat":"0.00000000","lon":"0.00000000"},
{"state":"Albacete","name":"Ossa de Montiel","lat":"0.00000000","lon":"0.00000000"},
{"state":"Albacete","name":"Paterna del Madera","lat":"0.00000000","lon":"0.00000000"},
{"state":"Albacete","name":"Peñas de San Pedro","lat":"0.00000000","lon":"0.00000000"},
{"state":"Albacete","name":"Peñascosa","lat":"0.00000000","lon":"0.00000000"},
{"state":"Albacete","name":"Pétrola","lat":"0.00000000","lon":"0.00000000"},
{"state":"Albacete","name":"Povedilla","lat":"0.00000000","lon":"0.00000000"},
{"state":"Albacete","name":"Pozo Cañada","lat":"0.00000000","lon":"0.00000000"},
{"state":"Albacete","name":"Pozo-Lorente","lat":"0.00000000","lon":"0.00000000"},
{"state":"Albacete","name":"Pozohondo","lat":"0.00000000","lon":"0.00000000"},
{"state":"Albacete","name":"Pozuelo","lat":"0.00000000","lon":"0.00000000"},
{"state":"Albacete","name":"Recueja La","lat":"0.00000000","lon":"0.00000000"},
{"state":"Albacete","name":"Riópar","lat":"0.00000000","lon":"0.00000000"},
{"state":"Albacete","name":"Robledo","lat":"0.00000000","lon":"0.00000000"},
{"state":"Albacete","name":"Roda La","lat":"0.00000000","lon":"0.00000000"},
{"state":"Albacete","name":"Salobre","lat":"0.00000000","lon":"0.00000000"},
{"state":"Albacete","name":"San Pedro","lat":"0.00000000","lon":"0.00000000"},
{"state":"Albacete","name":"Socovos","lat":"0.00000000","lon":"0.00000000"},
{"state":"Albacete","name":"Tarazona de la Mancha","lat":"0.00000000","lon":"0.00000000"},
{"state":"Albacete","name":"Tobarra","lat":"0.00000000","lon":"0.00000000"},
{"state":"Albacete","name":"Valdeganga","lat":"0.00000000","lon":"0.00000000"},
{"state":"Albacete","name":"Vianos","lat":"0.00000000","lon":"0.00000000"},
{"state":"Albacete","name":"Villa de Ves","lat":"0.00000000","lon":"0.00000000"},
{"state":"Albacete","name":"Villalgordo del Júcar","lat":"0.00000000","lon":"0.00000000"},
{"state":"Albacete","name":"Villamalea","lat":"0.00000000","lon":"0.00000000"},
{"state":"Albacete","name":"Villapalacios","lat":"0.00000000","lon":"0.00000000"},
{"state":"Albacete","name":"Villarrobledo","lat":"0.00000000","lon":"0.00000000"},
{"state":"Albacete","name":"Villatoya","lat":"0.00000000","lon":"0.00000000"},
{"state":"Albacete","name":"Villavaliente","lat":"0.00000000","lon":"0.00000000"},
{"state":"Albacete","name":"Villaverde de Guadalimar","lat":"0.00000000","lon":"0.00000000"},
{"state":"Albacete","name":"Viveros","lat":"0.00000000","lon":"0.00000000"},
{"state":"Albacete","name":"Yeste","lat":"0.00000000","lon":"0.00000000"},
{"state":"Alicante","name":"Adsubia","lat":"38.84819000","lon":"-0.15324000"},
{"state":"Alicante","name":"Agost","lat":"38.44003000","lon":"-0.63836000"},
{"state":"Alicante","name":"Agres","lat":"38.78333000","lon":"-0.51667000"},
{"state":"Alicante","name":"Aigües","lat":"0.00000000","lon":"0.00000000"},
{"state":"Alicante","name":"Albatera","lat":"38.17902000","lon":"-0.87059000"},
{"state":"Alicante","name":"Alcalalí","lat":"38.75038000","lon":"-0.04013000"},
{"state":"Alicante","name":"Alcocer de Planes","lat":"38.79501000","lon":"-0.40244000"},
{"state":"Alicante","name":"Alcoleja","lat":"0.00000000","lon":"0.00000000"},
{"state":"Alicante","name":"Alcoy/Alcoi","lat":"0.00000000","lon":"0.00000000"},
{"state":"Alicante","name":"Alfafara","lat":"38.77339000","lon":"-0.55551000"},
{"state":"Alicante","name":"Alfàs del Pi l","lat":"0.00000000","lon":"0.00000000"},
{"state":"Alicante","name":"Algorfa","lat":"38.08636000","lon":"-0.79646000"},
{"state":"Alicante","name":"Algueña","lat":"38.33905000","lon":"-1.00433000"},
{"state":"Alicante","name":"Alicante/Alacant","lat":"0.00000000","lon":"0.00000000"},
{"state":"Alicante","name":"Almoradí","lat":"38.10879000","lon":"-0.79197000"},
{"state":"Alicante","name":"Almudaina","lat":"38.75999000","lon":"-0.35149000"},
{"state":"Alicante","name":"Alqueria dAsnar l","lat":"0.00000000","lon":"0.00000000"},
{"state":"Alicante","name":"Altea","lat":"38.59885000","lon":"-0.05139000"},
{"state":"Alicante","name":"Aspe","lat":"38.34511000","lon":"-0.76721000"},
{"state":"Alicante","name":"Balones","lat":"38.73726000","lon":"-0.34324000"},
{"state":"Alicante","name":"Banyeres de Mariola","lat":"0.00000000","lon":"0.00000000"},
{"state":"Alicante","name":"Benasau","lat":"38.69047000","lon":"-0.34278000"},
{"state":"Alicante","name":"Beneixama","lat":"38.70000000","lon":"-0.76667000"},
{"state":"Alicante","name":"Benejúzar","lat":"38.07728000","lon":"-0.83942000"},
{"state":"Alicante","name":"Benferri","lat":"38.14129000","lon":"-0.96212000"},
{"state":"Alicante","name":"Beniarbeig","lat":"38.82232000","lon":"-0.00210000"},
{"state":"Alicante","name":"Beniardá","lat":"38.68433000","lon":"-0.21629000"},
{"state":"Alicante","name":"Beniarrés","lat":"38.82019000","lon":"-0.37741000"},
{"state":"Alicante","name":"Benidoleig","lat":"38.79278000","lon":"-0.02992000"},
{"state":"Alicante","name":"Benidorm","lat":"38.53816000","lon":"-0.13098000"},
{"state":"Alicante","name":"Benifallim","lat":"38.66259000","lon":"-0.39994000"},
{"state":"Alicante","name":"Benifato","lat":"0.00000000","lon":"0.00000000"},
{"state":"Alicante","name":"Benigembla","lat":"0.00000000","lon":"0.00000000"},
{"state":"Alicante","name":"Benijofar","lat":"38.07785000","lon":"-0.73680000"},
{"state":"Alicante","name":"Benilloba","lat":"38.70012000","lon":"-0.38998000"},
{"state":"Alicante","name":"Benillup","lat":"38.75397000","lon":"-0.37991000"},
{"state":"Alicante","name":"Benimantell","lat":"38.67709000","lon":"-0.21057000"},
{"state":"Alicante","name":"Benimarfull","lat":"38.77590000","lon":"-0.39079000"},
{"state":"Alicante","name":"Benimassot","lat":"38.75000000","lon":"-0.28333000"},
{"state":"Alicante","name":"Benimeli","lat":"38.82362000","lon":"-0.04221000"},
{"state":"Alicante","name":"Benissa","lat":"38.71492000","lon":"0.04849000"},
{"state":"Alicante","name":"Benitachell/Poble Nou de Benitatxell el","lat":"0.00000000","lon":"0.00000000"},
{"state":"Alicante","name":"Biar","lat":"38.63117000","lon":"-0.76458000"},
{"state":"Alicante","name":"Bigastro","lat":"38.06237000","lon":"-0.89841000"},
{"state":"Alicante","name":"Bolulla","lat":"38.67529000","lon":"-0.11184000"},
{"state":"Alicante","name":"Busot","lat":"38.48206000","lon":"-0.41918000"},
{"state":"Alicante","name":"Callosa de Segura","lat":"38.12497000","lon":"-0.87822000"},
{"state":"Alicante","name":"Callosa dEn Sarrià","lat":"0.00000000","lon":"0.00000000"},
{"state":"Alicante","name":"Calp","lat":"38.64470000","lon":"0.04450000"},
{"state":"Alicante","name":"Campello el","lat":"0.00000000","lon":"0.00000000"},
{"state":"Alicante","name":"Campo de Mirra/Camp de Mirra el","lat":"0.00000000","lon":"0.00000000"},
{"state":"Alicante","name":"Cañada","lat":"0.00000000","lon":"0.00000000"},
{"state":"Alicante","name":"Castalla","lat":"38.59694000","lon":"-0.67207000"},
{"state":"Alicante","name":"Castell de Castells","lat":"38.72555000","lon":"-0.19242000"},
{"state":"Alicante","name":"Castell de Guadalest el","lat":"0.00000000","lon":"0.00000000"},
{"state":"Alicante","name":"Catral","lat":"38.16061000","lon":"-0.80209000"},
{"state":"Alicante","name":"Cocentaina","lat":"38.73975000","lon":"-0.43976000"},
{"state":"Alicante","name":"Confrides","lat":"38.68451000","lon":"-0.26890000"},
{"state":"Alicante","name":"Cox","lat":"38.14164000","lon":"-0.88736000"},
{"state":"Alicante","name":"Crevillent","lat":"0.00000000","lon":"0.00000000"},
{"state":"Alicante","name":"Daya Nueva","lat":"38.11313000","lon":"-0.76028000"},
{"state":"Alicante","name":"Daya Vieja","lat":"38.10480000","lon":"-0.73804000"},
{"state":"Alicante","name":"Denia","lat":"38.84078000","lon":"0.10574000"},
{"state":"Alicante","name":"Dolores","lat":"38.14002000","lon":"-0.77088000"},
{"state":"Alicante","name":"Elche/Elx","lat":"0.00000000","lon":"0.00000000"},
{"state":"Alicante","name":"Elda","lat":"38.47783000","lon":"-0.79157000"},
{"state":"Alicante","name":"Facheca","lat":"38.73501000","lon":"-0.26766000"},
{"state":"Alicante","name":"Famorca","lat":"38.73101000","lon":"-0.24726000"},
{"state":"Alicante","name":"Finestrat","lat":"38.56737000","lon":"-0.21235000"},
{"state":"Alicante","name":"Fondó de les Neus el/Hondón de las Nieves","lat":"0.00000000","lon":"0.00000000"},
{"state":"Alicante","name":"Formentera del Segura","lat":"0.00000000","lon":"0.00000000"},
{"state":"Alicante","name":"Gaianes","lat":"0.00000000","lon":"0.00000000"},
{"state":"Alicante","name":"Gata de Gorgos","lat":"38.77443000","lon":"0.08538000"},
{"state":"Alicante","name":"Gorga","lat":"38.71896000","lon":"-0.35589000"},
{"state":"Alicante","name":"Granja de Rocamora","lat":"38.15157000","lon":"-0.89170000"},
{"state":"Alicante","name":"Guardamar del Segura","lat":"38.09031000","lon":"-0.65556000"},
{"state":"Alicante","name":"Hondón de los Frailes","lat":"38.27390000","lon":"-0.92938000"},
{"state":"Alicante","name":"Ibi","lat":"38.62533000","lon":"-0.57225000"},
{"state":"Alicante","name":"Jacarilla","lat":"38.06247000","lon":"-0.86822000"},
{"state":"Alicante","name":"Jávea/Xàbia","lat":"0.00000000","lon":"0.00000000"},
{"state":"Alicante","name":"Jijona/Xixona","lat":"0.00000000","lon":"0.00000000"},
{"state":"Alicante","name":"Llíber","lat":"0.00000000","lon":"0.00000000"},
{"state":"Alicante","name":"Lorcha/Orxa l","lat":"0.00000000","lon":"0.00000000"},
{"state":"Alicante","name":"Millena","lat":"38.73082000","lon":"-0.36274000"},
{"state":"Alicante","name":"Monforte del Cid","lat":"38.38027000","lon":"-0.72850000"},
{"state":"Alicante","name":"Monóvar/Monòver","lat":"0.00000000","lon":"0.00000000"},
{"state":"Alicante","name":"Montesinos Los","lat":"0.00000000","lon":"0.00000000"},
{"state":"Alicante","name":"Murla","lat":"38.76037000","lon":"-0.08208000"},
{"state":"Alicante","name":"Muro de Alcoy","lat":"0.00000000","lon":"0.00000000"},
{"state":"Alicante","name":"Mutxamel","lat":"38.41580000","lon":"-0.44529000"},
{"state":"Alicante","name":"Novelda","lat":"38.38479000","lon":"-0.76773000"},
{"state":"Alicante","name":"Nucia la","lat":"0.00000000","lon":"0.00000000"},
{"state":"Alicante","name":"Ondara","lat":"38.82817000","lon":"0.01720000"},
{"state":"Alicante","name":"Onil","lat":"38.62606000","lon":"-0.67313000"},
{"state":"Alicante","name":"Orba","lat":"38.78041000","lon":"-0.06278000"},
{"state":"Alicante","name":"Orihuela","lat":"38.08483000","lon":"-0.94401000"},
{"state":"Alicante","name":"Orxeta","lat":"0.00000000","lon":"0.00000000"},
{"state":"Alicante","name":"Parcent","lat":"38.74502000","lon":"-0.06446000"},
{"state":"Alicante","name":"Pedreguer","lat":"38.79312000","lon":"0.03411000"},
{"state":"Alicante","name":"Pego","lat":"38.84305000","lon":"-0.11707000"},
{"state":"Alicante","name":"Penàguila","lat":"0.00000000","lon":"0.00000000"},
{"state":"Alicante","name":"Petrer","lat":"0.00000000","lon":"0.00000000"},
{"state":"Alicante","name":"Pilar de la Horadada","lat":"37.86591000","lon":"-0.79256000"},
{"state":"Alicante","name":"Pinós el/Pinoso","lat":"0.00000000","lon":"0.00000000"},
{"state":"Alicante","name":"Planes","lat":"38.78524000","lon":"-0.34271000"},
{"state":"Alicante","name":"Poblets els","lat":"0.00000000","lon":"0.00000000"},
{"state":"Alicante","name":"Polop","lat":"38.62258000","lon":"-0.13090000"},
{"state":"Alicante","name":"Quatretondeta","lat":"0.00000000","lon":"0.00000000"},
{"state":"Alicante","name":"Rafal","lat":"38.10458000","lon":"-0.84904000"},
{"state":"Alicante","name":"Ràfol dAlmúnia El","lat":"0.00000000","lon":"0.00000000"},
{"state":"Alicante","name":"Redován","lat":"38.11619000","lon":"-0.90981000"},
{"state":"Alicante","name":"Relleu","lat":"38.58725000","lon":"-0.31157000"},
{"state":"Alicante","name":"Rojales","lat":"38.08799000","lon":"-0.72544000"},
{"state":"Alicante","name":"Romana la","lat":"0.00000000","lon":"0.00000000"},
{"state":"Alicante","name":"Sagra","lat":"38.81102000","lon":"-0.06559000"},
{"state":"Alicante","name":"Salinas","lat":"38.52025000","lon":"-0.91202000"},
{"state":"Alicante","name":"San Fulgencio","lat":"0.00000000","lon":"0.00000000"},
{"state":"Alicante","name":"San Isidro","lat":"28.07617000","lon":"-16.55800000"},
{"state":"Alicante","name":"San Miguel de Salinas","lat":"37.97972000","lon":"-0.78904000"},
{"state":"Alicante","name":"San Vicente del Raspeig/Sant Vicent del Raspeig","lat":"0.00000000","lon":"0.00000000"},
{"state":"Alicante","name":"Sanet y Negrals","lat":"38.81967000","lon":"-0.03406000"},
{"state":"Alicante","name":"Sant Joan dAlacant","lat":"0.00000000","lon":"0.00000000"},
{"state":"Alicante","name":"Santa Pola","lat":"38.19165000","lon":"-0.56580000"},
{"state":"Alicante","name":"Sax","lat":"38.53729000","lon":"-0.81779000"},
{"state":"Alicante","name":"Sella","lat":"38.60926000","lon":"-0.27305000"},
{"state":"Alicante","name":"Senija","lat":"38.72804000","lon":"0.04176000"},
{"state":"Alicante","name":"Tàrbena","lat":"0.00000000","lon":"0.00000000"},
{"state":"Alicante","name":"Teulada","lat":"38.72940000","lon":"0.10383000"},
{"state":"Alicante","name":"Tibi","lat":"38.53072000","lon":"-0.57776000"},
{"state":"Alicante","name":"Tollos","lat":"38.75629000","lon":"-0.27466000"},
{"state":"Alicante","name":"Tormos","lat":"38.80143000","lon":"-0.07160000"},
{"state":"Alicante","name":"Torremanzanas/Torre de les Maçanes la","lat":"0.00000000","lon":"0.00000000"},
{"state":"Alicante","name":"Torrevieja","lat":"37.97872000","lon":"-0.68222000"},
{"state":"Alicante","name":"Vall dAlcalà la","lat":"0.00000000","lon":"0.00000000"},
{"state":"Alicante","name":"Vall de Gallinera","lat":"0.00000000","lon":"0.00000000"},
{"state":"Alicante","name":"Vall de Laguar la","lat":"0.00000000","lon":"0.00000000"},
{"state":"Alicante","name":"Vall dEbo la","lat":"0.00000000","lon":"0.00000000"},
{"state":"Alicante","name":"Verger el","lat":"0.00000000","lon":"0.00000000"},
{"state":"Alicante","name":"Villajoyosa/Vila Joiosa la","lat":"0.00000000","lon":"0.00000000"},
{"state":"Alicante","name":"Villena","lat":"38.63730000","lon":"-0.86568000"},
{"state":"Alicante","name":"Xaló","lat":"0.00000000","lon":"0.00000000"},
{"state":"Almeria","name":"Abla","lat":"37.14245000","lon":"-2.77808000"},
{"state":"Almeria","name":"Abrucena","lat":"37.13226000","lon":"-2.79711000"},
{"state":"Almeria","name":"Adra","lat":"36.74961000","lon":"-3.02055000"},
{"state":"Almeria","name":"Albánchez","lat":"37.28361000","lon":"-2.18229000"},
{"state":"Almeria","name":"Alboloduy","lat":"0.00000000","lon":"0.00000000"},
{"state":"Almeria","name":"Albox","lat":"37.38856000","lon":"-2.14949000"},
{"state":"Almeria","name":"Alcolea","lat":"36.97458000","lon":"-2.96150000"},
{"state":"Almeria","name":"Alcóntar","lat":"37.33647000","lon":"-2.59725000"},
{"state":"Almeria","name":"Alcudia de Monteagud","lat":"37.23529000","lon":"-2.26650000"},
{"state":"Almeria","name":"Alhabia","lat":"36.99003000","lon":"-2.58655000"},
{"state":"Almeria","name":"Alhama de Almería","lat":"36.95692000","lon":"-2.56861000"},
{"state":"Almeria","name":"Alicún","lat":"36.96580000","lon":"-2.60212000"},
{"state":"Almeria","name":"Almería","lat":"37.16667000","lon":"-2.33333000"},
{"state":"Almeria","name":"Almócita","lat":"37.00262000","lon":"-2.79051000"},
{"state":"Almeria","name":"Alsodux","lat":"37.00247000","lon":"-2.59476000"},
{"state":"Almeria","name":"Antas","lat":"37.24536000","lon":"-1.91760000"},
{"state":"Almeria","name":"Arboleas","lat":"37.35024000","lon":"-2.07384000"},
{"state":"Almeria","name":"Armuña de Almanzora","lat":"37.35030000","lon":"-2.41150000"},
{"state":"Almeria","name":"Bacares","lat":"0.00000000","lon":"0.00000000"},
{"state":"Almeria","name":"Bayárcal","lat":"37.03073000","lon":"-2.99606000"},
{"state":"Almeria","name":"Bayarque","lat":"37.33062000","lon":"-2.43610000"},
{"state":"Almeria","name":"Bédar","lat":"37.19389000","lon":"-1.98166000"},
{"state":"Almeria","name":"Beires","lat":"37.01237000","lon":"-2.79134000"},
{"state":"Almeria","name":"Benahadux","lat":"36.92493000","lon":"-2.45941000"},
{"state":"Almeria","name":"Benitagla","lat":"37.23138000","lon":"-2.23935000"},
{"state":"Almeria","name":"Benizalón","lat":"37.21213000","lon":"-2.24180000"},
{"state":"Almeria","name":"Bentarique","lat":"36.98823000","lon":"-2.61991000"},
{"state":"Almeria","name":"Berja","lat":"36.84693000","lon":"-2.94966000"},
{"state":"Almeria","name":"Canjáyar","lat":"37.00959000","lon":"-2.73943000"},
{"state":"Almeria","name":"Cantoria","lat":"37.35146000","lon":"-2.19209000"},
{"state":"Almeria","name":"Carboneras","lat":"36.99666000","lon":"-1.89651000"},
{"state":"Almeria","name":"Castro de Filabres","lat":"37.18484000","lon":"-2.44024000"},
{"state":"Almeria","name":"Chercos","lat":"37.25450000","lon":"-2.26657000"},
{"state":"Almeria","name":"Chirivel","lat":"37.59527000","lon":"-2.26844000"},
{"state":"Almeria","name":"Cóbdar","lat":"37.26166000","lon":"-2.21098000"},
{"state":"Almeria","name":"Cuevas del Almanzora","lat":"37.29678000","lon":"-1.88218000"},
{"state":"Almeria","name":"Dalías","lat":"36.82179000","lon":"-2.87138000"},
{"state":"Almeria","name":"Ejido El","lat":"0.00000000","lon":"0.00000000"},
{"state":"Almeria","name":"Enix","lat":"36.87732000","lon":"-2.60180000"},
{"state":"Almeria","name":"Felix","lat":"0.00000000","lon":"0.00000000"},
{"state":"Almeria","name":"Fiñana","lat":"37.17150000","lon":"-2.84011000"},
{"state":"Almeria","name":"Fines","lat":"37.36074000","lon":"-2.25810000"},
{"state":"Almeria","name":"Fondón","lat":"36.98020000","lon":"-2.85957000"},
{"state":"Almeria","name":"Gádor","lat":"36.95322000","lon":"-2.49254000"},
{"state":"Almeria","name":"Gallardos Los","lat":"0.00000000","lon":"0.00000000"},
{"state":"Almeria","name":"Garrucha","lat":"37.18141000","lon":"-1.82252000"},
{"state":"Almeria","name":"Gérgal","lat":"37.11886000","lon":"-2.54012000"},
{"state":"Almeria","name":"Huécija","lat":"36.96804000","lon":"-2.60941000"},
{"state":"Almeria","name":"Huércal de Almería","lat":"36.88507000","lon":"-2.43760000"},
{"state":"Almeria","name":"Huércal-Overa","lat":"37.38918000","lon":"-1.94300000"},
{"state":"Almeria","name":"Illar","lat":"36.98562000","lon":"-2.63871000"},
{"state":"Almeria","name":"Instinción","lat":"36.99344000","lon":"-2.66046000"},
{"state":"Almeria","name":"Laroya","lat":"37.29771000","lon":"-2.33419000"},
{"state":"Almeria","name":"Laujar de Andarax","lat":"36.99516000","lon":"-2.89033000"},
{"state":"Almeria","name":"Líjar","lat":"0.00000000","lon":"0.00000000"},
{"state":"Almeria","name":"Lubrín","lat":"37.21538000","lon":"-2.06677000"},
{"state":"Almeria","name":"Lucainena de las Torres","lat":"37.04037000","lon":"-2.20095000"},
{"state":"Almeria","name":"Lúcar","lat":"37.40035000","lon":"-2.42496000"},
{"state":"Almeria","name":"Macael","lat":"37.33318000","lon":"-2.30087000"},
{"state":"Almeria","name":"María","lat":"37.71023000","lon":"-2.16454000"},
{"state":"Almeria","name":"Mojacar","lat":"37.14020000","lon":"-1.85102000"},
{"state":"Almeria","name":"Mojonera La","lat":"0.00000000","lon":"0.00000000"},
{"state":"Almeria","name":"Nacimiento","lat":"0.00000000","lon":"0.00000000"},
{"state":"Almeria","name":"Níjar","lat":"36.96655000","lon":"-2.20595000"},
{"state":"Almeria","name":"Ohanes","lat":"37.03861000","lon":"-2.74524000"},
{"state":"Almeria","name":"Olula de Castro","lat":"37.17475000","lon":"-2.47430000"},
{"state":"Almeria","name":"Olula del Río","lat":"37.35445000","lon":"-2.29754000"},
{"state":"Almeria","name":"Oria","lat":"37.48530000","lon":"-2.29292000"},
{"state":"Almeria","name":"Padules","lat":"36.99813000","lon":"-2.77367000"},
{"state":"Almeria","name":"Partaloa","lat":"37.40764000","lon":"-2.22526000"},
{"state":"Almeria","name":"Paterna del Río","lat":"37.02222000","lon":"-2.95343000"},
{"state":"Almeria","name":"Pechina","lat":"0.00000000","lon":"0.00000000"},
{"state":"Almeria","name":"Pulpí","lat":"37.41154000","lon":"-1.74496000"},
{"state":"Almeria","name":"Purchena","lat":"37.34744000","lon":"-2.36080000"},
{"state":"Almeria","name":"Rágol","lat":"36.99523000","lon":"-2.68178000"},
{"state":"Almeria","name":"Rioja","lat":"36.94508000","lon":"-2.46302000"},
{"state":"Almeria","name":"Roquetas de Mar","lat":"36.76419000","lon":"-2.61475000"},
{"state":"Almeria","name":"Santa Cruz de Marchena","lat":"0.00000000","lon":"0.00000000"},
{"state":"Almeria","name":"Santa Fe de Mondújar","lat":"36.97479000","lon":"-2.53126000"},
{"state":"Almeria","name":"Senés","lat":"0.00000000","lon":"0.00000000"},
{"state":"Almeria","name":"Serón","lat":"37.34485000","lon":"-2.50913000"},
{"state":"Almeria","name":"Sierro","lat":"37.32237000","lon":"-2.39844000"},
{"state":"Almeria","name":"Somontín","lat":"37.39176000","lon":"-2.38828000"},
{"state":"Almeria","name":"Sorbas","lat":"37.09761000","lon":"-2.12349000"},
{"state":"Almeria","name":"Suflí","lat":"37.33866000","lon":"-2.38817000"},
{"state":"Almeria","name":"Tabernas","lat":"37.04992000","lon":"-2.39084000"},
{"state":"Almeria","name":"Taberno","lat":"0.00000000","lon":"0.00000000"},
{"state":"Almeria","name":"Tahal","lat":"37.22797000","lon":"-2.28470000"},
{"state":"Almeria","name":"Terque","lat":"36.98393000","lon":"-2.59679000"},
{"state":"Almeria","name":"Tíjola","lat":"37.34606000","lon":"-2.43326000"},
{"state":"Almeria","name":"Tres Villas Las","lat":"0.00000000","lon":"0.00000000"},
{"state":"Almeria","name":"Turre","lat":"37.15224000","lon":"-1.89497000"},
{"state":"Almeria","name":"Turrillas","lat":"37.02948000","lon":"-2.26607000"},
{"state":"Almeria","name":"Uleila del Campo","lat":"37.18460000","lon":"-2.20491000"},
{"state":"Almeria","name":"Urrácal","lat":"37.39740000","lon":"-2.36485000"},
{"state":"Almeria","name":"Velefique","lat":"37.19407000","lon":"-2.40155000"},
{"state":"Almeria","name":"Vélez-Blanco","lat":"37.69178000","lon":"-2.09587000"},
{"state":"Almeria","name":"Vélez-Rubio","lat":"0.00000000","lon":"0.00000000"},
{"state":"Almeria","name":"Vera","lat":"37.24345000","lon":"-1.85905000"},
{"state":"Almeria","name":"Viator","lat":"36.89006000","lon":"-2.42695000"},
{"state":"Almeria","name":"Vícar","lat":"36.83155000","lon":"-2.64273000"},
{"state":"Almeria","name":"Zurgena","lat":"37.34218000","lon":"-2.03985000"},
{"state":"Araba","name":"Alegría-Dulantzi","lat":"0.00000000","lon":"0.00000000"},
{"state":"Araba","name":"Amurrio","lat":"43.05000000","lon":"-3.00000000"},
{"state":"Araba","name":"Añana","lat":"0.00000000","lon":"0.00000000"},
{"state":"Araba","name":"Aramaio","lat":"0.00000000","lon":"0.00000000"},
{"state":"Araba","name":"Armiñón","lat":"42.72313000","lon":"-2.87172000"},
{"state":"Araba","name":"Arraia-Maeztu","lat":"0.00000000","lon":"0.00000000"},
{"state":"Araba","name":"Arrazua-Ubarrundia","lat":"0.00000000","lon":"0.00000000"},
{"state":"Araba","name":"Artziniega","lat":"0.00000000","lon":"0.00000000"},
{"state":"Araba","name":"Asparrena","lat":"0.00000000","lon":"0.00000000"},
{"state":"Araba","name":"Ayala/Aiara","lat":"0.00000000","lon":"0.00000000"},
{"state":"Araba","name":"Baños de Ebro/Mañueta","lat":"0.00000000","lon":"0.00000000"},
{"state":"Araba","name":"Barrundia","lat":"0.00000000","lon":"0.00000000"},
{"state":"Araba","name":"Berantevilla","lat":"42.68254000","lon":"-2.85832000"},
{"state":"Araba","name":"Bernedo","lat":"0.00000000","lon":"0.00000000"},
{"state":"Araba","name":"Campezo/Kanpezu","lat":"0.00000000","lon":"0.00000000"},
{"state":"Araba","name":"Elburgo/Burgelu","lat":"0.00000000","lon":"0.00000000"},
{"state":"Araba","name":"Elciego","lat":"42.51569000","lon":"-2.61897000"},
{"state":"Araba","name":"Elvillar/Bilar","lat":"0.00000000","lon":"0.00000000"},
{"state":"Araba","name":"Erriberagoitia/Ribera Alta","lat":"0.00000000","lon":"0.00000000"},
{"state":"Araba","name":"Harana/Valle de Arana","lat":"0.00000000","lon":"0.00000000"},
{"state":"Araba","name":"Iruña Oka/Iruña de Oca","lat":"0.00000000","lon":"0.00000000"},
{"state":"Araba","name":"Iruraiz-Gauna","lat":"0.00000000","lon":"0.00000000"},
{"state":"Araba","name":"Kripan","lat":"0.00000000","lon":"0.00000000"},
{"state":"Araba","name":"Kuartango","lat":"0.00000000","lon":"0.00000000"},
{"state":"Araba","name":"Labastida/Bastida","lat":"0.00000000","lon":"0.00000000"},
{"state":"Araba","name":"Lagrán","lat":"42.62625000","lon":"-2.58385000"},
{"state":"Araba","name":"Laguardia","lat":"42.55461000","lon":"-2.58528000"},
{"state":"Araba","name":"Lanciego/Lantziego","lat":"0.00000000","lon":"0.00000000"},
{"state":"Araba","name":"Lantarón","lat":"0.00000000","lon":"0.00000000"},
{"state":"Araba","name":"Lapuebla de Labarca","lat":"42.49455000","lon":"-2.57341000"},
{"state":"Araba","name":"Laudio/Llodio","lat":"0.00000000","lon":"0.00000000"},
{"state":"Araba","name":"Legutio","lat":"0.00000000","lon":"0.00000000"},
{"state":"Araba","name":"Leza","lat":"42.56552000","lon":"-2.63324000"},
{"state":"Araba","name":"Moreda de Álava/Moreda Araba","lat":"0.00000000","lon":"0.00000000"},
{"state":"Araba","name":"Navaridas","lat":"42.54566000","lon":"-2.62650000"},
{"state":"Araba","name":"Okondo","lat":"0.00000000","lon":"0.00000000"},
{"state":"Araba","name":"Oyón-Oion","lat":"0.00000000","lon":"0.00000000"},
{"state":"Araba","name":"Peñacerrada-Urizaharra","lat":"0.00000000","lon":"0.00000000"},
{"state":"Araba","name":"Ribera Baja/Erribera Beitia","lat":"0.00000000","lon":"0.00000000"},
{"state":"Araba","name":"Salvatierra/Agurain","lat":"0.00000000","lon":"0.00000000"},
{"state":"Araba","name":"Samaniego","lat":"42.56854000","lon":"-2.67974000"},
{"state":"Araba","name":"San Millán/Donemiliaga","lat":"0.00000000","lon":"0.00000000"},
{"state":"Araba","name":"Urkabustaiz","lat":"0.00000000","lon":"0.00000000"},
{"state":"Araba","name":"Valdegovía/Gaubea","lat":"0.00000000","lon":"0.00000000"},
{"state":"Araba","name":"Villabuena de Álava/Eskuernaga","lat":"0.00000000","lon":"0.00000000"},
{"state":"Araba","name":"Vitoria-Gasteiz","lat":"0.00000000","lon":"0.00000000"},
{"state":"Araba","name":"Yécora/Iekora","lat":"0.00000000","lon":"0.00000000"},
{"state":"Araba","name":"Zalduondo","lat":"0.00000000","lon":"0.00000000"},
{"state":"Araba","name":"Zambrana","lat":"42.66102000","lon":"-2.87909000"},
{"state":"Araba","name":"Zigoitia","lat":"0.00000000","lon":"0.00000000"},
{"state":"Araba","name":"Zuia","lat":"0.00000000","lon":"0.00000000"},
{"state":"Asturias","name":"Allande","lat":"0.00000000","lon":"0.00000000"},
{"state":"Asturias","name":"Aller","lat":"0.00000000","lon":"0.00000000"},
{"state":"Asturias","name":"Amieva","lat":"0.00000000","lon":"0.00000000"},
{"state":"Asturias","name":"Avilés","lat":"0.00000000","lon":"0.00000000"},
{"state":"Asturias","name":"Belmonte de Miranda","lat":"0.00000000","lon":"0.00000000"},
{"state":"Asturias","name":"Bimenes","lat":"0.00000000","lon":"0.00000000"},
{"state":"Asturias","name":"Boal","lat":"0.00000000","lon":"0.00000000"},
{"state":"Asturias","name":"Cabrales","lat":"0.00000000","lon":"0.00000000"},
{"state":"Asturias","name":"Cabranes","lat":"0.00000000","lon":"0.00000000"},
{"state":"Asturias","name":"Candamo","lat":"0.00000000","lon":"0.00000000"},
{"state":"Asturias","name":"Cangas de Onís","lat":"0.00000000","lon":"0.00000000"},
{"state":"Asturias","name":"Cangas del Narcea","lat":"0.00000000","lon":"0.00000000"},
{"state":"Asturias","name":"Caravia","lat":"0.00000000","lon":"0.00000000"},
{"state":"Asturias","name":"Carreño","lat":"0.00000000","lon":"0.00000000"},
{"state":"Asturias","name":"Caso","lat":"0.00000000","lon":"0.00000000"},
{"state":"Asturias","name":"Castrillón","lat":"0.00000000","lon":"0.00000000"},
{"state":"Asturias","name":"Castropol","lat":"0.00000000","lon":"0.00000000"},
{"state":"Asturias","name":"Coaña","lat":"0.00000000","lon":"0.00000000"},
{"state":"Asturias","name":"Colunga","lat":"0.00000000","lon":"0.00000000"},
{"state":"Asturias","name":"Corvera de Asturias","lat":"0.00000000","lon":"0.00000000"},
{"state":"Asturias","name":"Cudillero","lat":"0.00000000","lon":"0.00000000"},
{"state":"Asturias","name":"Degaña","lat":"0.00000000","lon":"0.00000000"},
{"state":"Asturias","name":"Franco El","lat":"0.00000000","lon":"0.00000000"},
{"state":"Asturias","name":"Gijón","lat":"0.00000000","lon":"0.00000000"},
{"state":"Asturias","name":"Gozón","lat":"0.00000000","lon":"0.00000000"},
{"state":"Asturias","name":"Grado","lat":"0.00000000","lon":"0.00000000"},
{"state":"Asturias","name":"Grandas de Salime","lat":"0.00000000","lon":"0.00000000"},
{"state":"Asturias","name":"Ibias","lat":"0.00000000","lon":"0.00000000"},
{"state":"Asturias","name":"Illano","lat":"0.00000000","lon":"0.00000000"},
{"state":"Asturias","name":"Illas","lat":"0.00000000","lon":"0.00000000"},
{"state":"Asturias","name":"Langreo","lat":"0.00000000","lon":"0.00000000"},
{"state":"Asturias","name":"Laviana","lat":"0.00000000","lon":"0.00000000"},
{"state":"Asturias","name":"Lena","lat":"0.00000000","lon":"0.00000000"},
{"state":"Asturias","name":"Llanera","lat":"0.00000000","lon":"0.00000000"},
{"state":"Asturias","name":"Llanes","lat":"0.00000000","lon":"0.00000000"},
{"state":"Asturias","name":"Morcín","lat":"0.00000000","lon":"0.00000000"},
{"state":"Asturias","name":"Muros de Nalón","lat":"0.00000000","lon":"0.00000000"},
{"state":"Asturias","name":"Nava","lat":"0.00000000","lon":"0.00000000"},
{"state":"Asturias","name":"Navia","lat":"0.00000000","lon":"0.00000000"},
{"state":"Asturias","name":"Noreña","lat":"0.00000000","lon":"0.00000000"},
{"state":"Asturias","name":"Onís","lat":"0.00000000","lon":"0.00000000"},
{"state":"Asturias","name":"Oviedo","lat":"0.00000000","lon":"0.00000000"},
{"state":"Asturias","name":"Parres","lat":"0.00000000","lon":"0.00000000"},
{"state":"Asturias","name":"Peñamellera Alta","lat":"0.00000000","lon":"0.00000000"},
{"state":"Asturias","name":"Peñamellera Baja","lat":"0.00000000","lon":"0.00000000"},
{"state":"Asturias","name":"Pesoz","lat":"0.00000000","lon":"0.00000000"},
{"state":"Asturias","name":"Piloña","lat":"0.00000000","lon":"0.00000000"},
{"state":"Asturias","name":"Ponga","lat":"0.00000000","lon":"0.00000000"},
{"state":"Asturias","name":"Pravia","lat":"0.00000000","lon":"0.00000000"},
{"state":"Asturias","name":"Proaza","lat":"0.00000000","lon":"0.00000000"},
{"state":"Asturias","name":"Quirós","lat":"0.00000000","lon":"0.00000000"},
{"state":"Asturias","name":"Regueras Las","lat":"0.00000000","lon":"0.00000000"},
{"state":"Asturias","name":"Ribadedeva","lat":"0.00000000","lon":"0.00000000"},
{"state":"Asturias","name":"Ribadesella","lat":"0.00000000","lon":"0.00000000"},
{"state":"Asturias","name":"Ribera de Arriba","lat":"0.00000000","lon":"0.00000000"},
{"state":"Asturias","name":"Riosa","lat":"0.00000000","lon":"0.00000000"},
{"state":"Asturias","name":"Salas","lat":"0.00000000","lon":"0.00000000"},
{"state":"Asturias","name":"San Martín de Oscos","lat":"0.00000000","lon":"0.00000000"},
{"state":"Asturias","name":"San Martín del Rey Aurelio","lat":"0.00000000","lon":"0.00000000"},
{"state":"Asturias","name":"San Tirso de Abres","lat":"0.00000000","lon":"0.00000000"},
{"state":"Asturias","name":"Santa Eulalia de Oscos","lat":"0.00000000","lon":"0.00000000"},
{"state":"Asturias","name":"Santo Adriano","lat":"0.00000000","lon":"0.00000000"},
{"state":"Asturias","name":"Sariego","lat":"0.00000000","lon":"0.00000000"},
{"state":"Asturias","name":"Siero","lat":"0.00000000","lon":"0.00000000"},
{"state":"Asturias","name":"Sobrescobio","lat":"0.00000000","lon":"0.00000000"},
{"state":"Asturias","name":"Somiedo","lat":"0.00000000","lon":"0.00000000"},
{"state":"Asturias","name":"Soto del Barco","lat":"0.00000000","lon":"0.00000000"},
{"state":"Asturias","name":"Tapia de Casariego","lat":"0.00000000","lon":"0.00000000"},
{"state":"Asturias","name":"Taramundi","lat":"0.00000000","lon":"0.00000000"},
{"state":"Asturias","name":"Teverga","lat":"0.00000000","lon":"0.00000000"},
{"state":"Asturias","name":"Tineo","lat":"0.00000000","lon":"0.00000000"},
{"state":"Asturias","name":"Valdés","lat":"0.00000000","lon":"0.00000000"},
{"state":"Asturias","name":"Vegadeo","lat":"0.00000000","lon":"0.00000000"},
{"state":"Asturias","name":"Villanueva de Oscos","lat":"0.00000000","lon":"0.00000000"},
{"state":"Asturias","name":"Villaviciosa","lat":"0.00000000","lon":"0.00000000"},
{"state":"Asturias","name":"Villayón","lat":"0.00000000","lon":"0.00000000"},
{"state":"Asturias","name":"Yernes y Tameza","lat":"0.00000000","lon":"0.00000000"},
{"state":"Ávila","name":"Adanero","lat":"40.94487000","lon":"-4.60561000"},
{"state":"Ávila","name":"Adrada La","lat":"0.00000000","lon":"0.00000000"},
{"state":"Ávila","name":"Albornos","lat":"40.83795000","lon":"-4.88129000"},
{"state":"Ávila","name":"Aldeanueva de Santa Cruz","lat":"40.38189000","lon":"-5.42142000"},
{"state":"Ávila","name":"Aldeaseca","lat":"41.04912000","lon":"-4.81707000"},
{"state":"Ávila","name":"Aldehuela La","lat":"0.00000000","lon":"0.00000000"},
{"state":"Ávila","name":"Amavida","lat":"40.57371000","lon":"-5.06541000"},
{"state":"Ávila","name":"Arenal El","lat":"0.00000000","lon":"0.00000000"},
{"state":"Ávila","name":"Arenas de San Pedro","lat":"40.21041000","lon":"-5.08694000"},
{"state":"Ávila","name":"Arevalillo","lat":"0.00000000","lon":"0.00000000"},
{"state":"Ávila","name":"Arévalo","lat":"41.06255000","lon":"-4.72042000"},
{"state":"Ávila","name":"Aveinte","lat":"40.78227000","lon":"-4.83649000"},
{"state":"Ávila","name":"Avellaneda","lat":"40.38909000","lon":"-5.38811000"},
{"state":"Ávila","name":"Ávila","lat":"40.65724000","lon":"-4.69951000"},
{"state":"Ávila","name":"Barco de Ávila El","lat":"0.00000000","lon":"0.00000000"},
{"state":"Ávila","name":"Barraco El","lat":"0.00000000","lon":"0.00000000"},
{"state":"Ávila","name":"Barromán","lat":"41.06536000","lon":"-4.93066000"},
{"state":"Ávila","name":"Becedas","lat":"40.40369000","lon":"-5.63577000"},
{"state":"Ávila","name":"Becedillas","lat":"40.53821000","lon":"-5.32561000"},
{"state":"Ávila","name":"Bercial de Zapardiel","lat":"41.04675000","lon":"-4.96910000"},
{"state":"Ávila","name":"Berlanas Las","lat":"0.00000000","lon":"0.00000000"},
{"state":"Ávila","name":"Bernuy-Zapardiel","lat":"0.00000000","lon":"0.00000000"},
{"state":"Ávila","name":"Berrocalejo de Aragona","lat":"40.69436000","lon":"-4.59474000"},
{"state":"Ávila","name":"Blascomillán","lat":"40.80146000","lon":"-5.08703000"},
{"state":"Ávila","name":"Blasconuño de Matacabras","lat":"0.00000000","lon":"0.00000000"},
{"state":"Ávila","name":"Blascosancho","lat":"40.87744000","lon":"-4.63743000"},
{"state":"Ávila","name":"Bohodón El","lat":"0.00000000","lon":"0.00000000"},
{"state":"Ávila","name":"Bohoyo","lat":"40.31584000","lon":"-5.44294000"},
{"state":"Ávila","name":"Bonilla de la Sierra","lat":"40.53063000","lon":"-5.26452000"},
{"state":"Ávila","name":"Brabos","lat":"40.77846000","lon":"-4.93934000"},
{"state":"Ávila","name":"Bularros","lat":"0.00000000","lon":"0.00000000"},
{"state":"Ávila","name":"Burgohondo","lat":"40.41416000","lon":"-4.78509000"},
{"state":"Ávila","name":"Cabezas de Alambre","lat":"40.94218000","lon":"-4.84184000"},
{"state":"Ávila","name":"Cabezas del Pozo","lat":"41.00139000","lon":"-4.95453000"},
{"state":"Ávila","name":"Cabezas del Villar","lat":"40.71557000","lon":"-5.20956000"},
{"state":"Ávila","name":"Cabizuela","lat":"40.90090000","lon":"-4.80212000"},
{"state":"Ávila","name":"Canales","lat":"41.00331000","lon":"-4.90163000"},
{"state":"Ávila","name":"Candeleda","lat":"40.15521000","lon":"-5.24045000"},
{"state":"Ávila","name":"Cantiveros","lat":"40.95215000","lon":"-4.95455000"},
{"state":"Ávila","name":"Cardeñosa","lat":"40.74240000","lon":"-4.74579000"},
{"state":"Ávila","name":"Carrera La","lat":"0.00000000","lon":"0.00000000"},
{"state":"Ávila","name":"Casas del Puerto","lat":"0.00000000","lon":"0.00000000"},
{"state":"Ávila","name":"Casasola","lat":"0.00000000","lon":"0.00000000"},
{"state":"Ávila","name":"Casavieja","lat":"40.28325000","lon":"-4.76670000"},
{"state":"Ávila","name":"Casillas","lat":"40.32610000","lon":"-4.57182000"},
{"state":"Ávila","name":"Castellanos de Zapardiel","lat":"41.08450000","lon":"-4.90984000"},
{"state":"Ávila","name":"Cebreros","lat":"40.45835000","lon":"-4.46433000"},
{"state":"Ávila","name":"Cepeda la Mora","lat":"40.45780000","lon":"-5.04833000"},
{"state":"Ávila","name":"Chamartín","lat":"40.70267000","lon":"-4.95769000"},
{"state":"Ávila","name":"Chamartín","lat":"40.46206000","lon":"-3.67660000"},
{"state":"Ávila","name":"Cillán","lat":"40.70675000","lon":"-4.98135000"},
{"state":"Ávila","name":"Cisla","lat":"40.96662000","lon":"-5.01405000"},
{"state":"Ávila","name":"Colilla La","lat":"0.00000000","lon":"0.00000000"},
{"state":"Ávila","name":"Collado de Contreras","lat":"40.88743000","lon":"-4.93140000"},
{"state":"Ávila","name":"Collado del Mirón","lat":"40.55307000","lon":"-5.35398000"},
{"state":"Ávila","name":"Constanzana","lat":"40.93821000","lon":"-4.87515000"},
{"state":"Ávila","name":"Crespos","lat":"40.87128000","lon":"-4.97094000"},
{"state":"Ávila","name":"Cuevas del Valle","lat":"40.29418000","lon":"-5.00938000"},
{"state":"Ávila","name":"Diego del Carpio","lat":"0.00000000","lon":"0.00000000"},
{"state":"Ávila","name":"Donjimeno","lat":"40.95978000","lon":"-4.84627000"},
{"state":"Ávila","name":"Donvidas","lat":"41.08954000","lon":"-4.80634000"},
{"state":"Ávila","name":"Espinosa de los Caballeros","lat":"0.00000000","lon":"0.00000000"},
{"state":"Ávila","name":"Flores de Ávila","lat":"40.93358000","lon":"-5.07914000"},
{"state":"Ávila","name":"Fontiveros","lat":"40.92997000","lon":"-4.96445000"},
{"state":"Ávila","name":"Fresnedilla","lat":"40.23233000","lon":"-4.62201000"},
{"state":"Ávila","name":"Fresno El","lat":"0.00000000","lon":"0.00000000"},
{"state":"Ávila","name":"Fuente el Saúz","lat":"0.00000000","lon":"0.00000000"},
{"state":"Ávila","name":"Fuentes de Año","lat":"41.01769000","lon":"-4.89907000"},
{"state":"Ávila","name":"Gallegos de Altamiros","lat":"0.00000000","lon":"0.00000000"},
{"state":"Ávila","name":"Gallegos de Sobrinos","lat":"40.71693000","lon":"-5.11224000"},
{"state":"Ávila","name":"Garganta del Villar","lat":"40.44965000","lon":"-5.10420000"},
{"state":"Ávila","name":"Gavilanes","lat":"40.27791000","lon":"-4.85321000"},
{"state":"Ávila","name":"Gemuño","lat":"40.59159000","lon":"-4.78178000"},
{"state":"Ávila","name":"Gil García","lat":"0.00000000","lon":"0.00000000"},
{"state":"Ávila","name":"Gilbuena","lat":"0.00000000","lon":"0.00000000"},
{"state":"Ávila","name":"Gimialcón","lat":"40.87705000","lon":"-5.12308000"},
{"state":"Ávila","name":"Gotarrendura","lat":"40.82652000","lon":"-4.74090000"},
{"state":"Ávila","name":"Grandes y San Martín","lat":"0.00000000","lon":"0.00000000"},
{"state":"Ávila","name":"Guisando","lat":"40.22225000","lon":"-5.13950000"},
{"state":"Ávila","name":"Gutierre-Muñoz","lat":"40.98295000","lon":"-4.63839000"},
{"state":"Ávila","name":"Hernansancho","lat":"40.85753000","lon":"-4.73045000"},
{"state":"Ávila","name":"Herradón de Pinares","lat":"0.00000000","lon":"0.00000000"},
{"state":"Ávila","name":"Herreros de Suso","lat":"40.80361000","lon":"-5.03892000"},
{"state":"Ávila","name":"Higuera de las Dueñas","lat":"40.23903000","lon":"-4.60361000"},
{"state":"Ávila","name":"Hija de Dios La","lat":"0.00000000","lon":"0.00000000"},
{"state":"Ávila","name":"Horcajada La","lat":"0.00000000","lon":"0.00000000"},
{"state":"Ávila","name":"Horcajo de las Torres","lat":"41.06497000","lon":"-5.09092000"},
{"state":"Ávila","name":"Hornillo El","lat":"0.00000000","lon":"0.00000000"},
{"state":"Ávila","name":"Hoyo de Pinares El","lat":"0.00000000","lon":"0.00000000"},
{"state":"Ávila","name":"Hoyocasero","lat":"40.39890000","lon":"-4.97455000"},
{"state":"Ávila","name":"Hoyorredondo","lat":"40.46270000","lon":"-5.41097000"},
{"state":"Ávila","name":"Hoyos de Miguel Muñoz","lat":"40.39237000","lon":"-5.06713000"},
{"state":"Ávila","name":"Hoyos del Collado","lat":"40.35945000","lon":"-5.20027000"},
{"state":"Ávila","name":"Hoyos del Espino","lat":"40.35623000","lon":"-5.17505000"},
{"state":"Ávila","name":"Hurtumpascual","lat":"40.69200000","lon":"-5.11379000"},
{"state":"Ávila","name":"Junciana","lat":"40.41076000","lon":"-5.55698000"},
{"state":"Ávila","name":"Langa","lat":"41.00550000","lon":"-4.85946000"},
{"state":"Ávila","name":"Lanzahíta","lat":"0.00000000","lon":"0.00000000"},
{"state":"Ávila","name":"Llanos de Tormes Los","lat":"0.00000000","lon":"0.00000000"},
{"state":"Ávila","name":"Losar del Barco El","lat":"0.00000000","lon":"0.00000000"},
{"state":"Ávila","name":"Madrigal de las Altas Torres","lat":"41.08968000","lon":"-4.99863000"},
{"state":"Ávila","name":"Maello","lat":"40.80929000","lon":"-4.51186000"},
{"state":"Ávila","name":"Malpartida de Corneja","lat":"40.52208000","lon":"-5.35026000"},
{"state":"Ávila","name":"Mamblas","lat":"41.01925000","lon":"-5.00873000"},
{"state":"Ávila","name":"Mancera de Arriba","lat":"40.79139000","lon":"-5.14772000"},
{"state":"Ávila","name":"Manjabálago","lat":"40.66441000","lon":"-5.07719000"},
{"state":"Ávila","name":"Marlín","lat":"0.00000000","lon":"0.00000000"},
{"state":"Ávila","name":"Martiherrero","lat":"40.67392000","lon":"-4.78156000"},
{"state":"Ávila","name":"Martínez","lat":"40.63046000","lon":"-5.34801000"},
{"state":"Ávila","name":"Mediana de Voltoya","lat":"40.70104000","lon":"-4.56341000"},
{"state":"Ávila","name":"Medinilla","lat":"40.43967000","lon":"-5.61772000"},
{"state":"Ávila","name":"Mengamuñoz","lat":"40.50006000","lon":"-4.99983000"},
{"state":"Ávila","name":"Mesegar de Corneja","lat":"40.50209000","lon":"-5.30131000"},
{"state":"Ávila","name":"Mijares","lat":"40.29655000","lon":"-4.83651000"},
{"state":"Ávila","name":"Mingorría","lat":"40.75192000","lon":"-4.66583000"},
{"state":"Ávila","name":"Mirón El","lat":"0.00000000","lon":"0.00000000"},
{"state":"Ávila","name":"Mironcillo","lat":"40.55435000","lon":"-4.82449000"},
{"state":"Ávila","name":"Mirueña de los Infanzones","lat":"0.00000000","lon":"0.00000000"},
{"state":"Ávila","name":"Mombeltrán","lat":"40.25987000","lon":"-5.01749000"},
{"state":"Ávila","name":"Monsalupe","lat":"40.76953000","lon":"-4.78131000"},
{"state":"Ávila","name":"Moraleja de Matacabras","lat":"41.10732000","lon":"-4.95717000"},
{"state":"Ávila","name":"Muñana","lat":"40.59042000","lon":"-5.01447000"},
{"state":"Ávila","name":"Muñico","lat":"40.70678000","lon":"-5.02717000"},
{"state":"Ávila","name":"Muñogalindo","lat":"40.60324000","lon":"-4.89895000"},
{"state":"Ávila","name":"Muñogrande","lat":"40.82181000","lon":"-4.92223000"},
{"state":"Ávila","name":"Muñomer del Peco","lat":"40.85878000","lon":"-4.87992000"},
{"state":"Ávila","name":"Muñopepe","lat":"40.63408000","lon":"-4.81876000"},
{"state":"Ávila","name":"Muñosancho","lat":"40.92097000","lon":"-5.03559000"},
{"state":"Ávila","name":"Muñotello","lat":"40.54236000","lon":"-5.04187000"},
{"state":"Ávila","name":"Narrillos del Álamo","lat":"40.56673000","lon":"-5.46584000"},
{"state":"Ávila","name":"Narrillos del Rebollar","lat":"40.66488000","lon":"-4.96577000"},
{"state":"Ávila","name":"Narros de Saldueña","lat":"40.87268000","lon":"-4.86909000"},
{"state":"Ávila","name":"Narros del Castillo","lat":"40.85869000","lon":"-5.06010000"},
{"state":"Ávila","name":"Narros del Puerto","lat":"40.54131000","lon":"-4.99291000"},
{"state":"Ávila","name":"Nava de Arévalo","lat":"40.97803000","lon":"-4.77573000"},
{"state":"Ávila","name":"Nava del Barco","lat":"40.29321000","lon":"-5.54022000"},
{"state":"Ávila","name":"Navacepedilla de Corneja","lat":"40.48602000","lon":"-5.18380000"},
{"state":"Ávila","name":"Navadijos","lat":"40.42524000","lon":"-5.08285000"},
{"state":"Ávila","name":"Navaescurial","lat":"40.47163000","lon":"-5.27756000"},
{"state":"Ávila","name":"Navahondilla","lat":"40.32510000","lon":"-4.49661000"},
{"state":"Ávila","name":"Navalacruz","lat":"40.43993000","lon":"-4.93122000"},
{"state":"Ávila","name":"Navalmoral","lat":"40.46028000","lon":"-4.76859000"},
{"state":"Ávila","name":"Navalonguilla","lat":"0.00000000","lon":"0.00000000"},
{"state":"Ávila","name":"Navalosa","lat":"40.40212000","lon":"-4.92999000"},
{"state":"Ávila","name":"Navalperal de Pinares","lat":"40.59398000","lon":"-4.41149000"},
{"state":"Ávila","name":"Navalperal de Tormes","lat":"40.35280000","lon":"-5.30084000"},
{"state":"Ávila","name":"Navaluenga","lat":"40.41123000","lon":"-4.70897000"},
{"state":"Ávila","name":"Navaquesera","lat":"40.42558000","lon":"-4.91108000"},
{"state":"Ávila","name":"Navarredonda de Gredos","lat":"40.36136000","lon":"-5.13268000"},
{"state":"Ávila","name":"Navarredondilla","lat":"40.45416000","lon":"-4.82199000"},
{"state":"Ávila","name":"Navarrevisca","lat":"40.36417000","lon":"-4.89352000"},
{"state":"Ávila","name":"Navas del Marqués Las","lat":"0.00000000","lon":"0.00000000"},
{"state":"Ávila","name":"Navatalgordo","lat":"40.41520000","lon":"-4.87155000"},
{"state":"Ávila","name":"Navatejares","lat":"40.33602000","lon":"-5.53220000"},
{"state":"Ávila","name":"Neila de San Miguel","lat":"40.42372000","lon":"-5.65090000"},
{"state":"Ávila","name":"Niharra","lat":"40.58945000","lon":"-4.83895000"},
{"state":"Ávila","name":"Ojos-Albos","lat":"40.70596000","lon":"-4.51633000"},
{"state":"Ávila","name":"Orbita","lat":"40.99846000","lon":"-4.64833000"},
{"state":"Ávila","name":"Oso El","lat":"0.00000000","lon":"0.00000000"},
{"state":"Ávila","name":"Padiernos","lat":"40.62168000","lon":"-4.84523000"},
{"state":"Ávila","name":"Pajares de Adaja","lat":"40.92398000","lon":"-4.64048000"},
{"state":"Ávila","name":"Palacios de Goda","lat":"41.11798000","lon":"-4.78496000"},
{"state":"Ávila","name":"Papatrigo","lat":"40.86790000","lon":"-4.83399000"},
{"state":"Ávila","name":"Parral El","lat":"0.00000000","lon":"0.00000000"},
{"state":"Ávila","name":"Pascualcobo","lat":"0.00000000","lon":"0.00000000"},
{"state":"Ávila","name":"Pedro Bernardo","lat":"40.24214000","lon":"-4.90963000"},
{"state":"Ávila","name":"Pedro-Rodríguez","lat":"0.00000000","lon":"0.00000000"},
{"state":"Ávila","name":"Peguerinos","lat":"40.62620000","lon":"-4.23154000"},
{"state":"Ávila","name":"Peñalba de Ávila","lat":"40.77266000","lon":"-4.74595000"},
{"state":"Ávila","name":"Piedrahíta","lat":"0.00000000","lon":"0.00000000"},
{"state":"Ávila","name":"Piedralaves","lat":"40.31721000","lon":"-4.70025000"},
{"state":"Ávila","name":"Poveda","lat":"40.56799000","lon":"-5.07909000"},
{"state":"Ávila","name":"Poyales del Hoyo","lat":"40.17254000","lon":"-5.16597000"},
{"state":"Ávila","name":"Pozanco","lat":"40.80095000","lon":"-4.66772000"},
{"state":"Ávila","name":"Pradosegar","lat":"40.55020000","lon":"-5.07015000"},
{"state":"Ávila","name":"Puerto Castilla","lat":"40.28800000","lon":"-5.62366000"},
{"state":"Ávila","name":"Rasueros","lat":"41.02344000","lon":"-5.07377000"},
{"state":"Ávila","name":"Riocabado","lat":"0.00000000","lon":"0.00000000"},
{"state":"Ávila","name":"Riofrío","lat":"0.00000000","lon":"0.00000000"},
{"state":"Ávila","name":"Rivilla de Barajas","lat":"40.90210000","lon":"-4.98836000"},
{"state":"Ávila","name":"Salobral","lat":"40.61179000","lon":"-4.81013000"},
{"state":"Ávila","name":"Salvadiós","lat":"40.87836000","lon":"-5.09629000"},
{"state":"Ávila","name":"San Bartolomé de Béjar","lat":"40.40783000","lon":"-5.66261000"},
{"state":"Ávila","name":"San Bartolomé de Corneja","lat":"40.49257000","lon":"-5.38519000"},
{"state":"Ávila","name":"San Bartolomé de Pinares","lat":"0.00000000","lon":"0.00000000"},
{"state":"Ávila","name":"San Esteban de los Patos","lat":"40.74705000","lon":"-4.62413000"},
{"state":"Ávila","name":"San Esteban de Zapardiel","lat":"0.00000000","lon":"0.00000000"},
{"state":"Ávila","name":"San Esteban del Valle","lat":"40.27510000","lon":"-4.98215000"},
{"state":"Ávila","name":"San García de Ingelmos","lat":"40.76912000","lon":"-5.11523000"},
{"state":"Ávila","name":"San Juan de Gredos","lat":"0.00000000","lon":"0.00000000"},
{"state":"Ávila","name":"San Juan de la Encinilla","lat":"40.83020000","lon":"-4.83957000"},
{"state":"Ávila","name":"San Juan de la Nava","lat":"40.47880000","lon":"-4.68238000"},
{"state":"Ávila","name":"San Juan del Molinillo","lat":"40.45909000","lon":"-4.81711000"},
{"state":"Ávila","name":"San Juan del Olmo","lat":"0.00000000","lon":"0.00000000"},
{"state":"Ávila","name":"San Lorenzo de Tormes","lat":"40.36984000","lon":"-5.48848000"},
{"state":"Ávila","name":"San Martín de la Vega del Alberche","lat":"40.43053000","lon":"-5.15500000"},
{"state":"Ávila","name":"San Martín del Pimpollar","lat":"40.36830000","lon":"-5.05443000"},
{"state":"Ávila","name":"San Miguel de Corneja","lat":"40.48722000","lon":"-5.28654000"},
{"state":"Ávila","name":"San Miguel de Serrezuela","lat":"40.67064000","lon":"-5.28857000"},
{"state":"Ávila","name":"San Pascual","lat":"40.88141000","lon":"-4.75612000"},
{"state":"Ávila","name":"San Pedro del Arroyo","lat":"40.80213000","lon":"-4.87075000"},
{"state":"Ávila","name":"San Vicente de Arévalo","lat":"40.96773000","lon":"-4.80194000"},
{"state":"Ávila","name":"Sanchidrián","lat":"40.89347000","lon":"-4.58132000"},
{"state":"Ávila","name":"Sanchorreja","lat":"40.66475000","lon":"-4.91494000"},
{"state":"Ávila","name":"Santa Cruz de Pinares","lat":"40.54265000","lon":"-4.58036000"},
{"state":"Ávila","name":"Santa Cruz del Valle","lat":"40.25160000","lon":"-5.00133000"},
{"state":"Ávila","name":"Santa María de los Caballeros","lat":"40.38925000","lon":"-5.45112000"},
{"state":"Ávila","name":"Santa María del Arroyo","lat":"0.00000000","lon":"0.00000000"},
{"state":"Ávila","name":"Santa María del Berrocal","lat":"40.50845000","lon":"-5.40483000"},
{"state":"Ávila","name":"Santa María del Cubillo","lat":"0.00000000","lon":"0.00000000"},
{"state":"Ávila","name":"Santa María del Tiétar","lat":"0.00000000","lon":"0.00000000"},
{"state":"Ávila","name":"Santiago del Collado","lat":"40.43326000","lon":"-5.35631000"},
{"state":"Ávila","name":"Santiago del Tormes","lat":"0.00000000","lon":"0.00000000"},
{"state":"Ávila","name":"Santo Domingo de las Posadas","lat":"40.81200000","lon":"-4.63383000"},
{"state":"Ávila","name":"Santo Tomé de Zabarcos","lat":"40.78726000","lon":"-4.91048000"},
{"state":"Ávila","name":"Serrada La","lat":"0.00000000","lon":"0.00000000"},
{"state":"Ávila","name":"Serranillos","lat":"40.33625000","lon":"-4.91165000"},
{"state":"Ávila","name":"Sigeres","lat":"40.79939000","lon":"-4.93361000"},
{"state":"Ávila","name":"Sinlabajos","lat":"41.07650000","lon":"-4.83242000"},
{"state":"Ávila","name":"Solana de Ávila","lat":"0.00000000","lon":"0.00000000"},
{"state":"Ávila","name":"Solana de Rioalmar","lat":"0.00000000","lon":"0.00000000"},
{"state":"Ávila","name":"Solosancho","lat":"40.55294000","lon":"-4.90479000"},
{"state":"Ávila","name":"Sotalbo","lat":"40.54170000","lon":"-4.84548000"},
{"state":"Ávila","name":"Sotillo de la Adrada","lat":"40.29120000","lon":"-4.58385000"},
{"state":"Ávila","name":"Tiemblo El","lat":"0.00000000","lon":"0.00000000"},
{"state":"Ávila","name":"Tiñosillos","lat":"40.93400000","lon":"-4.72767000"},
{"state":"Ávila","name":"Tolbaños","lat":"40.75168000","lon":"-4.58191000"},
{"state":"Ávila","name":"Tormellas","lat":"40.30404000","lon":"-5.51185000"},
{"state":"Ávila","name":"Tornadizos de Ávila","lat":"40.62757000","lon":"-4.61426000"},
{"state":"Ávila","name":"Torre La","lat":"0.00000000","lon":"0.00000000"},
{"state":"Ávila","name":"Tórtoles","lat":"40.56120000","lon":"-5.26120000"},
{"state":"Ávila","name":"Umbrías","lat":"40.31530000","lon":"-5.58037000"},
{"state":"Ávila","name":"Vadillo de la Sierra","lat":"40.60634000","lon":"-5.12506000"},
{"state":"Ávila","name":"Valdecasa","lat":"40.65931000","lon":"-5.01183000"},
{"state":"Ávila","name":"Vega de Santa María","lat":"40.83618000","lon":"-4.64287000"},
{"state":"Ávila","name":"Velayos","lat":"40.84157000","lon":"-4.62324000"},
{"state":"Ávila","name":"Villaflor","lat":"40.75865000","lon":"-4.87379000"},
{"state":"Ávila","name":"Villafranca de la Sierra","lat":"40.49806000","lon":"-5.23005000"},
{"state":"Ávila","name":"Villanueva de Ávila","lat":"0.00000000","lon":"0.00000000"},
{"state":"Ávila","name":"Villanueva de Gómez","lat":"40.88269000","lon":"-4.71650000"},
{"state":"Ávila","name":"Villanueva del Aceral","lat":"41.04095000","lon":"-4.85419000"},
{"state":"Ávila","name":"Villanueva del Campillo","lat":"40.57646000","lon":"-5.18002000"},
{"state":"Ávila","name":"Villar de Corneja","lat":"40.47462000","lon":"-5.43307000"},
{"state":"Ávila","name":"Villarejo del Valle","lat":"40.28638000","lon":"-4.99674000"},
{"state":"Ávila","name":"Villatoro","lat":"40.55609000","lon":"-5.11262000"},
{"state":"Ávila","name":"Viñegra de Moraña","lat":"40.85074000","lon":"-4.92115000"},
{"state":"Ávila","name":"Vita","lat":"40.81178000","lon":"-5.00583000"},
{"state":"Ávila","name":"Zapardiel de la Cañada","lat":"40.60648000","lon":"-5.33791000"},
{"state":"Ávila","name":"Zapardiel de la Ribera","lat":"40.35554000","lon":"-5.32826000"},
{"state":"Badajoz","name":"Acedera","lat":"39.07678000","lon":"-5.57384000"},
{"state":"Badajoz","name":"Aceuchal","lat":"38.64627000","lon":"-6.48636000"},
{"state":"Badajoz","name":"Ahillones","lat":"38.26667000","lon":"-5.85000000"},
{"state":"Badajoz","name":"Alange","lat":"38.78495000","lon":"-6.24574000"},
{"state":"Badajoz","name":"Albuera La","lat":"0.00000000","lon":"0.00000000"},
{"state":"Badajoz","name":"Alburquerque","lat":"39.22076000","lon":"-7.00234000"},
{"state":"Badajoz","name":"Alconchel","lat":"38.51648000","lon":"-7.07161000"},
{"state":"Badajoz","name":"Alconera","lat":"38.40000000","lon":"-6.46667000"},
{"state":"Badajoz","name":"Aljucén","lat":"39.04425000","lon":"-6.33109000"},
{"state":"Badajoz","name":"Almendral","lat":"38.61418000","lon":"-6.82097000"},
{"state":"Badajoz","name":"Almendralejo","lat":"38.68316000","lon":"-6.40747000"},
{"state":"Badajoz","name":"Arroyo de San Serván","lat":"38.85443000","lon":"-6.45402000"},
{"state":"Badajoz","name":"Atalaya","lat":"38.33333000","lon":"-6.46667000"},
{"state":"Badajoz","name":"Azuaga","lat":"38.26667000","lon":"-5.68333000"},
{"state":"Badajoz","name":"Badajoz","lat":"38.87789000","lon":"-6.97061000"},
{"state":"Badajoz","name":"Barcarrota","lat":"38.51473000","lon":"-6.84923000"},
{"state":"Badajoz","name":"Baterno","lat":"38.95578000","lon":"-4.91039000"},
{"state":"Badajoz","name":"Benquerencia de la Serena","lat":"0.00000000","lon":"0.00000000"},
{"state":"Badajoz","name":"Berlanga","lat":"38.28333000","lon":"-5.81667000"},
{"state":"Badajoz","name":"Bienvenida","lat":"38.30000000","lon":"-6.20000000"},
{"state":"Badajoz","name":"Bodonal de la Sierra","lat":"38.14751000","lon":"-6.55950000"},
{"state":"Badajoz","name":"Burguillos del Cerro","lat":"38.38008000","lon":"-6.59037000"},
{"state":"Badajoz","name":"Cabeza del Buey","lat":"38.72227000","lon":"-5.21946000"},
{"state":"Badajoz","name":"Cabeza la Vaca","lat":"38.08333000","lon":"-6.41667000"},
{"state":"Badajoz","name":"Calamonte","lat":"38.88861000","lon":"-6.38791000"},
{"state":"Badajoz","name":"Calera de León","lat":"38.10000000","lon":"-6.33333000"},
{"state":"Badajoz","name":"Calzadilla de los Barros","lat":"0.00000000","lon":"0.00000000"},
{"state":"Badajoz","name":"Campanario","lat":"38.86440000","lon":"-5.61744000"},
{"state":"Badajoz","name":"Campillo de Llerena","lat":"38.50196000","lon":"-5.83139000"},
{"state":"Badajoz","name":"Capilla","lat":"38.82037000","lon":"-5.08417000"},
{"state":"Badajoz","name":"Carmonita","lat":"39.15455000","lon":"-6.33864000"},
{"state":"Badajoz","name":"Carrascalejo El","lat":"0.00000000","lon":"0.00000000"},
{"state":"Badajoz","name":"Casas de Don Pedro","lat":"39.10822000","lon":"-5.33077000"},
{"state":"Badajoz","name":"Casas de Reina","lat":"38.20000000","lon":"-5.96667000"},
{"state":"Badajoz","name":"Castilblanco","lat":"39.28487000","lon":"-5.09098000"},
{"state":"Badajoz","name":"Castuera","lat":"38.73204000","lon":"-5.54390000"},
{"state":"Badajoz","name":"Cheles","lat":"38.51225000","lon":"-7.28177000"},
{"state":"Badajoz","name":"Codosera La","lat":"0.00000000","lon":"0.00000000"},
{"state":"Badajoz","name":"Cordobilla de Lácara","lat":"39.14763000","lon":"-6.43619000"},
{"state":"Badajoz","name":"Coronada La","lat":"0.00000000","lon":"0.00000000"},
{"state":"Badajoz","name":"Corte de Peleas","lat":"38.72631000","lon":"-6.67035000"},
{"state":"Badajoz","name":"Cristina","lat":"38.83745000","lon":"-6.09867000"},
{"state":"Badajoz","name":"Don Álvaro","lat":"38.84837000","lon":"-6.27475000"},
{"state":"Badajoz","name":"Don Benito","lat":"38.95627000","lon":"-5.86162000"},
{"state":"Badajoz","name":"Entrín Bajo","lat":"38.71855000","lon":"-6.71349000"},
{"state":"Badajoz","name":"Esparragalejo","lat":"38.94330000","lon":"-6.43549000"},
{"state":"Badajoz","name":"Esparragosa de la Serena","lat":"38.65100000","lon":"-5.60657000"},
{"state":"Badajoz","name":"Esparragosa de Lares","lat":"38.97517000","lon":"-5.26968000"},
{"state":"Badajoz","name":"Feria","lat":"38.51151000","lon":"-6.56416000"},
{"state":"Badajoz","name":"Fregenal de la Sierra","lat":"38.16922000","lon":"-6.65370000"},
{"state":"Badajoz","name":"Fuenlabrada de los Montes","lat":"39.13288000","lon":"-4.93513000"},
{"state":"Badajoz","name":"Fuente de Cantos","lat":"38.25000000","lon":"-6.30000000"},
{"state":"Badajoz","name":"Fuente del Arco","lat":"0.00000000","lon":"0.00000000"},
{"state":"Badajoz","name":"Fuente del Maestre","lat":"38.52656000","lon":"-6.44782000"},
{"state":"Badajoz","name":"Fuentes de León","lat":"38.06866000","lon":"-6.53884000"},
{"state":"Badajoz","name":"Garbayuela","lat":"39.04956000","lon":"-4.99856000"},
{"state":"Badajoz","name":"Garlitos","lat":"38.88022000","lon":"-5.04759000"},
{"state":"Badajoz","name":"Garrovilla La","lat":"0.00000000","lon":"0.00000000"},
{"state":"Badajoz","name":"Granja de Torrehermosa","lat":"38.31667000","lon":"-5.58333000"},
{"state":"Badajoz","name":"Guareña","lat":"38.85952000","lon":"-6.09987000"},
{"state":"Badajoz","name":"Haba La","lat":"0.00000000","lon":"0.00000000"},
{"state":"Badajoz","name":"Helechosa de los Montes","lat":"0.00000000","lon":"0.00000000"},
{"state":"Badajoz","name":"Herrera del Duque","lat":"39.16840000","lon":"-5.05049000"},
{"state":"Badajoz","name":"Higuera de la Serena","lat":"38.64616000","lon":"-5.74129000"},
{"state":"Badajoz","name":"Higuera de Llerena","lat":"0.00000000","lon":"0.00000000"},
{"state":"Badajoz","name":"Higuera de Vargas","lat":"38.44700000","lon":"-6.97517000"},
{"state":"Badajoz","name":"Higuera la Real","lat":"38.14088000","lon":"-6.68922000"},
{"state":"Badajoz","name":"Hinojosa del Valle","lat":"38.48333000","lon":"-6.18333000"},
{"state":"Badajoz","name":"Hornachos","lat":"38.55428000","lon":"-6.06829000"},
{"state":"Badajoz","name":"Jerez de los Caballeros","lat":"38.32063000","lon":"-6.77260000"},
{"state":"Badajoz","name":"Lapa La","lat":"0.00000000","lon":"0.00000000"},
{"state":"Badajoz","name":"Llera","lat":"38.45000000","lon":"-6.05000000"},
{"state":"Badajoz","name":"Llerena","lat":"38.23333000","lon":"-6.01667000"},
{"state":"Badajoz","name":"Lobón","lat":"38.84876000","lon":"-6.62365000"},
{"state":"Badajoz","name":"Magacela","lat":"38.89648000","lon":"-5.73437000"},
{"state":"Badajoz","name":"Maguilla","lat":"38.36667000","lon":"-5.83333000"},
{"state":"Badajoz","name":"Malcocinado","lat":"38.11667000","lon":"-5.68333000"},
{"state":"Badajoz","name":"Malpartida de la Serena","lat":"38.67470000","lon":"-5.64054000"},
{"state":"Badajoz","name":"Manchita","lat":"38.81404000","lon":"-6.02041000"},
{"state":"Badajoz","name":"Medellín","lat":"38.96265000","lon":"-5.95785000"},
{"state":"Badajoz","name":"Medina de las Torres","lat":"38.33333000","lon":"-6.40000000"},
{"state":"Badajoz","name":"Mengabril","lat":"38.93554000","lon":"-5.93335000"},
{"state":"Badajoz","name":"Mérida","lat":"38.91611000","lon":"-6.34366000"},
{"state":"Badajoz","name":"Mirandilla","lat":"39.00200000","lon":"-6.28893000"},
{"state":"Badajoz","name":"Monesterio","lat":"38.08333000","lon":"-6.26667000"},
{"state":"Badajoz","name":"Montemolín","lat":"38.15000000","lon":"-6.20000000"},
{"state":"Badajoz","name":"Monterrubio de la Serena","lat":"38.58876000","lon":"-5.44569000"},
{"state":"Badajoz","name":"Montijo","lat":"38.90839000","lon":"-6.61785000"},
{"state":"Badajoz","name":"Morera La","lat":"0.00000000","lon":"0.00000000"},
{"state":"Badajoz","name":"Nava de Santiago La","lat":"0.00000000","lon":"0.00000000"},
{"state":"Badajoz","name":"Navalvillar de Pela","lat":"39.09436000","lon":"-5.46810000"},
{"state":"Badajoz","name":"Nogales","lat":"38.58629000","lon":"-6.74901000"},
{"state":"Badajoz","name":"Oliva de la Frontera","lat":"38.27595000","lon":"-6.91873000"},
{"state":"Badajoz","name":"Oliva de Mérida","lat":"38.79051000","lon":"-6.12402000"},
{"state":"Badajoz","name":"Olivenza","lat":"38.68269000","lon":"-7.10046000"},
{"state":"Badajoz","name":"Orellana de la Sierra","lat":"0.00000000","lon":"0.00000000"},
{"state":"Badajoz","name":"Orellana la Vieja","lat":"39.00617000","lon":"-5.53441000"},
{"state":"Badajoz","name":"Palomas","lat":"38.69277000","lon":"-6.13490000"},
{"state":"Badajoz","name":"Parra La","lat":"0.00000000","lon":"0.00000000"},
{"state":"Badajoz","name":"Peñalsordo","lat":"38.82019000","lon":"-5.11405000"},
{"state":"Badajoz","name":"Peraleda del Zaucejo","lat":"0.00000000","lon":"0.00000000"},
{"state":"Badajoz","name":"Puebla de Alcocer","lat":"38.98648000","lon":"-5.25633000"},
{"state":"Badajoz","name":"Puebla de la Calzada","lat":"38.89441000","lon":"-6.62592000"},
{"state":"Badajoz","name":"Puebla de la Reina","lat":"38.66455000","lon":"-6.10216000"},
{"state":"Badajoz","name":"Puebla de Obando","lat":"39.17630000","lon":"-6.62764000"},
{"state":"Badajoz","name":"Puebla de Sancho Pérez","lat":"38.40000000","lon":"-6.40000000"},
{"state":"Badajoz","name":"Puebla del Maestre","lat":"38.08333000","lon":"-6.08333000"},
{"state":"Badajoz","name":"Puebla del Prior","lat":"38.57032000","lon":"-6.19584000"},
{"state":"Badajoz","name":"Pueblonuevo del Guadiana","lat":"0.00000000","lon":"0.00000000"},
{"state":"Badajoz","name":"Quintana de la Serena","lat":"38.74595000","lon":"-5.67233000"},
{"state":"Badajoz","name":"Reina","lat":"38.18333000","lon":"-5.95000000"},
{"state":"Badajoz","name":"Rena","lat":"39.05252000","lon":"-5.80868000"},
{"state":"Badajoz","name":"Retamal de Llerena","lat":"0.00000000","lon":"0.00000000"},
{"state":"Badajoz","name":"Ribera del Fresno","lat":"38.55177000","lon":"-6.23768000"},
{"state":"Badajoz","name":"Risco","lat":"0.00000000","lon":"0.00000000"},
{"state":"Badajoz","name":"Roca de la Sierra La","lat":"0.00000000","lon":"0.00000000"},
{"state":"Badajoz","name":"Salvaleón","lat":"38.51020000","lon":"-6.78627000"},
{"state":"Badajoz","name":"Salvatierra de los Barros","lat":"38.49091000","lon":"-6.68423000"},
{"state":"Badajoz","name":"San Pedro de Mérida","lat":"38.95007000","lon":"-6.18645000"},
{"state":"Badajoz","name":"San Vicente de Alcántara","lat":"39.36132000","lon":"-7.13766000"},
{"state":"Badajoz","name":"Santa Amalia","lat":"39.01118000","lon":"-6.01158000"},
{"state":"Badajoz","name":"Santa Marta","lat":"38.61421000","lon":"-6.62799000"},
{"state":"Badajoz","name":"Santos de Maimona Los","lat":"0.00000000","lon":"0.00000000"},
{"state":"Badajoz","name":"Segura de León","lat":"38.11667000","lon":"-6.51667000"},
{"state":"Badajoz","name":"Siruela","lat":"38.97718000","lon":"-5.04969000"},
{"state":"Badajoz","name":"Solana de los Barros","lat":"38.72527000","lon":"-6.53899000"},
{"state":"Badajoz","name":"Talarrubias","lat":"39.03697000","lon":"-5.23423000"},
{"state":"Badajoz","name":"Talavera La Real","lat":"38.87794000","lon":"-6.76856000"},
{"state":"Badajoz","name":"Táliga","lat":"38.52861000","lon":"-7.01713000"},
{"state":"Badajoz","name":"Tamurejo","lat":"38.98333000","lon":"-4.93333000"},
{"state":"Badajoz","name":"Torre de Miguel Sesmero","lat":"38.61913000","lon":"-6.79580000"},
{"state":"Badajoz","name":"Torremayor","lat":"38.90140000","lon":"-6.53858000"},
{"state":"Badajoz","name":"Torremejía","lat":"0.00000000","lon":"0.00000000"},
{"state":"Badajoz","name":"Trasierra","lat":"38.18333000","lon":"-6.00000000"},
{"state":"Badajoz","name":"Trujillanos","lat":"38.95233000","lon":"-6.25759000"},
{"state":"Badajoz","name":"Usagre","lat":"38.35000000","lon":"-6.16667000"},
{"state":"Badajoz","name":"Valdecaballeros","lat":"39.24289000","lon":"-5.19000000"},
{"state":"Badajoz","name":"Valdelacalzada","lat":"38.88943000","lon":"-6.70029000"},
{"state":"Badajoz","name":"Valdetorres","lat":"38.91542000","lon":"-6.06765000"},
{"state":"Badajoz","name":"Valencia de las Torres","lat":"38.40518000","lon":"-6.00403000"},
{"state":"Badajoz","name":"Valencia del Mombuey","lat":"38.24243000","lon":"-7.11965000"},
{"state":"Badajoz","name":"Valencia del Ventoso","lat":"38.26667000","lon":"-6.46667000"},
{"state":"Badajoz","name":"Valle de la Serena","lat":"38.71010000","lon":"-5.79847000"},
{"state":"Badajoz","name":"Valle de Matamoros","lat":"38.37889000","lon":"-6.80371000"},
{"state":"Badajoz","name":"Valle de Santa Ana","lat":"38.36637000","lon":"-6.78860000"},
{"state":"Badajoz","name":"Valverde de Burguillos","lat":"38.32710000","lon":"-6.53648000"},
{"state":"Badajoz","name":"Valverde de Leganés","lat":"38.67059000","lon":"-6.98036000"},
{"state":"Badajoz","name":"Valverde de Llerena","lat":"38.21667000","lon":"-5.81667000"},
{"state":"Badajoz","name":"Valverde de Mérida","lat":"38.91122000","lon":"-6.21999000"},
{"state":"Badajoz","name":"Villafranca de los Barros","lat":"38.56144000","lon":"-6.33810000"},
{"state":"Badajoz","name":"Villagarcía de la Torre","lat":"38.30000000","lon":"-6.08333000"},
{"state":"Badajoz","name":"Villagonzalo","lat":"38.86329000","lon":"-6.19665000"},
{"state":"Badajoz","name":"Villalba de los Barros","lat":"38.61294000","lon":"-6.50914000"},
{"state":"Badajoz","name":"Villanueva de la Serena","lat":"38.97655000","lon":"-5.79740000"},
{"state":"Badajoz","name":"Villanueva del Fresno","lat":"38.37600000","lon":"-7.16753000"},
{"state":"Badajoz","name":"Villar de Rena","lat":"39.07651000","lon":"-5.81074000"},
{"state":"Badajoz","name":"Villar del Rey","lat":"39.13310000","lon":"-6.84762000"},
{"state":"Badajoz","name":"Villarta de los Montes","lat":"39.21386000","lon":"-4.79227000"},
{"state":"Badajoz","name":"Zafra","lat":"38.42539000","lon":"-6.41734000"},
{"state":"Badajoz","name":"Zahinos","lat":"38.33135000","lon":"-6.95533000"},
{"state":"Badajoz","name":"Zalamea de la Serena","lat":"38.65131000","lon":"-5.66063000"},
{"state":"Badajoz","name":"Zarza La","lat":"0.00000000","lon":"0.00000000"},
{"state":"Badajoz","name":"Zarza-Capilla","lat":"0.00000000","lon":"0.00000000"},
{"state":"Barcelona","name":"Abrera","lat":"41.51682000","lon":"1.90100000"},
{"state":"Barcelona","name":"Aguilar de Segarra","lat":"41.74822000","lon":"1.62919000"},
{"state":"Barcelona","name":"Aiguafreda","lat":"41.76807000","lon":"2.25051000"},
{"state":"Barcelona","name":"Alella","lat":"41.49379000","lon":"2.29451000"},
{"state":"Barcelona","name":"Alpens","lat":"42.11930000","lon":"2.10135000"},
{"state":"Barcelona","name":"Ametlla del Vallès L","lat":"0.00000000","lon":"0.00000000"},
{"state":"Barcelona","name":"Arenys de Mar","lat":"41.58190000","lon":"2.54936000"},
{"state":"Barcelona","name":"Arenys de Munt","lat":"41.61424000","lon":"2.53972000"},
{"state":"Barcelona","name":"Argençola","lat":"0.00000000","lon":"0.00000000"},
{"state":"Barcelona","name":"Argentona","lat":"41.55336000","lon":"2.40114000"},
{"state":"Barcelona","name":"Artés","lat":"41.79800000","lon":"1.95428000"},
{"state":"Barcelona","name":"Avià","lat":"0.00000000","lon":"0.00000000"},
{"state":"Barcelona","name":"Avinyó","lat":"41.86367000","lon":"1.97095000"},
{"state":"Barcelona","name":"Avinyonet del Penedès","lat":"0.00000000","lon":"0.00000000"},
{"state":"Barcelona","name":"Badalona","lat":"41.45004000","lon":"2.24741000"},
{"state":"Barcelona","name":"Badia del Vallès","lat":"0.00000000","lon":"0.00000000"},
{"state":"Barcelona","name":"Bagà","lat":"42.25289000","lon":"1.86098000"},
{"state":"Barcelona","name":"Balenyà","lat":"0.00000000","lon":"0.00000000"},
{"state":"Barcelona","name":"Balsareny","lat":"41.86311000","lon":"1.87356000"},
{"state":"Barcelona","name":"Barberà del Vallès","lat":"41.51590000","lon":"2.12457000"},
{"state":"Barcelona","name":"Barcelona","lat":"41.38879000","lon":"2.15899000"},
{"state":"Barcelona","name":"Begues","lat":"41.33333000","lon":"1.93333000"},
{"state":"Barcelona","name":"Bellprat","lat":"41.51695000","lon":"1.43333000"},
{"state":"Barcelona","name":"Berga","lat":"42.10429000","lon":"1.84628000"},
{"state":"Barcelona","name":"Bigues i Riells","lat":"41.68333000","lon":"2.23333000"},
{"state":"Barcelona","name":"Borredà","lat":"0.00000000","lon":"0.00000000"},
{"state":"Barcelona","name":"Bruc El","lat":"0.00000000","lon":"0.00000000"},
{"state":"Barcelona","name":"Brull El","lat":"0.00000000","lon":"0.00000000"},
{"state":"Barcelona","name":"Cabanyes Les","lat":"0.00000000","lon":"0.00000000"},
{"state":"Barcelona","name":"Cabrera dAnoia","lat":"0.00000000","lon":"0.00000000"},
{"state":"Barcelona","name":"Cabrera de Mar","lat":"41.51667000","lon":"2.40000000"},
{"state":"Barcelona","name":"Cabrils","lat":"41.52760000","lon":"2.36996000"},
{"state":"Barcelona","name":"Calaf","lat":"41.73289000","lon":"1.51375000"},
{"state":"Barcelona","name":"Calders","lat":"0.00000000","lon":"0.00000000"},
{"state":"Barcelona","name":"Caldes de Montbui","lat":"41.63333000","lon":"2.16667000"},
{"state":"Barcelona","name":"Caldes dEstrac","lat":"0.00000000","lon":"0.00000000"},
{"state":"Barcelona","name":"Calella","lat":"41.61381000","lon":"2.65423000"},
{"state":"Barcelona","name":"Calldetenes","lat":"0.00000000","lon":"0.00000000"},
{"state":"Barcelona","name":"Callús","lat":"0.00000000","lon":"0.00000000"},
{"state":"Barcelona","name":"Calonge de Segarra","lat":"0.00000000","lon":"0.00000000"},
{"state":"Barcelona","name":"Campins","lat":"41.71667000","lon":"2.46667000"},
{"state":"Barcelona","name":"Canet de Mar","lat":"41.59054000","lon":"2.58116000"},
{"state":"Barcelona","name":"Canovelles","lat":"41.61667000","lon":"2.28333000"},
{"state":"Barcelona","name":"Cànoves i Samalús","lat":"41.68333000","lon":"2.35000000"},
{"state":"Barcelona","name":"Canyelles","lat":"41.44509000","lon":"2.16346000"},
{"state":"Barcelona","name":"Capellades","lat":"41.53005000","lon":"1.68651000"},
{"state":"Barcelona","name":"Capolat","lat":"0.00000000","lon":"0.00000000"},
{"state":"Barcelona","name":"Cardedeu","lat":"41.63976000","lon":"2.35739000"},
{"state":"Barcelona","name":"Cardona","lat":"41.91371000","lon":"1.67855000"},
{"state":"Barcelona","name":"Carme","lat":"0.00000000","lon":"0.00000000"},
{"state":"Barcelona","name":"Casserres","lat":"0.00000000","lon":"0.00000000"},
{"state":"Barcelona","name":"Castell de lAreny","lat":"0.00000000","lon":"0.00000000"},
{"state":"Barcelona","name":"Castellar de nHug","lat":"0.00000000","lon":"0.00000000"},
{"state":"Barcelona","name":"Castellar del Riu","lat":"0.00000000","lon":"0.00000000"},
{"state":"Barcelona","name":"Castellar del Vallès","lat":"41.61667000","lon":"2.08333000"},
{"state":"Barcelona","name":"Castellbell i el Vilar","lat":"0.00000000","lon":"0.00000000"},
{"state":"Barcelona","name":"Castellbisbal","lat":"41.47534000","lon":"1.98174000"},
{"state":"Barcelona","name":"Castellcir","lat":"41.76074000","lon":"2.16128000"},
{"state":"Barcelona","name":"Castelldefels","lat":"41.27794000","lon":"1.97033000"},
{"state":"Barcelona","name":"Castellet i la Gornal","lat":"0.00000000","lon":"0.00000000"},
{"state":"Barcelona","name":"Castellfollit de Riubregós","lat":"41.76667000","lon":"1.43333000"},
{"state":"Barcelona","name":"Castellfollit del Boix","lat":"0.00000000","lon":"0.00000000"},
{"state":"Barcelona","name":"Castellgalí","lat":"0.00000000","lon":"0.00000000"},
{"state":"Barcelona","name":"Castellnou de Bages","lat":"0.00000000","lon":"0.00000000"},
{"state":"Barcelona","name":"Castellolí","lat":"41.59829000","lon":"1.70057000"},
{"state":"Barcelona","name":"Castellterçol","lat":"0.00000000","lon":"0.00000000"},
{"state":"Barcelona","name":"Castellví de la Marca","lat":"0.00000000","lon":"0.00000000"},
{"state":"Barcelona","name":"Castellví de Rosanes","lat":"41.45000000","lon":"1.90000000"},
{"state":"Barcelona","name":"Centelles","lat":"41.79746000","lon":"2.21902000"},
{"state":"Barcelona","name":"Cercs","lat":"0.00000000","lon":"0.00000000"},
{"state":"Barcelona","name":"Cerdanyola del Vallès","lat":"41.49109000","lon":"2.14079000"},
{"state":"Barcelona","name":"Cervelló","lat":"41.39587000","lon":"1.95917000"},
{"state":"Barcelona","name":"Collbató","lat":"41.57009000","lon":"1.82712000"},
{"state":"Barcelona","name":"Collsuspina","lat":"41.82580000","lon":"2.17546000"},
{"state":"Barcelona","name":"Copons","lat":"0.00000000","lon":"0.00000000"},
{"state":"Barcelona","name":"Corbera de Llobregat","lat":"41.41702000","lon":"1.91970000"},
{"state":"Barcelona","name":"Cornellà de Llobregat","lat":"41.35000000","lon":"2.08333000"},
{"state":"Barcelona","name":"Cubelles","lat":"41.20772000","lon":"1.67267000"},
{"state":"Barcelona","name":"Dosrius","lat":"41.58333000","lon":"2.41667000"},
{"state":"Barcelona","name":"Esparreguera","lat":"41.53809000","lon":"1.87025000"},
{"state":"Barcelona","name":"Esplugues de Llobregat","lat":"41.37732000","lon":"2.08809000"},
{"state":"Barcelona","name":"Espunyola L","lat":"0.00000000","lon":"0.00000000"},
{"state":"Barcelona","name":"Estany L","lat":"0.00000000","lon":"0.00000000"},
{"state":"Barcelona","name":"Figaró-Montmany","lat":"0.00000000","lon":"0.00000000"},
{"state":"Barcelona","name":"Fígols","lat":"0.00000000","lon":"0.00000000"},
{"state":"Barcelona","name":"Fogars de la Selva","lat":"0.00000000","lon":"0.00000000"},
{"state":"Barcelona","name":"Fogars de Montclús","lat":"0.00000000","lon":"0.00000000"},
{"state":"Barcelona","name":"Folgueroles","lat":"0.00000000","lon":"0.00000000"},
{"state":"Barcelona","name":"Fonollosa","lat":"41.76303000","lon":"1.66867000"},
{"state":"Barcelona","name":"Font-rubí","lat":"0.00000000","lon":"0.00000000"},
{"state":"Barcelona","name":"Franqueses del Vallès Les","lat":"0.00000000","lon":"0.00000000"},
{"state":"Barcelona","name":"Gaià","lat":"0.00000000","lon":"0.00000000"},
{"state":"Barcelona","name":"Gallifa","lat":"41.69243000","lon":"2.11346000"},
{"state":"Barcelona","name":"Garriga La","lat":"0.00000000","lon":"0.00000000"},
{"state":"Barcelona","name":"Gavà","lat":"41.30605000","lon":"2.00123000"},
{"state":"Barcelona","name":"Gelida","lat":"41.43333000","lon":"1.86667000"},
{"state":"Barcelona","name":"Gironella","lat":"42.03433000","lon":"1.88019000"},
{"state":"Barcelona","name":"Gisclareny","lat":"0.00000000","lon":"0.00000000"},
{"state":"Barcelona","name":"Granada La","lat":"0.00000000","lon":"0.00000000"},
{"state":"Barcelona","name":"Granera","lat":"41.72741000","lon":"2.05924000"},
{"state":"Barcelona","name":"Granollers","lat":"41.60797000","lon":"2.28773000"},
{"state":"Barcelona","name":"Gualba","lat":"0.00000000","lon":"0.00000000"},
{"state":"Barcelona","name":"Guardiola de Berguedà","lat":"0.00000000","lon":"0.00000000"},
{"state":"Barcelona","name":"Gurb","lat":"41.95419000","lon":"2.23537000"},
{"state":"Barcelona","name":"Hospitalet de Llobregat L","lat":"0.00000000","lon":"0.00000000"},
{"state":"Barcelona","name":"Hostalets de Pierola Els","lat":"0.00000000","lon":"0.00000000"},
{"state":"Barcelona","name":"Igualada","lat":"41.58098000","lon":"1.61720000"},
{"state":"Barcelona","name":"Jorba","lat":"41.60193000","lon":"1.54750000"},
{"state":"Barcelona","name":"Llacuna La","lat":"0.00000000","lon":"0.00000000"},
{"state":"Barcelona","name":"Llagosta La","lat":"0.00000000","lon":"0.00000000"},
{"state":"Barcelona","name":"Lliçà dAmunt","lat":"0.00000000","lon":"0.00000000"},
{"state":"Barcelona","name":"Lliçà de Vall","lat":"0.00000000","lon":"0.00000000"},
{"state":"Barcelona","name":"Llinars del Vallès","lat":"41.63333000","lon":"2.40000000"},
{"state":"Barcelona","name":"Lluçà","lat":"0.00000000","lon":"0.00000000"},
{"state":"Barcelona","name":"Malgrat de Mar","lat":"41.64662000","lon":"2.74135000"},
{"state":"Barcelona","name":"Malla","lat":"0.00000000","lon":"0.00000000"},
{"state":"Barcelona","name":"Manlleu","lat":"42.00228000","lon":"2.28476000"},
{"state":"Barcelona","name":"Manresa","lat":"41.72815000","lon":"1.82399000"},
{"state":"Barcelona","name":"Marganell","lat":"0.00000000","lon":"0.00000000"},
{"state":"Barcelona","name":"Martorell","lat":"41.47402000","lon":"1.93062000"},
{"state":"Barcelona","name":"Martorelles","lat":"0.00000000","lon":"0.00000000"},
{"state":"Barcelona","name":"Masies de Roda Les","lat":"0.00000000","lon":"0.00000000"},
{"state":"Barcelona","name":"Masies de Voltregà Les","lat":"0.00000000","lon":"0.00000000"},
{"state":"Barcelona","name":"Masnou El","lat":"0.00000000","lon":"0.00000000"},
{"state":"Barcelona","name":"Masquefa","lat":"41.50353000","lon":"1.81136000"},
{"state":"Barcelona","name":"Matadepera","lat":"41.59886000","lon":"2.02648000"},
{"state":"Barcelona","name":"Mataró","lat":"41.54211000","lon":"2.44450000"},
{"state":"Barcelona","name":"Mediona","lat":"41.47798000","lon":"1.61222000"},
{"state":"Barcelona","name":"Moià","lat":"41.81112000","lon":"2.09839000"},
{"state":"Barcelona","name":"Molins de Rei","lat":"41.41667000","lon":"2.01667000"},
{"state":"Barcelona","name":"Mollet del Vallès","lat":"41.54026000","lon":"2.21306000"},
{"state":"Barcelona","name":"Monistrol de Calders","lat":"0.00000000","lon":"0.00000000"},
{"state":"Barcelona","name":"Monistrol de Montserrat","lat":"41.61667000","lon":"1.85000000"},
{"state":"Barcelona","name":"Montcada i Reixac","lat":"41.48333000","lon":"2.18333000"},
{"state":"Barcelona","name":"Montclar","lat":"0.00000000","lon":"0.00000000"},
{"state":"Barcelona","name":"Montesquiu","lat":"0.00000000","lon":"0.00000000"},
{"state":"Barcelona","name":"Montgat","lat":"41.46859000","lon":"2.28001000"},
{"state":"Barcelona","name":"Montmajor","lat":"0.00000000","lon":"0.00000000"},
{"state":"Barcelona","name":"Montmaneu","lat":"0.00000000","lon":"0.00000000"},
{"state":"Barcelona","name":"Montmeló","lat":"41.55002000","lon":"2.24190000"},
{"state":"Barcelona","name":"Montornès del Vallès","lat":"41.54206000","lon":"2.26748000"},
{"state":"Barcelona","name":"Montseny","lat":"0.00000000","lon":"0.00000000"},
{"state":"Barcelona","name":"Muntanyola","lat":"0.00000000","lon":"0.00000000"},
{"state":"Barcelona","name":"Mura","lat":"41.69943000","lon":"1.97612000"},
{"state":"Barcelona","name":"Navarcles","lat":"41.75171000","lon":"1.90357000"},
{"state":"Barcelona","name":"Navas","lat":"41.41803000","lon":"2.18596000"},
{"state":"Barcelona","name":"Nou de Berguedà La","lat":"0.00000000","lon":"0.00000000"},
{"state":"Barcelona","name":"Òdena","lat":"41.60000000","lon":"1.65000000"},
{"state":"Barcelona","name":"Olèrdola","lat":"0.00000000","lon":"0.00000000"},
{"state":"Barcelona","name":"Olesa de Bonesvalls","lat":"41.35435000","lon":"1.84907000"},
{"state":"Barcelona","name":"Olesa de Montserrat","lat":"41.54372000","lon":"1.89407000"},
{"state":"Barcelona","name":"Olivella","lat":"41.31667000","lon":"1.81667000"},
{"state":"Barcelona","name":"Olost","lat":"41.98540000","lon":"2.09457000"},
{"state":"Barcelona","name":"Olvan","lat":"0.00000000","lon":"0.00000000"},
{"state":"Barcelona","name":"Orís","lat":"42.05967000","lon":"2.22066000"},
{"state":"Barcelona","name":"Oristà","lat":"41.93333000","lon":"2.06667000"},
{"state":"Barcelona","name":"Orpí","lat":"41.51870000","lon":"1.57536000"},
{"state":"Barcelona","name":"Òrrius","lat":"41.55000000","lon":"2.35000000"},
{"state":"Barcelona","name":"Pacs del Penedès","lat":"0.00000000","lon":"0.00000000"},
{"state":"Barcelona","name":"Palafolls","lat":"0.00000000","lon":"0.00000000"},
{"state":"Barcelona","name":"Palau-solità i Plegamans","lat":"0.00000000","lon":"0.00000000"},
{"state":"Barcelona","name":"Pallejà","lat":"41.42394000","lon":"1.99505000"},
{"state":"Barcelona","name":"Palma de Cervelló La","lat":"0.00000000","lon":"0.00000000"},
{"state":"Barcelona","name":"Papiol El","lat":"0.00000000","lon":"0.00000000"},
{"state":"Barcelona","name":"Parets del Vallès","lat":"41.57481000","lon":"2.23306000"},
{"state":"Barcelona","name":"Perafita","lat":"0.00000000","lon":"0.00000000"},
{"state":"Barcelona","name":"Piera","lat":"41.52232000","lon":"1.75076000"},
{"state":"Barcelona","name":"Pineda de Mar","lat":"41.62763000","lon":"2.68890000"},
{"state":"Barcelona","name":"Pla del Penedès El","lat":"0.00000000","lon":"0.00000000"},
{"state":"Barcelona","name":"Pobla de Claramunt La","lat":"0.00000000","lon":"0.00000000"},
{"state":"Barcelona","name":"Pobla de Lillet La","lat":"0.00000000","lon":"0.00000000"},
{"state":"Barcelona","name":"Polinyà","lat":"41.55000000","lon":"2.15000000"},
{"state":"Barcelona","name":"Pont de Vilomara i Rocafort El","lat":"0.00000000","lon":"0.00000000"},
{"state":"Barcelona","name":"Pontons","lat":"0.00000000","lon":"0.00000000"},
{"state":"Barcelona","name":"Prat de Llobregat El","lat":"0.00000000","lon":"0.00000000"},
{"state":"Barcelona","name":"Prats de Lluçanès","lat":"0.00000000","lon":"0.00000000"},
{"state":"Barcelona","name":"Prats de Rei Els","lat":"0.00000000","lon":"0.00000000"},
{"state":"Barcelona","name":"Premià de Dalt","lat":"0.00000000","lon":"0.00000000"},
{"state":"Barcelona","name":"Premià de Mar","lat":"41.49206000","lon":"2.36524000"},
{"state":"Barcelona","name":"Puig-reig","lat":"0.00000000","lon":"0.00000000"},
{"state":"Barcelona","name":"Puigdàlber","lat":"0.00000000","lon":"0.00000000"},
{"state":"Barcelona","name":"Pujalt","lat":"41.71710000","lon":"1.42088000"},
{"state":"Barcelona","name":"Quar La","lat":"0.00000000","lon":"0.00000000"},
{"state":"Barcelona","name":"Rajadell","lat":"41.72802000","lon":"1.70621000"},
{"state":"Barcelona","name":"Rellinars","lat":"0.00000000","lon":"0.00000000"},
{"state":"Barcelona","name":"Ripollet","lat":"41.49686000","lon":"2.15739000"},
{"state":"Barcelona","name":"Roca del Vallès La","lat":"0.00000000","lon":"0.00000000"},
{"state":"Barcelona","name":"Roda de Ter","lat":"0.00000000","lon":"0.00000000"},
{"state":"Barcelona","name":"Rubí","lat":"41.49226000","lon":"2.03305000"},
{"state":"Barcelona","name":"Rubió","lat":"0.00000000","lon":"0.00000000"},
{"state":"Barcelona","name":"Rupit i Pruit","lat":"0.00000000","lon":"0.00000000"},
{"state":"Barcelona","name":"Sabadell","lat":"41.54329000","lon":"2.10942000"},
{"state":"Barcelona","name":"Sagàs","lat":"42.05000000","lon":"1.96667000"},
{"state":"Barcelona","name":"Saldes","lat":"0.00000000","lon":"0.00000000"},
{"state":"Barcelona","name":"Sallent","lat":"41.82602000","lon":"1.89550000"},
{"state":"Barcelona","name":"Sant Adrià de Besòs","lat":"41.43073000","lon":"2.21855000"},
{"state":"Barcelona","name":"Sant Agustí de Lluçanès","lat":"0.00000000","lon":"0.00000000"},
{"state":"Barcelona","name":"Sant Andreu de la Barca","lat":"41.44659000","lon":"1.97187000"},
{"state":"Barcelona","name":"Sant Andreu de Llavaneres","lat":"41.56667000","lon":"2.48333000"},
{"state":"Barcelona","name":"Sant Antoni de Vilamajor","lat":"0.00000000","lon":"0.00000000"},
{"state":"Barcelona","name":"Sant Bartomeu del Grau","lat":"0.00000000","lon":"0.00000000"},
{"state":"Barcelona","name":"Sant Boi de Llobregat","lat":"41.34357000","lon":"2.03659000"},
{"state":"Barcelona","name":"Sant Boi de Lluçanès","lat":"0.00000000","lon":"0.00000000"},
{"state":"Barcelona","name":"Sant Cebrià de Vallalta","lat":"0.00000000","lon":"0.00000000"},
{"state":"Barcelona","name":"Sant Celoni","lat":"41.68921000","lon":"2.48965000"},
{"state":"Barcelona","name":"Sant Climent de Llobregat","lat":"0.00000000","lon":"0.00000000"},
{"state":"Barcelona","name":"Sant Cugat del Vallès","lat":"41.47063000","lon":"2.08611000"},
{"state":"Barcelona","name":"Sant Cugat Sesgarrigues","lat":"0.00000000","lon":"0.00000000"},
{"state":"Barcelona","name":"Sant Esteve de Palautordera","lat":"0.00000000","lon":"0.00000000"},
{"state":"Barcelona","name":"Sant Esteve Sesrovires","lat":"0.00000000","lon":"0.00000000"},
{"state":"Barcelona","name":"Sant Feliu de Codines","lat":"0.00000000","lon":"0.00000000"},
{"state":"Barcelona","name":"Sant Feliu de Llobregat","lat":"41.38333000","lon":"2.05000000"},
{"state":"Barcelona","name":"Sant Feliu Sasserra","lat":"0.00000000","lon":"0.00000000"},
{"state":"Barcelona","name":"Sant Fost de Campsentelles","lat":"0.00000000","lon":"0.00000000"},
{"state":"Barcelona","name":"Sant Fruitós de Bages","lat":"0.00000000","lon":"0.00000000"},
{"state":"Barcelona","name":"Sant Hipòlit de Voltregà","lat":"0.00000000","lon":"0.00000000"},
{"state":"Barcelona","name":"Sant Iscle de Vallalta","lat":"0.00000000","lon":"0.00000000"},
{"state":"Barcelona","name":"Sant Jaume de Frontanyà","lat":"0.00000000","lon":"0.00000000"},
{"state":"Barcelona","name":"Sant Joan de Vilatorrada","lat":"41.74549000","lon":"1.80476000"},
{"state":"Barcelona","name":"Sant Joan Despí","lat":"41.36718000","lon":"2.05740000"},
{"state":"Barcelona","name":"Sant Julià de Cerdanyola","lat":"42.22350000","lon":"1.89308000"},
{"state":"Barcelona","name":"Sant Julià de Vilatorta","lat":"0.00000000","lon":"0.00000000"},
{"state":"Barcelona","name":"Sant Just Desvern","lat":"41.38389000","lon":"2.06758000"},
{"state":"Barcelona","name":"Sant Llorenç dHortons","lat":"0.00000000","lon":"0.00000000"},
{"state":"Barcelona","name":"Sant Llorenç Savall","lat":"0.00000000","lon":"0.00000000"},
{"state":"Barcelona","name":"Sant Martí dAlbars","lat":"0.00000000","lon":"0.00000000"},
{"state":"Barcelona","name":"Sant Martí de Centelles","lat":"41.76617000","lon":"2.20566000"},
{"state":"Barcelona","name":"Sant Martí de Tous","lat":"41.55000000","lon":"1.51667000"},
{"state":"Barcelona","name":"Sant Martí Sarroca","lat":"41.38576000","lon":"1.61121000"},
{"state":"Barcelona","name":"Sant Martí Sesgueioles","lat":"0.00000000","lon":"0.00000000"},
{"state":"Barcelona","name":"Sant Mateu de Bages","lat":"0.00000000","lon":"0.00000000"},
{"state":"Barcelona","name":"Sant Pere de Ribes","lat":"41.26045000","lon":"1.77391000"},
{"state":"Barcelona","name":"Sant Pere de Riudebitlles","lat":"41.45000000","lon":"1.70000000"},
{"state":"Barcelona","name":"Sant Pere de Torelló","lat":"0.00000000","lon":"0.00000000"},
{"state":"Barcelona","name":"Sant Pere de Vilamajor","lat":"0.00000000","lon":"0.00000000"},
{"state":"Barcelona","name":"Sant Pere Sallavinera","lat":"0.00000000","lon":"0.00000000"},
{"state":"Barcelona","name":"Sant Pol de Mar","lat":"41.60177000","lon":"2.61741000"},
{"state":"Barcelona","name":"Sant Quintí de Mediona","lat":"0.00000000","lon":"0.00000000"},
{"state":"Barcelona","name":"Sant Quirze de Besora","lat":"0.00000000","lon":"0.00000000"},
{"state":"Barcelona","name":"Sant Quirze del Vallès","lat":"41.53333000","lon":"2.08333000"},
{"state":"Barcelona","name":"Sant Quirze Safaja","lat":"0.00000000","lon":"0.00000000"},
{"state":"Barcelona","name":"Sant Sadurní dAnoia","lat":"0.00000000","lon":"0.00000000"},
{"state":"Barcelona","name":"Sant Sadurní dOsormort","lat":"0.00000000","lon":"0.00000000"},
{"state":"Barcelona","name":"Sant Salvador de Guardiola","lat":"41.68333000","lon":"1.76667000"},
{"state":"Barcelona","name":"Sant Vicenç de Castellet","lat":"41.66667000","lon":"1.86667000"},
{"state":"Barcelona","name":"Sant Vicenç de Montalt","lat":"41.57853000","lon":"2.50879000"},
{"state":"Barcelona","name":"Sant Vicenç de Torelló","lat":"0.00000000","lon":"0.00000000"},
{"state":"Barcelona","name":"Sant Vicenç dels Horts","lat":"41.39317000","lon":"2.00689000"},
{"state":"Barcelona","name":"Santa Cecília de Voltregà","lat":"42.00000000","lon":"2.23333000"},