[{"state":"Addis Ababa","name":"Addis Ababa","lat":"9.02497000","lon":"38.74689000"},
{"state":"Afar Region","name":"Administrative Zone 2","lat":"13.68513000","lon":"40.05615000"},
{"state":"Afar Region","name":"Administrative Zone 3","lat":"10.00902000","lon":"40.47394000"},
{"state":"Afar Region","name":"Asaita","lat":"11.56838000","lon":"41.43869000"},
{"state":"Afar Region","name":"Āwash","lat":"8.98333000","lon":"40.16667000"},
{"state":"Afar Region","name":"Dubti","lat":"11.73292000","lon":"41.08200000"},
{"state":"Afar Region","name":"Gewanē","lat":"10.16658000","lon":"40.64689000"},
{"state":"Afar Region","name":"Semera","lat":"11.79342000","lon":"41.00578000"},
{"state":"Amhara Region","name":"Abomsa","lat":"9.98333000","lon":"39.98333000"},
{"state":"Amhara Region","name":"Addiet Canna","lat":"11.26667000","lon":"37.48333000"},
{"state":"Amhara Region","name":"Ādīs Zemen","lat":"12.11667000","lon":"37.78333000"},
{"state":"Amhara Region","name":"Bahir Dar","lat":"11.59364000","lon":"37.39077000"},
{"state":"Amhara Region","name":"Batī","lat":"11.19152000","lon":"40.01675000"},
{"state":"Amhara Region","name":"Bichena","lat":"10.45000000","lon":"38.20000000"},
{"state":"Amhara Region","name":"Burē","lat":"10.70000000","lon":"37.06667000"},
{"state":"Amhara Region","name":"Dabat","lat":"12.98417000","lon":"37.76500000"},
{"state":"Amhara Region","name":"Debark’","lat":"13.15611000","lon":"37.89806000"},
{"state":"Amhara Region","name":"Debre Birhan","lat":"9.67954000","lon":"39.53262000"},
{"state":"Amhara Region","name":"Debre Mark’os","lat":"10.35000000","lon":"37.73333000"},
{"state":"Amhara Region","name":"Debre Sīna","lat":"9.84752000","lon":"39.76027000"},
{"state":"Amhara Region","name":"Debre Tabor","lat":"11.85000000","lon":"38.01667000"},
{"state":"Amhara Region","name":"Debre Werk’","lat":"10.66667000","lon":"38.16667000"},
{"state":"Amhara Region","name":"Dejen","lat":"10.16667000","lon":"38.13333000"},
{"state":"Amhara Region","name":"Desē","lat":"11.13333000","lon":"39.63333000"},
{"state":"Amhara Region","name":"Finote Selam","lat":"10.70000000","lon":"37.26667000"},
{"state":"Amhara Region","name":"Gondar","lat":"12.60000000","lon":"37.46667000"},
{"state":"Amhara Region","name":"Kemisē","lat":"10.71668000","lon":"39.86997000"},
{"state":"Amhara Region","name":"Kombolcha","lat":"11.08155000","lon":"39.74339000"},
{"state":"Amhara Region","name":"Lalībela","lat":"12.03219000","lon":"39.04756000"},
{"state":"Amhara Region","name":"North Shewa Zone","lat":"9.76900000","lon":"39.66800000"},
{"state":"Amhara Region","name":"North Wollo Zone","lat":"11.92000000","lon":"39.10000000"},
{"state":"Amhara Region","name":"Robīt","lat":"12.01667000","lon":"39.63333000"},
{"state":"Amhara Region","name":"South Gondar Zone","lat":"11.83850000","lon":"38.09954000"},
{"state":"Amhara Region","name":"South Wollo Zone","lat":"11.00000000","lon":"39.25000000"},
{"state":"Amhara Region","name":"Wag Hemra Zone","lat":"12.76500000","lon":"38.84300000"},
{"state":"Amhara Region","name":"Were Īlu","lat":"10.58964000","lon":"39.43767000"},
{"state":"Amhara Region","name":"Werota","lat":"11.91667000","lon":"37.70000000"},
{"state":"Benishangul-Gumuz Region","name":"Asosa","lat":"10.00000000","lon":"34.50000000"},
{"state":"Benishangul-Gumuz Region","name":"Metekel","lat":"10.42673000","lon":"35.71975000"},
{"state":"Dire Dawa","name":"Dire Dawa","lat":"9.59306000","lon":"41.86611000"},
{"state":"Gambela Region","name":"Administrative Zone 1","lat":"8.14699000","lon":"33.97335000"},
{"state":"Gambela Region","name":"Gambēla","lat":"8.25000000","lon":"34.58333000"},
{"state":"Harari Region","name":"Harar","lat":"9.31387000","lon":"42.11815000"},
{"state":"Oromia Region","name":"Ādīs ‘Alem","lat":"9.03333000","lon":"38.40000000"},
{"state":"Oromia Region","name":"Āgaro","lat":"7.85000000","lon":"36.65000000"},
{"state":"Oromia Region","name":"Arsi Zone","lat":"7.50000000","lon":"39.50000000"},
{"state":"Oromia Region","name":"Āsasa","lat":"7.10000000","lon":"39.20000000"},
{"state":"Oromia Region","name":"Āsbe Teferī","lat":"9.08569000","lon":"40.86708000"},
{"state":"Oromia Region","name":"Bedelē","lat":"8.45600000","lon":"36.35302000"},
{"state":"Oromia Region","name":"Bedēsa","lat":"8.90000000","lon":"40.78333000"},
{"state":"Oromia Region","name":"Bishoftu","lat":"8.75225000","lon":"38.97846000"},
{"state":"Oromia Region","name":"Deder","lat":"9.31168000","lon":"41.44301000"},
{"state":"Oromia Region","name":"Dembī Dolo","lat":"8.53333000","lon":"34.80000000"},
{"state":"Oromia Region","name":"Dodola","lat":"6.98333000","lon":"39.18333000"},
{"state":"Oromia Region","name":"East Harerghe Zone","lat":"8.70114000","lon":"42.00241000"},
{"state":"Oromia Region","name":"East Shewa Zone","lat":"8.21353000","lon":"38.84809000"},
{"state":"Oromia Region","name":"East Wellega Zone","lat":"9.51928000","lon":"36.75762000"},
{"state":"Oromia Region","name":"Fichē","lat":"9.80000000","lon":"38.73333000"},
{"state":"Oromia Region","name":"Gebre Guracha","lat":"9.80000000","lon":"38.40000000"},
{"state":"Oromia Region","name":"Gēdo","lat":"9.01667000","lon":"37.45000000"},
{"state":"Oromia Region","name":"Gelemso","lat":"8.81667000","lon":"40.51667000"},
{"state":"Oromia Region","name":"Genet","lat":"9.06667000","lon":"38.50000000"},
{"state":"Oromia Region","name":"Gimbi","lat":"9.17031000","lon":"35.83491000"},
{"state":"Oromia Region","name":"Ginir","lat":"7.13952000","lon":"40.71083000"},
{"state":"Oromia Region","name":"Goba","lat":"7.01667000","lon":"39.98333000"},
{"state":"Oromia Region","name":"Gorē","lat":"8.15000000","lon":"35.53333000"},
{"state":"Oromia Region","name":"Guji Zone","lat":"5.58800000","lon":"39.06700000"},
{"state":"Oromia Region","name":"Hāgere Hiywet","lat":"8.98333000","lon":"37.85000000"},
{"state":"Oromia Region","name":"Hagere Maryam","lat":"5.63418000","lon":"38.23603000"},
{"state":"Oromia Region","name":"Hīrna","lat":"9.21667000","lon":"41.10000000"},
{"state":"Oromia Region","name":"Huruta","lat":"8.15000000","lon":"39.35000000"},
{"state":"Oromia Region","name":"Illubabor Zone","lat":"8.27526000","lon":"35.75596000"},
{"state":"Oromia Region","name":"Jimma","lat":"7.67344000","lon":"36.83441000"},
{"state":"Oromia Region","name":"Jimma Zone","lat":"7.66667000","lon":"37.00000000"},
{"state":"Oromia Region","name":"Kibre Mengist","lat":"5.88333000","lon":"38.98333000"},
{"state":"Oromia Region","name":"Kofelē","lat":"7.06667000","lon":"38.78333000"},
{"state":"Oromia Region","name":"Mēga","lat":"4.05000000","lon":"38.30000000"},
{"state":"Oromia Region","name":"Mendī","lat":"9.80000000","lon":"35.10000000"},
{"state":"Oromia Region","name":"Metahāra","lat":"8.90000000","lon":"39.91667000"},
{"state":"Oromia Region","name":"Metu","lat":"8.30000000","lon":"35.58333000"},
{"state":"Oromia Region","name":"Mojo","lat":"8.58679000","lon":"39.12111000"},
{"state":"Oromia Region","name":"Nazrēt","lat":"8.55000000","lon":"39.26667000"},
{"state":"Oromia Region","name":"Nejo","lat":"9.50000000","lon":"35.50000000"},
{"state":"Oromia Region","name":"North Shewa Zone","lat":"9.66915000","lon":"38.81240000"},
{"state":"Oromia Region","name":"Sebeta","lat":"8.91667000","lon":"38.61667000"},
{"state":"Oromia Region","name":"Sendafa","lat":"9.15203000","lon":"39.02335000"},
{"state":"Oromia Region","name":"Shakiso","lat":"5.76494000","lon":"38.91006000"},
{"state":"Oromia Region","name":"Shambu","lat":"9.56667000","lon":"37.10000000"},
{"state":"Oromia Region","name":"Shashemenē","lat":"7.20000000","lon":"38.60000000"},
{"state":"Oromia Region","name":"Sirre","lat":"8.31667000","lon":"39.48333000"},
{"state":"Oromia Region","name":"Tulu Bolo","lat":"8.66667000","lon":"38.21667000"},
{"state":"Oromia Region","name":"Waliso","lat":"8.53417000","lon":"37.96515000"},
{"state":"Oromia Region","name":"Wenjī","lat":"8.45000000","lon":"39.28333000"},
{"state":"Oromia Region","name":"West Harerghe Zone","lat":"8.67245000","lon":"40.84885000"},
{"state":"Oromia Region","name":"West Wellega Zone","lat":"9.17283000","lon":"35.05279000"},
{"state":"Oromia Region","name":"Yabēlo","lat":"4.88333000","lon":"38.08333000"},
{"state":"Oromia Region","name":"Ziway","lat":"7.93333000","lon":"38.71667000"},
{"state":"Somali Region","name":"Afder Zone","lat":"5.25000000","lon":"43.00000000"},
{"state":"Somali Region","name":"Degehabur Zone","lat":"8.25000000","lon":"43.75000000"},
{"state":"Somali Region","name":"Gode Zone","lat":"6.00000000","lon":"43.75000000"},
{"state":"Somali Region","name":"Jijiga","lat":"9.35000000","lon":"42.80000000"},
{"state":"Somali Region","name":"Liben zone","lat":"4.75000000","lon":"40.50000000"},
{"state":"Somali Region","name":"Shinile Zone","lat":"10.17097000","lon":"41.83748000"},
{"state":"Southern Nations, Nationalities, and Peoples' Region","name":"Alaba Special Wereda","lat":"7.45347000","lon":"38.21189000"},
{"state":"Southern Nations, Nationalities, and Peoples' Region","name":"Arba Minch","lat":"6.03333000","lon":"37.55000000"},
{"state":"Southern Nations, Nationalities, and Peoples' Region","name":"Āreka","lat":"7.06667000","lon":"37.70000000"},
{"state":"Southern Nations, Nationalities, and Peoples' Region","name":"Bako","lat":"5.78333000","lon":"36.56667000"},
{"state":"Southern Nations, Nationalities, and Peoples' Region","name":"Bench Maji Zone","lat":"6.45994000","lon":"35.30549000"},
{"state":"Southern Nations, Nationalities, and Peoples' Region","name":"Bodītī","lat":"6.96667000","lon":"37.86667000"},
{"state":"Southern Nations, Nationalities, and Peoples' Region","name":"Bonga","lat":"7.28333000","lon":"36.23333000"},
{"state":"Southern Nations, Nationalities, and Peoples' Region","name":"Butajīra","lat":"8.11667000","lon":"38.36667000"},
{"state":"Southern Nations, Nationalities, and Peoples' Region","name":"Dīla","lat":"6.41667000","lon":"38.31667000"},
{"state":"Southern Nations, Nationalities, and Peoples' Region","name":"Felege Neway","lat":"6.30000000","lon":"36.88333000"},
{"state":"Southern Nations, Nationalities, and Peoples' Region","name":"Gedeo Zone","lat":"6.12727000","lon":"38.27716000"},
{"state":"Southern Nations, Nationalities, and Peoples' Region","name":"Gīdolē","lat":"5.65000000","lon":"37.36667000"},
{"state":"Southern Nations, Nationalities, and Peoples' Region","name":"Guraghe Zone","lat":"8.25000000","lon":"38.00000000"},
{"state":"Southern Nations, Nationalities, and Peoples' Region","name":"Hadiya Zone","lat":"7.50000000","lon":"37.75000000"},
{"state":"Southern Nations, Nationalities, and Peoples' Region","name":"Hāgere Selam","lat":"6.48333000","lon":"38.51667000"},
{"state":"Southern Nations, Nationalities, and Peoples' Region","name":"Hawassa","lat":"7.06205000","lon":"38.47635000"},
{"state":"Southern Nations, Nationalities, and Peoples' Region","name":"Hosa’ina","lat":"7.54978000","lon":"37.85374000"},
{"state":"Southern Nations, Nationalities, and Peoples' Region","name":"Jinka","lat":"5.65000000","lon":"36.65000000"},
{"state":"Southern Nations, Nationalities, and Peoples' Region","name":"K’olīto","lat":"7.31667000","lon":"38.08333000"},
{"state":"Southern Nations, Nationalities, and Peoples' Region","name":"Kembata Alaba Tembaro Zone","lat":"7.27039000","lon":"37.77887000"},
{"state":"Southern Nations, Nationalities, and Peoples' Region","name":"Konso","lat":"5.25000000","lon":"37.48333000"},
{"state":"Southern Nations, Nationalities, and Peoples' Region","name":"Leku","lat":"6.87309000","lon":"38.44425000"},
{"state":"Southern Nations, Nationalities, and Peoples' Region","name":"Lobuni","lat":"4.83333000","lon":"36.10000000"},
{"state":"Southern Nations, Nationalities, and Peoples' Region","name":"Mīzan Teferī","lat":"6.99865000","lon":"35.58879000"},
{"state":"Southern Nations, Nationalities, and Peoples' Region","name":"Sheka Zone","lat":"7.56166000","lon":"35.40174000"},
{"state":"Southern Nations, Nationalities, and Peoples' Region","name":"Sidama Zone","lat":"6.71800000","lon":"38.44800000"},
{"state":"Southern Nations, Nationalities, and Peoples' Region","name":"Sodo","lat":"6.86000000","lon":"37.76159000"},
{"state":"Southern Nations, Nationalities, and Peoples' Region","name":"Tippi","lat":"7.20000000","lon":"35.45000000"},
{"state":"Southern Nations, Nationalities, and Peoples' Region","name":"Turmi","lat":"4.96667000","lon":"36.48333000"},
{"state":"Southern Nations, Nationalities, and Peoples' Region","name":"Wendo","lat":"6.60000000","lon":"38.41667000"},
{"state":"Southern Nations, Nationalities, and Peoples' Region","name":"Wolayita Zone","lat":"6.84312000","lon":"37.70051000"},
{"state":"Southern Nations, Nationalities, and Peoples' Region","name":"Yem","lat":"7.83333000","lon":"37.50000000"},
{"state":"Southern Nations, Nationalities, and Peoples' Region","name":"Yirga ‘Alem","lat":"6.75000000","lon":"38.41667000"},
{"state":"Tigray Region","name":"Ādīgrat","lat":"14.27700000","lon":"39.46200000"},
{"state":"Tigray Region","name":"Axum","lat":"14.12109000","lon":"38.72337000"},
{"state":"Tigray Region","name":"Inda Silasē","lat":"14.10307000","lon":"38.28289000"},
{"state":"Tigray Region","name":"Korem","lat":"12.50583000","lon":"39.52278000"},
{"state":"Tigray Region","name":"Maych’ew","lat":"12.78750000","lon":"39.54222000"},
{"state":"Tigray Region","name":"Mek'ele","lat":"13.49667000","lon":"39.47528000"},
{"state":"Tigray Region","name":"Southeastern Tigray Zone","lat":"13.24797000","lon":"39.53156000"},
{"state":"Tigray Region","name":"Southern Tigray Zone","lat":"12.96033000","lon":"39.52831000"}]