[{"state":"Central Finland","name":"Äänekoski","lat":"62.60000000","lon":"25.73333000"},
{"state":"Central Finland","name":"Hankasalmi","lat":"62.38333000","lon":"26.43333000"},
{"state":"Central Finland","name":"Jämsä","lat":"61.86420000","lon":"25.19002000"},
{"state":"Central Finland","name":"Jämsänkoski","lat":"61.91900000","lon":"25.17011000"},
{"state":"Central Finland","name":"Joutsa","lat":"61.73333000","lon":"26.11667000"},
{"state":"Central Finland","name":"Jyväskylä","lat":"62.24147000","lon":"25.72088000"},
{"state":"Central Finland","name":"Kannonkoski","lat":"62.96667000","lon":"25.25000000"},
{"state":"Central Finland","name":"Karstula","lat":"62.86667000","lon":"24.78333000"},
{"state":"Central Finland","name":"Keuruu","lat":"62.26667000","lon":"24.70000000"},
{"state":"Central Finland","name":"Kinnula","lat":"63.38333000","lon":"24.95000000"},
{"state":"Central Finland","name":"Kivijärvi","lat":"63.11984000","lon":"25.07835000"},
{"state":"Central Finland","name":"Konnevesi","lat":"62.61667000","lon":"26.31667000"},
{"state":"Central Finland","name":"Korpilahti","lat":"62.01667000","lon":"25.55000000"},
{"state":"Central Finland","name":"Kuhmoinen","lat":"61.56667000","lon":"25.18333000"},
{"state":"Central Finland","name":"Kyyjärvi","lat":"63.03333000","lon":"24.56667000"},
{"state":"Central Finland","name":"Laukaa","lat":"62.41407000","lon":"25.95194000"},
{"state":"Central Finland","name":"Leivonmäki","lat":"61.91198000","lon":"26.12796000"},
{"state":"Central Finland","name":"Luhanka","lat":"61.79682000","lon":"25.70457000"},
{"state":"Central Finland","name":"Multia","lat":"62.41667000","lon":"24.78333000"},
{"state":"Central Finland","name":"Muurame","lat":"62.13333000","lon":"25.66667000"},
{"state":"Central Finland","name":"Petäjävesi","lat":"62.25000000","lon":"25.20000000"},
{"state":"Central Finland","name":"Pihtipudas","lat":"63.38333000","lon":"25.56667000"},
{"state":"Central Finland","name":"Pylkönmäki","lat":"62.66667000","lon":"24.80000000"},
{"state":"Central Finland","name":"Saarijärvi","lat":"62.70486000","lon":"25.25396000"},
{"state":"Central Finland","name":"Säynätsalo","lat":"62.14025000","lon":"25.76948000"},
{"state":"Central Finland","name":"Sumiainen","lat":"62.65736000","lon":"26.04642000"},
{"state":"Central Finland","name":"Suolahti","lat":"62.56421000","lon":"25.85363000"},
{"state":"Central Finland","name":"Toivakka","lat":"62.10000000","lon":"26.08333000"},
{"state":"Central Finland","name":"Uurainen","lat":"62.50000000","lon":"25.45000000"},
{"state":"Central Finland","name":"Viitasaari","lat":"63.06667000","lon":"25.86667000"},
{"state":"Central Ostrobothnia","name":"Halsua","lat":"63.46667000","lon":"24.16667000"},
{"state":"Central Ostrobothnia","name":"Kälviä","lat":"63.86067000","lon":"23.45289000"},
{"state":"Central Ostrobothnia","name":"Kannus","lat":"63.90000000","lon":"23.90000000"},
{"state":"Central Ostrobothnia","name":"Kaustinen","lat":"63.54878000","lon":"23.68845000"},
{"state":"Central Ostrobothnia","name":"Kokkola","lat":"63.85414000","lon":"23.58562000"},
{"state":"Central Ostrobothnia","name":"Lestijärvi","lat":"63.53333000","lon":"24.65000000"},
{"state":"Central Ostrobothnia","name":"Lohtaja","lat":"64.02472000","lon":"23.50482000"},
{"state":"Central Ostrobothnia","name":"Perho","lat":"63.21667000","lon":"24.41667000"},
{"state":"Central Ostrobothnia","name":"Toholampi","lat":"63.76667000","lon":"24.25000000"},
{"state":"Central Ostrobothnia","name":"Ullava","lat":"63.60000000","lon":"24.08333000"},
{"state":"Central Ostrobothnia","name":"Veteli","lat":"63.47839000","lon":"23.78285000"},
{"state":"Finland Proper","name":"Alastaro","lat":"60.95000000","lon":"22.85000000"},
{"state":"Finland Proper","name":"Askainen","lat":"60.56667000","lon":"21.86667000"},
{"state":"Finland Proper","name":"Aura","lat":"60.64710000","lon":"22.58755000"},
{"state":"Finland Proper","name":"Dragsfjärd","lat":"60.06667000","lon":"22.48333000"},
{"state":"Finland Proper","name":"Halikko","lat":"60.40000000","lon":"23.08333000"},
{"state":"Finland Proper","name":"Houtskär","lat":"60.22284000","lon":"21.37218000"},
{"state":"Finland Proper","name":"Iniö","lat":"60.40000000","lon":"21.40000000"},
{"state":"Finland Proper","name":"Kaarina","lat":"60.40724000","lon":"22.36904000"},
{"state":"Finland Proper","name":"Karinainen","lat":"60.66667000","lon":"22.76667000"},
{"state":"Finland Proper","name":"Kiikala","lat":"60.46667000","lon":"23.56667000"},
{"state":"Finland Proper","name":"Kimito","lat":"60.16047000","lon":"22.72900000"},
{"state":"Finland Proper","name":"Kisko","lat":"60.23333000","lon":"23.48333000"},
{"state":"Finland Proper","name":"Kustavi","lat":"60.54529000","lon":"21.35880000"},
{"state":"Finland Proper","name":"Kuusjoki","lat":"60.51667000","lon":"23.20000000"},
{"state":"Finland Proper","name":"Laitila","lat":"60.87575000","lon":"21.69765000"},
{"state":"Finland Proper","name":"Lemu","lat":"60.56667000","lon":"21.96667000"},
{"state":"Finland Proper","name":"Lieto","lat":"60.51032000","lon":"22.46176000"},
{"state":"Finland Proper","name":"Marttila","lat":"60.58333000","lon":"22.90000000"},
{"state":"Finland Proper","name":"Masku","lat":"60.57082000","lon":"22.09883000"},
{"state":"Finland Proper","name":"Mellilä","lat":"60.76667000","lon":"22.95000000"},
{"state":"Finland Proper","name":"Merimasku","lat":"60.48333000","lon":"21.86667000"},
{"state":"Finland Proper","name":"Mietoinen","lat":"60.63333000","lon":"21.93333000"},
{"state":"Finland Proper","name":"Muurla","lat":"60.35000000","lon":"23.28333000"},
{"state":"Finland Proper","name":"Mynämäki","lat":"60.67915000","lon":"21.99274000"},
{"state":"Finland Proper","name":"Naantali","lat":"60.46744000","lon":"22.02428000"},
{"state":"Finland Proper","name":"Nagu","lat":"60.19375000","lon":"21.90972000"},
{"state":"Finland Proper","name":"Nousiainen","lat":"60.60416000","lon":"22.07926000"},
{"state":"Finland Proper","name":"Oripää","lat":"60.85000000","lon":"22.68333000"},
{"state":"Finland Proper","name":"Paimio","lat":"60.45671000","lon":"22.68694000"},
{"state":"Finland Proper","name":"Pargas","lat":"60.30672000","lon":"22.30097000"},
{"state":"Finland Proper","name":"Perniö","lat":"60.20000000","lon":"23.13333000"},
{"state":"Finland Proper","name":"Pertteli","lat":"60.43333000","lon":"23.26667000"},
{"state":"Finland Proper","name":"Piikkiö","lat":"60.42481000","lon":"22.51601000"},
{"state":"Finland Proper","name":"Pöytyä","lat":"60.76667000","lon":"22.66667000"},
{"state":"Finland Proper","name":"Pyhäranta","lat":"60.95000000","lon":"21.45000000"},
{"state":"Finland Proper","name":"Raisio","lat":"60.48592000","lon":"22.16895000"},
{"state":"Finland Proper","name":"Rusko","lat":"60.53333000","lon":"22.21667000"},
{"state":"Finland Proper","name":"Rymättylä","lat":"60.37658000","lon":"21.94184000"},
{"state":"Finland Proper","name":"Salo","lat":"60.38333000","lon":"23.13333000"},
{"state":"Finland Proper","name":"Särkisalo","lat":"60.11389000","lon":"22.95000000"},
{"state":"Finland Proper","name":"Sauvo","lat":"60.34306000","lon":"22.69642000"},
{"state":"Finland Proper","name":"Somero","lat":"60.61667000","lon":"23.53333000"},
{"state":"Finland Proper","name":"Suomusjärvi","lat":"60.35000000","lon":"23.65000000"},
{"state":"Finland Proper","name":"Taivassalo","lat":"60.56085000","lon":"21.61639000"},
{"state":"Finland Proper","name":"Tarvasjoki","lat":"60.58333000","lon":"22.73333000"},
{"state":"Finland Proper","name":"Turku","lat":"60.45148000","lon":"22.26869000"},
{"state":"Finland Proper","name":"Uusikaupunki","lat":"60.80043000","lon":"21.40841000"},
{"state":"Finland Proper","name":"Vahto","lat":"60.60000000","lon":"22.30000000"},
{"state":"Finland Proper","name":"Väståboland","lat":"60.29972000","lon":"22.30040000"},
{"state":"Finland Proper","name":"Västanfjärd","lat":"60.05000000","lon":"22.68333000"},
{"state":"Finland Proper","name":"Vehmaa","lat":"60.68333000","lon":"21.66667000"},
{"state":"Finland Proper","name":"Velkua","lat":"60.46667000","lon":"21.66667000"},
{"state":"Finland Proper","name":"Yläne","lat":"60.88333000","lon":"22.41667000"},
{"state":"Kainuu","name":"Hyrynsalmi","lat":"64.66667000","lon":"28.53333000"},
{"state":"Kainuu","name":"Kajaani","lat":"64.22728000","lon":"27.72846000"},
{"state":"Kainuu","name":"Kuhmo","lat":"64.13333000","lon":"29.51667000"},
{"state":"Kainuu","name":"Paltamo","lat":"64.41667000","lon":"27.83333000"},
{"state":"Kainuu","name":"Puolanka","lat":"64.86667000","lon":"27.66667000"},
{"state":"Kainuu","name":"Ristijärvi","lat":"64.50000000","lon":"28.21667000"},
{"state":"Kainuu","name":"Sotkamo","lat":"64.13333000","lon":"28.41667000"},
{"state":"Kainuu","name":"Suomussalmi","lat":"64.88685000","lon":"28.90778000"},
{"state":"Kainuu","name":"Vaala","lat":"64.56667000","lon":"26.83333000"},
{"state":"Kainuu","name":"Vuokatti","lat":"64.14466000","lon":"28.28196000"},
{"state":"Kainuu","name":"Vuolijoki","lat":"64.18538000","lon":"26.99547000"},
{"state":"Kymenlaakso","name":"Anjala","lat":"60.68333000","lon":"26.83333000"},
{"state":"Kymenlaakso","name":"Elimäki","lat":"60.71667000","lon":"26.46667000"},
{"state":"Kymenlaakso","name":"Hamina","lat":"60.56974000","lon":"27.19794000"},
{"state":"Kymenlaakso","name":"Iitti","lat":"60.89488000","lon":"26.33869000"},
{"state":"Kymenlaakso","name":"Jaala","lat":"61.05251000","lon":"26.48117000"},
{"state":"Kymenlaakso","name":"Karhula","lat":"60.52156000","lon":"26.93125000"},
{"state":"Kymenlaakso","name":"Kotka","lat":"60.46640000","lon":"26.94582000"},
{"state":"Kymenlaakso","name":"Kouvola","lat":"60.86667000","lon":"26.70000000"},
{"state":"Kymenlaakso","name":"Miehikkälä","lat":"60.66667000","lon":"27.70000000"},
{"state":"Kymenlaakso","name":"Pyhtää","lat":"60.49349000","lon":"26.54346000"},
{"state":"Kymenlaakso","name":"Virojoki","lat":"60.57940000","lon":"27.70354000"},
{"state":"Lapland","name":"Enontekiö","lat":"68.38573000","lon":"23.63215000"},
{"state":"Lapland","name":"Inari","lat":"68.90596000","lon":"27.02881000"},
{"state":"Lapland","name":"Ivalo","lat":"68.65986000","lon":"27.53891000"},
{"state":"Lapland","name":"Kemi","lat":"65.73641000","lon":"24.56371000"},
{"state":"Lapland","name":"Kemijärvi","lat":"66.71309000","lon":"27.43056000"},
{"state":"Lapland","name":"Keminmaa","lat":"65.80158000","lon":"24.54483000"},
{"state":"Lapland","name":"Kittilä","lat":"67.66474000","lon":"24.89356000"},
{"state":"Lapland","name":"Kolari","lat":"67.33047000","lon":"23.77785000"},
{"state":"Lapland","name":"Muonio","lat":"67.95000000","lon":"23.70000000"},
{"state":"Lapland","name":"Pelkosenniemi","lat":"67.11083000","lon":"27.51056000"},
{"state":"Lapland","name":"Pello","lat":"66.77364000","lon":"23.96255000"},
{"state":"Lapland","name":"Posio","lat":"66.10856000","lon":"28.17186000"},
{"state":"Lapland","name":"Pyhäjärvi","lat":"67.07010000","lon":"27.21763000"},
{"state":"Lapland","name":"Ranua","lat":"65.91667000","lon":"26.53333000"},
{"state":"Lapland","name":"Rovaniemi","lat":"66.50000000","lon":"25.71667000"},
{"state":"Lapland","name":"Salla","lat":"66.83333000","lon":"28.66667000"},
{"state":"Lapland","name":"Savukoski","lat":"67.29250000","lon":"28.15806000"},
{"state":"Lapland","name":"Simo","lat":"65.66667000","lon":"25.05000000"},
{"state":"Lapland","name":"Sodankylä","lat":"67.41667000","lon":"26.60000000"},
{"state":"Lapland","name":"Tervola","lat":"66.08333000","lon":"24.80000000"},
{"state":"Lapland","name":"Tornio","lat":"65.84811000","lon":"24.14662000"},
{"state":"Lapland","name":"Utsjoki","lat":"69.90864000","lon":"27.02843000"},
{"state":"Lapland","name":"Ylitornio","lat":"66.30893000","lon":"23.67734000"},
{"state":"North Karelia","name":"Eno","lat":"62.80511000","lon":"30.15422000"},
{"state":"North Karelia","name":"Ilomantsi","lat":"62.67162000","lon":"30.93276000"},
{"state":"North Karelia","name":"Joensuu","lat":"62.60118000","lon":"29.76316000"},
{"state":"North Karelia","name":"Juuka","lat":"63.23333000","lon":"29.25000000"},
{"state":"North Karelia","name":"Kesälahti","lat":"61.89752000","lon":"29.83494000"},
{"state":"North Karelia","name":"Kiihtelysvaara","lat":"62.49525000","lon":"30.25081000"},
{"state":"North Karelia","name":"Kitee","lat":"62.10000000","lon":"30.15000000"},
{"state":"North Karelia","name":"Kontiolahti","lat":"62.76023000","lon":"29.84711000"},
{"state":"North Karelia","name":"Lieksa","lat":"63.31667000","lon":"30.01667000"},
{"state":"North Karelia","name":"Liperi","lat":"62.53333000","lon":"29.36667000"},
{"state":"North Karelia","name":"Nurmes","lat":"63.54205000","lon":"29.13965000"},
{"state":"North Karelia","name":"Outokumpu","lat":"62.72685000","lon":"29.01592000"},
{"state":"North Karelia","name":"Polvijärvi","lat":"62.85000000","lon":"29.36667000"},
{"state":"North Karelia","name":"Pyhäselkä","lat":"62.43333000","lon":"29.96667000"},
{"state":"North Karelia","name":"Rääkkylä","lat":"62.31667000","lon":"29.61667000"},
{"state":"North Karelia","name":"Tohmajärvi","lat":"62.18333000","lon":"30.38333000"},
{"state":"North Karelia","name":"Tuupovaara","lat":"62.48372000","lon":"30.62731000"},
{"state":"North Karelia","name":"Valtimo","lat":"63.66667000","lon":"28.80000000"},
{"state":"Northern Ostrobothnia","name":"Alavieska","lat":"64.16667000","lon":"24.30000000"},
{"state":"Northern Ostrobothnia","name":"Haapajärvi","lat":"63.75000000","lon":"25.33333000"},
{"state":"Northern Ostrobothnia","name":"Haapavesi","lat":"64.13333000","lon":"25.36667000"},
{"state":"Northern Ostrobothnia","name":"Hailuoto","lat":"65.00900000","lon":"24.71385000"},
{"state":"Northern Ostrobothnia","name":"Haukipudas","lat":"65.17654000","lon":"25.35233000"},
{"state":"Northern Ostrobothnia","name":"Himanka","lat":"64.06218000","lon":"23.65447000"},
{"state":"Northern Ostrobothnia","name":"Ii","lat":"65.31735000","lon":"25.37310000"},
{"state":"Northern Ostrobothnia","name":"Kalajoki","lat":"64.25000000","lon":"23.95000000"},
{"state":"Northern Ostrobothnia","name":"Kärsämäki","lat":"63.96667000","lon":"25.76667000"},
{"state":"Northern Ostrobothnia","name":"Kempele","lat":"64.91314000","lon":"25.50339000"},
{"state":"Northern Ostrobothnia","name":"Kestilä","lat":"64.35002000","lon":"26.27921000"},
{"state":"Northern Ostrobothnia","name":"Kiiminki","lat":"65.13139000","lon":"25.79744000"},
{"state":"Northern Ostrobothnia","name":"Kuivaniemi","lat":"65.57847000","lon":"25.18814000"},
{"state":"Northern Ostrobothnia","name":"Kuusamo","lat":"65.96667000","lon":"29.18333000"},
{"state":"Northern Ostrobothnia","name":"Liminka","lat":"64.80985000","lon":"25.41545000"},
{"state":"Northern Ostrobothnia","name":"Lumijoki","lat":"64.83744000","lon":"25.18607000"},
{"state":"Northern Ostrobothnia","name":"Merijärvi","lat":"64.30000000","lon":"24.45000000"},
{"state":"Northern Ostrobothnia","name":"Muhos","lat":"64.80798000","lon":"25.99314000"},
{"state":"Northern Ostrobothnia","name":"Nivala","lat":"63.91667000","lon":"24.96667000"},
{"state":"Northern Ostrobothnia","name":"Oulainen","lat":"64.26667000","lon":"24.80000000"},
{"state":"Northern Ostrobothnia","name":"Oulu","lat":"65.01236000","lon":"25.46816000"},
{"state":"Northern Ostrobothnia","name":"Oulunsalo","lat":"64.93456000","lon":"25.41121000"},
{"state":"Northern Ostrobothnia","name":"Piippola","lat":"64.16667000","lon":"25.96667000"},
{"state":"Northern Ostrobothnia","name":"Pudasjärvi","lat":"65.38333000","lon":"26.91667000"},
{"state":"Northern Ostrobothnia","name":"Pulkkila","lat":"64.26667000","lon":"25.86667000"},
{"state":"Northern Ostrobothnia","name":"Pyhäjärvi","lat":"63.66667000","lon":"25.90000000"},
{"state":"Northern Ostrobothnia","name":"Pyhäjoki","lat":"64.46667000","lon":"24.23333000"},
{"state":"Northern Ostrobothnia","name":"Pyhäntä","lat":"64.10000000","lon":"26.31667000"},
{"state":"Northern Ostrobothnia","name":"Raahe","lat":"64.68333000","lon":"24.48333000"},
{"state":"Northern Ostrobothnia","name":"Rantsila","lat":"64.50613000","lon":"25.66449000"},
{"state":"Northern Ostrobothnia","name":"Reisjärvi","lat":"63.61667000","lon":"24.90000000"},
{"state":"Northern Ostrobothnia","name":"Ruukki","lat":"64.66667000","lon":"25.10000000"},
{"state":"Northern Ostrobothnia","name":"Sievi","lat":"63.90000000","lon":"24.50000000"},
{"state":"Northern Ostrobothnia","name":"Siikajoki","lat":"64.81455000","lon":"24.75924000"},
{"state":"Northern Ostrobothnia","name":"Taivalkoski","lat":"65.56667000","lon":"28.25000000"},
{"state":"Northern Ostrobothnia","name":"Tyrnävä","lat":"64.76469000","lon":"25.65230000"},
{"state":"Northern Ostrobothnia","name":"Utajärvi","lat":"64.75000000","lon":"26.38333000"},
{"state":"Northern Ostrobothnia","name":"Vihanti","lat":"64.48472000","lon":"24.99157000"},
{"state":"Northern Ostrobothnia","name":"Yli-Ii","lat":"65.37181000","lon":"25.84580000"},
{"state":"Northern Ostrobothnia","name":"Ylikiiminki","lat":"65.08333000","lon":"26.25000000"},
{"state":"Northern Ostrobothnia","name":"Ylivieska","lat":"64.08333000","lon":"24.55000000"},
{"state":"Ostrobothnia","name":"Hietalahti","lat":"63.08480000","lon":"21.61716000"},
{"state":"Ostrobothnia","name":"Isokyrö","lat":"63.01172000","lon":"22.33332000"},
{"state":"Ostrobothnia","name":"Jakobstad","lat":"63.67486000","lon":"22.70256000"},
{"state":"Ostrobothnia","name":"Kaskinen","lat":"62.38444000","lon":"21.22331000"},
{"state":"Ostrobothnia","name":"Korsholm","lat":"63.11418000","lon":"21.68216000"},
{"state":"Ostrobothnia","name":"Korsnäs","lat":"62.78333000","lon":"21.20000000"},
{"state":"Ostrobothnia","name":"Kristinestad","lat":"62.27429000","lon":"21.37596000"},
{"state":"Ostrobothnia","name":"Kronoby","lat":"63.72859000","lon":"23.03387000"},
{"state":"Ostrobothnia","name":"Laihia","lat":"62.97609000","lon":"22.01143000"},
{"state":"Ostrobothnia","name":"Larsmo","lat":"63.75388000","lon":"22.74728000"},
{"state":"Ostrobothnia","name":"Malax","lat":"62.94225000","lon":"21.57311000"},
{"state":"Ostrobothnia","name":"Nykarleby","lat":"63.52277000","lon":"22.53073000"},
{"state":"Ostrobothnia","name":"Oravais","lat":"63.30135000","lon":"22.37821000"},
{"state":"Ostrobothnia","name":"Pedersöre","lat":"63.65000000","lon":"22.68333000"},
{"state":"Ostrobothnia","name":"Replot","lat":"63.22882000","lon":"21.41691000"},
{"state":"Ostrobothnia","name":"Ristinummi","lat":"63.09192000","lon":"21.72297000"},
{"state":"Ostrobothnia","name":"Teeriniemi","lat":"63.09705000","lon":"21.69590000"},
{"state":"Ostrobothnia","name":"Vaasa","lat":"63.09600000","lon":"21.61577000"},
{"state":"Ostrobothnia","name":"Vähäkyrö","lat":"63.05635000","lon":"22.10584000"},
{"state":"Ostrobothnia","name":"Vörå","lat":"63.13607000","lon":"22.25223000"},
{"state":"Päijänne Tavastia","name":"Artjärvi","lat":"60.74544000","lon":"26.07084000"},
{"state":"Päijänne Tavastia","name":"Asikkala","lat":"61.21667000","lon":"25.50000000"},
{"state":"Päijänne Tavastia","name":"Auttoinen","lat":"61.29901000","lon":"25.08887000"},
{"state":"Päijänne Tavastia","name":"Hämeenkoski","lat":"61.02222000","lon":"25.15417000"},
{"state":"Päijänne Tavastia","name":"Hartola","lat":"61.58333000","lon":"26.01667000"},
{"state":"Päijänne Tavastia","name":"Heinola","lat":"61.20564000","lon":"26.03811000"},
{"state":"Päijänne Tavastia","name":"Hollola","lat":"61.05000000","lon":"25.43333000"},
{"state":"Päijänne Tavastia","name":"Lahti","lat":"60.98267000","lon":"25.66151000"},
{"state":"Päijänne Tavastia","name":"Nastola","lat":"60.95000000","lon":"25.93333000"},
{"state":"Päijänne Tavastia","name":"Orimattila","lat":"60.80487000","lon":"25.72964000"},
{"state":"Päijänne Tavastia","name":"Padasjoki","lat":"61.35000000","lon":"25.28333000"},
{"state":"Päijänne Tavastia","name":"Sysmä","lat":"61.50000000","lon":"25.68333000"},
{"state":"Pirkanmaa","name":"Äetsä","lat":"61.28333000","lon":"22.68333000"},
{"state":"Pirkanmaa","name":"Aimala","lat":"61.33000000","lon":"23.69000000"},
{"state":"Pirkanmaa","name":"Aitoo","lat":"61.33897400","lon":"24.49431900"},
{"state":"Pirkanmaa","name":"Akaa","lat":"61.16666667","lon":"23.86805556"},
{"state":"Pirkanmaa","name":"Amuri","lat":"61.50000000","lon":"23.74500000"},
{"state":"Pirkanmaa","name":"Haihara","lat":"61.47630000","lon":"23.87711000"},
{"state":"Pirkanmaa","name":"Hallila","lat":"61.46250000","lon":"23.82916667"},
{"state":"Pirkanmaa","name":"Hämeenkyrö","lat":"61.63333333","lon":"23.20000000"},
{"state":"Pirkanmaa","name":"Hervanta","lat":"61.44810000","lon":"23.85210000"},
{"state":"Pirkanmaa","name":"Ikaalinen","lat":"61.76944444","lon":"23.06805556"},
{"state":"Pirkanmaa","name":"Juupajoki","lat":"61.79666667","lon":"24.37000000"},
{"state":"Pirkanmaa","name":"Kangasala","lat":"61.46388900","lon":"24.06500000"},
{"state":"Pirkanmaa","name":"Kihniö","lat":"62.20833333","lon":"23.17916667"},
{"state":"Pirkanmaa","name":"Kiikka","lat":"61.32077778","lon":"22.77538889"},
{"state":"Pirkanmaa","name":"Kiikoinen","lat":"61.45000000","lon":"22.57500000"},
{"state":"Pirkanmaa","name":"Kolho","lat":"62.13333333","lon":"24.51666667"},
{"state":"Pirkanmaa","name":"Kuhmalahti","lat":"61.50500000","lon":"24.56666667"},
{"state":"Pirkanmaa","name":"Kuru","lat":"61.87558000","lon":"23.71948000"},
{"state":"Pirkanmaa","name":"Kylmäkoski","lat":"61.15000000","lon":"23.69166667"},
{"state":"Pirkanmaa","name":"Längelmäki","lat":"61.68890000","lon":"24.69194000"},
{"state":"Pirkanmaa","name":"Lempäälä","lat":"61.31388889","lon":"23.75277778"},
{"state":"Pirkanmaa","name":"Lentävänniemi","lat":"61.52801000","lon":"23.70575000"},
{"state":"Pirkanmaa","name":"Lielahti","lat":"61.51666667","lon":"23.66666667"},
{"state":"Pirkanmaa","name":"Luopioinen","lat":"61.36293000","lon":"24.66781000"},
{"state":"Pirkanmaa","name":"Mänttä","lat":"62.03014000","lon":"24.62791000"},
{"state":"Pirkanmaa","name":"Messukylä","lat":"61.48527778","lon":"23.84472222"},
{"state":"Pirkanmaa","name":"Mouhijärvi","lat":"61.50000000","lon":"23.01667000"},
{"state":"Pirkanmaa","name":"Naistenmatka","lat":"61.46518000","lon":"23.65253000"},
{"state":"Pirkanmaa","name":"Nekala","lat":"61.48333333","lon":"23.79055556"},
{"state":"Pirkanmaa","name":"Nokia","lat":"61.47666667","lon":"23.50527778"},
{"state":"Pirkanmaa","name":"Nurmi","lat":"61.53779000","lon":"23.94178000"},
{"state":"Pirkanmaa","name":"Nuutajärvi","lat":"61.04000000","lon":"23.43000000"},
{"state":"Pirkanmaa","name":"Orivesi","lat":"61.67777778","lon":"24.35694444"},
{"state":"Pirkanmaa","name":"Osara","lat":"61.70866000","lon":"23.15871000"},
{"state":"Pirkanmaa","name":"Pälkäne","lat":"61.35403000","lon":"24.51912000"},
{"state":"Pirkanmaa","name":"Parkano","lat":"62.00972222","lon":"23.02500000"},
{"state":"Pirkanmaa","name":"Pirkkala","lat":"61.46666667","lon":"23.65000000"},
{"state":"Pirkanmaa","name":"Pispala","lat":"61.50611111","lon":"23.70250000"},
{"state":"Pirkanmaa","name":"Pohjaslahti","lat":"62.15631000","lon":"24.13190000"},
{"state":"Pirkanmaa","name":"Punkalaidun","lat":"61.11166667","lon":"23.10500000"},
{"state":"Pirkanmaa","name":"Ruovesi","lat":"61.98333300","lon":"24.08333300"},
{"state":"Pirkanmaa","name":"Sääksmäki","lat":"61.20000000","lon":"24.06666667"},
{"state":"Pirkanmaa","name":"Sahalahti","lat":"61.46666667","lon":"24.31666667"},
{"state":"Pirkanmaa","name":"Sastamala","lat":"61.34166667","lon":"22.90833333"},
{"state":"Pirkanmaa","name":"Suodenniemi","lat":"61.55810000","lon":"22.78526000"},
{"state":"Pirkanmaa","name":"Suoniemi","lat":"61.44111111","lon":"23.21500000"},
{"state":"Pirkanmaa","name":"Tampere","lat":"61.49805556","lon":"23.76000000"},
{"state":"Pirkanmaa","name":"Teisko","lat":"61.67336111","lon":"23.84766944"},
{"state":"Pirkanmaa","name":"Toijala","lat":"61.16780000","lon":"23.83819000"},
{"state":"Pirkanmaa","name":"Tottijärvi","lat":"61.39777778","lon":"23.34277778"},
{"state":"Pirkanmaa","name":"Urjala","lat":"61.08333333","lon":"23.55000000"},
{"state":"Pirkanmaa","name":"Valkeakoski","lat":"61.26666667","lon":"24.03055556"},
{"state":"Pirkanmaa","name":"Vammala","lat":"61.34027778","lon":"22.90972222"},
{"state":"Pirkanmaa","name":"Vesilahti","lat":"61.31666700","lon":"23.61666700"},
{"state":"Pirkanmaa","name":"Viiala","lat":"61.21023000","lon":"23.76738000"},
{"state":"Pirkanmaa","name":"Viljakkala","lat":"61.70601000","lon":"23.26688000"},
{"state":"Pirkanmaa","name":"Vilppula","lat":"62.02121000","lon":"24.50483000"},
{"state":"Pirkanmaa","name":"Virrat","lat":"62.24027778","lon":"23.77083333"},
{"state":"Pirkanmaa","name":"Vuores","lat":"61.43100000","lon":"23.81184000"},
{"state":"Pirkanmaa","name":"Ylöjärvi","lat":"61.55000000","lon":"23.58333333"},
{"state":"Satakunta","name":"Eura","lat":"61.13333000","lon":"22.13333000"},
{"state":"Satakunta","name":"Eurajoki","lat":"61.20000000","lon":"21.73333000"},
{"state":"Satakunta","name":"Harjavalta","lat":"61.31667000","lon":"22.13333000"},
{"state":"Satakunta","name":"Huittinen","lat":"61.18333000","lon":"22.70000000"},
{"state":"Satakunta","name":"Jämijärvi","lat":"61.81667000","lon":"22.70000000"},
{"state":"Satakunta","name":"Kankaanpää","lat":"61.80000000","lon":"22.41667000"},
{"state":"Satakunta","name":"Karvia","lat":"62.13333000","lon":"22.56667000"},
{"state":"Satakunta","name":"Kiukainen","lat":"61.21667000","lon":"22.08333000"},
{"state":"Satakunta","name":"Kokemäki","lat":"61.25647000","lon":"22.35643000"},
{"state":"Satakunta","name":"Köyliö","lat":"61.11910000","lon":"22.30976000"},
{"state":"Satakunta","name":"Kullaa","lat":"61.46998000","lon":"22.16145000"},
{"state":"Satakunta","name":"Längelmäki","lat":"61.65000000","lon":"22.10000000"},
{"state":"Satakunta","name":"Lappi","lat":"61.10000000","lon":"21.83333000"},
{"state":"Satakunta","name":"Lavia","lat":"61.60000000","lon":"22.60000000"},
{"state":"Satakunta","name":"Luvia","lat":"61.36375000","lon":"21.62556000"},
{"state":"Satakunta","name":"Merikarvia","lat":"61.85839000","lon":"21.50035000"},
{"state":"Satakunta","name":"Nakkila","lat":"61.36667000","lon":"22.00000000"},
{"state":"Satakunta","name":"Noormarkku","lat":"61.59274000","lon":"21.86846000"},
{"state":"Satakunta","name":"Pomarkku","lat":"61.69348000","lon":"22.00862000"},
{"state":"Satakunta","name":"Pori","lat":"61.48333000","lon":"21.78333000"},
{"state":"Satakunta","name":"Rauma","lat":"61.12724000","lon":"21.51127000"},
{"state":"Satakunta","name":"Säkylä","lat":"61.03333000","lon":"22.33333000"},
{"state":"Satakunta","name":"Siikainen","lat":"61.87703000","lon":"21.81945000"},
{"state":"Satakunta","name":"Ulvila","lat":"61.42844000","lon":"21.87103000"},
{"state":"Satakunta","name":"Vampula","lat":"61.01667000","lon":"22.70000000"},
{"state":"South Karelia","name":"Imatra","lat":"61.17185000","lon":"28.75242000"},
{"state":"South Karelia","name":"Joutseno","lat":"61.11796000","lon":"28.50763000"},
{"state":"South Karelia","name":"Lappeenranta","lat":"61.05871000","lon":"28.18871000"},
{"state":"South Karelia","name":"Lemi","lat":"61.06244000","lon":"27.80571000"},
{"state":"South Karelia","name":"Luumäki","lat":"60.92618000","lon":"27.58135000"},
{"state":"South Karelia","name":"Nuijamaa","lat":"60.96011000","lon":"28.55104000"},
{"state":"South Karelia","name":"Parikkala","lat":"61.55000000","lon":"29.50000000"},
{"state":"South Karelia","name":"Rautjärvi","lat":"61.43333000","lon":"29.35000000"},
{"state":"South Karelia","name":"Ruokolahti","lat":"61.28333000","lon":"28.83333000"},
{"state":"South Karelia","name":"Saari","lat":"61.65000000","lon":"29.75000000"},
{"state":"South Karelia","name":"Savitaipale","lat":"61.20000000","lon":"27.70000000"},
{"state":"South Karelia","name":"Taipalsaari","lat":"61.15000000","lon":"28.05000000"},
{"state":"South Karelia","name":"Ylämaa","lat":"60.80000000","lon":"28.00000000"},
{"state":"Southern Ostrobothnia","name":"Ähtäri","lat":"62.55403000","lon":"24.06186000"},
{"state":"Southern Ostrobothnia","name":"Alahärmä","lat":"63.23333000","lon":"22.85000000"},
{"state":"Southern Ostrobothnia","name":"Alajärvi","lat":"63.00000000","lon":"23.81667000"},
{"state":"Southern Ostrobothnia","name":"Alavus","lat":"62.58333000","lon":"23.61667000"},
{"state":"Southern Ostrobothnia","name":"Evijärvi","lat":"63.36667000","lon":"23.48333000"},
{"state":"Southern Ostrobothnia","name":"Ilmajoki","lat":"62.73333000","lon":"22.56667000"},
{"state":"Southern Ostrobothnia","name":"Isojoki","lat":"62.11319000","lon":"21.95884000"},
{"state":"Southern Ostrobothnia","name":"Jalasjärvi","lat":"62.50000000","lon":"22.75000000"},
{"state":"Southern Ostrobothnia","name":"Jurva","lat":"62.68333000","lon":"21.98333000"},
{"state":"Southern Ostrobothnia","name":"Karijoki","lat":"62.30851000","lon":"21.70856000"},
{"state":"Southern Ostrobothnia","name":"Kauhajoki","lat":"62.43333000","lon":"22.18333000"},
{"state":"Southern Ostrobothnia","name":"Kauhava","lat":"63.10299000","lon":"23.07129000"},
{"state":"Southern Ostrobothnia","name":"Kortesjärvi","lat":"63.30000000","lon":"23.16667000"},
{"state":"Southern Ostrobothnia","name":"Kuortane","lat":"62.80000000","lon":"23.50000000"},
{"state":"Southern Ostrobothnia","name":"Kurikka","lat":"62.61667000","lon":"22.41667000"},
{"state":"Southern Ostrobothnia","name":"Lappajärvi","lat":"63.20000000","lon":"23.63333000"},
{"state":"Southern Ostrobothnia","name":"Lapua","lat":"62.96927000","lon":"23.00880000"},
{"state":"Southern Ostrobothnia","name":"Lehtimäki","lat":"62.78333000","lon":"23.91667000"},
{"state":"Southern Ostrobothnia","name":"Nurmo","lat":"62.82870000","lon":"22.90990000"},
{"state":"Southern Ostrobothnia","name":"Seinäjoki","lat":"62.79446000","lon":"22.82822000"},
{"state":"Southern Ostrobothnia","name":"Soini","lat":"62.86667000","lon":"24.21667000"},
{"state":"Southern Ostrobothnia","name":"Teuva","lat":"62.48190000","lon":"21.74156000"},
{"state":"Southern Ostrobothnia","name":"Töysä","lat":"62.62803000","lon":"23.81828000"},
{"state":"Southern Ostrobothnia","name":"Vimpeli","lat":"63.16187000","lon":"23.81922000"},
{"state":"Southern Ostrobothnia","name":"Ylihärmä","lat":"63.15000000","lon":"22.78333000"},
{"state":"Southern Ostrobothnia","name":"Ylistaro","lat":"62.93958000","lon":"22.51306000"},
{"state":"Southern Savonia","name":"Enonkoski","lat":"62.08333000","lon":"28.93333000"},
{"state":"Southern Savonia","name":"Haukivuori","lat":"62.01753000","lon":"27.21906000"},
{"state":"Southern Savonia","name":"Heinävesi","lat":"62.43333000","lon":"28.60000000"},
{"state":"Southern Savonia","name":"Hirvensalmi","lat":"61.63333000","lon":"26.80000000"},
{"state":"Southern Savonia","name":"Jäppilä","lat":"62.37899000","lon":"27.43372000"},
{"state":"Southern Savonia","name":"Joroinen","lat":"62.17823000","lon":"27.83165000"},
{"state":"Southern Savonia","name":"Juva","lat":"61.90000000","lon":"27.85000000"},
{"state":"Southern Savonia","name":"Kangasniemi","lat":"61.99357000","lon":"26.64785000"},
{"state":"Southern Savonia","name":"Kerimäki","lat":"61.91069000","lon":"29.28228000"},
{"state":"Southern Savonia","name":"Mäntyharju","lat":"61.41667000","lon":"26.88333000"},
{"state":"Southern Savonia","name":"Mikkeli","lat":"61.68857000","lon":"27.27227000"},
{"state":"Southern Savonia","name":"Pertunmaa","lat":"61.50000000","lon":"26.48333000"},
{"state":"Southern Savonia","name":"Pieksämäki","lat":"62.30000000","lon":"27.13333000"},
{"state":"Southern Savonia","name":"Punkaharju","lat":"61.75883000","lon":"29.38843000"},
{"state":"Southern Savonia","name":"Puumala","lat":"61.52728000","lon":"28.17495000"},
{"state":"Southern Savonia","name":"Rantasalmi","lat":"62.06667000","lon":"28.30000000"},
{"state":"Southern Savonia","name":"Ristiina","lat":"61.50579000","lon":"27.24643000"},
{"state":"Southern Savonia","name":"Savonlinna","lat":"61.86990000","lon":"28.87999000"},
{"state":"Southern Savonia","name":"Savonranta","lat":"62.18333000","lon":"29.20000000"},
{"state":"Southern Savonia","name":"Sulkava","lat":"61.78691000","lon":"28.37299000"},
{"state":"Southern Savonia","name":"Virtasalmi","lat":"62.12695000","lon":"27.46276000"},
{"state":"Tavastia Proper","name":"Forssa","lat":"60.81462000","lon":"23.62146000"},
{"state":"Tavastia Proper","name":"Hämeenlinna","lat":"60.99596000","lon":"24.46434000"},
{"state":"Tavastia Proper","name":"Hauho","lat":"61.17255000","lon":"24.56303000"},
{"state":"Tavastia Proper","name":"Hausjärvi","lat":"60.78333000","lon":"24.93333000"},
{"state":"Tavastia Proper","name":"Humppila","lat":"60.93333000","lon":"23.36667000"},
{"state":"Tavastia Proper","name":"Janakkala","lat":"60.90000000","lon":"24.60000000"},
{"state":"Tavastia Proper","name":"Jokioinen","lat":"60.80162000","lon":"23.48004000"},
{"state":"Tavastia Proper","name":"Kalvola","lat":"61.10081000","lon":"24.12177000"},
{"state":"Tavastia Proper","name":"Lammi","lat":"61.08333000","lon":"25.01667000"},
{"state":"Tavastia Proper","name":"Loppi","lat":"60.71667000","lon":"24.45000000"},
{"state":"Tavastia Proper","name":"Renko","lat":"60.89563000","lon":"24.28785000"},
{"state":"Tavastia Proper","name":"Riihimäki","lat":"60.73769000","lon":"24.77726000"},
{"state":"Tavastia Proper","name":"Tammela","lat":"60.81035000","lon":"23.76823000"},
{"state":"Tavastia Proper","name":"Tervakoski","lat":"60.81412000","lon":"24.62594000"},
{"state":"Tavastia Proper","name":"Tuulos","lat":"61.15000000","lon":"24.80000000"},
{"state":"Tavastia Proper","name":"Ypäjä","lat":"60.80000000","lon":"23.28333000"},
{"state":"Uusimaa","name":"Askola","lat":"60.53333000","lon":"25.60000000"},
{"state":"Uusimaa","name":"Ekenäs","lat":"59.97359000","lon":"23.43389000"},
{"state":"Uusimaa","name":"Espoo","lat":"60.20520000","lon":"24.65220000"},
{"state":"Uusimaa","name":"Gumböle","lat":"60.21948000","lon":"24.61684000"},
{"state":"Uusimaa","name":"Hanko","lat":"59.83333000","lon":"22.95000000"},
{"state":"Uusimaa","name":"Helsinki","lat":"60.16952000","lon":"24.93545000"},
{"state":"Uusimaa","name":"Hyvinge","lat":"60.63333000","lon":"24.86667000"},
{"state":"Uusimaa","name":"Ingå","lat":"60.04587000","lon":"24.00459000"},
{"state":"Uusimaa","name":"Järvenpää","lat":"60.47369000","lon":"25.08992000"},
{"state":"Uusimaa","name":"Kaarela","lat":"60.25174000","lon":"24.88111000"},
{"state":"Uusimaa","name":"Kallio","lat":"60.18427000","lon":"24.95034000"},
{"state":"Uusimaa","name":"Karis","lat":"60.07178000","lon":"23.66163000"},
{"state":"Uusimaa","name":"Karjalohja","lat":"60.24015000","lon":"23.71789000"},
{"state":"Uusimaa","name":"Karkkila","lat":"60.53418000","lon":"24.20977000"},
{"state":"Uusimaa","name":"Kärkölä","lat":"60.61292000","lon":"23.94196000"},
{"state":"Uusimaa","name":"Kauniainen","lat":"60.21209000","lon":"24.72756000"},
{"state":"Uusimaa","name":"Kellokoski","lat":"60.53271000","lon":"25.10917000"},
{"state":"Uusimaa","name":"Kerava","lat":"60.40338000","lon":"25.10500000"},
{"state":"Uusimaa","name":"Kilo","lat":"60.21746000","lon":"24.78151000"},
{"state":"Uusimaa","name":"Kirkkonummi","lat":"60.12381000","lon":"24.43853000"},
{"state":"Uusimaa","name":"Koukkuniemi","lat":"60.15261000","lon":"24.76467000"},
{"state":"Uusimaa","name":"Lapinjärvi","lat":"60.62443000","lon":"26.19720000"},
{"state":"Uusimaa","name":"Lauttasaari","lat":"60.15896000","lon":"24.86797000"},
{"state":"Uusimaa","name":"Liljendal","lat":"60.57346000","lon":"26.05257000"},
{"state":"Uusimaa","name":"Lohja","lat":"60.24859000","lon":"24.06534000"},
{"state":"Uusimaa","name":"Lovisa","lat":"60.45659000","lon":"26.22505000"},
{"state":"Uusimaa","name":"Mäntsälä","lat":"60.63333000","lon":"25.31667000"},
{"state":"Uusimaa","name":"Mellunkylä","lat":"60.23355000","lon":"25.09947000"},
{"state":"Uusimaa","name":"Munkkiniemi","lat":"60.19861000","lon":"24.87772000"},
{"state":"Uusimaa","name":"Myrskylä","lat":"60.66965000","lon":"25.84750000"},
{"state":"Uusimaa","name":"Nurmijärvi","lat":"60.46407000","lon":"24.80730000"},
{"state":"Uusimaa","name":"Otaniemi","lat":"60.18395000","lon":"24.82786000"},
{"state":"Uusimaa","name":"Pernå","lat":"60.44869000","lon":"26.03187000"},
{"state":"Uusimaa","name":"Pohja","lat":"60.09626000","lon":"23.52757000"},
{"state":"Uusimaa","name":"Pornainen","lat":"60.47581000","lon":"25.37490000"},
{"state":"Uusimaa","name":"Porvoo","lat":"60.39233000","lon":"25.66507000"},
{"state":"Uusimaa","name":"Pukkila","lat":"60.65000000","lon":"25.56667000"},
{"state":"Uusimaa","name":"Raaseporin","lat":"60.00273000","lon":"23.55499000"},
{"state":"Uusimaa","name":"Ruotsinpyhtää","lat":"60.52680000","lon":"26.46203000"},
{"state":"Uusimaa","name":"Sammatti","lat":"60.31991000","lon":"23.82085000"},
{"state":"Uusimaa","name":"Sibbo","lat":"60.37752000","lon":"25.26906000"},
{"state":"Uusimaa","name":"Siuntio","lat":"60.13862000","lon":"24.22715000"},
{"state":"Uusimaa","name":"Tuusula","lat":"60.40368000","lon":"25.02638000"},
{"state":"Uusimaa","name":"Vantaa","lat":"60.29414000","lon":"25.04099000"},
{"state":"Uusimaa","name":"Vihti","lat":"60.41699000","lon":"24.31965000"},
{"state":"Uusimaa","name":"Vuosaari","lat":"60.20963000","lon":"25.14195000"}]