[{"state":"Central Division","name":"Naitasiri Province","lat":"-17.83333000","lon":"178.25000000"},
{"state":"Central Division","name":"Namosi Province","lat":"-18.05000000","lon":"178.13333000"},
{"state":"Central Division","name":"Rewa Province","lat":"-18.08333000","lon":"178.33333000"},
{"state":"Central Division","name":"Serua Province","lat":"-18.16667000","lon":"178.00000000"},
{"state":"Central Division","name":"Suva","lat":"-18.14161000","lon":"178.44149000"},
{"state":"Central Division","name":"Tailevu Province","lat":"-17.83333000","lon":"178.50000000"},
{"state":"Eastern Division","name":"Kadavu Province","lat":"-18.99331000","lon":"178.22021000"},
{"state":"Eastern Division","name":"Lau Province","lat":"-18.20488000","lon":"-178.79251000"},
{"state":"Eastern Division","name":"Levuka","lat":"-18.06667000","lon":"179.31667000"},
{"state":"Eastern Division","name":"Lomaiviti Province","lat":"-17.66667000","lon":"178.80000000"},
{"state":"Northern Division","name":"Bua Province","lat":"-16.83333000","lon":"178.75000000"},
{"state":"Northern Division","name":"Cakaudrove Province","lat":"-16.66667000","lon":"179.41667000"},
{"state":"Northern Division","name":"Labasa","lat":"-16.43320000","lon":"179.36451000"},
{"state":"Northern Division","name":"Macuata Province","lat":"-16.50000000","lon":"179.25000000"},
{"state":"Western Division","name":"Ba","lat":"-17.53430000","lon":"177.67407000"},
{"state":"Western Division","name":"Ba Province","lat":"-17.66667000","lon":"177.66667000"},
{"state":"Western Division","name":"Lautoka","lat":"-17.61686000","lon":"177.45049000"},
{"state":"Western Division","name":"Nadi","lat":"-17.80309000","lon":"177.41617000"},
{"state":"Western Division","name":"Nandronga and Navosa Province","lat":"-18.00000000","lon":"177.66667000"},
{"state":"Western Division","name":"Ra Province","lat":"-17.50000000","lon":"178.16667000"}]