[{"name":"Chuuk State","native":null,"cities":[{"name":"Eot Municipality","native":null,"lat":"7.38540000","lon":"151.73920000"},{"name":"Ettal Municipality","native":null,"lat":"5.59200000","lon":"153.56000000"},{"name":"Fananu Municipality","native":null,"lat":"8.55811000","lon":"151.90822000"},{"name":"Fanapanges Municipality","native":null,"lat":"7.35300000","lon":"151.66760000"},{"name":"Fefen Municipality","native":null,"lat":"7.35300000","lon":"151.83100000"},{"name":"Fonoton Municipality","native":null,"lat":"7.48600000","lon":"151.87940000"},{"name":"Houk Municipality","native":null,"lat":"6.68300000","lon":"149.30000000"},{"name":"Kuttu Municipality","native":null,"lat":"5.45300000","lon":"153.45600000"},{"name":"Lekinioch Municipality","native":null,"lat":"5.50700000","lon":"153.81900000"},{"name":"Losap Municipality","native":null,"lat":"6.89400000","lon":"152.73900000"},{"name":"Makur Municipality","native":null,"lat":"8.98500000","lon":"150.12600000"},{"name":"Moch Municipality","native":null,"lat":"5.49180000","lon":"153.53850000"},{"name":"Murilo","native":null,"lat":"8.69242000","lon":"152.33934000"},{"name":"Murilo Municipality","native":null,"lat":"8.69200000","lon":"152.34200000"},{"name":"Namoluk Municipality","native":null,"lat":"5.91500000","lon":"153.13600000"},{"name":"Nema","native":null,"lat":"6.98922000","lon":"152.57377000"},{"name":"Nema Municipality","native":null,"lat":"6.99300000","lon":"152.57400000"},{"name":"Nomwin Municipality","native":null,"lat":"8.43000000","lon":"151.74500000"},{"name":"Oneop Municipality","native":null,"lat":"5.50660000","lon":"153.70900000"},{"name":"Onou Municipality","native":null,"lat":"8.79900000","lon":"150.29000000"},{"name":"Onoun Municipality","native":null,"lat":"8.57500000","lon":"149.68550000"},{"name":"Paata-Tupunion Municipality","native":null,"lat":"7.37600000","lon":"151.58300000"},{"name":"Parem Municipality","native":null,"lat":"7.36200000","lon":"151.78900000"},{"name":"Piherarh Municipality","native":null,"lat":"8.56900000","lon":"150.41800000"},{"name":"Piis-Emwar Municipality","native":null,"lat":"6.83400000","lon":"152.70000000"},{"name":"Piis-Panewu Municipality","native":null,"lat":"7.67800000","lon":"151.76340000"},{"name":"Pollap Municipality","native":null,"lat":"7.63971000","lon":"149.43011000"},{"name":"Polowat Municipality","native":null,"lat":"7.35500000","lon":"149.18200000"},{"name":"Pwene Municipality","native":null,"lat":"7.33700000","lon":"151.58400000"},{"name":"Ramanum Municipality","native":null,"lat":"7.41350000","lon":"151.66460000"},{"name":"Ruo Municipality","native":null,"lat":"8.60900000","lon":"152.24400000"},{"name":"Satowan Municipality","native":null,"lat":"5.33400000","lon":"153.73650000"},{"name":"Siis Municipality","native":null,"lat":"7.29500000","lon":"151.82460000"},{"name":"Ta Municipality","native":null,"lat":"5.28420000","lon":"153.64650000"},{"name":"Tamatam Municipality","native":null,"lat":"7.53898000","lon":"149.41175000"},{"name":"Tolensom Municipality","native":null,"lat":"7.33300000","lon":"151.62300000"},{"name":"Tonoas Municipality","native":null,"lat":"7.38100000","lon":"151.89000000"},{"name":"Udot-Fonuweisom Municipality","native":null,"lat":"7.38900000","lon":"151.70800000"},{"name":"Uman-Fonuweisom Municipality","native":null,"lat":"7.29900000","lon":"151.87700000"},{"name":"Unanu Municipality","native":null,"lat":"8.75000000","lon":"150.33950000"},{"name":"Weno","native":null,"lat":"7.44648000","lon":"151.84135000"},{"name":"Weno Municipality","native":null,"lat":"7.44000000","lon":"151.88100000"},{"name":"Wonei Municipality","native":null,"lat":"7.38700000","lon":"151.60100000"}]},{"name":"Kosrae State","native":null,"cities":[{"name":"Lelu Municipality","native":null,"lat":"5.34865000","lon":"163.01917000"},{"name":"Malem Municipality","native":null,"lat":"5.27507000","lon":"163.01685000"},{"name":"Tafunsak Municipality","native":null,"lat":"5.34993000","lon":"162.96965000"},{"name":"Tofol","native":null,"lat":"5.32479000","lon":"163.00781000"},{"name":"Utwe Municipality","native":null,"lat":"5.27511000","lon":"162.95617000"}]},{"name":"Pohnpei State","native":null,"cities":[{"name":"Kitti Municipality","native":null,"lat":"6.82490000","lon":"158.16081000"},{"name":"Kolonia","native":null,"lat":"6.96400000","lon":"158.20620000"},{"name":"Kolonia Municipality","native":null,"lat":"6.96400000","lon":"158.20580000"},{"name":"Kolonia Town","native":null,"lat":"6.96400000","lon":"158.20600000"},{"name":"Madolenihm Municipality","native":null,"lat":"6.86759000","lon":"158.31277000"},{"name":"Mokil Municipality","native":null,"lat":"6.68916000","lon":"159.76610000"},{"name":"Nett Municipality","native":null,"lat":"6.95152000","lon":"158.22437000"},{"name":"Ngatik","native":null,"lat":"5.78849000","lon":"157.15954000"},{"name":"Nukuoro Municipality","native":null,"lat":"3.84100000","lon":"154.93000000"},{"name":"Palikir - National Government Center","native":null,"lat":"6.92477000","lon":"158.16109000"},{"name":"Pingelap Municipality","native":null,"lat":"6.20908000","lon":"160.71033000"},{"name":"Sapwuahfik Municipality","native":null,"lat":"5.81500000","lon":"157.28000000"},{"name":"Sokehs Municipality","native":null,"lat":"6.93273000","lon":"158.14270000"},{"name":"U Municipality","native":null,"lat":"6.94972000","lon":"158.27361000"}]},{"name":"Yap State","native":null,"cities":[{"name":"Colonia","native":null,"lat":"9.51638000","lon":"138.12167000"},{"name":"Dalipebinaw Municipality","native":null,"lat":"9.52229000","lon":"138.08540000"},{"name":"Fais","native":null,"lat":"9.76600000","lon":"140.52000000"},{"name":"Fais Municipality","native":null,"lat":"9.76600000","lon":"140.51900000"},{"name":"Fanif Municipality","native":null,"lat":"9.56056000","lon":"138.11333000"},{"name":"Faraulep Municipality","native":null,"lat":"8.58800000","lon":"144.50650000"},{"name":"Gagil Municipality","native":null,"lat":"9.54722000","lon":"138.19028000"},{"name":"Gilman Municipality","native":null,"lat":"9.44611000","lon":"138.06389000"},{"name":"Kanifay Municipality","native":null,"lat":"9.46735000","lon":"138.05935000"},{"name":"Lamotrek Municipality","native":null,"lat":"7.49100000","lon":"146.30300000"},{"name":"Maap Municipality","native":null,"lat":"9.58975000","lon":"138.17119000"},{"name":"Ngulu Municipality","native":null,"lat":"8.45000000","lon":"137.48100000"},{"name":"Rull Municipality","native":null,"lat":"9.50773000","lon":"138.11540000"},{"name":"Rumung Municipality","native":null,"lat":"9.62428000","lon":"138.15745000"},{"name":"Satawal Municipality","native":null,"lat":"7.38200000","lon":"147.03180000"},{"name":"Tomil Municipality","native":null,"lat":"9.52517000","lon":"138.15488000"},{"name":"Ulithi Municipality","native":null,"lat":"9.90000000","lon":"139.60000000"},{"name":"Weloy Municipality","native":null,"lat":"9.52712000","lon":"138.11909000"},{"name":"Woleai Municipality","native":null,"lat":"7.34500000","lon":"143.85700000"}]}]