[{"state":"Chuuk State","name":"Eot Municipality","lat":"7.38540000","lon":"151.73920000"},
{"state":"Chuuk State","name":"Ettal Municipality","lat":"5.59200000","lon":"153.56000000"},
{"state":"Chuuk State","name":"Fananu Municipality","lat":"8.55811000","lon":"151.90822000"},
{"state":"Chuuk State","name":"Fanapanges Municipality","lat":"7.35300000","lon":"151.66760000"},
{"state":"Chuuk State","name":"Fefen Municipality","lat":"7.35300000","lon":"151.83100000"},
{"state":"Chuuk State","name":"Fonoton Municipality","lat":"7.48600000","lon":"151.87940000"},
{"state":"Chuuk State","name":"Houk Municipality","lat":"6.68300000","lon":"149.30000000"},
{"state":"Chuuk State","name":"Kuttu Municipality","lat":"5.45300000","lon":"153.45600000"},
{"state":"Chuuk State","name":"Lekinioch Municipality","lat":"5.50700000","lon":"153.81900000"},
{"state":"Chuuk State","name":"Losap Municipality","lat":"6.89400000","lon":"152.73900000"},
{"state":"Chuuk State","name":"Makur Municipality","lat":"8.98500000","lon":"150.12600000"},
{"state":"Chuuk State","name":"Moch Municipality","lat":"5.49180000","lon":"153.53850000"},
{"state":"Chuuk State","name":"Murilo","lat":"8.69242000","lon":"152.33934000"},
{"state":"Chuuk State","name":"Murilo Municipality","lat":"8.69200000","lon":"152.34200000"},
{"state":"Chuuk State","name":"Namoluk Municipality","lat":"5.91500000","lon":"153.13600000"},
{"state":"Chuuk State","name":"Nema","lat":"6.98922000","lon":"152.57377000"},
{"state":"Chuuk State","name":"Nema Municipality","lat":"6.99300000","lon":"152.57400000"},
{"state":"Chuuk State","name":"Nomwin Municipality","lat":"8.43000000","lon":"151.74500000"},
{"state":"Chuuk State","name":"Oneop Municipality","lat":"5.50660000","lon":"153.70900000"},
{"state":"Chuuk State","name":"Onou Municipality","lat":"8.79900000","lon":"150.29000000"},
{"state":"Chuuk State","name":"Onoun Municipality","lat":"8.57500000","lon":"149.68550000"},
{"state":"Chuuk State","name":"Paata-Tupunion Municipality","lat":"7.37600000","lon":"151.58300000"},
{"state":"Chuuk State","name":"Parem Municipality","lat":"7.36200000","lon":"151.78900000"},
{"state":"Chuuk State","name":"Piherarh Municipality","lat":"8.56900000","lon":"150.41800000"},
{"state":"Chuuk State","name":"Piis-Emwar Municipality","lat":"6.83400000","lon":"152.70000000"},
{"state":"Chuuk State","name":"Piis-Panewu Municipality","lat":"7.67800000","lon":"151.76340000"},
{"state":"Chuuk State","name":"Pollap Municipality","lat":"7.63971000","lon":"149.43011000"},
{"state":"Chuuk State","name":"Polowat Municipality","lat":"7.35500000","lon":"149.18200000"},
{"state":"Chuuk State","name":"Pwene Municipality","lat":"7.33700000","lon":"151.58400000"},
{"state":"Chuuk State","name":"Ramanum Municipality","lat":"7.41350000","lon":"151.66460000"},
{"state":"Chuuk State","name":"Ruo Municipality","lat":"8.60900000","lon":"152.24400000"},
{"state":"Chuuk State","name":"Satowan Municipality","lat":"5.33400000","lon":"153.73650000"},
{"state":"Chuuk State","name":"Siis Municipality","lat":"7.29500000","lon":"151.82460000"},
{"state":"Chuuk State","name":"Ta Municipality","lat":"5.28420000","lon":"153.64650000"},
{"state":"Chuuk State","name":"Tamatam Municipality","lat":"7.53898000","lon":"149.41175000"},
{"state":"Chuuk State","name":"Tolensom Municipality","lat":"7.33300000","lon":"151.62300000"},
{"state":"Chuuk State","name":"Tonoas Municipality","lat":"7.38100000","lon":"151.89000000"},
{"state":"Chuuk State","name":"Udot-Fonuweisom Municipality","lat":"7.38900000","lon":"151.70800000"},
{"state":"Chuuk State","name":"Uman-Fonuweisom Municipality","lat":"7.29900000","lon":"151.87700000"},
{"state":"Chuuk State","name":"Unanu Municipality","lat":"8.75000000","lon":"150.33950000"},
{"state":"Chuuk State","name":"Weno","lat":"7.44648000","lon":"151.84135000"},
{"state":"Chuuk State","name":"Weno Municipality","lat":"7.44000000","lon":"151.88100000"},
{"state":"Chuuk State","name":"Wonei Municipality","lat":"7.38700000","lon":"151.60100000"},
{"state":"Kosrae State","name":"Lelu Municipality","lat":"5.34865000","lon":"163.01917000"},
{"state":"Kosrae State","name":"Malem Municipality","lat":"5.27507000","lon":"163.01685000"},
{"state":"Kosrae State","name":"Tafunsak Municipality","lat":"5.34993000","lon":"162.96965000"},
{"state":"Kosrae State","name":"Tofol","lat":"5.32479000","lon":"163.00781000"},
{"state":"Kosrae State","name":"Utwe Municipality","lat":"5.27511000","lon":"162.95617000"},
{"state":"Pohnpei State","name":"Kitti Municipality","lat":"6.82490000","lon":"158.16081000"},
{"state":"Pohnpei State","name":"Kolonia","lat":"6.96400000","lon":"158.20620000"},
{"state":"Pohnpei State","name":"Kolonia Municipality","lat":"6.96400000","lon":"158.20580000"},
{"state":"Pohnpei State","name":"Kolonia Town","lat":"6.96400000","lon":"158.20600000"},
{"state":"Pohnpei State","name":"Madolenihm Municipality","lat":"6.86759000","lon":"158.31277000"},
{"state":"Pohnpei State","name":"Mokil Municipality","lat":"6.68916000","lon":"159.76610000"},
{"state":"Pohnpei State","name":"Nett Municipality","lat":"6.95152000","lon":"158.22437000"},
{"state":"Pohnpei State","name":"Ngatik","lat":"5.78849000","lon":"157.15954000"},
{"state":"Pohnpei State","name":"Nukuoro Municipality","lat":"3.84100000","lon":"154.93000000"},
{"state":"Pohnpei State","name":"Palikir - National Government Center","lat":"6.92477000","lon":"158.16109000"},
{"state":"Pohnpei State","name":"Pingelap Municipality","lat":"6.20908000","lon":"160.71033000"},
{"state":"Pohnpei State","name":"Sapwuahfik Municipality","lat":"5.81500000","lon":"157.28000000"},
{"state":"Pohnpei State","name":"Sokehs Municipality","lat":"6.93273000","lon":"158.14270000"},
{"state":"Pohnpei State","name":"U Municipality","lat":"6.94972000","lon":"158.27361000"},
{"state":"Yap State","name":"Colonia","lat":"9.51638000","lon":"138.12167000"},
{"state":"Yap State","name":"Dalipebinaw Municipality","lat":"9.52229000","lon":"138.08540000"},
{"state":"Yap State","name":"Fais","lat":"9.76600000","lon":"140.52000000"},
{"state":"Yap State","name":"Fais Municipality","lat":"9.76600000","lon":"140.51900000"},
{"state":"Yap State","name":"Fanif Municipality","lat":"9.56056000","lon":"138.11333000"},
{"state":"Yap State","name":"Faraulep Municipality","lat":"8.58800000","lon":"144.50650000"},
{"state":"Yap State","name":"Gagil Municipality","lat":"9.54722000","lon":"138.19028000"},
{"state":"Yap State","name":"Gilman Municipality","lat":"9.44611000","lon":"138.06389000"},
{"state":"Yap State","name":"Kanifay Municipality","lat":"9.46735000","lon":"138.05935000"},
{"state":"Yap State","name":"Lamotrek Municipality","lat":"7.49100000","lon":"146.30300000"},
{"state":"Yap State","name":"Maap Municipality","lat":"9.58975000","lon":"138.17119000"},
{"state":"Yap State","name":"Ngulu Municipality","lat":"8.45000000","lon":"137.48100000"},
{"state":"Yap State","name":"Rull Municipality","lat":"9.50773000","lon":"138.11540000"},
{"state":"Yap State","name":"Rumung Municipality","lat":"9.62428000","lon":"138.15745000"},
{"state":"Yap State","name":"Satawal Municipality","lat":"7.38200000","lon":"147.03180000"},
{"state":"Yap State","name":"Tomil Municipality","lat":"9.52517000","lon":"138.15488000"},
{"state":"Yap State","name":"Ulithi Municipality","lat":"9.90000000","lon":"139.60000000"},
{"state":"Yap State","name":"Weloy Municipality","lat":"9.52712000","lon":"138.11909000"},
{"state":"Yap State","name":"Woleai Municipality","lat":"7.34500000","lon":"143.85700000"}]