[{"state":"Auvergne-Rhône-Alpes","name":"Abondance","lat":"46.27874000","lon":"6.72105000"},
{"state":"Auvergne-Rhône-Alpes","name":"Abrest","lat":"46.09859000","lon":"3.44461000"},
{"state":"Auvergne-Rhône-Alpes","name":"Aigueblanche","lat":"45.50455000","lon":"6.50184000"},
{"state":"Auvergne-Rhône-Alpes","name":"Aigueperse","lat":"46.02255000","lon":"3.20228000"},
{"state":"Auvergne-Rhône-Alpes","name":"Aime","lat":"45.55559000","lon":"6.65042000"},
{"state":"Auvergne-Rhône-Alpes","name":"Ainay-le-Château","lat":"46.71125000","lon":"2.69238000"},
{"state":"Auvergne-Rhône-Alpes","name":"Aiton","lat":"45.56123000","lon":"6.25955000"},
{"state":"Auvergne-Rhône-Alpes","name":"Aix-les-Bains","lat":"45.69173000","lon":"5.90863000"},
{"state":"Auvergne-Rhône-Alpes","name":"Alba-la-Romaine","lat":"44.55537000","lon":"4.59846000"},
{"state":"Auvergne-Rhône-Alpes","name":"Albens","lat":"45.78786000","lon":"5.94528000"},
{"state":"Auvergne-Rhône-Alpes","name":"Albertville","lat":"45.67452000","lon":"6.39061000"},
{"state":"Auvergne-Rhône-Alpes","name":"Albigny-sur-Saône","lat":"45.86667000","lon":"4.83333000"},
{"state":"Auvergne-Rhône-Alpes","name":"Alby-sur-Chéran","lat":"45.81667000","lon":"6.01667000"},
{"state":"Auvergne-Rhône-Alpes","name":"Alissas","lat":"44.71253000","lon":"4.62936000"},
{"state":"Auvergne-Rhône-Alpes","name":"Alixan","lat":"44.97426000","lon":"5.02850000"},
{"state":"Auvergne-Rhône-Alpes","name":"Allan","lat":"44.49713000","lon":"4.79068000"},
{"state":"Auvergne-Rhône-Alpes","name":"Allanche","lat":"45.22907000","lon":"2.93449000"},
{"state":"Auvergne-Rhône-Alpes","name":"Allègre","lat":"45.19959000","lon":"3.71174000"},
{"state":"Auvergne-Rhône-Alpes","name":"Allevard","lat":"45.39449000","lon":"6.07519000"},
{"state":"Auvergne-Rhône-Alpes","name":"Allex","lat":"44.76765000","lon":"4.89837000"},
{"state":"Auvergne-Rhône-Alpes","name":"Allières-et-Risset","lat":"45.09934000","lon":"5.67924000"},
{"state":"Auvergne-Rhône-Alpes","name":"Allinges","lat":"46.33547000","lon":"6.46350000"},
{"state":"Auvergne-Rhône-Alpes","name":"Allonzier-la-Caille","lat":"46.00117000","lon":"6.11865000"},
{"state":"Auvergne-Rhône-Alpes","name":"Amancy","lat":"46.07294000","lon":"6.32890000"},
{"state":"Auvergne-Rhône-Alpes","name":"Ambérieu-en-Bugey","lat":"45.95932000","lon":"5.35160000"},
{"state":"Auvergne-Rhône-Alpes","name":"Ambérieux-en-Dombes","lat":"45.99894000","lon":"4.90126000"},
{"state":"Auvergne-Rhône-Alpes","name":"Ambert","lat":"45.54944000","lon":"3.74164000"},
{"state":"Auvergne-Rhône-Alpes","name":"Ambierle","lat":"46.10558000","lon":"3.89323000"},
{"state":"Auvergne-Rhône-Alpes","name":"Ambronay","lat":"46.00467000","lon":"5.36273000"},
{"state":"Auvergne-Rhône-Alpes","name":"Amplepuis","lat":"45.97260000","lon":"4.33030000"},
{"state":"Auvergne-Rhône-Alpes","name":"Ampuis","lat":"45.48925000","lon":"4.81001000"},
{"state":"Auvergne-Rhône-Alpes","name":"Ancône","lat":"44.58107000","lon":"4.72711000"},
{"state":"Auvergne-Rhône-Alpes","name":"Andance","lat":"45.24059000","lon":"4.79916000"},
{"state":"Auvergne-Rhône-Alpes","name":"Andancette","lat":"45.24858000","lon":"4.80860000"},
{"state":"Auvergne-Rhône-Alpes","name":"Andrézieux-Bouthéon","lat":"45.52625000","lon":"4.26021000"},
{"state":"Auvergne-Rhône-Alpes","name":"Annecy","lat":"45.90878000","lon":"6.12565000"},
{"state":"Auvergne-Rhône-Alpes","name":"Annecy-le-Vieux","lat":"45.91971000","lon":"6.14393000"},
{"state":"Auvergne-Rhône-Alpes","name":"Annemasse","lat":"46.19439000","lon":"6.23775000"},
{"state":"Auvergne-Rhône-Alpes","name":"Anneyron","lat":"45.27220000","lon":"4.88626000"},
{"state":"Auvergne-Rhône-Alpes","name":"Annonay","lat":"45.23992000","lon":"4.67070000"},
{"state":"Auvergne-Rhône-Alpes","name":"Anse","lat":"45.93553000","lon":"4.71933000"},
{"state":"Auvergne-Rhône-Alpes","name":"Anthy-sur-Léman","lat":"46.35534000","lon":"6.42735000"},
{"state":"Auvergne-Rhône-Alpes","name":"Aoste","lat":"45.59423000","lon":"5.60712000"},
{"state":"Auvergne-Rhône-Alpes","name":"Aouste-sur-Sye","lat":"44.71813000","lon":"5.05422000"},
{"state":"Auvergne-Rhône-Alpes","name":"Apprieu","lat":"45.39591000","lon":"5.49993000"},
{"state":"Auvergne-Rhône-Alpes","name":"Arâches-la-Frasse","lat":"46.04297000","lon":"6.63145000"},
{"state":"Auvergne-Rhône-Alpes","name":"Arbent","lat":"46.29221000","lon":"5.67890000"},
{"state":"Auvergne-Rhône-Alpes","name":"Archamps","lat":"46.13195000","lon":"6.12551000"},
{"state":"Auvergne-Rhône-Alpes","name":"Arenthon","lat":"46.10697000","lon":"6.33316000"},
{"state":"Auvergne-Rhône-Alpes","name":"Arlanc","lat":"45.41389000","lon":"3.72528000"},
{"state":"Auvergne-Rhône-Alpes","name":"Armoy","lat":"46.35079000","lon":"6.51703000"},
{"state":"Auvergne-Rhône-Alpes","name":"Arnas","lat":"46.02361000","lon":"4.70830000"},
{"state":"Auvergne-Rhône-Alpes","name":"Arpajon-sur-Cère","lat":"44.90391000","lon":"2.45664000"},
{"state":"Auvergne-Rhône-Alpes","name":"Ars-sur-Formans","lat":"45.99491000","lon":"4.81986000"},
{"state":"Auvergne-Rhône-Alpes","name":"Artas","lat":"45.53717000","lon":"5.16352000"},
{"state":"Auvergne-Rhône-Alpes","name":"Artemare","lat":"45.87441000","lon":"5.69366000"},
{"state":"Auvergne-Rhône-Alpes","name":"Arthaz-Pont-Notre-Dame","lat":"46.15941000","lon":"6.26598000"},
{"state":"Auvergne-Rhône-Alpes","name":"Attignat","lat":"46.28562000","lon":"5.16164000"},
{"state":"Auvergne-Rhône-Alpes","name":"Aubenas","lat":"44.61975000","lon":"4.39033000"},
{"state":"Auvergne-Rhône-Alpes","name":"Auberives-sur-Varèze","lat":"45.42080000","lon":"4.81914000"},
{"state":"Auvergne-Rhône-Alpes","name":"Aubière","lat":"45.75082000","lon":"3.11078000"},
{"state":"Auvergne-Rhône-Alpes","name":"Aulnat","lat":"45.79929000","lon":"3.16743000"},
{"state":"Auvergne-Rhône-Alpes","name":"Aurec-sur-Loire","lat":"45.36908000","lon":"4.20161000"},
{"state":"Auvergne-Rhône-Alpes","name":"Aurillac","lat":"44.92539000","lon":"2.43983000"},
{"state":"Auvergne-Rhône-Alpes","name":"Autrans","lat":"45.17605000","lon":"5.54271000"},
{"state":"Auvergne-Rhône-Alpes","name":"Auzat-la-Combelle","lat":"45.45224000","lon":"3.31825000"},
{"state":"Auvergne-Rhône-Alpes","name":"Aveize","lat":"45.68243000","lon":"4.47786000"},
{"state":"Auvergne-Rhône-Alpes","name":"Aveizieux","lat":"45.56500000","lon":"4.37071000"},
{"state":"Auvergne-Rhône-Alpes","name":"Avermes","lat":"46.58774000","lon":"3.30720000"},
{"state":"Auvergne-Rhône-Alpes","name":"Aydat","lat":"45.66022000","lon":"2.97316000"},
{"state":"Auvergne-Rhône-Alpes","name":"Ayse","lat":"46.08135000","lon":"6.44550000"},
{"state":"Auvergne-Rhône-Alpes","name":"Bâgé-la-Ville","lat":"46.31567000","lon":"4.94086000"},
{"state":"Auvergne-Rhône-Alpes","name":"Bains","lat":"45.00956000","lon":"3.77503000"},
{"state":"Auvergne-Rhône-Alpes","name":"Balan","lat":"45.83416000","lon":"5.09930000"},
{"state":"Auvergne-Rhône-Alpes","name":"Balbigny","lat":"45.81913000","lon":"4.19030000"},
{"state":"Auvergne-Rhône-Alpes","name":"Ballaison","lat":"46.29842000","lon":"6.32765000"},
{"state":"Auvergne-Rhône-Alpes","name":"Barberaz","lat":"45.56179000","lon":"5.94306000"},
{"state":"Auvergne-Rhône-Alpes","name":"Barby","lat":"45.56810000","lon":"5.97966000"},
{"state":"Auvergne-Rhône-Alpes","name":"Barraux","lat":"45.43176000","lon":"5.97964000"},
{"state":"Auvergne-Rhône-Alpes","name":"Bas-en-Basset","lat":"45.30599000","lon":"4.10912000"},
{"state":"Auvergne-Rhône-Alpes","name":"Bassens","lat":"45.57555000","lon":"5.93900000"},
{"state":"Auvergne-Rhône-Alpes","name":"Beauchastel","lat":"44.82587000","lon":"4.80305000"},
{"state":"Auvergne-Rhône-Alpes","name":"Beaucroissant","lat":"45.34276000","lon":"5.47102000"},
{"state":"Auvergne-Rhône-Alpes","name":"Beaufort","lat":"45.71915000","lon":"6.57331000"},
{"state":"Auvergne-Rhône-Alpes","name":"Beaujeu","lat":"46.15428000","lon":"4.58826000"},
{"state":"Auvergne-Rhône-Alpes","name":"Beaulon","lat":"46.60156000","lon":"3.67314000"},
{"state":"Auvergne-Rhône-Alpes","name":"Beaumont","lat":"45.75165000","lon":"3.08294000"},
{"state":"Auvergne-Rhône-Alpes","name":"Beaumont-lès-Valence","lat":"44.86203000","lon":"4.94309000"},
{"state":"Auvergne-Rhône-Alpes","name":"Beaumont-Monteux","lat":"45.01980000","lon":"4.91883000"},
{"state":"Auvergne-Rhône-Alpes","name":"Beaurepaire","lat":"45.33658000","lon":"5.04878000"},
{"state":"Auvergne-Rhône-Alpes","name":"Beausemblant","lat":"45.21706000","lon":"4.83241000"},
{"state":"Auvergne-Rhône-Alpes","name":"Beauvallon","lat":"44.85593000","lon":"4.90756000"},
{"state":"Auvergne-Rhône-Alpes","name":"Beauvoir-de-Marc","lat":"45.52009000","lon":"5.07906000"},
{"state":"Auvergne-Rhône-Alpes","name":"Beauzac","lat":"45.25913000","lon":"4.09874000"},
{"state":"Auvergne-Rhône-Alpes","name":"Béligneux","lat":"45.86775000","lon":"5.12747000"},
{"state":"Auvergne-Rhône-Alpes","name":"Belle-Plagne","lat":"45.50932000","lon":"6.70685000"},
{"state":"Auvergne-Rhône-Alpes","name":"Bellegarde-en-Forez","lat":"45.64469000","lon":"4.29721000"},
{"state":"Auvergne-Rhône-Alpes","name":"Bellegarde-sur-Valserine","lat":"46.10787000","lon":"5.82421000"},
{"state":"Auvergne-Rhône-Alpes","name":"Bellenaves","lat":"46.20045000","lon":"3.07995000"},
{"state":"Auvergne-Rhône-Alpes","name":"Bellerive-sur-Allier","lat":"46.11652000","lon":"3.40406000"},
{"state":"Auvergne-Rhône-Alpes","name":"Bellevaux","lat":"46.25875000","lon":"6.53351000"},
{"state":"Auvergne-Rhône-Alpes","name":"Belleville","lat":"46.10867000","lon":"4.74920000"},
{"state":"Auvergne-Rhône-Alpes","name":"Belley","lat":"45.75917000","lon":"5.68813000"},
{"state":"Auvergne-Rhône-Alpes","name":"Bellignat","lat":"46.24237000","lon":"5.62843000"},
{"state":"Auvergne-Rhône-Alpes","name":"Belmont-de-la-Loire","lat":"46.16596000","lon":"4.34737000"},
{"state":"Auvergne-Rhône-Alpes","name":"Bernin","lat":"45.26772000","lon":"5.86457000"},
{"state":"Auvergne-Rhône-Alpes","name":"Bessay-sur-Allier","lat":"46.44199000","lon":"3.36257000"},
{"state":"Auvergne-Rhône-Alpes","name":"Besse-et-Saint-Anastaise","lat":"45.51667000","lon":"2.93333000"},
{"state":"Auvergne-Rhône-Alpes","name":"Bessenay","lat":"45.77661000","lon":"4.55441000"},
{"state":"Auvergne-Rhône-Alpes","name":"Beynost","lat":"45.83569000","lon":"4.99910000"},
{"state":"Auvergne-Rhône-Alpes","name":"Bilieu","lat":"45.44809000","lon":"5.54268000"},
{"state":"Auvergne-Rhône-Alpes","name":"Billom","lat":"45.72267000","lon":"3.33869000"},
{"state":"Auvergne-Rhône-Alpes","name":"Biol","lat":"45.49140000","lon":"5.38550000"},
{"state":"Auvergne-Rhône-Alpes","name":"Biviers","lat":"45.23333000","lon":"5.80000000"},
{"state":"Auvergne-Rhône-Alpes","name":"Blacé","lat":"46.03152000","lon":"4.64448000"},
{"state":"Auvergne-Rhône-Alpes","name":"Blanzat","lat":"45.82975000","lon":"3.07794000"},
{"state":"Auvergne-Rhône-Alpes","name":"Blavozy","lat":"45.05720000","lon":"3.97993000"},
{"state":"Auvergne-Rhône-Alpes","name":"Boëge","lat":"46.20711000","lon":"6.40428000"},
{"state":"Auvergne-Rhône-Alpes","name":"Boën-sur-Lignon","lat":"45.75114000","lon":"4.00725000"},
{"state":"Auvergne-Rhône-Alpes","name":"Bonne","lat":"46.17207000","lon":"6.32443000"},
{"state":"Auvergne-Rhône-Alpes","name":"Bonnefamille","lat":"45.59956000","lon":"5.12489000"},
{"state":"Auvergne-Rhône-Alpes","name":"Bonneville","lat":"46.08020000","lon":"6.40726000"},
{"state":"Auvergne-Rhône-Alpes","name":"Bons-en-Chablais","lat":"46.26486000","lon":"6.37129000"},
{"state":"Auvergne-Rhône-Alpes","name":"Bonson","lat":"45.52291000","lon":"4.21270000"},
{"state":"Auvergne-Rhône-Alpes","name":"Boulieu-lès-Annonay","lat":"45.27065000","lon":"4.66645000"},
{"state":"Auvergne-Rhône-Alpes","name":"Bourbon-l’Archambault","lat":"46.58324000","lon":"3.05652000"},
{"state":"Auvergne-Rhône-Alpes","name":"Bourg-Argental","lat":"45.29899000","lon":"4.56830000"},
{"state":"Auvergne-Rhône-Alpes","name":"Bourg-de-Péage","lat":"45.03151000","lon":"5.04993000"},
{"state":"Auvergne-Rhône-Alpes","name":"Bourg-de-Thizy","lat":"46.03371000","lon":"4.29904000"},
{"state":"Auvergne-Rhône-Alpes","name":"Bourg-en-Bresse","lat":"46.20574000","lon":"5.22580000"},
{"state":"Auvergne-Rhône-Alpes","name":"Bourg-lès-Valence","lat":"44.94703000","lon":"4.89463000"},
{"state":"Auvergne-Rhône-Alpes","name":"Bourg-Saint-Andéol","lat":"44.37338000","lon":"4.64413000"},
{"state":"Auvergne-Rhône-Alpes","name":"Bourg-Saint-Maurice","lat":"45.61463000","lon":"6.76845000"},
{"state":"Auvergne-Rhône-Alpes","name":"Bourgoin-Jallieu","lat":"45.58611000","lon":"5.27361000"},
{"state":"Auvergne-Rhône-Alpes","name":"Bournoncle-Saint-Pierre","lat":"45.34351000","lon":"3.31830000"},
{"state":"Auvergne-Rhône-Alpes","name":"Bouvesse-Quirieu","lat":"45.79310000","lon":"5.41496000"},
{"state":"Auvergne-Rhône-Alpes","name":"Bozel","lat":"45.44288000","lon":"6.64896000"},
{"state":"Auvergne-Rhône-Alpes","name":"Brassac-les-Mines","lat":"45.41407000","lon":"3.32900000"},
{"state":"Auvergne-Rhône-Alpes","name":"Brézins","lat":"45.35213000","lon":"5.30539000"},
{"state":"Auvergne-Rhône-Alpes","name":"Brié-et-Angonnes","lat":"45.12418000","lon":"5.78374000"},
{"state":"Auvergne-Rhône-Alpes","name":"Briennon","lat":"46.15127000","lon":"4.07690000"},
{"state":"Auvergne-Rhône-Alpes","name":"Brignais","lat":"45.67383000","lon":"4.75418000"},
{"state":"Auvergne-Rhône-Alpes","name":"Brindas","lat":"45.72111000","lon":"4.69349000"},
{"state":"Auvergne-Rhône-Alpes","name":"Brioude","lat":"45.29419000","lon":"3.38423000"},
{"state":"Auvergne-Rhône-Alpes","name":"Brison-Saint-Innocent","lat":"45.72440000","lon":"5.88895000"},
{"state":"Auvergne-Rhône-Alpes","name":"Brives-Charensac","lat":"45.04780000","lon":"3.92878000"},
{"state":"Auvergne-Rhône-Alpes","name":"Bron","lat":"45.73865000","lon":"4.91303000"},
{"state":"Auvergne-Rhône-Alpes","name":"Broût-Vernet","lat":"46.18756000","lon":"3.27324000"},
{"state":"Auvergne-Rhône-Alpes","name":"Brugheas","lat":"46.07676000","lon":"3.36780000"},
{"state":"Auvergne-Rhône-Alpes","name":"Buellas","lat":"46.21110000","lon":"5.13220000"},
{"state":"Auvergne-Rhône-Alpes","name":"Buis-les-Baronnies","lat":"44.27647000","lon":"5.27187000"},
{"state":"Auvergne-Rhône-Alpes","name":"Bully","lat":"45.85113000","lon":"4.58328000"},
{"state":"Auvergne-Rhône-Alpes","name":"Bussières","lat":"45.83570000","lon":"4.27123000"},
{"state":"Auvergne-Rhône-Alpes","name":"Buxières-les-Mines","lat":"46.46807000","lon":"2.95994000"},
{"state":"Auvergne-Rhône-Alpes","name":"Cailloux-sur-Fontaines","lat":"45.85259000","lon":"4.87473000"},
{"state":"Auvergne-Rhône-Alpes","name":"Caluire-et-Cuire","lat":"45.79462000","lon":"4.84640000"},
{"state":"Auvergne-Rhône-Alpes","name":"Cantal","lat":"45.13985000","lon":"2.64947000"},
{"state":"Auvergne-Rhône-Alpes","name":"Cébazat","lat":"45.83140000","lon":"3.09992000"},
{"state":"Auvergne-Rhône-Alpes","name":"Celles-sur-Durolle","lat":"45.85829000","lon":"3.63540000"},
{"state":"Auvergne-Rhône-Alpes","name":"Cellieu","lat":"45.51866000","lon":"4.54332000"},
{"state":"Auvergne-Rhône-Alpes","name":"Cérilly","lat":"46.61791000","lon":"2.82080000"},
{"state":"Auvergne-Rhône-Alpes","name":"Certines","lat":"46.13244000","lon":"5.26525000"},
{"state":"Auvergne-Rhône-Alpes","name":"Cessieu","lat":"45.56371000","lon":"5.37607000"},
{"state":"Auvergne-Rhône-Alpes","name":"Cessy","lat":"46.32032000","lon":"6.07477000"},
{"state":"Auvergne-Rhône-Alpes","name":"Ceyrat","lat":"45.73265000","lon":"3.06323000"},
{"state":"Auvergne-Rhône-Alpes","name":"Ceyzériat","lat":"46.18126000","lon":"5.31977000"},
{"state":"Auvergne-Rhône-Alpes","name":"Chabeuil","lat":"44.89843000","lon":"5.01438000"},
{"state":"Auvergne-Rhône-Alpes","name":"Châbons","lat":"45.44282000","lon":"5.42542000"},
{"state":"Auvergne-Rhône-Alpes","name":"Chabreloche","lat":"45.87900000","lon":"3.69664000"},
{"state":"Auvergne-Rhône-Alpes","name":"Chadrac","lat":"45.06181000","lon":"3.90261000"},
{"state":"Auvergne-Rhône-Alpes","name":"Chalamont","lat":"45.99734000","lon":"5.16865000"},
{"state":"Auvergne-Rhône-Alpes","name":"Chaleins","lat":"46.03165000","lon":"4.80789000"},
{"state":"Auvergne-Rhône-Alpes","name":"Challes-les-Eaux","lat":"45.54685000","lon":"5.98098000"},
{"state":"Auvergne-Rhône-Alpes","name":"Challex","lat":"46.18458000","lon":"5.97639000"},
{"state":"Auvergne-Rhône-Alpes","name":"Chamagnieu","lat":"45.68249000","lon":"5.16947000"},
{"state":"Auvergne-Rhône-Alpes","name":"Chamalières","lat":"45.77364000","lon":"3.06703000"},
{"state":"Auvergne-Rhône-Alpes","name":"Chambéry","lat":"45.56628000","lon":"5.92079000"},
{"state":"Auvergne-Rhône-Alpes","name":"Chambœuf","lat":"45.58333000","lon":"4.31667000"},
{"state":"Auvergne-Rhône-Alpes","name":"Chamonix-Mont-Blanc","lat":"45.92375000","lon":"6.86933000"},
{"state":"Auvergne-Rhône-Alpes","name":"Champ-sur-Drac","lat":"45.06940000","lon":"5.73151000"},
{"state":"Auvergne-Rhône-Alpes","name":"Champagnac","lat":"45.35660000","lon":"2.39942000"},
{"state":"Auvergne-Rhône-Alpes","name":"Champagne-au-Mont-d’Or","lat":"45.79475000","lon":"4.79079000"},
{"state":"Auvergne-Rhône-Alpes","name":"Champagnier","lat":"45.11155000","lon":"5.72716000"},
{"state":"Auvergne-Rhône-Alpes","name":"Champdieu","lat":"45.64533000","lon":"4.04705000"},
{"state":"Auvergne-Rhône-Alpes","name":"Champeix","lat":"45.58863000","lon":"3.12878000"},
{"state":"Auvergne-Rhône-Alpes","name":"Champier","lat":"45.45540000","lon":"5.29237000"},
{"state":"Auvergne-Rhône-Alpes","name":"Champs-sur-Tarentaine-Marchal","lat":"45.40000000","lon":"2.56667000"},
{"state":"Auvergne-Rhône-Alpes","name":"Chanas","lat":"45.31881000","lon":"4.81849000"},
{"state":"Auvergne-Rhône-Alpes","name":"Chandon","lat":"46.14925000","lon":"4.21393000"},
{"state":"Auvergne-Rhône-Alpes","name":"Chanonat","lat":"45.69299000","lon":"3.09351000"},
{"state":"Auvergne-Rhône-Alpes","name":"Chanos-Curson","lat":"45.06057000","lon":"4.92381000"},
{"state":"Auvergne-Rhône-Alpes","name":"Chantelle","lat":"46.23806000","lon":"3.15318000"},
{"state":"Auvergne-Rhône-Alpes","name":"Chapareillan","lat":"45.46513000","lon":"5.99171000"},
{"state":"Auvergne-Rhône-Alpes","name":"Chapdes-Beaufort","lat":"45.89277000","lon":"2.86362000"},
{"state":"Auvergne-Rhône-Alpes","name":"Chaponnay","lat":"45.62762000","lon":"4.93615000"},
{"state":"Auvergne-Rhône-Alpes","name":"Chaponost","lat":"45.71020000","lon":"4.74221000"},
{"state":"Auvergne-Rhône-Alpes","name":"Chappes","lat":"45.86848000","lon":"3.22068000"},
{"state":"Auvergne-Rhône-Alpes","name":"Charantonnay","lat":"45.53705000","lon":"5.11005000"},
{"state":"Auvergne-Rhône-Alpes","name":"Charavines","lat":"45.42891000","lon":"5.51492000"},
{"state":"Auvergne-Rhône-Alpes","name":"Charbonnières-les-Bains","lat":"45.78053000","lon":"4.74637000"},
{"state":"Auvergne-Rhône-Alpes","name":"Charbonnières-les-Varennes","lat":"45.90786000","lon":"2.99976000"},
{"state":"Auvergne-Rhône-Alpes","name":"Charentay","lat":"46.08897000","lon":"4.67921000"},
{"state":"Auvergne-Rhône-Alpes","name":"Charlieu","lat":"46.16202000","lon":"4.17228000"},
{"state":"Auvergne-Rhône-Alpes","name":"Charly","lat":"45.64887000","lon":"4.79461000"},
{"state":"Auvergne-Rhône-Alpes","name":"Charmes-sur-Rhône","lat":"44.86367000","lon":"4.83533000"},
{"state":"Auvergne-Rhône-Alpes","name":"Charnay","lat":"45.89058000","lon":"4.66821000"},
{"state":"Auvergne-Rhône-Alpes","name":"Charnècles","lat":"45.34398000","lon":"5.52799000"},
{"state":"Auvergne-Rhône-Alpes","name":"Charvieu-Chavagneux","lat":"45.75000000","lon":"5.15000000"},
{"state":"Auvergne-Rhône-Alpes","name":"Chassagny","lat":"45.60670000","lon":"4.73214000"},
{"state":"Auvergne-Rhône-Alpes","name":"Chasse-sur-Rhône","lat":"45.57850000","lon":"4.80985000"},
{"state":"Auvergne-Rhône-Alpes","name":"Chasselay","lat":"45.87440000","lon":"4.77237000"},
{"state":"Auvergne-Rhône-Alpes","name":"Chassieu","lat":"45.74584000","lon":"4.97088000"},
{"state":"Auvergne-Rhône-Alpes","name":"Château-Gaillard","lat":"45.97239000","lon":"5.30436000"},
{"state":"Auvergne-Rhône-Alpes","name":"Châteaugay","lat":"45.85117000","lon":"3.08482000"},
{"state":"Auvergne-Rhône-Alpes","name":"Châteauneuf","lat":"45.52457000","lon":"4.64044000"},
{"state":"Auvergne-Rhône-Alpes","name":"Châteauneuf-de-Galaure","lat":"45.22977000","lon":"4.95777000"},
{"state":"Auvergne-Rhône-Alpes","name":"Châteauneuf-du-Rhône","lat":"44.48906000","lon":"4.71706000"},
{"state":"Auvergne-Rhône-Alpes","name":"Châteauneuf-sur-Isère","lat":"45.01667000","lon":"4.93333000"},
{"state":"Auvergne-Rhône-Alpes","name":"Châtel","lat":"46.26495000","lon":"6.84030000"},
{"state":"Auvergne-Rhône-Alpes","name":"Châtel-Guyon","lat":"45.92258000","lon":"3.06423000"},
{"state":"Auvergne-Rhône-Alpes","name":"Châtillon","lat":"45.80091000","lon":"5.84352000"},
{"state":"Auvergne-Rhône-Alpes","name":"Châtillon-en-Michaille","lat":"46.14320000","lon":"5.79950000"},
{"state":"Auvergne-Rhône-Alpes","name":"Châtillon-la-Palud","lat":"45.97171000","lon":"5.25290000"},
{"state":"Auvergne-Rhône-Alpes","name":"Châtillon-sur-Chalaronne","lat":"46.11834000","lon":"4.95656000"},
{"state":"Auvergne-Rhône-Alpes","name":"Châtillon-sur-Cluses","lat":"46.08765000","lon":"6.58041000"},
{"state":"Auvergne-Rhône-Alpes","name":"Châtonnay","lat":"45.48734000","lon":"5.21168000"},
{"state":"Auvergne-Rhône-Alpes","name":"Chatte","lat":"45.14248000","lon":"5.28224000"},
{"state":"Auvergne-Rhône-Alpes","name":"Chatuzange-le-Goubet","lat":"45.00359000","lon":"5.09079000"},
{"state":"Auvergne-Rhône-Alpes","name":"Chaudes-Aigues","lat":"44.85455000","lon":"3.00406000"},
{"state":"Auvergne-Rhône-Alpes","name":"Chauriat","lat":"45.75127000","lon":"3.27895000"},
{"state":"Auvergne-Rhône-Alpes","name":"Chavanay","lat":"45.41647000","lon":"4.72602000"},
{"state":"Auvergne-Rhône-Alpes","name":"Chavanod","lat":"45.89005000","lon":"6.03928000"},
{"state":"Auvergne-Rhône-Alpes","name":"Chavanoz","lat":"45.76846000","lon":"5.18808000"},
{"state":"Auvergne-Rhône-Alpes","name":"Chazelles-sur-Lyon","lat":"45.63779000","lon":"4.38890000"},
{"state":"Auvergne-Rhône-Alpes","name":"Chazey-sur-Ain","lat":"45.89300000","lon":"5.25352000"},
{"state":"Auvergne-Rhône-Alpes","name":"Chens-sur-Léman","lat":"46.32459000","lon":"6.27075000"},
{"state":"Auvergne-Rhône-Alpes","name":"Chessy","lat":"45.88716000","lon":"4.62339000"},
{"state":"Auvergne-Rhône-Alpes","name":"Chevry","lat":"46.28136000","lon":"6.03873000"},
{"state":"Auvergne-Rhône-Alpes","name":"Chilly","lat":"45.99185000","lon":"5.95477000"},
{"state":"Auvergne-Rhône-Alpes","name":"Chimilin","lat":"45.57490000","lon":"5.59569000"},
{"state":"Auvergne-Rhône-Alpes","name":"Chindrieux","lat":"45.81948000","lon":"5.85024000"},
{"state":"Auvergne-Rhône-Alpes","name":"Chirens","lat":"45.41024000","lon":"5.55634000"},
{"state":"Auvergne-Rhône-Alpes","name":"Choisy","lat":"45.99359000","lon":"6.05866000"},
{"state":"Auvergne-Rhône-Alpes","name":"Chomérac","lat":"44.70752000","lon":"4.66164000"},
{"state":"Auvergne-Rhône-Alpes","name":"Chuzelles","lat":"45.58481000","lon":"4.87703000"},
{"state":"Auvergne-Rhône-Alpes","name":"Civens","lat":"45.77964000","lon":"4.25170000"},
{"state":"Auvergne-Rhône-Alpes","name":"Civrieux","lat":"45.92086000","lon":"4.88249000"},
{"state":"Auvergne-Rhône-Alpes","name":"Claix","lat":"45.11994000","lon":"5.67292000"},
{"state":"Auvergne-Rhône-Alpes","name":"Clérieux","lat":"45.07591000","lon":"4.95983000"},
{"state":"Auvergne-Rhône-Alpes","name":"Clermont-Ferrand","lat":"45.77969000","lon":"3.08682000"},
{"state":"Auvergne-Rhône-Alpes","name":"Clonas-sur-Varèze","lat":"45.41382000","lon":"4.79077000"},
{"state":"Auvergne-Rhône-Alpes","name":"Cluses","lat":"46.06251000","lon":"6.57497000"},
{"state":"Auvergne-Rhône-Alpes","name":"Cognin","lat":"45.55952000","lon":"5.89113000"},
{"state":"Auvergne-Rhône-Alpes","name":"Cogny","lat":"45.98747000","lon":"4.62475000"},
{"state":"Auvergne-Rhône-Alpes","name":"Coise","lat":"45.52822000","lon":"6.14389000"},
{"state":"Auvergne-Rhône-Alpes","name":"Coligny","lat":"46.38252000","lon":"5.34554000"},
{"state":"Auvergne-Rhône-Alpes","name":"Collonges","lat":"46.13819000","lon":"5.90506000"},
{"state":"Auvergne-Rhône-Alpes","name":"Collonges-sous-Salève","lat":"46.14160000","lon":"6.15372000"},
{"state":"Auvergne-Rhône-Alpes","name":"Colombe","lat":"45.40024000","lon":"5.45441000"},
{"state":"Auvergne-Rhône-Alpes","name":"Combloux","lat":"45.89790000","lon":"6.64420000"},
{"state":"Auvergne-Rhône-Alpes","name":"Combronde","lat":"45.98099000","lon":"3.08807000"},
{"state":"Auvergne-Rhône-Alpes","name":"Commelle","lat":"46.00086000","lon":"4.05794000"},
{"state":"Auvergne-Rhône-Alpes","name":"Commentry","lat":"46.28876000","lon":"2.74163000"},
{"state":"Auvergne-Rhône-Alpes","name":"Communay","lat":"45.60442000","lon":"4.83488000"},
{"state":"Auvergne-Rhône-Alpes","name":"Condat","lat":"45.34093000","lon":"2.75791000"},
{"state":"Auvergne-Rhône-Alpes","name":"Condrieu","lat":"45.46300000","lon":"4.76765000"},
{"state":"Auvergne-Rhône-Alpes","name":"Contamine-sur-Arve","lat":"46.14223000","lon":"6.33215000"},
{"state":"Auvergne-Rhône-Alpes","name":"Corbas","lat":"45.66798000","lon":"4.90198000"},
{"state":"Auvergne-Rhône-Alpes","name":"Corbelin","lat":"45.60733000","lon":"5.54261000"},
{"state":"Auvergne-Rhône-Alpes","name":"Cordon","lat":"45.92099000","lon":"6.60536000"},
{"state":"Auvergne-Rhône-Alpes","name":"Corenc","lat":"45.21889000","lon":"5.76497000"},
{"state":"Auvergne-Rhône-Alpes","name":"Cornas","lat":"44.96382000","lon":"4.84839000"},
{"state":"Auvergne-Rhône-Alpes","name":"Cornier","lat":"46.09304000","lon":"6.29895000"},
{"state":"Auvergne-Rhône-Alpes","name":"Coublevie","lat":"45.35856000","lon":"5.61146000"},
{"state":"Auvergne-Rhône-Alpes","name":"Coubon","lat":"44.99731000","lon":"3.91783000"},
{"state":"Auvergne-Rhône-Alpes","name":"Courchevel","lat":"45.41538000","lon":"6.63643000"},
{"state":"Auvergne-Rhône-Alpes","name":"Cournon-d’Auvergne","lat":"45.74123000","lon":"3.19643000"},
{"state":"Auvergne-Rhône-Alpes","name":"Courpière","lat":"45.75689000","lon":"3.54216000"},
{"state":"Auvergne-Rhône-Alpes","name":"Cours-la-Ville","lat":"46.10000000","lon":"4.31667000"},
{"state":"Auvergne-Rhône-Alpes","name":"Courzieu","lat":"45.74270000","lon":"4.57084000"},
{"state":"Auvergne-Rhône-Alpes","name":"Coutouvre","lat":"46.07303000","lon":"4.20535000"},
{"state":"Auvergne-Rhône-Alpes","name":"Coux","lat":"44.73484000","lon":"4.62057000"},
{"state":"Auvergne-Rhône-Alpes","name":"Couzon-au-Mont-d’Or","lat":"45.84436000","lon":"4.82883000"},
{"state":"Auvergne-Rhône-Alpes","name":"Cran-Gevrier","lat":"45.90000000","lon":"6.10000000"},
{"state":"Auvergne-Rhône-Alpes","name":"Cranves-Sales","lat":"46.18799000","lon":"6.29903000"},
{"state":"Auvergne-Rhône-Alpes","name":"Craponne","lat":"45.74526000","lon":"4.72322000"},
{"state":"Auvergne-Rhône-Alpes","name":"Craponne-sur-Arzon","lat":"45.33092000","lon":"3.84817000"},
{"state":"Auvergne-Rhône-Alpes","name":"Crémieu","lat":"45.72557000","lon":"5.24911000"},
{"state":"Auvergne-Rhône-Alpes","name":"Crest","lat":"44.72639000","lon":"5.01517000"},
{"state":"Auvergne-Rhône-Alpes","name":"Creuzier-le-Vieux","lat":"46.16253000","lon":"3.43311000"},
{"state":"Auvergne-Rhône-Alpes","name":"Creys-Mépieu","lat":"45.73333000","lon":"5.48333000"},
{"state":"Auvergne-Rhône-Alpes","name":"Crolles","lat":"45.27724000","lon":"5.87837000"},
{"state":"Auvergne-Rhône-Alpes","name":"Crottet","lat":"46.27602000","lon":"4.89388000"},
{"state":"Auvergne-Rhône-Alpes","name":"Cruas","lat":"44.65706000","lon":"4.76293000"},
{"state":"Auvergne-Rhône-Alpes","name":"Cruet","lat":"45.52890000","lon":"6.09220000"},
{"state":"Auvergne-Rhône-Alpes","name":"Cruseilles","lat":"46.02980000","lon":"6.10831000"},
{"state":"Auvergne-Rhône-Alpes","name":"Cublize","lat":"46.01810000","lon":"4.37738000"},
{"state":"Auvergne-Rhône-Alpes","name":"Cuisiat","lat":"46.30021000","lon":"5.38809000"},
{"state":"Auvergne-Rhône-Alpes","name":"Culhat","lat":"45.86259000","lon":"3.33676000"},
{"state":"Auvergne-Rhône-Alpes","name":"Culoz","lat":"45.84886000","lon":"5.78537000"},
{"state":"Auvergne-Rhône-Alpes","name":"Cunlhat","lat":"45.63198000","lon":"3.55927000"},
{"state":"Auvergne-Rhône-Alpes","name":"Curtin","lat":"45.64353000","lon":"5.48982000"},
{"state":"Auvergne-Rhône-Alpes","name":"Cussac-sur-Loire","lat":"44.98807000","lon":"3.88416000"},
{"state":"Auvergne-Rhône-Alpes","name":"Cusset","lat":"46.13452000","lon":"3.45639000"},
{"state":"Auvergne-Rhône-Alpes","name":"Cusy","lat":"45.76603000","lon":"6.02825000"},
{"state":"Auvergne-Rhône-Alpes","name":"Cuzieu","lat":"45.60764000","lon":"4.25761000"},
{"state":"Auvergne-Rhône-Alpes","name":"Dagneux","lat":"45.85140000","lon":"5.07780000"},
{"state":"Auvergne-Rhône-Alpes","name":"Dallet","lat":"45.77047000","lon":"3.23875000"},
{"state":"Auvergne-Rhône-Alpes","name":"Dardilly","lat":"45.80558000","lon":"4.75319000"},
{"state":"Auvergne-Rhône-Alpes","name":"Davézieux","lat":"45.25520000","lon":"4.70744000"},
{"state":"Auvergne-Rhône-Alpes","name":"Décines-Charpieu","lat":"45.76873000","lon":"4.95883000"},
{"state":"Auvergne-Rhône-Alpes","name":"Denicé","lat":"46.00158000","lon":"4.64555000"},
{"state":"Auvergne-Rhône-Alpes","name":"Département de l'Ain","lat":"46.16667000","lon":"5.33333000"},
{"state":"Auvergne-Rhône-Alpes","name":"Département de l'Allier","lat":"46.50000000","lon":"3.00000000"},
{"state":"Auvergne-Rhône-Alpes","name":"Département de l'Ardèche","lat":"44.66667000","lon":"4.33333000"},
{"state":"Auvergne-Rhône-Alpes","name":"Département de l'Isère","lat":"45.16667000","lon":"5.83333000"},
{"state":"Auvergne-Rhône-Alpes","name":"Département de la Drôme","lat":"44.69971000","lon":"5.16521000"},
{"state":"Auvergne-Rhône-Alpes","name":"Département de la Loire","lat":"45.47169000","lon":"4.43298000"},
{"state":"Auvergne-Rhône-Alpes","name":"Département du Puy-de-Dôme","lat":"45.70549000","lon":"3.14600000"},
{"state":"Auvergne-Rhône-Alpes","name":"Département du Rhône","lat":"45.89126000","lon":"4.53039000"},
{"state":"Auvergne-Rhône-Alpes","name":"Désaignes","lat":"44.99466000","lon":"4.51695000"},
{"state":"Auvergne-Rhône-Alpes","name":"Désertines","lat":"46.35456000","lon":"2.61924000"},
{"state":"Auvergne-Rhône-Alpes","name":"Die","lat":"44.75360000","lon":"5.37033000"},
{"state":"Auvergne-Rhône-Alpes","name":"Diémoz","lat":"45.59099000","lon":"5.08884000"},
{"state":"Auvergne-Rhône-Alpes","name":"Dieulefit","lat":"44.52563000","lon":"5.06180000"},
{"state":"Auvergne-Rhône-Alpes","name":"Dingy-Saint-Clair","lat":"45.90664000","lon":"6.22554000"},
{"state":"Auvergne-Rhône-Alpes","name":"Diou","lat":"46.53432000","lon":"3.74453000"},
{"state":"Auvergne-Rhône-Alpes","name":"Divonne-les-Bains","lat":"46.35710000","lon":"6.13494000"},
{"state":"Auvergne-Rhône-Alpes","name":"Dolomieu","lat":"45.60540000","lon":"5.48571000"},
{"state":"Auvergne-Rhône-Alpes","name":"Domancy","lat":"45.91205000","lon":"6.65271000"},
{"state":"Auvergne-Rhône-Alpes","name":"Domarin","lat":"45.58662000","lon":"5.24599000"},
{"state":"Auvergne-Rhône-Alpes","name":"Domène","lat":"45.20289000","lon":"5.83335000"},
{"state":"Auvergne-Rhône-Alpes","name":"Domérat","lat":"46.36036000","lon":"2.53455000"},
{"state":"Auvergne-Rhône-Alpes","name":"Domessin","lat":"45.54739000","lon":"5.70495000"},
{"state":"Auvergne-Rhône-Alpes","name":"Dompierre-sur-Besbre","lat":"46.52214000","lon":"3.68106000"},
{"state":"Auvergne-Rhône-Alpes","name":"Dompierre-sur-Veyle","lat":"46.07108000","lon":"5.20232000"},
{"state":"Auvergne-Rhône-Alpes","name":"Donzère","lat":"44.44246000","lon":"4.71134000"},
{"state":"Auvergne-Rhône-Alpes","name":"Dortan","lat":"46.31973000","lon":"5.66028000"},
{"state":"Auvergne-Rhône-Alpes","name":"Doussard","lat":"45.77512000","lon":"6.22553000"},
{"state":"Auvergne-Rhône-Alpes","name":"Douvaine","lat":"46.30544000","lon":"6.30375000"},
{"state":"Auvergne-Rhône-Alpes","name":"Doyet","lat":"46.33558000","lon":"2.79718000"},
{"state":"Auvergne-Rhône-Alpes","name":"Drumettaz","lat":"45.66136000","lon":"5.92191000"},
{"state":"Auvergne-Rhône-Alpes","name":"Dunières","lat":"45.21558000","lon":"4.34471000"},
{"state":"Auvergne-Rhône-Alpes","name":"Durtol","lat":"45.79621000","lon":"3.05156000"},
{"state":"Auvergne-Rhône-Alpes","name":"Ébreuil","lat":"46.11548000","lon":"3.08677000"},
{"state":"Auvergne-Rhône-Alpes","name":"Échalas","lat":"45.55203000","lon":"4.71544000"},
{"state":"Auvergne-Rhône-Alpes","name":"Échenevex","lat":"46.30923000","lon":"6.03963000"},
{"state":"Auvergne-Rhône-Alpes","name":"Échirolles","lat":"45.14603000","lon":"5.71441000"},
{"state":"Auvergne-Rhône-Alpes","name":"Écully","lat":"45.77437000","lon":"4.77758000"},
{"state":"Auvergne-Rhône-Alpes","name":"Ennezat","lat":"45.89772000","lon":"3.22348000"},
{"state":"Auvergne-Rhône-Alpes","name":"Entre-Deux-Guiers","lat":"45.43061000","lon":"5.75209000"},
{"state":"Auvergne-Rhône-Alpes","name":"Enval","lat":"45.89921000","lon":"3.04981000"},
{"state":"Auvergne-Rhône-Alpes","name":"Épagny","lat":"45.93584000","lon":"6.08302000"},
{"state":"Auvergne-Rhône-Alpes","name":"Épinouze","lat":"45.31003000","lon":"4.92936000"},
{"state":"Auvergne-Rhône-Alpes","name":"Escoutoux","lat":"45.81942000","lon":"3.56336000"},
{"state":"Auvergne-Rhône-Alpes","name":"Espaly-Saint-Marcel","lat":"45.04790000","lon":"3.86557000"},
{"state":"Auvergne-Rhône-Alpes","name":"Estivareilles","lat":"46.42526000","lon":"2.61872000"},
{"state":"Auvergne-Rhône-Alpes","name":"Estrablin","lat":"45.51546000","lon":"4.96173000"},
{"state":"Auvergne-Rhône-Alpes","name":"Etaux","lat":"46.06835000","lon":"6.29533000"},
{"state":"Auvergne-Rhône-Alpes","name":"Étoile-sur-Rhône","lat":"44.83883000","lon":"4.89050000"},
{"state":"Auvergne-Rhône-Alpes","name":"Étrembières","lat":"46.17923000","lon":"6.22725000"},
{"state":"Auvergne-Rhône-Alpes","name":"Eurre","lat":"44.75825000","lon":"4.98843000"},
{"state":"Auvergne-Rhône-Alpes","name":"Évian-les-Bains","lat":"46.40111000","lon":"6.58793000"},
{"state":"Auvergne-Rhône-Alpes","name":"Évires","lat":"46.03783000","lon":"6.22453000"},
{"state":"Auvergne-Rhône-Alpes","name":"Eybens","lat":"45.14771000","lon":"5.75014000"},
{"state":"Auvergne-Rhône-Alpes","name":"Eyzin-Pinet","lat":"45.47377000","lon":"4.99845000"},
{"state":"Auvergne-Rhône-Alpes","name":"Fareins","lat":"46.01913000","lon":"4.76136000"},
{"state":"Auvergne-Rhône-Alpes","name":"Farnay","lat":"45.49622000","lon":"4.58311000"},
{"state":"Auvergne-Rhône-Alpes","name":"Faverges","lat":"45.75116000","lon":"6.29151000"},
{"state":"Auvergne-Rhône-Alpes","name":"Faverges-de-la-Tour","lat":"45.59068000","lon":"5.52136000"},
{"state":"Auvergne-Rhône-Alpes","name":"Feigères","lat":"46.11228000","lon":"6.07937000"},
{"state":"Auvergne-Rhône-Alpes","name":"Feillens","lat":"46.33426000","lon":"4.89146000"},
{"state":"Auvergne-Rhône-Alpes","name":"Félines","lat":"45.31668000","lon":"4.72836000"},
{"state":"Auvergne-Rhône-Alpes","name":"Ferney-Voltaire","lat":"46.25858000","lon":"6.11063000"},
{"state":"Auvergne-Rhône-Alpes","name":"Féternes","lat":"46.35582000","lon":"6.54829000"},
{"state":"Auvergne-Rhône-Alpes","name":"Feurs","lat":"45.73337000","lon":"4.22755000"},
{"state":"Auvergne-Rhône-Alpes","name":"Feyzin","lat":"45.67287000","lon":"4.85894000"},
{"state":"Auvergne-Rhône-Alpes","name":"Fillinges","lat":"46.15944000","lon":"6.34237000"},
{"state":"Auvergne-Rhône-Alpes","name":"Firminy","lat":"45.38956000","lon":"4.28860000"},
{"state":"Auvergne-Rhône-Alpes","name":"Fitilieu","lat":"45.54744000","lon":"5.56194000"},
{"state":"Auvergne-Rhône-Alpes","name":"Flaviac","lat":"44.74777000","lon":"4.67434000"},
{"state":"Auvergne-Rhône-Alpes","name":"Fleurie","lat":"46.19219000","lon":"4.69747000"},
{"state":"Auvergne-Rhône-Alpes","name":"Fleurieu-sur-Saône","lat":"45.86095000","lon":"4.84633000"},
{"state":"Auvergne-Rhône-Alpes","name":"Foissiat","lat":"46.37150000","lon":"5.17525000"},
{"state":"Auvergne-Rhône-Alpes","name":"Fontaine","lat":"45.19275000","lon":"5.68821000"},
{"state":"Auvergne-Rhône-Alpes","name":"Fontaines-Saint-Martin","lat":"45.84420000","lon":"4.85305000"},
{"state":"Auvergne-Rhône-Alpes","name":"Fontaines-sur-Saône","lat":"45.83572000","lon":"4.84490000"},
{"state":"Auvergne-Rhône-Alpes","name":"Fontanil-Cornillon","lat":"45.25280000","lon":"5.66308000"},
{"state":"Auvergne-Rhône-Alpes","name":"Fontannes","lat":"45.30149000","lon":"3.76366000"},
{"state":"Auvergne-Rhône-Alpes","name":"Fraisses","lat":"45.38838000","lon":"4.26373000"},
{"state":"Auvergne-Rhône-Alpes","name":"Francheleins","lat":"46.07440000","lon":"4.80920000"},
{"state":"Auvergne-Rhône-Alpes","name":"Francheville","lat":"45.73637000","lon":"4.76358000"},
{"state":"Auvergne-Rhône-Alpes","name":"Frangy","lat":"46.02000000","lon":"5.93220000"},
{"state":"Auvergne-Rhône-Alpes","name":"Frans","lat":"45.99291000","lon":"4.77820000"},
{"state":"Auvergne-Rhône-Alpes","name":"Froges","lat":"45.27377000","lon":"5.92098000"},
{"state":"Auvergne-Rhône-Alpes","name":"Frontenex","lat":"45.63335000","lon":"6.31168000"},
{"state":"Auvergne-Rhône-Alpes","name":"Frontonas","lat":"45.64487000","lon":"5.19701000"},
{"state":"Auvergne-Rhône-Alpes","name":"Gaillard","lat":"46.18530000","lon":"6.20693000"},
{"state":"Auvergne-Rhône-Alpes","name":"Gannat","lat":"46.09987000","lon":"3.19842000"},
{"state":"Auvergne-Rhône-Alpes","name":"Gelles","lat":"45.76947000","lon":"2.76309000"},
{"state":"Auvergne-Rhône-Alpes","name":"Genas","lat":"45.73131000","lon":"5.00211000"},
{"state":"Auvergne-Rhône-Alpes","name":"Genay","lat":"45.89681000","lon":"4.84091000"},
{"state":"Auvergne-Rhône-Alpes","name":"Génissieux","lat":"45.08413000","lon":"5.08133000"},
{"state":"Auvergne-Rhône-Alpes","name":"Gerzat","lat":"45.82581000","lon":"3.14473000"},
{"state":"Auvergne-Rhône-Alpes","name":"Gex","lat":"46.33323000","lon":"6.05766000"},
{"state":"Auvergne-Rhône-Alpes","name":"Gières","lat":"45.17997000","lon":"5.78935000"},
{"state":"Auvergne-Rhône-Alpes","name":"Gillonnay","lat":"45.39251000","lon":"5.29413000"},
{"state":"Auvergne-Rhône-Alpes","name":"Gilly-sur-Isère","lat":"45.65917000","lon":"6.35096000"},
{"state":"Auvergne-Rhône-Alpes","name":"Givors","lat":"45.59063000","lon":"4.76878000"},
{"state":"Auvergne-Rhône-Alpes","name":"Gleizé","lat":"45.98916000","lon":"4.69708000"},
{"state":"Auvergne-Rhône-Alpes","name":"Goncelin","lat":"45.34428000","lon":"5.97896000"},
{"state":"Auvergne-Rhône-Alpes","name":"Grandris","lat":"46.03780000","lon":"4.47526000"},
{"state":"Auvergne-Rhône-Alpes","name":"Grane","lat":"44.73255000","lon":"4.92203000"},
{"state":"Auvergne-Rhône-Alpes","name":"Grenay","lat":"45.66347000","lon":"5.08031000"},
{"state":"Auvergne-Rhône-Alpes","name":"Grenoble","lat":"45.17869000","lon":"5.71479000"},
{"state":"Auvergne-Rhône-Alpes","name":"Grésy-sur-Aix","lat":"45.72311000","lon":"5.92522000"},
{"state":"Auvergne-Rhône-Alpes","name":"Grésy-sur-Isère","lat":"45.59898000","lon":"6.25358000"},
{"state":"Auvergne-Rhône-Alpes","name":"Grézieu-la-Varenne","lat":"45.74736000","lon":"4.69037000"},
{"state":"Auvergne-Rhône-Alpes","name":"Grièges","lat":"46.25619000","lon":"4.84856000"},
{"state":"Auvergne-Rhône-Alpes","name":"Grignan","lat":"44.41967000","lon":"4.90785000"},
{"state":"Auvergne-Rhône-Alpes","name":"Grignon","lat":"45.65122000","lon":"6.37795000"},
{"state":"Auvergne-Rhône-Alpes","name":"Grigny","lat":"45.60843000","lon":"4.78976000"},
{"state":"Auvergne-Rhône-Alpes","name":"Groissiat","lat":"46.22213000","lon":"5.60775000"},
{"state":"Auvergne-Rhône-Alpes","name":"Groisy","lat":"46.01008000","lon":"6.16983000"},
{"state":"Auvergne-Rhône-Alpes","name":"Gruffy","lat":"45.78897000","lon":"6.05648000"},
{"state":"Auvergne-Rhône-Alpes","name":"Guéreins","lat":"46.10346000","lon":"4.77275000"},
{"state":"Auvergne-Rhône-Alpes","name":"Guilherand-Granges","lat":"44.93278000","lon":"4.87372000"},
{"state":"Auvergne-Rhône-Alpes","name":"Haute-Loire","lat":"45.11001000","lon":"3.83940000"},
{"state":"Auvergne-Rhône-Alpes","name":"Haute-Rivoire","lat":"45.71559000","lon":"4.39633000"},
{"state":"Auvergne-Rhône-Alpes","name":"Haute-Savoie","lat":"46.06143000","lon":"6.45374000"},
{"state":"Auvergne-Rhône-Alpes","name":"Hauterive","lat":"46.08834000","lon":"3.44626000"},
{"state":"Auvergne-Rhône-Alpes","name":"Hauterives","lat":"45.25565000","lon":"5.01904000"},
{"state":"Auvergne-Rhône-Alpes","name":"Hauteville-Lompnes","lat":"45.97794000","lon":"5.60114000"},
{"state":"Auvergne-Rhône-Alpes","name":"Herbeys","lat":"45.14012000","lon":"5.79289000"},
{"state":"Auvergne-Rhône-Alpes","name":"Heyrieux","lat":"45.63186000","lon":"5.06284000"},
{"state":"Auvergne-Rhône-Alpes","name":"Hières-sur-Amby","lat":"45.79654000","lon":"5.29333000"},
{"state":"Auvergne-Rhône-Alpes","name":"Huez","lat":"45.08240000","lon":"6.05878000"},
{"state":"Auvergne-Rhône-Alpes","name":"Huriel","lat":"46.37299000","lon":"2.47679000"},
{"state":"Auvergne-Rhône-Alpes","name":"Irigny","lat":"45.67313000","lon":"4.82243000"},
{"state":"Auvergne-Rhône-Alpes","name":"Issoire","lat":"45.54422000","lon":"3.24901000"},
{"state":"Auvergne-Rhône-Alpes","name":"Izeaux","lat":"45.33473000","lon":"5.42486000"},
{"state":"Auvergne-Rhône-Alpes","name":"Izernore","lat":"46.21352000","lon":"5.55200000"},
{"state":"Auvergne-Rhône-Alpes","name":"Jacob-Bellecombette","lat":"45.55763000","lon":"5.91484000"},
{"state":"Auvergne-Rhône-Alpes","name":"Janneyrias","lat":"45.75221000","lon":"5.11277000"},
{"state":"Auvergne-Rhône-Alpes","name":"Jardin","lat":"45.49638000","lon":"4.90847000"},
{"state":"Auvergne-Rhône-Alpes","name":"Jarrie","lat":"45.11732000","lon":"5.75957000"},
{"state":"Auvergne-Rhône-Alpes","name":"Jassans-Riottier","lat":"45.98134000","lon":"4.76140000"},
{"state":"Auvergne-Rhône-Alpes","name":"Jasseron","lat":"46.21316000","lon":"5.32579000"},
{"state":"Auvergne-Rhône-Alpes","name":"Jaujac","lat":"44.63695000","lon":"4.25638000"},
{"state":"Auvergne-Rhône-Alpes","name":"Job","lat":"45.61607000","lon":"3.74542000"},
{"state":"Auvergne-Rhône-Alpes","name":"Jonage","lat":"45.79638000","lon":"5.04664000"},
{"state":"Auvergne-Rhône-Alpes","name":"Jons","lat":"45.80823000","lon":"5.08070000"},
{"state":"Auvergne-Rhône-Alpes","name":"Jonzieux","lat":"45.31355000","lon":"4.36158000"},
{"state":"Auvergne-Rhône-Alpes","name":"Joyeuse","lat":"44.47951000","lon":"4.23778000"},
{"state":"Auvergne-Rhône-Alpes","name":"Jujurieux","lat":"46.04122000","lon":"5.40855000"},
{"state":"Auvergne-Rhône-Alpes","name":"Jussac","lat":"44.98764000","lon":"2.42308000"},
{"state":"Auvergne-Rhône-Alpes","name":"L’Étrat","lat":"45.48610000","lon":"4.37586000"},
{"state":"Auvergne-Rhône-Alpes","name":"L’Isle-d’Abeau","lat":"45.61960000","lon":"5.22466000"},
{"state":"Auvergne-Rhône-Alpes","name":"La Balme-de-Sillingy","lat":"45.96890000","lon":"6.04187000"},
{"state":"Auvergne-Rhône-Alpes","name":"La Bâthie","lat":"45.62829000","lon":"6.44900000"},
{"state":"Auvergne-Rhône-Alpes","name":"La Bâtie-Montgascon","lat":"45.57745000","lon":"5.52873000"},
{"state":"Auvergne-Rhône-Alpes","name":"La Bégude-de-Mazenc","lat":"44.54298000","lon":"4.93403000"},
{"state":"Auvergne-Rhône-Alpes","name":"La Biolle","lat":"45.75846000","lon":"5.92866000"},
{"state":"Auvergne-Rhône-Alpes","name":"La Boisse","lat":"45.84278000","lon":"5.03639000"},
{"state":"Auvergne-Rhône-Alpes","name":"La Bourboule","lat":"45.58829000","lon":"2.73920000"},
{"state":"Auvergne-Rhône-Alpes","name":"La Bridoire","lat":"45.52504000","lon":"5.74073000"},
{"state":"Auvergne-Rhône-Alpes","name":"La Buisse","lat":"45.34644000","lon":"5.61435000"},
{"state":"Auvergne-Rhône-Alpes","name":"La Chambre","lat":"45.35862000","lon":"6.29978000"},
{"state":"Auvergne-Rhône-Alpes","name":"La Chapelle-de-la-Tour","lat":"45.58484000","lon":"5.46360000"},
{"state":"Auvergne-Rhône-Alpes","name":"La Clusaz","lat":"45.90675000","lon":"6.43445000"},
{"state":"Auvergne-Rhône-Alpes","name":"La Côte-Saint-André","lat":"45.39447000","lon":"5.25908000"},
{"state":"Auvergne-Rhône-Alpes","name":"La Fouillouse","lat":"45.50462000","lon":"4.31524000"},
{"state":"Auvergne-Rhône-Alpes","name":"La Garde-Adhémar","lat":"44.39699000","lon":"4.75759000"},
{"state":"Auvergne-Rhône-Alpes","name":"La Grand-Croix","lat":"45.50383000","lon":"4.55915000"},
{"state":"Auvergne-Rhône-Alpes","name":"La Monnerie-le-Montel","lat":"45.87106000","lon":"3.60110000"},
{"state":"Auvergne-Rhône-Alpes","name":"La Motte-d’Aveillans","lat":"44.96015000","lon":"5.74409000"},
{"state":"Auvergne-Rhône-Alpes","name":"La Motte-Saint-Martin","lat":"44.95131000","lon":"5.71814000"},
{"state":"Auvergne-Rhône-Alpes","name":"La Motte-Servolex","lat":"45.59702000","lon":"5.86724000"},
{"state":"Auvergne-Rhône-Alpes","name":"La Mulatière","lat":"45.72818000","lon":"4.81213000"},
{"state":"Auvergne-Rhône-Alpes","name":"La Mure","lat":"44.90145000","lon":"5.78874000"},
{"state":"Auvergne-Rhône-Alpes","name":"La Murette","lat":"45.37891000","lon":"5.54200000"},
{"state":"Auvergne-Rhône-Alpes","name":"La Pacaudière","lat":"46.17879000","lon":"3.86252000"},
{"state":"Auvergne-Rhône-Alpes","name":"La Ravoire","lat":"45.56266000","lon":"5.95826000"},
{"state":"Auvergne-Rhône-Alpes","name":"La Ricamarie","lat":"45.40536000","lon":"4.36944000"},
{"state":"Auvergne-Rhône-Alpes","name":"La Roche-Blanche","lat":"45.70062000","lon":"3.12629000"},
{"state":"Auvergne-Rhône-Alpes","name":"La Roche-de-Glun","lat":"45.01336000","lon":"4.84488000"},
{"state":"Auvergne-Rhône-Alpes","name":"La Roche-sur-Foron","lat":"46.07111000","lon":"6.30450000"},
{"state":"Auvergne-Rhône-Alpes","name":"La Rochette","lat":"45.45758000","lon":"6.11356000"},
{"state":"Auvergne-Rhône-Alpes","name":"La Séauve-sur-Semène","lat":"45.29554000","lon":"4.25023000"},
{"state":"Auvergne-Rhône-Alpes","name":"La Talaudière","lat":"45.47603000","lon":"4.42607000"},
{"state":"Auvergne-Rhône-Alpes","name":"La Terrasse","lat":"45.32052000","lon":"5.92761000"},
{"state":"Auvergne-Rhône-Alpes","name":"La Tour","lat":"46.13312000","lon":"6.43109000"},
{"state":"Auvergne-Rhône-Alpes","name":"La Tour-de-Salvagny","lat":"45.81374000","lon":"4.71670000"},
{"state":"Auvergne-Rhône-Alpes","name":"La Tour-du-Pin","lat":"45.56600000","lon":"5.44487000"},
{"state":"Auvergne-Rhône-Alpes","name":"La Tour-en-Jarez","lat":"45.48347000","lon":"4.39064000"},
{"state":"Auvergne-Rhône-Alpes","name":"La Tronche","lat":"45.20507000","lon":"5.74629000"},
{"state":"Auvergne-Rhône-Alpes","name":"La Verpillière","lat":"45.63417000","lon":"5.14560000"},
{"state":"Auvergne-Rhône-Alpes","name":"La Voulte-sur-Rhône","lat":"44.79958000","lon":"4.77925000"},
{"state":"Auvergne-Rhône-Alpes","name":"Labégude","lat":"44.64496000","lon":"4.36939000"},
{"state":"Auvergne-Rhône-Alpes","name":"Lablachère","lat":"44.46355000","lon":"4.21439000"},
{"state":"Auvergne-Rhône-Alpes","name":"Lachapelle-sous-Aubenas","lat":"44.56421000","lon":"4.36393000"},
{"state":"Auvergne-Rhône-Alpes","name":"Lagnieu","lat":"45.90237000","lon":"5.34399000"},
{"state":"Auvergne-Rhône-Alpes","name":"Laiz","lat":"46.25054000","lon":"4.88955000"},
{"state":"Auvergne-Rhône-Alpes","name":"Lalevade-d’Ardèche","lat":"44.64780000","lon":"4.32303000"},
{"state":"Auvergne-Rhône-Alpes","name":"Lamastre","lat":"44.98672000","lon":"4.57975000"},
{"state":"Auvergne-Rhône-Alpes","name":"Lamure-sur-Azergues","lat":"46.06255000","lon":"4.49195000"},
{"state":"Auvergne-Rhône-Alpes","name":"Lancrans","lat":"46.12729000","lon":"5.83277000"},
{"state":"Auvergne-Rhône-Alpes","name":"Langeac","lat":"45.10028000","lon":"3.49420000"},
{"state":"Auvergne-Rhône-Alpes","name":"Lanobre","lat":"45.43889000","lon":"2.53443000"},
{"state":"Auvergne-Rhône-Alpes","name":"Lans-en-Vercors","lat":"45.12852000","lon":"5.58599000"},
{"state":"Auvergne-Rhône-Alpes","name":"Lantriac","lat":"45.00050000","lon":"4.00444000"},
{"state":"Auvergne-Rhône-Alpes","name":"Lapalisse","lat":"46.24835000","lon":"3.63605000"},
{"state":"Auvergne-Rhône-Alpes","name":"Lapte","lat":"45.18593000","lon":"4.21699000"},
{"state":"Auvergne-Rhône-Alpes","name":"Larajasse","lat":"45.61399000","lon":"4.50113000"},
{"state":"Auvergne-Rhône-Alpes","name":"Larequille","lat":"46.25189000","lon":"2.70163000"},
{"state":"Auvergne-Rhône-Alpes","name":"Largentière","lat":"44.54272000","lon":"4.29342000"},
{"state":"Auvergne-Rhône-Alpes","name":"Laroquebrou","lat":"44.96855000","lon":"2.19158000"},
{"state":"Auvergne-Rhône-Alpes","name":"Larringes","lat":"46.36919000","lon":"6.57125000"},
{"state":"Auvergne-Rhône-Alpes","name":"Laussonne","lat":"44.96990000","lon":"4.05204000"},
{"state":"Auvergne-Rhône-Alpes","name":"Lavault-Sainte-Anne","lat":"46.30999000","lon":"2.60027000"},
{"state":"Auvergne-Rhône-Alpes","name":"Lavilledieu","lat":"44.57545000","lon":"4.45314000"},
{"state":"Auvergne-Rhône-Alpes","name":"Le Bois-d'Oingt","lat":"45.91718000","lon":"4.58259000"},
{"state":"Auvergne-Rhône-Alpes","name":"Le Bourg-d’Oisans","lat":"45.05483000","lon":"6.03366000"},
{"state":"Auvergne-Rhône-Alpes","name":"Le Bourget-du-Lac","lat":"45.65362000","lon":"5.85490000"},
{"state":"Auvergne-Rhône-Alpes","name":"Le Breuil-sur-Couze","lat":"45.46860000","lon":"3.26310000"},
{"state":"Auvergne-Rhône-Alpes","name":"Le Cendre","lat":"45.72240000","lon":"3.18711000"},
{"state":"Auvergne-Rhône-Alpes","name":"Le Chambon-Feugerolles","lat":"45.39145000","lon":"4.32149000"},
{"state":"Auvergne-Rhône-Alpes","name":"Le Chambon-sur-Lignon","lat":"45.06097000","lon":"4.30241000"},
{"state":"Auvergne-Rhône-Alpes","name":"Le Champ-près-Froges","lat":"45.28045000","lon":"5.93977000"},
{"state":"Auvergne-Rhône-Alpes","name":"Le Cheylard","lat":"44.90623000","lon":"4.42406000"},
{"state":"Auvergne-Rhône-Alpes","name":"Le Cheylas","lat":"45.37064000","lon":"5.99277000"},
{"state":"Auvergne-Rhône-Alpes","name":"Le Coteau","lat":"46.01919000","lon":"4.09230000"},
{"state":"Auvergne-Rhône-Alpes","name":"Le Crest","lat":"45.68666000","lon":"3.12735000"},
{"state":"Auvergne-Rhône-Alpes","name":"Le Donjon","lat":"46.35058000","lon":"3.79269000"},
{"state":"Auvergne-Rhône-Alpes","name":"Le Grand-Bornand","lat":"45.94211000","lon":"6.43077000"},
{"state":"Auvergne-Rhône-Alpes","name":"Le Grand-Lemps","lat":"45.39646000","lon":"5.42010000"},
{"state":"Auvergne-Rhône-Alpes","name":"Le Gua","lat":"45.01667000","lon":"5.61667000"},
{"state":"Auvergne-Rhône-Alpes","name":"Le Mayet-de-Montagne","lat":"46.07091000","lon":"3.66665000"},
{"state":"Auvergne-Rhône-Alpes","name":"Le Monastier-sur-Gazeille","lat":"44.93333000","lon":"4.00000000"},
{"state":"Auvergne-Rhône-Alpes","name":"Le Péage-de-Roussillon","lat":"45.37380000","lon":"4.79727000"},
{"state":"Auvergne-Rhône-Alpes","name":"Le Perréon","lat":"46.06316000","lon":"4.60045000"},
{"state":"Auvergne-Rhône-Alpes","name":"Le Pin","lat":"45.45582000","lon":"5.50497000"},
{"state":"Auvergne-Rhône-Alpes","name":"Le Pont-de-Beauvoisin","lat":"45.53694000","lon":"5.67333000"},
{"state":"Auvergne-Rhône-Alpes","name":"Le Pont-de-Claix","lat":"45.12321000","lon":"5.69782000"},
{"state":"Auvergne-Rhône-Alpes","name":"Le Pouzin","lat":"44.75173000","lon":"4.74798000"},
{"state":"Auvergne-Rhône-Alpes","name":"Le Puy-en-Velay","lat":"45.04366000","lon":"3.88523000"},
{"state":"Auvergne-Rhône-Alpes","name":"Le Sappey-en-Chartreuse","lat":"45.26235000","lon":"5.77476000"},
{"state":"Auvergne-Rhône-Alpes","name":"Le Teil","lat":"44.54531000","lon":"4.68223000"},
{"state":"Auvergne-Rhône-Alpes","name":"Le Touvet","lat":"45.35909000","lon":"5.95283000"},
{"state":"Auvergne-Rhône-Alpes","name":"Le Versoud","lat":"45.21988000","lon":"5.86502000"},
{"state":"Auvergne-Rhône-Alpes","name":"Lempdes-sur-Allagnon","lat":"45.38333000","lon":"3.28333000"},
{"state":"Auvergne-Rhône-Alpes","name":"Lent","lat":"46.12027000","lon":"5.19352000"},
{"state":"Auvergne-Rhône-Alpes","name":"Lentigny","lat":"45.99391000","lon":"3.97918000"},
{"state":"Auvergne-Rhône-Alpes","name":"Lentilly","lat":"45.81873000","lon":"4.66304000"},
{"state":"Auvergne-Rhône-Alpes","name":"Les Abrets","lat":"45.54466000","lon":"5.58021000"},
{"state":"Auvergne-Rhône-Alpes","name":"Les Allues","lat":"45.43255000","lon":"6.55558000"},
{"state":"Auvergne-Rhône-Alpes","name":"Les Ancizes","lat":"45.92524000","lon":"2.81265000"},
{"state":"Auvergne-Rhône-Alpes","name":"Les Avenières","lat":"45.63632000","lon":"5.56144000"},
{"state":"Auvergne-Rhône-Alpes","name":"Les Chères","lat":"45.88960000","lon":"4.74261000"},
{"state":"Auvergne-Rhône-Alpes","name":"Les Contamines-Montjoie","lat":"45.82164000","lon":"6.72865000"},
{"state":"Auvergne-Rhône-Alpes","name":"Les Côtes-d'Arey","lat":"45.45640000","lon":"4.86660000"},
{"state":"Auvergne-Rhône-Alpes","name":"Les Deux Alpes","lat":"45.01160000","lon":"6.12548000"},
{"state":"Auvergne-Rhône-Alpes","name":"Les Échelles","lat":"45.44058000","lon":"5.74866000"},
{"state":"Auvergne-Rhône-Alpes","name":"Les Gets","lat":"46.15522000","lon":"6.66492000"},
{"state":"Auvergne-Rhône-Alpes","name":"Les Houches","lat":"45.89267000","lon":"6.80637000"},
{"state":"Auvergne-Rhône-Alpes","name":"Les Marches","lat":"45.50042000","lon":"6.00381000"},
{"state":"Auvergne-Rhône-Alpes","name":"Les Martres-d'Artière","lat":"45.83333000","lon":"3.26667000"},
{"state":"Auvergne-Rhône-Alpes","name":"Les Roches-de-Condrieu","lat":"45.45281000","lon":"4.76718000"},
{"state":"Auvergne-Rhône-Alpes","name":"Les Vans","lat":"44.40522000","lon":"4.13198000"},
{"state":"Auvergne-Rhône-Alpes","name":"Leyment","lat":"45.92390000","lon":"5.29241000"},
{"state":"Auvergne-Rhône-Alpes","name":"Lézigneux","lat":"45.56589000","lon":"4.06542000"},
{"state":"Auvergne-Rhône-Alpes","name":"Lezoux","lat":"45.82689000","lon":"3.37924000"},
{"state":"Auvergne-Rhône-Alpes","name":"Liergues","lat":"45.97138000","lon":"4.66231000"},
{"state":"Auvergne-Rhône-Alpes","name":"Limas","lat":"45.97558000","lon":"4.70550000"},
{"state":"Auvergne-Rhône-Alpes","name":"Limonest","lat":"45.83702000","lon":"4.77188000"},
{"state":"Auvergne-Rhône-Alpes","name":"Lissieu","lat":"45.86487000","lon":"4.74221000"},
{"state":"Auvergne-Rhône-Alpes","name":"Livet-et-Gavet","lat":"45.10782000","lon":"5.93333000"},
{"state":"Auvergne-Rhône-Alpes","name":"Livron-sur-Drôme","lat":"44.77689000","lon":"4.84180000"},
{"state":"Auvergne-Rhône-Alpes","name":"Loire-sur-Rhône","lat":"45.55000000","lon":"4.80000000"},
{"state":"Auvergne-Rhône-Alpes","name":"Loisin","lat":"46.29227000","lon":"6.31010000"},
{"state":"Auvergne-Rhône-Alpes","name":"Lorette","lat":"45.51105000","lon":"4.58242000"},
{"state":"Auvergne-Rhône-Alpes","name":"Loriol-sur-Drôme","lat":"44.74703000","lon":"4.81719000"},
{"state":"Auvergne-Rhône-Alpes","name":"Lovagny","lat":"45.90377000","lon":"6.03281000"},
{"state":"Auvergne-Rhône-Alpes","name":"Loyettes","lat":"45.77663000","lon":"5.20687000"},
{"state":"Auvergne-Rhône-Alpes","name":"Lozanne","lat":"45.85733000","lon":"4.68070000"},
{"state":"Auvergne-Rhône-Alpes","name":"Lucenay","lat":"45.91274000","lon":"4.70287000"},
{"state":"Auvergne-Rhône-Alpes","name":"Lucinges","lat":"46.19181000","lon":"6.31511000"},
{"state":"Auvergne-Rhône-Alpes","name":"Lugrin","lat":"46.40208000","lon":"6.65283000"},
{"state":"Auvergne-Rhône-Alpes","name":"Lumbin","lat":"45.30954000","lon":"5.91505000"},
{"state":"Auvergne-Rhône-Alpes","name":"Lurcy-Lévis","lat":"46.72981000","lon":"2.93829000"},
{"state":"Auvergne-Rhône-Alpes","name":"Lusigny","lat":"46.58776000","lon":"3.49142000"},
{"state":"Auvergne-Rhône-Alpes","name":"Luzinay","lat":"45.58996000","lon":"4.95891000"},
{"state":"Auvergne-Rhône-Alpes","name":"Lyaud","lat":"46.33972000","lon":"6.52595000"},
{"state":"Auvergne-Rhône-Alpes","name":"Lyon","lat":"45.74846000","lon":"4.84671000"},
{"state":"Auvergne-Rhône-Alpes","name":"Mably","lat":"46.06484000","lon":"4.06014000"},
{"state":"Auvergne-Rhône-Alpes","name":"Maclas","lat":"45.36289000","lon":"4.68200000"},
{"state":"Auvergne-Rhône-Alpes","name":"Mâcot-la-Plagne","lat":"45.55000000","lon":"6.66667000"},
{"state":"Auvergne-Rhône-Alpes","name":"Magland","lat":"46.02064000","lon":"6.62089000"},
{"state":"Auvergne-Rhône-Alpes","name":"Malataverne","lat":"44.48525000","lon":"4.75326000"},
{"state":"Auvergne-Rhône-Alpes","name":"Malintrat","lat":"45.81509000","lon":"3.18603000"},
{"state":"Auvergne-Rhône-Alpes","name":"Malissard","lat":"44.89969000","lon":"4.95384000"},
{"state":"Auvergne-Rhône-Alpes","name":"Manzat","lat":"45.96160000","lon":"2.94140000"},
{"state":"Auvergne-Rhône-Alpes","name":"Manziat","lat":"46.36125000","lon":"4.90580000"},
{"state":"Auvergne-Rhône-Alpes","name":"Marboz","lat":"46.34290000","lon":"5.25722000"},
{"state":"Auvergne-Rhône-Alpes","name":"Marcellaz-Albanais","lat":"45.87546000","lon":"5.99880000"},
{"state":"Auvergne-Rhône-Alpes","name":"Marcilly-le-Châtel","lat":"45.69590000","lon":"4.03082000"},
{"state":"Auvergne-Rhône-Alpes","name":"Marennes","lat":"45.62089000","lon":"4.91236000"},
{"state":"Auvergne-Rhône-Alpes","name":"Margencel","lat":"46.34140000","lon":"6.41416000"},
{"state":"Auvergne-Rhône-Alpes","name":"Marignier","lat":"46.09014000","lon":"6.50004000"},
{"state":"Auvergne-Rhône-Alpes","name":"Marin","lat":"46.37941000","lon":"6.52559000"},
{"state":"Auvergne-Rhône-Alpes","name":"Maringues","lat":"45.92164000","lon":"3.33029000"},
{"state":"Auvergne-Rhône-Alpes","name":"Marlhes","lat":"45.28307000","lon":"4.39616000"},
{"state":"Auvergne-Rhône-Alpes","name":"Marnaz","lat":"46.06356000","lon":"6.52653000"},
{"state":"Auvergne-Rhône-Alpes","name":"Marsac-en-Livradois","lat":"45.47886000","lon":"3.72783000"},
{"state":"Auvergne-Rhône-Alpes","name":"Marsanne","lat":"44.64204000","lon":"4.87529000"},
{"state":"Auvergne-Rhône-Alpes","name":"Marsat","lat":"45.87645000","lon":"3.08173000"},
{"state":"Auvergne-Rhône-Alpes","name":"Marthod","lat":"45.72714000","lon":"6.40299000"},
{"state":"Auvergne-Rhône-Alpes","name":"Martignat","lat":"46.20972000","lon":"5.61049000"},
{"state":"Auvergne-Rhône-Alpes","name":"Massiac","lat":"45.25146000","lon":"3.19735000"},
{"state":"Auvergne-Rhône-Alpes","name":"Massieux","lat":"45.90984000","lon":"4.83265000"},
{"state":"Auvergne-Rhône-Alpes","name":"Massongy","lat":"46.31807000","lon":"6.33148000"},
{"state":"Auvergne-Rhône-Alpes","name":"Maubec","lat":"45.56739000","lon":"5.26371000"},
{"state":"Auvergne-Rhône-Alpes","name":"Mauriac","lat":"45.21899000","lon":"2.33353000"},
{"state":"Auvergne-Rhône-Alpes","name":"Maurs","lat":"44.71065000","lon":"2.19797000"},
{"state":"Auvergne-Rhône-Alpes","name":"Mauves","lat":"45.03833000","lon":"4.82934000"},
{"state":"Auvergne-Rhône-Alpes","name":"Maxilly-sur-Léman","lat":"46.39828000","lon":"6.63113000"},
{"state":"Auvergne-Rhône-Alpes","name":"Mazet-Saint-Voy","lat":"45.04696000","lon":"4.24414000"},
{"state":"Auvergne-Rhône-Alpes","name":"Méaudre","lat":"45.13020000","lon":"5.52853000"},
{"state":"Auvergne-Rhône-Alpes","name":"Megève","lat":"45.85687000","lon":"6.61775000"},
{"state":"Auvergne-Rhône-Alpes","name":"Meillonnas","lat":"46.24367000","lon":"5.35019000"},
{"state":"Auvergne-Rhône-Alpes","name":"Ménétrol","lat":"45.87155000","lon":"3.12422000"},
{"state":"Auvergne-Rhône-Alpes","name":"Mens","lat":"44.81557000","lon":"5.75146000"},
{"state":"Auvergne-Rhône-Alpes","name":"Menthon-Saint-Bernard","lat":"45.85995000","lon":"6.19552000"},
{"state":"Auvergne-Rhône-Alpes","name":"Mercurol-Veaunes","lat":"45.07437000","lon":"4.89279000"},
{"state":"Auvergne-Rhône-Alpes","name":"Mercury","lat":"45.67452000","lon":"6.33688000"},
{"state":"Auvergne-Rhône-Alpes","name":"Méribel","lat":"45.41497000","lon":"6.56500000"},
{"state":"Auvergne-Rhône-Alpes","name":"Méry","lat":"45.64139000","lon":"5.93550000"},
{"state":"Auvergne-Rhône-Alpes","name":"Messeix","lat":"45.61702000","lon":"2.54157000"},
{"state":"Auvergne-Rhône-Alpes","name":"Messery","lat":"46.35036000","lon":"6.29099000"},
{"state":"Auvergne-Rhône-Alpes","name":"Messimy","lat":"45.69816000","lon":"4.67429000"},
{"state":"Auvergne-Rhône-Alpes","name":"Metz","lat":"45.93343000","lon":"6.10973000"},
{"state":"Auvergne-Rhône-Alpes","name":"Meximieux","lat":"45.90823000","lon":"5.19920000"},
{"state":"Auvergne-Rhône-Alpes","name":"Meylan","lat":"45.20978000","lon":"5.77762000"},
{"state":"Auvergne-Rhône-Alpes","name":"Meysse","lat":"44.61028000","lon":"4.72306000"},
{"state":"Auvergne-Rhône-Alpes","name":"Meythet","lat":"45.91836000","lon":"6.09422000"},
{"state":"Auvergne-Rhône-Alpes","name":"Meyzieu","lat":"45.76637000","lon":"5.00277000"},
{"state":"Auvergne-Rhône-Alpes","name":"Mezel","lat":"45.75508000","lon":"3.24225000"},
{"state":"Auvergne-Rhône-Alpes","name":"Mézériat","lat":"46.23701000","lon":"5.04615000"},
{"state":"Auvergne-Rhône-Alpes","name":"Mieussy","lat":"46.13369000","lon":"6.52416000"},
{"state":"Auvergne-Rhône-Alpes","name":"Millery","lat":"45.63232000","lon":"4.78207000"},
{"state":"Auvergne-Rhône-Alpes","name":"Mionnay","lat":"45.89824000","lon":"4.92808000"},
{"state":"Auvergne-Rhône-Alpes","name":"Mions","lat":"45.66302000","lon":"4.95292000"},
{"state":"Auvergne-Rhône-Alpes","name":"Mirabel-aux-Baronnies","lat":"44.31002000","lon":"5.09962000"},
{"state":"Auvergne-Rhône-Alpes","name":"Mirefleurs","lat":"45.69319000","lon":"3.22370000"},
{"state":"Auvergne-Rhône-Alpes","name":"Miribel","lat":"45.82580000","lon":"4.95440000"},
{"state":"Auvergne-Rhône-Alpes","name":"Miribel-les-Échelles","lat":"45.43155000","lon":"5.70810000"},
{"state":"Auvergne-Rhône-Alpes","name":"Misérieux","lat":"45.97433000","lon":"4.81340000"},
{"state":"Auvergne-Rhône-Alpes","name":"Modane","lat":"45.20032000","lon":"6.66871000"},
{"state":"Auvergne-Rhône-Alpes","name":"Moidieu","lat":"45.51680000","lon":"5.00749000"},
{"state":"Auvergne-Rhône-Alpes","name":"Moirans","lat":"45.33140000","lon":"5.55432000"},
{"state":"Auvergne-Rhône-Alpes","name":"Molinet","lat":"46.46576000","lon":"3.93589000"},
{"state":"Auvergne-Rhône-Alpes","name":"Monistrol-sur-Loire","lat":"45.29263000","lon":"4.17233000"},
{"state":"Auvergne-Rhône-Alpes","name":"Monnetier-Mornex","lat":"46.16030000","lon":"6.20667000"},
{"state":"Auvergne-Rhône-Alpes","name":"Mont-de-Lans","lat":"45.03626000","lon":"6.13141000"},
{"state":"Auvergne-Rhône-Alpes","name":"Mont-Dore","lat":"45.57641000","lon":"2.80889000"},
{"state":"Auvergne-Rhône-Alpes","name":"Mont-Saxonnex","lat":"46.05080000","lon":"6.47429000"},
{"state":"Auvergne-Rhône-Alpes","name":"Montagnat","lat":"46.16761000","lon":"5.28791000"},
{"state":"Auvergne-Rhône-Alpes","name":"Montagny","lat":"45.62801000","lon":"4.74778000"},
{"state":"Auvergne-Rhône-Alpes","name":"Montaigut","lat":"45.61499000","lon":"3.44896000"},
{"state":"Auvergne-Rhône-Alpes","name":"Montalieu","lat":"45.81245000","lon":"5.40221000"},
{"state":"Auvergne-Rhône-Alpes","name":"Montanay","lat":"45.87908000","lon":"4.86308000"},
{"state":"Auvergne-Rhône-Alpes","name":"Montbonnot-Saint-Martin","lat":"45.22537000","lon":"5.80170000"},
{"state":"Auvergne-Rhône-Alpes","name":"Montboucher-sur-Jabron","lat":"44.55050000","lon":"4.80200000"},
{"state":"Auvergne-Rhône-Alpes","name":"Montbrison","lat":"45.60752000","lon":"4.06525000"},
{"state":"Auvergne-Rhône-Alpes","name":"Montéléger","lat":"44.85296000","lon":"4.93598000"},
{"state":"Auvergne-Rhône-Alpes","name":"Montélier","lat":"44.93441000","lon":"5.03126000"},
{"state":"Auvergne-Rhône-Alpes","name":"Montélimar","lat":"44.55468000","lon":"4.75469000"},
{"state":"Auvergne-Rhône-Alpes","name":"Montfaucon-en-Velay","lat":"45.18561000","lon":"4.31376000"},
{"state":"Auvergne-Rhône-Alpes","name":"Montferrat","lat":"45.48481000","lon":"5.59020000"},
{"state":"Auvergne-Rhône-Alpes","name":"Montluçon","lat":"46.34015000","lon":"2.60254000"},
{"state":"Auvergne-Rhône-Alpes","name":"Montluel","lat":"45.85190000","lon":"5.05780000"},
{"state":"Auvergne-Rhône-Alpes","name":"Montmarault","lat":"46.31738000","lon":"2.95472000"},
{"state":"Auvergne-Rhône-Alpes","name":"Montmélian","lat":"45.50509000","lon":"6.05634000"},
{"state":"Auvergne-Rhône-Alpes","name":"Montmerle-sur-Saône","lat":"46.08333000","lon":"4.76667000"},
{"state":"Auvergne-Rhône-Alpes","name":"Montmeyran","lat":"44.83389000","lon":"4.97181000"},
{"state":"Auvergne-Rhône-Alpes","name":"Montoison","lat":"44.79608000","lon":"4.94118000"},
{"state":"Auvergne-Rhône-Alpes","name":"Montréal-la-Cluse","lat":"46.18333000","lon":"5.58333000"},
{"state":"Auvergne-Rhône-Alpes","name":"Montrevel-en-Bresse","lat":"46.33527000","lon":"5.12269000"},
{"state":"Auvergne-Rhône-Alpes","name":"Montrond-les-Bains","lat":"45.64374000","lon":"4.23752000"},
{"state":"Auvergne-Rhône-Alpes","name":"Montrottier","lat":"45.79010000","lon":"4.46660000"},
{"state":"Auvergne-Rhône-Alpes","name":"Montségur-sur-Lauzon","lat":"44.36098000","lon":"4.85468000"},
{"state":"Auvergne-Rhône-Alpes","name":"Morancé","lat":"45.89815000","lon":"4.70051000"},
{"state":"Auvergne-Rhône-Alpes","name":"Morestel","lat":"45.67900000","lon":"5.46479000"},
{"state":"Auvergne-Rhône-Alpes","name":"Mornant","lat":"45.61885000","lon":"4.67231000"},
{"state":"Auvergne-Rhône-Alpes","name":"Morzine","lat":"46.18149000","lon":"6.70664000"},
{"state":"Auvergne-Rhône-Alpes","name":"Moulins","lat":"46.56459000","lon":"3.33243000"},
{"state":"Auvergne-Rhône-Alpes","name":"Mours-Saint-Eusèbe","lat":"45.06513000","lon":"5.05776000"},
{"state":"Auvergne-Rhône-Alpes","name":"Moûtiers","lat":"45.48459000","lon":"6.53146000"},
{"state":"Auvergne-Rhône-Alpes","name":"Mouxy","lat":"45.68399000","lon":"5.93538000"},
{"state":"Auvergne-Rhône-Alpes","name":"Moye","lat":"45.87566000","lon":"5.91289000"},
{"state":"Auvergne-Rhône-Alpes","name":"Mozac","lat":"45.89393000","lon":"3.09512000"},
{"state":"Auvergne-Rhône-Alpes","name":"Murat","lat":"45.11011000","lon":"2.86859000"},
{"state":"Auvergne-Rhône-Alpes","name":"Nantua","lat":"46.15343000","lon":"5.60601000"},
{"state":"Auvergne-Rhône-Alpes","name":"Naucelles","lat":"44.95898000","lon":"2.41884000"},
{"state":"Auvergne-Rhône-Alpes","name":"Néris-les-Bains","lat":"46.28688000","lon":"2.65869000"},
{"state":"Auvergne-Rhône-Alpes","name":"Neuilly-le-Réal","lat":"46.46413000","lon":"3.43197000"},
{"state":"Auvergne-Rhône-Alpes","name":"Neulise","lat":"45.89811000","lon":"4.18134000"},
{"state":"Auvergne-Rhône-Alpes","name":"Neussargues","lat":"45.12826000","lon":"2.97627000"},
{"state":"Auvergne-Rhône-Alpes","name":"Neuvecelle","lat":"46.39502000","lon":"6.61257000"},
{"state":"Auvergne-Rhône-Alpes","name":"Neuvéglise","lat":"44.92809000","lon":"2.98328000"},
{"state":"Auvergne-Rhône-Alpes","name":"Neuville-les-Dames","lat":"46.16230000","lon":"5.00667000"},
{"state":"Auvergne-Rhône-Alpes","name":"Neuville-sur-Ain","lat":"46.07144000","lon":"5.37491000"},
{"state":"Auvergne-Rhône-Alpes","name":"Neuville-sur-Saône","lat":"45.87615000","lon":"4.84099000"},
{"state":"Auvergne-Rhône-Alpes","name":"Neuvy","lat":"46.56191000","lon":"3.29038000"},
{"state":"Auvergne-Rhône-Alpes","name":"Neydens","lat":"46.12162000","lon":"6.10436000"},
{"state":"Auvergne-Rhône-Alpes","name":"Niévroz","lat":"45.82576000","lon":"5.06108000"},
{"state":"Auvergne-Rhône-Alpes","name":"Nivolas-Vermelle","lat":"45.55885000","lon":"5.30578000"},
{"state":"Auvergne-Rhône-Alpes","name":"Nohanent","lat":"45.80815000","lon":"3.05507000"},
{"state":"Auvergne-Rhône-Alpes","name":"Noirétable","lat":"45.81671000","lon":"3.76247000"},
{"state":"Auvergne-Rhône-Alpes","name":"Notre-Dame-de-Mésage","lat":"45.06241000","lon":"5.75880000"},
{"state":"Auvergne-Rhône-Alpes","name":"Novalaise","lat":"45.59480000","lon":"5.77767000"},
{"state":"Auvergne-Rhône-Alpes","name":"Noyarey","lat":"45.24421000","lon":"5.63366000"},
{"state":"Auvergne-Rhône-Alpes","name":"Nyons","lat":"44.36082000","lon":"5.14052000"},
{"state":"Auvergne-Rhône-Alpes","name":"Orcet","lat":"45.70355000","lon":"3.16884000"},
{"state":"Auvergne-Rhône-Alpes","name":"Orcines","lat":"45.78246000","lon":"3.01234000"},
{"state":"Auvergne-Rhône-Alpes","name":"Orléat","lat":"45.86059000","lon":"3.42083000"},
{"state":"Auvergne-Rhône-Alpes","name":"Orliénas","lat":"45.65886000","lon":"4.71832000"},
{"state":"Auvergne-Rhône-Alpes","name":"Ornex","lat":"46.27270000","lon":"6.09982000"},
{"state":"Auvergne-Rhône-Alpes","name":"Ouches","lat":"46.01582000","lon":"3.98828000"},
{"state":"Auvergne-Rhône-Alpes","name":"Oullins","lat":"45.71404000","lon":"4.80755000"},
{"state":"Auvergne-Rhône-Alpes","name":"Oyonnax","lat":"46.25917000","lon":"5.65727000"},
{"state":"Auvergne-Rhône-Alpes","name":"Oytier-Saint-Oblas","lat":"45.55757000","lon":"5.03083000"},
{"state":"Auvergne-Rhône-Alpes","name":"Panissières","lat":"45.79185000","lon":"4.34163000"},
{"state":"Auvergne-Rhône-Alpes","name":"Paslières","lat":"45.92889000","lon":"3.49736000"},
{"state":"Auvergne-Rhône-Alpes","name":"Passy","lat":"45.92341000","lon":"6.69562000"},
{"state":"Auvergne-Rhône-Alpes","name":"Paulhaguet","lat":"45.20795000","lon":"3.51331000"},
{"state":"Auvergne-Rhône-Alpes","name":"Peaugres","lat":"45.28651000","lon":"4.72845000"},
{"state":"Auvergne-Rhône-Alpes","name":"Peillonnex","lat":"46.12861000","lon":"6.37715000"},
{"state":"Auvergne-Rhône-Alpes","name":"Pélussin","lat":"45.41951000","lon":"4.68365000"},
{"state":"Auvergne-Rhône-Alpes","name":"Pérignat-lès-Sarliève","lat":"45.73657000","lon":"3.13960000"},
{"state":"Auvergne-Rhône-Alpes","name":"Pérignat-sur-Allier","lat":"45.72843000","lon":"3.23184000"},
{"state":"Auvergne-Rhône-Alpes","name":"Périgneux","lat":"45.44077000","lon":"4.15569000"},
{"state":"Auvergne-Rhône-Alpes","name":"Péron","lat":"46.19053000","lon":"5.92524000"},
{"state":"Auvergne-Rhône-Alpes","name":"Péronnas","lat":"46.18338000","lon":"5.21052000"},
{"state":"Auvergne-Rhône-Alpes","name":"Pérouges","lat":"45.90440000","lon":"5.17695000"},
{"state":"Auvergne-Rhône-Alpes","name":"Perreux","lat":"46.04004000","lon":"4.12663000"},
{"state":"Auvergne-Rhône-Alpes","name":"Perrignier","lat":"46.30558000","lon":"6.43928000"},
{"state":"Auvergne-Rhône-Alpes","name":"Pers-Jussy","lat":"46.10594000","lon":"6.26955000"},
{"state":"Auvergne-Rhône-Alpes","name":"Peschadoires","lat":"45.82622000","lon":"3.49255000"},
{"state":"Auvergne-Rhône-Alpes","name":"Peyrins","lat":"45.09331000","lon":"5.04513000"},
{"state":"Auvergne-Rhône-Alpes","name":"Pierre-Bénite","lat":"45.70359000","lon":"4.82424000"},
{"state":"Auvergne-Rhône-Alpes","name":"Pierre-Châtel","lat":"44.95735000","lon":"5.77454000"},
{"state":"Auvergne-Rhône-Alpes","name":"Pierrefort","lat":"44.92175000","lon":"2.83811000"},
{"state":"Auvergne-Rhône-Alpes","name":"Pierrelatte","lat":"44.37549000","lon":"4.70314000"},
{"state":"Auvergne-Rhône-Alpes","name":"Pionsat","lat":"46.10963000","lon":"2.69319000"},
{"state":"Auvergne-Rhône-Alpes","name":"Plauzat","lat":"45.62157000","lon":"3.14896000"},
{"state":"Auvergne-Rhône-Alpes","name":"Pleaux","lat":"45.13479000","lon":"2.22652000"},
{"state":"Auvergne-Rhône-Alpes","name":"Poisat","lat":"45.15852000","lon":"5.76051000"},
{"state":"Auvergne-Rhône-Alpes","name":"Poisy","lat":"45.92142000","lon":"6.06356000"},
{"state":"Auvergne-Rhône-Alpes","name":"Polignac","lat":"45.07090000","lon":"3.86031000"},
{"state":"Auvergne-Rhône-Alpes","name":"Polliat","lat":"46.24849000","lon":"5.12658000"},
{"state":"Auvergne-Rhône-Alpes","name":"Pollionnay","lat":"45.76459000","lon":"4.66112000"},
{"state":"Auvergne-Rhône-Alpes","name":"Polminhac","lat":"44.95177000","lon":"2.57751000"},
{"state":"Auvergne-Rhône-Alpes","name":"Pommiers","lat":"45.95540000","lon":"4.69251000"},
{"state":"Auvergne-Rhône-Alpes","name":"Poncin","lat":"46.08531000","lon":"5.41120000"},
{"state":"Auvergne-Rhône-Alpes","name":"Pont-d’Ain","lat":"46.05583000","lon":"5.33974000"},
{"state":"Auvergne-Rhône-Alpes","name":"Pont-de-Chéruy","lat":"45.75344000","lon":"5.17245000"},
{"state":"Auvergne-Rhône-Alpes","name":"Pont-de-Vaux","lat":"46.43326000","lon":"4.94473000"},
{"state":"Auvergne-Rhône-Alpes","name":"Pont-de-Veyle","lat":"46.26166000","lon":"4.88612000"},
{"state":"Auvergne-Rhône-Alpes","name":"Pont-du-Château","lat":"45.79830000","lon":"3.24839000"},
{"state":"Auvergne-Rhône-Alpes","name":"Pont-en-Royans","lat":"45.06250000","lon":"5.34094000"},
{"state":"Auvergne-Rhône-Alpes","name":"Pont-Évêque","lat":"45.53217000","lon":"4.90922000"},
{"state":"Auvergne-Rhône-Alpes","name":"Pont-Salomon","lat":"45.33777000","lon":"4.24781000"},
{"state":"Auvergne-Rhône-Alpes","name":"Pontcharra","lat":"45.43588000","lon":"6.01782000"},
{"state":"Auvergne-Rhône-Alpes","name":"Pontcharra-sur-Turdine","lat":"45.87413000","lon":"4.48989000"},
{"state":"Auvergne-Rhône-Alpes","name":"Porcieu","lat":"45.83416000","lon":"5.40168000"},
{"state":"Auvergne-Rhône-Alpes","name":"Portes-lès-Valence","lat":"44.87585000","lon":"4.87415000"},
{"state":"Auvergne-Rhône-Alpes","name":"Pouilly-lès-Feurs","lat":"45.79760000","lon":"4.23289000"},
{"state":"Auvergne-Rhône-Alpes","name":"Pouilly-les-Nonains","lat":"46.04508000","lon":"3.98247000"},
{"state":"Auvergne-Rhône-Alpes","name":"Pouilly-sous-Charlieu","lat":"46.14551000","lon":"4.11287000"},
{"state":"Auvergne-Rhône-Alpes","name":"Pragoulin","lat":"46.05425000","lon":"3.39346000"},
{"state":"Auvergne-Rhône-Alpes","name":"Praz-sur-Arly","lat":"45.83731000","lon":"6.57259000"},
{"state":"Auvergne-Rhône-Alpes","name":"Précieux","lat":"45.58702000","lon":"4.15152000"},
{"state":"Auvergne-Rhône-Alpes","name":"Prémilhat","lat":"46.31341000","lon":"2.53559000"},
{"state":"Auvergne-Rhône-Alpes","name":"Priay","lat":"46.00183000","lon":"5.28684000"},
{"state":"Auvergne-Rhône-Alpes","name":"Pringy","lat":"45.94622000","lon":"6.12608000"},
{"state":"Auvergne-Rhône-Alpes","name":"Privas","lat":"44.73500000","lon":"4.59918000"},
{"state":"Auvergne-Rhône-Alpes","name":"Publier","lat":"46.38773000","lon":"6.54356000"},
{"state":"Auvergne-Rhône-Alpes","name":"Pusignan","lat":"45.75558000","lon":"5.06722000"},
{"state":"Auvergne-Rhône-Alpes","name":"Puy-Guillaume","lat":"45.96036000","lon":"3.47405000"},
{"state":"Auvergne-Rhône-Alpes","name":"Quincié-en-Beaujolais","lat":"46.11898000","lon":"4.61635000"},
{"state":"Auvergne-Rhône-Alpes","name":"Quincieux","lat":"45.91374000","lon":"4.77698000"},
{"state":"Auvergne-Rhône-Alpes","name":"Quinssaines","lat":"46.32721000","lon":"2.51040000"},
{"state":"Auvergne-Rhône-Alpes","name":"Quintenas","lat":"45.18892000","lon":"4.68743000"},
{"state":"Auvergne-Rhône-Alpes","name":"Randan","lat":"46.01767000","lon":"3.35478000"},
{"state":"Auvergne-Rhône-Alpes","name":"Régny","lat":"45.99087000","lon":"4.21655000"},
{"state":"Auvergne-Rhône-Alpes","name":"Reignier-Ésery","lat":"46.13333000","lon":"6.26667000"},
{"state":"Auvergne-Rhône-Alpes","name":"Renage","lat":"45.33346000","lon":"5.48881000"},
{"state":"Auvergne-Rhône-Alpes","name":"Renaison","lat":"46.04955000","lon":"3.92440000"},
{"state":"Auvergne-Rhône-Alpes","name":"Replonges","lat":"46.30098000","lon":"4.88317000"},
{"state":"Auvergne-Rhône-Alpes","name":"Retournac","lat":"45.20390000","lon":"4.03330000"},
{"state":"Auvergne-Rhône-Alpes","name":"Revel","lat":"45.18618000","lon":"5.87208000"},
{"state":"Auvergne-Rhône-Alpes","name":"Reventin-Vaugris","lat":"45.46638000","lon":"4.84244000"},
{"state":"Auvergne-Rhône-Alpes","name":"Reyrieux","lat":"45.93577000","lon":"4.81453000"},
{"state":"Auvergne-Rhône-Alpes","name":"Rillieux-la-Pape","lat":"45.81667000","lon":"4.90000000"},
{"state":"Auvergne-Rhône-Alpes","name":"Riom","lat":"45.89362000","lon":"3.11264000"},
{"state":"Auvergne-Rhône-Alpes","name":"Riom-ès-Montagnes","lat":"45.28206000","lon":"2.65973000"},
{"state":"Auvergne-Rhône-Alpes","name":"Riorges","lat":"46.04378000","lon":"4.04255000"},
{"state":"Auvergne-Rhône-Alpes","name":"Riotord","lat":"45.23159000","lon":"4.40208000"},
{"state":"Auvergne-Rhône-Alpes","name":"Rive-de-Gier","lat":"45.52755000","lon":"4.61589000"},
{"state":"Auvergne-Rhône-Alpes","name":"Rives","lat":"45.35326000","lon":"5.50084000"},
{"state":"Auvergne-Rhône-Alpes","name":"Roanne","lat":"46.03624000","lon":"4.06802000"},
{"state":"Auvergne-Rhône-Alpes","name":"Roche","lat":"45.58723000","lon":"5.16223000"},
{"state":"Auvergne-Rhône-Alpes","name":"Roche-la-Molière","lat":"45.43088000","lon":"4.32820000"},
{"state":"Auvergne-Rhône-Alpes","name":"Rochegude","lat":"44.24414000","lon":"4.82719000"},
{"state":"Auvergne-Rhône-Alpes","name":"Rochemaure","lat":"44.58747000","lon":"4.70391000"},
{"state":"Auvergne-Rhône-Alpes","name":"Rochetaillée-sur-Saône","lat":"45.85000000","lon":"4.85000000"},
{"state":"Auvergne-Rhône-Alpes","name":"Roiffieux","lat":"45.22655000","lon":"4.65441000"},
{"state":"Auvergne-Rhône-Alpes","name":"Romagnat","lat":"45.72955000","lon":"3.10061000"},
{"state":"Auvergne-Rhône-Alpes","name":"Romagnieu","lat":"45.57061000","lon":"5.64096000"},
{"state":"Auvergne-Rhône-Alpes","name":"Romans-sur-Isère","lat":"45.04960000","lon":"5.06602000"},
{"state":"Auvergne-Rhône-Alpes","name":"Rosières","lat":"45.13287000","lon":"3.98826000"},
{"state":"Auvergne-Rhône-Alpes","name":"Roussillon","lat":"45.37388000","lon":"4.81496000"},
{"state":"Auvergne-Rhône-Alpes","name":"Royat","lat":"45.76497000","lon":"3.05013000"},
{"state":"Auvergne-Rhône-Alpes","name":"Roybon","lat":"45.25851000","lon":"5.24502000"},
{"state":"Auvergne-Rhône-Alpes","name":"Rozier-en-Donzy","lat":"45.80069000","lon":"4.27736000"},
{"state":"Auvergne-Rhône-Alpes","name":"Rumilly","lat":"45.86116000","lon":"5.94513000"},
{"state":"Auvergne-Rhône-Alpes","name":"Ruoms","lat":"44.45294000","lon":"4.34202000"},
{"state":"Auvergne-Rhône-Alpes","name":"Ruy","lat":"45.58640000","lon":"5.32143000"},
{"state":"Auvergne-Rhône-Alpes","name":"Sablons","lat":"45.32104000","lon":"4.77449000"},
{"state":"Auvergne-Rhône-Alpes","name":"Sail-sous-Couzan","lat":"45.73482000","lon":"3.96898000"},
{"state":"Auvergne-Rhône-Alpes","name":"Sain-Bel","lat":"45.81017000","lon":"4.59797000"},
{"state":"Auvergne-Rhône-Alpes","name":"Saint-Agrève","lat":"45.01003000","lon":"4.39612000"},
{"state":"Auvergne-Rhône-Alpes","name":"Saint-Alban-de-Roche","lat":"45.59490000","lon":"5.22630000"},
{"state":"Auvergne-Rhône-Alpes","name":"Saint-Alban-Leysse","lat":"45.58333000","lon":"5.95000000"},
{"state":"Auvergne-Rhône-Alpes","name":"Saint-Amant-Tallende","lat":"45.66900000","lon":"3.10788000"},
{"state":"Auvergne-Rhône-Alpes","name":"Saint-Andéol-le-Château","lat":"45.58597000","lon":"4.69504000"},
{"state":"Auvergne-Rhône-Alpes","name":"Saint-André-de-Corcy","lat":"45.92590000","lon":"4.95166000"},
{"state":"Auvergne-Rhône-Alpes","name":"Saint-André-le-Gaz","lat":"45.54546000","lon":"5.52886000"},
{"state":"Auvergne-Rhône-Alpes","name":"Saint-André-le-Puy","lat":"45.64763000","lon":"4.25887000"},
{"state":"Auvergne-Rhône-Alpes","name":"Saint-André-sur-Vieux-Jonc","lat":"46.15855000","lon":"5.14776000"},
{"state":"Auvergne-Rhône-Alpes","name":"Saint-Antoine-l'Abbaye","lat":"45.16667000","lon":"5.21667000"},
{"state":"Auvergne-Rhône-Alpes","name":"Saint-Aupre","lat":"45.40296000","lon":"5.66682000"},
{"state":"Auvergne-Rhône-Alpes","name":"Saint-Baldoph","lat":"45.53120000","lon":"5.95217000"},
{"state":"Auvergne-Rhône-Alpes","name":"Saint-Barthélemy-de-Vals","lat":"45.16938000","lon":"4.87160000"},
{"state":"Auvergne-Rhône-Alpes","name":"Saint-Beauzire","lat":"45.84964000","lon":"3.17947000"},
{"state":"Auvergne-Rhône-Alpes","name":"Saint-Béron","lat":"45.50308000","lon":"5.72790000"},
{"state":"Auvergne-Rhône-Alpes","name":"Saint-Bon-Tarentaise","lat":"45.43373000","lon":"6.63686000"},
{"state":"Auvergne-Rhône-Alpes","name":"Saint-Bonnet-de-Mure","lat":"45.69042000","lon":"5.02912000"},
{"state":"Auvergne-Rhône-Alpes","name":"Saint-Bonnet-le-Château","lat":"45.42402000","lon":"4.06706000"},
{"state":"Auvergne-Rhône-Alpes","name":"Saint-Bonnet-les-Oules","lat":"45.54946000","lon":"4.32522000"},
{"state":"Auvergne-Rhône-Alpes","name":"Saint-Bonnet-près-Riom","lat":"45.92972000","lon":"3.11310000"},
{"state":"Auvergne-Rhône-Alpes","name":"Saint-Cassien","lat":"45.35710000","lon":"5.54793000"},
{"state":"Auvergne-Rhône-Alpes","name":"Saint-Cergues","lat":"46.23005000","lon":"6.31924000"},
{"state":"Auvergne-Rhône-Alpes","name":"Saint-Cernin","lat":"45.05850000","lon":"2.42081000"},
{"state":"Auvergne-Rhône-Alpes","name":"Saint-Chamond","lat":"45.47590000","lon":"4.51294000"},
{"state":"Auvergne-Rhône-Alpes","name":"Saint-Chef","lat":"45.63585000","lon":"5.36465000"},
{"state":"Auvergne-Rhône-Alpes","name":"Saint-Christo-en-Jarez","lat":"45.54508000","lon":"4.48826000"},
{"state":"Auvergne-Rhône-Alpes","name":"Saint-Clair-de-la-Tour","lat":"45.57345000","lon":"5.47741000"},
{"state":"Auvergne-Rhône-Alpes","name":"Saint-Clair-du-Rhône","lat":"45.44186000","lon":"4.77123000"},
{"state":"Auvergne-Rhône-Alpes","name":"Saint-Cyprien","lat":"45.53450000","lon":"4.23428000"},
{"state":"Auvergne-Rhône-Alpes","name":"Saint-Cyr","lat":"45.25183000","lon":"4.73045000"},
{"state":"Auvergne-Rhône-Alpes","name":"Saint-Cyr-sur-le-Rhône","lat":"45.51585000","lon":"4.85250000"},
{"state":"Auvergne-Rhône-Alpes","name":"Saint-Cyr-sur-Menthon","lat":"46.27502000","lon":"4.97246000"},
{"state":"Auvergne-Rhône-Alpes","name":"Saint-Denis-de-Cabanne","lat":"46.17249000","lon":"4.21447000"},
{"state":"Auvergne-Rhône-Alpes","name":"Saint-Denis-en-Bugey","lat":"45.94963000","lon":"5.32773000"},
{"state":"Auvergne-Rhône-Alpes","name":"Saint-Denis-lès-Bourg","lat":"46.20217000","lon":"5.18924000"},
{"state":"Auvergne-Rhône-Alpes","name":"Saint-Didier-de-Formans","lat":"45.95969000","lon":"4.78406000"},
{"state":"Auvergne-Rhône-Alpes","name":"Saint-Didier-de-la-Tour","lat":"45.55755000","lon":"5.48026000"},
{"state":"Auvergne-Rhône-Alpes","name":"Saint-Didier-en-Velay","lat":"45.30265000","lon":"4.27514000"},
{"state":"Auvergne-Rhône-Alpes","name":"Saint-Didier-sous-Riverie","lat":"45.59627000","lon":"4.60650000"},
{"state":"Auvergne-Rhône-Alpes","name":"Saint-Didier-sur-Chalaronne","lat":"46.17714000","lon":"4.81626000"},
{"state":"Auvergne-Rhône-Alpes","name":"Saint-Égrève","lat":"45.23313000","lon":"5.68154000"},
{"state":"Auvergne-Rhône-Alpes","name":"Saint-Éloy-les-Mines","lat":"46.16051000","lon":"2.83379000"},
{"state":"Auvergne-Rhône-Alpes","name":"Saint-Étienne","lat":"45.43389000","lon":"4.39000000"},
{"state":"Auvergne-Rhône-Alpes","name":"Saint-Étienne-de-Crossey","lat":"45.38027000","lon":"5.64365000"},
{"state":"Auvergne-Rhône-Alpes","name":"Saint-Etienne-de-Cuines","lat":"45.35000000","lon":"6.28333000"},
{"state":"Auvergne-Rhône-Alpes","name":"Saint-Étienne-de-Fontbellon","lat":"44.60077000","lon":"4.38635000"},
{"state":"Auvergne-Rhône-Alpes","name":"Saint-Étienne-de-Saint-Geoirs","lat":"45.33909000","lon":"5.34650000"},
{"state":"Auvergne-Rhône-Alpes","name":"Saint-Étienne-des-Oullières","lat":"46.06731000","lon":"4.64945000"},
{"state":"Auvergne-Rhône-Alpes","name":"Saint-Étienne-du-Bois","lat":"46.28990000","lon":"5.29471000"},
{"state":"Auvergne-Rhône-Alpes","name":"Saint-Étienne-sur-Chalaronne","lat":"46.14778000","lon":"4.87129000"},
{"state":"Auvergne-Rhône-Alpes","name":"Saint-Félicien","lat":"45.08600000","lon":"4.62738000"},
{"state":"Auvergne-Rhône-Alpes","name":"Saint-Félix","lat":"45.80269000","lon":"5.97714000"},
{"state":"Auvergne-Rhône-Alpes","name":"Saint-Flour","lat":"45.03374000","lon":"3.09297000"},
{"state":"Auvergne-Rhône-Alpes","name":"Saint-Fons","lat":"45.70875000","lon":"4.85325000"},
{"state":"Auvergne-Rhône-Alpes","name":"Saint-Forgeux","lat":"45.85895000","lon":"4.47480000"},
{"state":"Auvergne-Rhône-Alpes","name":"Saint-François","lat":"46.41537000","lon":"3.90542000"},
{"state":"Auvergne-Rhône-Alpes","name":"Saint-Galmier","lat":"45.59787000","lon":"4.31086000"},
{"state":"Auvergne-Rhône-Alpes","name":"Saint-Genès-Champanelle","lat":"45.72037000","lon":"3.01883000"},
{"state":"Auvergne-Rhône-Alpes","name":"Saint-Genest-Lerpt","lat":"45.44347000","lon":"4.33968000"},
{"state":"Auvergne-Rhône-Alpes","name":"Saint-Genest-Malifaux","lat":"45.34064000","lon":"4.41652000"},
{"state":"Auvergne-Rhône-Alpes","name":"Saint-Genis-Laval","lat":"45.69542000","lon":"4.79316000"},
{"state":"Auvergne-Rhône-Alpes","name":"Saint-Genis-les-Ollières","lat":"45.75710000","lon":"4.72625000"},
{"state":"Auvergne-Rhône-Alpes","name":"Saint-Genis-Pouilly","lat":"46.24356000","lon":"6.02119000"},
{"state":"Auvergne-Rhône-Alpes","name":"Saint-Genix-sur-Guiers","lat":"45.59864000","lon":"5.63559000"},
{"state":"Auvergne-Rhône-Alpes","name":"Saint-Geoire-en-Valdaine","lat":"45.45668000","lon":"5.63515000"},
{"state":"Auvergne-Rhône-Alpes","name":"Saint-Georges-de-Commiers","lat":"45.04546000","lon":"5.70628000"},
{"state":"Auvergne-Rhône-Alpes","name":"Saint-Georges-de-Mons","lat":"45.93941000","lon":"2.83866000"},
{"state":"Auvergne-Rhône-Alpes","name":"Saint-Georges-de-Reneins","lat":"46.06185000","lon":"4.72169000"},
{"state":"Auvergne-Rhône-Alpes","name":"Saint-Georges-Haute-Ville","lat":"45.55701000","lon":"4.09801000"},
{"state":"Auvergne-Rhône-Alpes","name":"Saint-Georges-les-Bains","lat":"44.86100000","lon":"4.80924000"},
{"state":"Auvergne-Rhône-Alpes","name":"Saint-Georges-sur-Allier","lat":"45.71015000","lon":"3.24261000"},
{"state":"Auvergne-Rhône-Alpes","name":"Saint-Gérand-le-Puy","lat":"46.25790000","lon":"3.51210000"},
{"state":"Auvergne-Rhône-Alpes","name":"Saint-Germain-des-Fossés","lat":"46.20682000","lon":"3.43374000"},
{"state":"Auvergne-Rhône-Alpes","name":"Saint-Germain-Laprade","lat":"45.03862000","lon":"3.97004000"},
{"state":"Auvergne-Rhône-Alpes","name":"Saint-Germain-Laval","lat":"45.83249000","lon":"4.01444000"},
{"state":"Auvergne-Rhône-Alpes","name":"Saint-Germain-Lembron","lat":"45.45793000","lon":"3.23973000"},
{"state":"Auvergne-Rhône-Alpes","name":"Saint-Germain-Lespinasse","lat":"46.10342000","lon":"3.96503000"},
{"state":"Auvergne-Rhône-Alpes","name":"Saint-Germain-Nuelles","lat":"45.85242000","lon":"4.61182000"},
{"state":"Auvergne-Rhône-Alpes","name":"Saint-Gervais-d’Auvergne","lat":"46.02916000","lon":"2.81901000"},
{"state":"Auvergne-Rhône-Alpes","name":"Saint-Gervais-les-Bains","lat":"45.89126000","lon":"6.71678000"},
{"state":"Auvergne-Rhône-Alpes","name":"Saint-Héand","lat":"45.52740000","lon":"4.37077000"},
{"state":"Auvergne-Rhône-Alpes","name":"Saint-Hilaire","lat":"45.30000000","lon":"5.88333000"},
{"state":"Auvergne-Rhône-Alpes","name":"Saint-Hilaire-de-la-Côte","lat":"45.39162000","lon":"5.31590000"},
{"state":"Auvergne-Rhône-Alpes","name":"Saint-Hilaire-du-Rosier","lat":"45.09942000","lon":"5.24946000"},
{"state":"Auvergne-Rhône-Alpes","name":"Saint-Ismier","lat":"45.25227000","lon":"5.83073000"},
{"state":"Auvergne-Rhône-Alpes","name":"Saint-Jean-Bonnefonds","lat":"45.45609000","lon":"4.44223000"},
{"state":"Auvergne-Rhône-Alpes","name":"Saint-Jean-d’Aulps","lat":"46.23438000","lon":"6.65327000"},
{"state":"Auvergne-Rhône-Alpes","name":"Saint-Jean-de-Bournay","lat":"45.50093000","lon":"5.13818000"},
{"state":"Auvergne-Rhône-Alpes","name":"Saint-Jean-de-Gonville","lat":"46.21298000","lon":"5.95047000"},
{"state":"Auvergne-Rhône-Alpes","name":"Saint-Jean-de-Maurienne","lat":"45.27534000","lon":"6.35293000"},
{"state":"Auvergne-Rhône-Alpes","name":"Saint-Jean-de-Moirans","lat":"45.34506000","lon":"5.58536000"},
{"state":"Auvergne-Rhône-Alpes","name":"Saint-Jean-de-Muzols","lat":"45.08179000","lon":"4.81396000"},
{"state":"Auvergne-Rhône-Alpes","name":"Saint-Jean-de-Niost","lat":"45.83333000","lon":"5.21667000"},
{"state":"Auvergne-Rhône-Alpes","name":"Saint-Jean-de-Sixt","lat":"45.92312000","lon":"6.41180000"},
{"state":"Auvergne-Rhône-Alpes","name":"Saint-Jean-de-Soudain","lat":"45.56770000","lon":"5.42880000"},
{"state":"Auvergne-Rhône-Alpes","name":"Saint-Jean-en-Royans","lat":"45.01968000","lon":"5.29223000"},
{"state":"Auvergne-Rhône-Alpes","name":"Saint-Jean-le-Vieux","lat":"46.03005000","lon":"5.38798000"},
{"state":"Auvergne-Rhône-Alpes","name":"Saint-Jean-sur-Veyle","lat":"46.25902000","lon":"4.91712000"},
{"state":"Auvergne-Rhône-Alpes","name":"Saint-Jeoire","lat":"46.13733000","lon":"6.46172000"},
{"state":"Auvergne-Rhône-Alpes","name":"Saint-Jorioz","lat":"45.83074000","lon":"6.15792000"},
{"state":"Auvergne-Rhône-Alpes","name":"Saint-Joseph","lat":"45.55757000","lon":"4.62076000"},
{"state":"Auvergne-Rhône-Alpes","name":"Saint-Joseph-de-Rivière","lat":"45.37572000","lon":"5.69643000"},
{"state":"Auvergne-Rhône-Alpes","name":"Saint-Julien-Chapteuil","lat":"45.03486000","lon":"4.06110000"},
{"state":"Auvergne-Rhône-Alpes","name":"Saint-Julien-en-Genevois","lat":"46.14434000","lon":"6.08256000"},
{"state":"Auvergne-Rhône-Alpes","name":"Saint-Julien-en-Saint-Alban","lat":"44.75417000","lon":"4.69678000"},
{"state":"Auvergne-Rhône-Alpes","name":"Saint-Julien-Molin-Molette","lat":"45.32148000","lon":"4.61692000"},
{"state":"Auvergne-Rhône-Alpes","name":"Saint-Just-Chaleyssin","lat":"45.59421000","lon":"4.99852000"},
{"state":"Auvergne-Rhône-Alpes","name":"Saint-Just-d'Ardèche","lat":"44.30000000","lon":"4.61667000"},
{"state":"Auvergne-Rhône-Alpes","name":"Saint-Just-de-Claix","lat":"45.07562000","lon":"5.28309000"},
{"state":"Auvergne-Rhône-Alpes","name":"Saint-Just-en-Chevalet","lat":"45.91477000","lon":"3.84234000"},
{"state":"Auvergne-Rhône-Alpes","name":"Saint-Just-la-Pendue","lat":"45.89423000","lon":"4.24129000"},
{"state":"Auvergne-Rhône-Alpes","name":"Saint-Just-Malmont","lat":"45.33932000","lon":"4.31275000"},
{"state":"Auvergne-Rhône-Alpes","name":"Saint-Just-Saint-Rambert","lat":"45.49973000","lon":"4.24141000"},
{"state":"Auvergne-Rhône-Alpes","name":"Saint-Lattier","lat":"45.08815000","lon":"5.20352000"},
{"state":"Auvergne-Rhône-Alpes","name":"Saint-Laurent-de-Chamousset","lat":"45.73827000","lon":"4.46415000"},
{"state":"Auvergne-Rhône-Alpes","name":"Saint-Laurent-de-Mure","lat":"45.68563000","lon":"5.04484000"},
{"state":"Auvergne-Rhône-Alpes","name":"Saint-Laurent-du-Pape","lat":"44.82328000","lon":"4.76679000"},
{"state":"Auvergne-Rhône-Alpes","name":"Saint-Laurent-du-Pont","lat":"45.39240000","lon":"5.73312000"},
{"state":"Auvergne-Rhône-Alpes","name":"Saint-Laurent-en-Royans","lat":"45.02653000","lon":"5.32669000"},
{"state":"Auvergne-Rhône-Alpes","name":"Saint-Laurent-sur-Saône","lat":"46.30532000","lon":"4.84119000"},
{"state":"Auvergne-Rhône-Alpes","name":"Saint-Léger-sur-Roanne","lat":"46.04174000","lon":"3.99644000"},
{"state":"Auvergne-Rhône-Alpes","name":"Saint-Mamet-la-Salvetat","lat":"44.85813000","lon":"2.30688000"},
{"state":"Auvergne-Rhône-Alpes","name":"Saint-Marcel-d'Ardèche","lat":"44.32726000","lon":"4.61769000"},
{"state":"Auvergne-Rhône-Alpes","name":"Saint-Marcel-lès-Annonay","lat":"45.28613000","lon":"4.62616000"},
{"state":"Auvergne-Rhône-Alpes","name":"Saint-Marcel-lès-Sauzet","lat":"44.59752000","lon":"4.80541000"},
{"state":"Auvergne-Rhône-Alpes","name":"Saint-Marcel-lès-Valence","lat":"44.97132000","lon":"4.95316000"},
{"state":"Auvergne-Rhône-Alpes","name":"Saint-Marcellin","lat":"45.14914000","lon":"5.31673000"},
{"state":"Auvergne-Rhône-Alpes","name":"Saint-Marcellin-en-Forez","lat":"45.49676000","lon":"4.17233000"},
{"state":"Auvergne-Rhône-Alpes","name":"Saint-Martin-Bellevue","lat":"45.96262000","lon":"6.15763000"},
{"state":"Auvergne-Rhône-Alpes","name":"Saint-Martin-d’Hères","lat":"45.17870000","lon":"5.76281000"},
{"state":"Auvergne-Rhône-Alpes","name":"Saint-Martin-de-Belleville","lat":"45.38175000","lon":"6.50519000"},
{"state":"Auvergne-Rhône-Alpes","name":"Saint-Martin-de-Valamas","lat":"44.93718000","lon":"4.36865000"},
{"state":"Auvergne-Rhône-Alpes","name":"Saint-Martin-du-Frêne","lat":"46.13591000","lon":"5.55049000"},
{"state":"Auvergne-Rhône-Alpes","name":"Saint-Martin-du-Mont","lat":"46.09800000","lon":"5.31706000"},
{"state":"Auvergne-Rhône-Alpes","name":"Saint-Martin-en-Haut","lat":"45.65984000","lon":"4.56180000"},
{"state":"Auvergne-Rhône-Alpes","name":"Saint-Martin-la-Plaine","lat":"45.54635000","lon":"4.59749000"},
{"state":"Auvergne-Rhône-Alpes","name":"Saint-Martin-le-Vinoux","lat":"45.20297000","lon":"5.71630000"},
{"state":"Auvergne-Rhône-Alpes","name":"Saint-Maurice-de-Beynost","lat":"45.83440000","lon":"4.97750000"},
{"state":"Auvergne-Rhône-Alpes","name":"Saint-Maurice-de-Gourdans","lat":"45.82248000","lon":"5.19450000"},
{"state":"Auvergne-Rhône-Alpes","name":"Saint-Maurice-de-Lignon","lat":"45.22430000","lon":"4.13880000"},
{"state":"Auvergne-Rhône-Alpes","name":"Saint-Maurice-en-Gourgois","lat":"45.40127000","lon":"4.18253000"},
{"state":"Auvergne-Rhône-Alpes","name":"Saint-Maurice-sur-Dargoire","lat":"45.58224000","lon":"4.63120000"},
{"state":"Auvergne-Rhône-Alpes","name":"Saint-Michel-de-Maurienne","lat":"45.22011000","lon":"6.46868000"},
{"state":"Auvergne-Rhône-Alpes","name":"Saint-Nazaire-les-Eymes","lat":"45.24921000","lon":"5.85254000"},
{"state":"Auvergne-Rhône-Alpes","name":"Saint-Nizier-sous-Charlieu","lat":"46.15290000","lon":"4.12399000"},
{"state":"Auvergne-Rhône-Alpes","name":"Saint-Ours","lat":"45.85024000","lon":"2.89163000"},
{"state":"Auvergne-Rhône-Alpes","name":"Saint-Pal-de-Mons","lat":"45.24634000","lon":"4.27416000"},
{"state":"Auvergne-Rhône-Alpes","name":"Saint-Paul","lat":"45.39840000","lon":"4.22617000"},
{"state":"Auvergne-Rhône-Alpes","name":"Saint-Paul-de-Varax","lat":"46.09692000","lon":"5.12959000"},
{"state":"Auvergne-Rhône-Alpes","name":"Saint-Paul-de-Varces","lat":"45.07175000","lon":"5.64247000"},
{"state":"Auvergne-Rhône-Alpes","name":"Saint-Paul-des-Landes","lat":"44.94356000","lon":"2.31439000"},
{"state":"Auvergne-Rhône-Alpes","name":"Saint-Paul-en-Chablais","lat":"46.37958000","lon":"6.62483000"},
{"state":"Auvergne-Rhône-Alpes","name":"Saint-Paul-en-Jarez","lat":"45.48512000","lon":"4.57113000"},
{"state":"Auvergne-Rhône-Alpes","name":"Saint-Paul-lès-Romans","lat":"45.06725000","lon":"5.13213000"},
{"state":"Auvergne-Rhône-Alpes","name":"Saint-Paul-Trois-Châteaux","lat":"44.34594000","lon":"4.76356000"},
{"state":"Auvergne-Rhône-Alpes","name":"Saint-Paulien","lat":"45.13629000","lon":"3.81290000"},
{"state":"Auvergne-Rhône-Alpes","name":"Saint-Péray","lat":"44.94866000","lon":"4.84510000"},
{"state":"Auvergne-Rhône-Alpes","name":"Saint-Pierre-de-Bœuf","lat":"45.36667000","lon":"4.75000000"},
{"state":"Auvergne-Rhône-Alpes","name":"Saint-Pierre-de-Chandieu","lat":"45.64625000","lon":"5.01481000"},
{"state":"Auvergne-Rhône-Alpes","name":"Saint-Pierre-la-Palud","lat":"45.79092000","lon":"4.61177000"},
{"state":"Auvergne-Rhône-Alpes","name":"Saint-Pourçain-sur-Sioule","lat":"46.30748000","lon":"3.28931000"},
{"state":"Auvergne-Rhône-Alpes","name":"Saint-Priest","lat":"45.69651000","lon":"4.94385000"},
{"state":"Auvergne-Rhône-Alpes","name":"Saint-Priest-en-Jarez","lat":"45.47390000","lon":"4.37678000"},
{"state":"Auvergne-Rhône-Alpes","name":"Saint-Privat","lat":"44.62859000","lon":"4.41489000"},
{"state":"Auvergne-Rhône-Alpes","name":"Saint-Quentin-Fallavier","lat":"45.64335000","lon":"5.11266000"},
{"state":"Auvergne-Rhône-Alpes","name":"Saint-Quentin-sur-Isère","lat":"45.27843000","lon":"5.54463000"},
{"state":"Auvergne-Rhône-Alpes","name":"Saint-Rambert-en-Bugey","lat":"45.94734000","lon":"5.43630000"},
{"state":"Auvergne-Rhône-Alpes","name":"Saint-Rémy-de-Maurienne","lat":"45.40000000","lon":"6.26667000"},
{"state":"Auvergne-Rhône-Alpes","name":"Saint-Rémy-en-Rollat","lat":"46.18330000","lon":"3.39106000"},
{"state":"Auvergne-Rhône-Alpes","name":"Saint-Rémy-sur-Durolle","lat":"45.88815000","lon":"3.59257000"},
{"state":"Auvergne-Rhône-Alpes","name":"Saint-Restitut","lat":"44.32446000","lon":"4.79282000"},
{"state":"Auvergne-Rhône-Alpes","name":"Saint-Romain-de-Jalionas","lat":"45.75677000","lon":"5.21741000"},
{"state":"Auvergne-Rhône-Alpes","name":"Saint-Romain-de-Popey","lat":"45.84725000","lon":"4.53118000"},
{"state":"Auvergne-Rhône-Alpes","name":"Saint-Romain-en-Gal","lat":"45.53255000","lon":"4.86190000"},
{"state":"Auvergne-Rhône-Alpes","name":"Saint-Romain-la-Motte","lat":"46.08150000","lon":"3.99076000"},
{"state":"Auvergne-Rhône-Alpes","name":"Saint-Romain-le-Puy","lat":"45.55837000","lon":"4.12296000"},
{"state":"Auvergne-Rhône-Alpes","name":"Saint-Romans","lat":"45.11278000","lon":"5.32239000"},
{"state":"Auvergne-Rhône-Alpes","name":"Saint-Saturnin","lat":"45.65956000","lon":"3.09232000"},
{"state":"Auvergne-Rhône-Alpes","name":"Saint-Sauves-d'Auvergne","lat":"45.60000000","lon":"2.68333000"},
{"state":"Auvergne-Rhône-Alpes","name":"Saint-Sauveur","lat":"45.15335000","lon":"5.35280000"},
{"state":"Auvergne-Rhône-Alpes","name":"Saint-Sauveur-de-Montagut","lat":"44.82142000","lon":"4.57993000"},
{"state":"Auvergne-Rhône-Alpes","name":"Saint-Sauveur-en-Rue","lat":"45.26981000","lon":"4.49512000"},
{"state":"Auvergne-Rhône-Alpes","name":"Saint-Savin","lat":"45.62776000","lon":"5.30856000"},
{"state":"Auvergne-Rhône-Alpes","name":"Saint-Sernin","lat":"44.57147000","lon":"4.39186000"},
{"state":"Auvergne-Rhône-Alpes","name":"Saint-Siméon-de-Bressieux","lat":"45.33850000","lon":"5.26591000"},
{"state":"Auvergne-Rhône-Alpes","name":"Saint-Simon","lat":"44.96320000","lon":"2.48994000"},
{"state":"Auvergne-Rhône-Alpes","name":"Saint-Sorlin-en-Bugey","lat":"45.88576000","lon":"5.36688000"},
{"state":"Auvergne-Rhône-Alpes","name":"Saint-Sorlin-en-Valloire","lat":"45.28774000","lon":"4.94903000"},
{"state":"Auvergne-Rhône-Alpes","name":"Saint-Symphorien-de-Lay","lat":"45.94772000","lon":"4.21318000"},
{"state":"Auvergne-Rhône-Alpes","name":"Saint-Symphorien-sur-Coise","lat":"45.63220000","lon":"4.45709000"},
{"state":"Auvergne-Rhône-Alpes","name":"Saint-Trivier-de-Courtes","lat":"46.45980000","lon":"5.07762000"},
{"state":"Auvergne-Rhône-Alpes","name":"Saint-Trivier-sur-Moignans","lat":"46.07233000","lon":"4.89721000"},
{"state":"Auvergne-Rhône-Alpes","name":"Saint-Uze","lat":"45.18409000","lon":"4.86000000"},
{"state":"Auvergne-Rhône-Alpes","name":"Saint-Vallier","lat":"45.17154000","lon":"4.81758000"},
{"state":"Auvergne-Rhône-Alpes","name":"Saint-Vérand","lat":"45.17344000","lon":"5.33261000"},
{"state":"Auvergne-Rhône-Alpes","name":"Saint-Victor","lat":"46.39506000","lon":"2.60819000"},
{"state":"Auvergne-Rhône-Alpes","name":"Saint-Victor-de-Cessieu","lat":"45.54113000","lon":"5.39098000"},
{"state":"Auvergne-Rhône-Alpes","name":"Saint-Vincent-de-Mercuze","lat":"45.37215000","lon":"5.95424000"},
{"state":"Auvergne-Rhône-Alpes","name":"Saint-Yorre","lat":"46.06598000","lon":"3.46430000"},
{"state":"Auvergne-Rhône-Alpes","name":"Sainte-Colombe","lat":"45.52531000","lon":"4.86664000"},
{"state":"Auvergne-Rhône-Alpes","name":"Sainte-Consorce","lat":"45.77585000","lon":"4.69033000"},
{"state":"Auvergne-Rhône-Alpes","name":"Sainte-Euphémie","lat":"45.97101000","lon":"4.79853000"},
{"state":"Auvergne-Rhône-Alpes","name":"Sainte-Florine","lat":"45.40519000","lon":"3.31732000"},
{"state":"Auvergne-Rhône-Alpes","name":"Sainte-Foy-l’Argentière","lat":"45.70823000","lon":"4.47025000"},
{"state":"Auvergne-Rhône-Alpes","name":"Sainte-Foy-lès-Lyon","lat":"45.73375000","lon":"4.80259000"},
{"state":"Auvergne-Rhône-Alpes","name":"Sainte-Hélène-sur-Isère","lat":"45.61434000","lon":"6.32052000"},
{"state":"Auvergne-Rhône-Alpes","name":"Sainte-Sigolène","lat":"45.24329000","lon":"4.23343000"},
{"state":"Auvergne-Rhône-Alpes","name":"Salagnon","lat":"45.66863000","lon":"5.36325000"},
{"state":"Auvergne-Rhône-Alpes","name":"Salaise-sur-Sanne","lat":"45.35126000","lon":"4.81070000"},
{"state":"Auvergne-Rhône-Alpes","name":"Sales","lat":"45.87441000","lon":"5.95996000"},
{"state":"Auvergne-Rhône-Alpes","name":"Salins-les-Thermes","lat":"45.47169000","lon":"6.53051000"},
{"state":"Auvergne-Rhône-Alpes","name":"Sallanches","lat":"45.94423000","lon":"6.63162000"},
{"state":"Auvergne-Rhône-Alpes","name":"Samoëns","lat":"46.08282000","lon":"6.72647000"},
{"state":"Auvergne-Rhône-Alpes","name":"Sansac-de-Marmiesse","lat":"44.88376000","lon":"2.34768000"},
{"state":"Auvergne-Rhône-Alpes","name":"Sarras","lat":"45.18679000","lon":"4.80004000"},
{"state":"Auvergne-Rhône-Alpes","name":"Sassenage","lat":"45.21266000","lon":"5.66290000"},
{"state":"Auvergne-Rhône-Alpes","name":"Sathonay-Camp","lat":"45.82462000","lon":"4.87453000"},