[{"state":"Estuaire Province","name":"Cocobeach","lat":"1.00019000","lon":"9.58229000"},
{"state":"Estuaire Province","name":"Libreville","lat":"0.39241000","lon":"9.45356000"},
{"state":"Estuaire Province","name":"Ntoum","lat":"0.39051000","lon":"9.76096000"},
{"state":"Haut-Ogooué Province","name":"Franceville","lat":"-1.63333000","lon":"13.58357000"},
{"state":"Haut-Ogooué Province","name":"Lékoni","lat":"-1.58431000","lon":"14.25905000"},
{"state":"Haut-Ogooué Province","name":"Moanda","lat":"-1.56652000","lon":"13.19870000"},
{"state":"Haut-Ogooué Province","name":"Mounana","lat":"-1.40850000","lon":"13.15857000"},
{"state":"Haut-Ogooué Province","name":"Okondja","lat":"-0.65487000","lon":"13.67533000"},
{"state":"Moyen-Ogooué Province","name":"Lambaréné","lat":"-0.70010000","lon":"10.24055000"},
{"state":"Moyen-Ogooué Province","name":"Ndjolé","lat":"-0.17827000","lon":"10.76488000"},
{"state":"Ngounié Province","name":"Fougamou","lat":"-1.21544000","lon":"10.58378000"},
{"state":"Ngounié Province","name":"Mbigou","lat":"-1.90046000","lon":"11.90600000"},
{"state":"Ngounié Province","name":"Mimongo","lat":"-1.61952000","lon":"11.60675000"},
{"state":"Ngounié Province","name":"Mouila","lat":"-1.86846000","lon":"11.05594000"},
{"state":"Ngounié Province","name":"Ndendé","lat":"-2.40077000","lon":"11.35813000"},
{"state":"Nyanga Province","name":"Mayumba","lat":"-3.43198000","lon":"10.65540000"},
{"state":"Nyanga Province","name":"Tchibanga","lat":"-2.93323000","lon":"10.98178000"},
{"state":"Ogooué-Ivindo Province","name":"Booué","lat":"-0.09207000","lon":"11.93846000"},
{"state":"Ogooué-Ivindo Province","name":"Makokou","lat":"0.57381000","lon":"12.86419000"},
{"state":"Ogooué-Ivindo Province","name":"Zadie","lat":"0.92582000","lon":"13.90813000"},
{"state":"Ogooué-Lolo Province","name":"Koulamoutou","lat":"-1.13667000","lon":"12.46399000"},
{"state":"Ogooué-Lolo Province","name":"Lastoursville","lat":"-0.81742000","lon":"12.70818000"},
{"state":"Ogooué-Maritime Province","name":"Gamba","lat":"-2.65000000","lon":"10.00000000"},
{"state":"Ogooué-Maritime Province","name":"Omboué","lat":"-1.57464000","lon":"9.26184000"},
{"state":"Ogooué-Maritime Province","name":"Port-Gentil","lat":"-0.71933000","lon":"8.78151000"},
{"state":"Woleu-Ntem Province","name":"Bitam","lat":"2.07597000","lon":"11.50065000"},
{"state":"Woleu-Ntem Province","name":"Mitzic","lat":"0.78205000","lon":"11.54904000"},
{"state":"Woleu-Ntem Province","name":"Oyem","lat":"1.59950000","lon":"11.57933000"}]