[{"state":"England","name":"Abbey Wood","lat":"51.48688000","lon":"0.10747000"},
{"state":"England","name":"Abbots Bromley","lat":"52.81705000","lon":"-1.87694000"},
{"state":"England","name":"Abbots Langley","lat":"51.70573000","lon":"-0.41757000"},
{"state":"England","name":"Abbotskerswell","lat":"50.50816000","lon":"-3.61342000"},
{"state":"England","name":"Abbotts Ann","lat":"51.19016000","lon":"-1.53234000"},
{"state":"England","name":"Aberford","lat":"53.82604000","lon":"-1.34231000"},
{"state":"England","name":"Abingdon","lat":"51.67109000","lon":"-1.28278000"},
{"state":"England","name":"Abram","lat":"53.50855000","lon":"-2.59266000"},
{"state":"England","name":"Abridge","lat":"51.64950000","lon":"0.12033000"},
{"state":"England","name":"Accrington","lat":"53.75379000","lon":"-2.35863000"},
{"state":"England","name":"Acklington","lat":"55.30000000","lon":"-1.63333000"},
{"state":"England","name":"Acle","lat":"52.63681000","lon":"1.54757000"},
{"state":"England","name":"Acocks Green","lat":"52.45000000","lon":"-1.81667000"},
{"state":"England","name":"Acomb","lat":"54.99229000","lon":"-2.11229000"},
{"state":"England","name":"Acton","lat":"51.50901000","lon":"-0.27620000"},
{"state":"England","name":"Adderbury","lat":"52.01690000","lon":"-1.31192000"},
{"state":"England","name":"Addingham","lat":"53.94452000","lon":"-1.88424000"},
{"state":"England","name":"Addlestone","lat":"51.37135000","lon":"-0.49353000"},
{"state":"England","name":"Adlington","lat":"53.61323000","lon":"-2.60676000"},
{"state":"England","name":"Adwick le Street","lat":"53.57077000","lon":"-1.18454000"},
{"state":"England","name":"Airmyn","lat":"53.72074000","lon":"-0.89959000"},
{"state":"England","name":"Albrighton","lat":"52.63640000","lon":"-2.27966000"},
{"state":"England","name":"Alcester","lat":"52.21667000","lon":"-1.86667000"},
{"state":"England","name":"Alconbury","lat":"52.36900000","lon":"-0.26009000"},
{"state":"England","name":"Aldbourne","lat":"51.48098000","lon":"-1.61827000"},
{"state":"England","name":"Aldbrough","lat":"53.82893000","lon":"-0.11467000"},
{"state":"England","name":"Aldeburgh","lat":"52.15259000","lon":"1.60124000"},
{"state":"England","name":"Alderbury","lat":"51.04354000","lon":"-1.73382000"},
{"state":"England","name":"Alderholt","lat":"50.91195000","lon":"-1.83083000"},
{"state":"England","name":"Alderley Edge","lat":"53.30393000","lon":"-2.23773000"},
{"state":"England","name":"Aldershot","lat":"51.24827000","lon":"-0.76389000"},
{"state":"England","name":"Aldford","lat":"53.12762000","lon":"-2.86812000"},
{"state":"England","name":"Aldridge","lat":"52.60549000","lon":"-1.91715000"},
{"state":"England","name":"Alford","lat":"53.25943000","lon":"0.17625000"},
{"state":"England","name":"Alfreton","lat":"53.09766000","lon":"-1.38376000"},
{"state":"England","name":"Allhallows","lat":"51.46866000","lon":"0.63686000"},
{"state":"England","name":"Almondsbury","lat":"51.55407000","lon":"-2.57114000"},
{"state":"England","name":"Alnwick","lat":"55.41318000","lon":"-1.70563000"},
{"state":"England","name":"Alresford","lat":"51.85389000","lon":"1.00203000"},
{"state":"England","name":"Alrewas","lat":"52.73278000","lon":"-1.74968000"},
{"state":"England","name":"Alsager","lat":"53.09617000","lon":"-2.30649000"},
{"state":"England","name":"Alston","lat":"54.80900000","lon":"-2.43931000"},
{"state":"England","name":"Althorne","lat":"51.65722000","lon":"0.76085000"},
{"state":"England","name":"Alton","lat":"51.14931000","lon":"-0.97469000"},
{"state":"England","name":"Altrincham","lat":"53.38752000","lon":"-2.34848000"},
{"state":"England","name":"Alvechurch","lat":"52.35173000","lon":"-1.96531000"},
{"state":"England","name":"Alveley","lat":"52.45709000","lon":"-2.35434000"},
{"state":"England","name":"Alveston","lat":"51.58806000","lon":"-2.53139000"},
{"state":"England","name":"Amble","lat":"55.33333000","lon":"-1.58333000"},
{"state":"England","name":"Ambleside","lat":"54.43261000","lon":"-2.96167000"},
{"state":"England","name":"Ambrosden","lat":"51.87087000","lon":"-1.12129000"},
{"state":"England","name":"Amersham","lat":"51.66667000","lon":"-0.61667000"},
{"state":"England","name":"Amersham on the Hill","lat":"51.67468000","lon":"-0.60742000"},
{"state":"England","name":"Amesbury","lat":"51.17509000","lon":"-1.78064000"},
{"state":"England","name":"Ampthill","lat":"52.02694000","lon":"-0.49567000"},
{"state":"England","name":"Ancaster","lat":"52.98276000","lon":"-0.53593000"},
{"state":"England","name":"Andover","lat":"51.21135000","lon":"-1.49393000"},
{"state":"England","name":"Anna Valley","lat":"51.19317000","lon":"-1.50719000"},
{"state":"England","name":"Annfield Plain","lat":"54.85749000","lon":"-1.73827000"},
{"state":"England","name":"Anstey","lat":"52.67368000","lon":"-1.18841000"},
{"state":"England","name":"Appleby","lat":"53.62198000","lon":"-0.56612000"},
{"state":"England","name":"Appleby-in-Westmorland","lat":"54.57704000","lon":"-2.48978000"},
{"state":"England","name":"Appledore","lat":"51.05000000","lon":"-4.20000000"},
{"state":"England","name":"Appleton Thorn","lat":"53.35045000","lon":"-2.54488000"},
{"state":"England","name":"Appley Bridge","lat":"53.57781000","lon":"-2.72090000"},
{"state":"England","name":"Archway","lat":"51.56733000","lon":"-0.13415000"},
{"state":"England","name":"Ardingly","lat":"51.04865000","lon":"-0.07716000"},
{"state":"England","name":"Arlesey","lat":"52.00713000","lon":"-0.26565000"},
{"state":"England","name":"Armitage","lat":"52.74193000","lon":"-1.88266000"},
{"state":"England","name":"Armthorpe","lat":"53.53518000","lon":"-1.05341000"},
{"state":"England","name":"Arnold","lat":"53.00000000","lon":"-1.13333000"},
{"state":"England","name":"Arnside","lat":"54.20179000","lon":"-2.83374000"},
{"state":"England","name":"Arundel","lat":"50.85423000","lon":"-0.55393000"},
{"state":"England","name":"Ascot","lat":"51.41082000","lon":"-0.67480000"},
{"state":"England","name":"Asfordby","lat":"52.76331000","lon":"-0.95856000"},
{"state":"England","name":"Ash","lat":"51.27883000","lon":"1.27974000"},
{"state":"England","name":"Ashbourne","lat":"53.01667000","lon":"-1.73333000"},
{"state":"England","name":"Ashburton","lat":"50.51559000","lon":"-3.75572000"},
{"state":"England","name":"Ashby de la Zouch","lat":"52.74632000","lon":"-1.47320000"},
{"state":"England","name":"Ashford","lat":"51.14648000","lon":"0.87376000"},
{"state":"England","name":"Ashill","lat":"52.60435000","lon":"0.78574000"},
{"state":"England","name":"Ashington","lat":"55.17719000","lon":"-1.56412000"},
{"state":"England","name":"Ashtead","lat":"51.30873000","lon":"-0.29972000"},
{"state":"England","name":"Ashton in Makerfield","lat":"53.48333000","lon":"-2.65000000"},
{"state":"England","name":"Ashton Keynes","lat":"51.64521000","lon":"-1.93232000"},
{"state":"England","name":"Ashton-under-Lyne","lat":"53.48876000","lon":"-2.09890000"},
{"state":"England","name":"Ashurst","lat":"50.93236000","lon":"-0.32375000"},
{"state":"England","name":"Ashwell","lat":"52.03866000","lon":"-0.15398000"},
{"state":"England","name":"Askam in Furness","lat":"54.18718000","lon":"-3.20467000"},
{"state":"England","name":"Askern","lat":"53.61639000","lon":"-1.15237000"},
{"state":"England","name":"Aslockton","lat":"52.95299000","lon":"-0.89700000"},
{"state":"England","name":"Aspatria","lat":"54.76574000","lon":"-3.32783000"},
{"state":"England","name":"Aston","lat":"52.50000000","lon":"-1.88333000"},
{"state":"England","name":"Aston Clinton","lat":"51.80020000","lon":"-0.72540000"},
{"state":"England","name":"Aston-on-Trent","lat":"52.86172000","lon":"-1.38642000"},
{"state":"England","name":"Astwood Bank","lat":"52.25993000","lon":"-1.93754000"},
{"state":"England","name":"Atherstone","lat":"52.57536000","lon":"-1.54693000"},
{"state":"England","name":"Atherton","lat":"53.52371000","lon":"-2.49354000"},
{"state":"England","name":"Attleborough","lat":"52.51779000","lon":"1.01572000"},
{"state":"England","name":"Atworth","lat":"51.39234000","lon":"-2.19297000"},
{"state":"England","name":"Auckley","lat":"53.50386000","lon":"-1.02174000"},
{"state":"England","name":"Audlem","lat":"52.98956000","lon":"-2.50706000"},
{"state":"England","name":"Audley","lat":"53.05000000","lon":"-2.30000000"},
{"state":"England","name":"Aveley","lat":"51.49987000","lon":"0.25174000"},
{"state":"England","name":"Avening","lat":"51.68010000","lon":"-2.16903000"},
{"state":"England","name":"Awsworth","lat":"52.98912000","lon":"-1.28354000"},
{"state":"England","name":"Axbridge","lat":"51.28466000","lon":"-2.82078000"},
{"state":"England","name":"Axminster","lat":"50.78259000","lon":"-2.99787000"},
{"state":"England","name":"Aylesbury","lat":"51.81665000","lon":"-0.81458000"},
{"state":"England","name":"Aylesford","lat":"51.30374000","lon":"0.47936000"},
{"state":"England","name":"Aylesham","lat":"51.22539000","lon":"1.20157000"},
{"state":"England","name":"Aylsham","lat":"52.79672000","lon":"1.25107000"},
{"state":"England","name":"Babworth","lat":"53.31799000","lon":"-0.97583000"},
{"state":"England","name":"Backworth","lat":"55.04229000","lon":"-1.52779000"},
{"state":"England","name":"Bacton","lat":"52.26667000","lon":"1.01667000"},
{"state":"England","name":"Bacup","lat":"53.70336000","lon":"-2.20070000"},
{"state":"England","name":"Badsey","lat":"52.08819000","lon":"-1.89925000"},
{"state":"England","name":"Badsworth","lat":"53.62876000","lon":"-1.30128000"},
{"state":"England","name":"Bagshot","lat":"51.36069000","lon":"-0.68802000"},
{"state":"England","name":"Bagworth","lat":"52.67265000","lon":"-1.34274000"},
{"state":"England","name":"Baildon","lat":"53.84711000","lon":"-1.78785000"},
{"state":"England","name":"Bakewell","lat":"53.21338000","lon":"-1.67481000"},
{"state":"England","name":"Balcombe","lat":"51.05726000","lon":"-0.13450000"},
{"state":"England","name":"Baldock","lat":"51.98781000","lon":"-0.18835000"},
{"state":"England","name":"Balsall Common","lat":"52.39186000","lon":"-1.65040000"},
{"state":"England","name":"Balsham","lat":"52.13238000","lon":"0.31586000"},
{"state":"England","name":"Bamburgh","lat":"55.60652000","lon":"-1.71704000"},
{"state":"England","name":"Bampton","lat":"51.72634000","lon":"-1.54547000"},
{"state":"England","name":"Banbury","lat":"52.06320000","lon":"-1.34222000"},
{"state":"England","name":"Banham","lat":"52.45240000","lon":"1.03683000"},
{"state":"England","name":"Banks","lat":"53.68333000","lon":"-2.91667000"},
{"state":"England","name":"Banstead","lat":"51.32233000","lon":"-0.20685000"},
{"state":"England","name":"Banwell","lat":"51.32894000","lon":"-2.86914000"},
{"state":"England","name":"Bar Hill","lat":"52.24899000","lon":"0.02883000"},
{"state":"England","name":"Barbican","lat":"51.51988000","lon":"-0.09446000"},
{"state":"England","name":"Bardney","lat":"53.21005000","lon":"-0.32371000"},
{"state":"England","name":"Bardsey","lat":"53.88492000","lon":"-1.44539000"},
{"state":"England","name":"Barham","lat":"51.20570000","lon":"1.15734000"},
{"state":"England","name":"Barking","lat":"51.53333000","lon":"0.08333000"},
{"state":"England","name":"Barkisland","lat":"53.67614000","lon":"-1.91840000"},
{"state":"England","name":"Barlaston","lat":"52.94200000","lon":"-2.17050000"},
{"state":"England","name":"Barlborough","lat":"53.28795000","lon":"-1.28815000"},
{"state":"England","name":"Barlby","lat":"53.79964000","lon":"-1.04061000"},
{"state":"England","name":"Barlestone","lat":"52.64718000","lon":"-1.37013000"},
{"state":"England","name":"Barmby on the Marsh","lat":"53.74896000","lon":"-0.95607000"},
{"state":"England","name":"Barnack","lat":"52.63181000","lon":"-0.40821000"},
{"state":"England","name":"Barnard Castle","lat":"54.54150000","lon":"-1.91900000"},
{"state":"England","name":"Barnburgh","lat":"53.52408000","lon":"-1.27300000"},
{"state":"England","name":"Barnet","lat":"51.65000000","lon":"-0.20000000"},
{"state":"England","name":"Barnetby le Wold","lat":"53.57480000","lon":"-0.40607000"},
{"state":"England","name":"Barnham","lat":"50.83120000","lon":"-0.63789000"},
{"state":"England","name":"Barnoldswick","lat":"53.91711000","lon":"-2.18705000"},
{"state":"England","name":"Barnsbury","lat":"51.54067000","lon":"-0.11675000"},
{"state":"England","name":"Barnsley","lat":"53.53333000","lon":"-1.50000000"},
{"state":"England","name":"Barnstaple","lat":"51.08022000","lon":"-4.05808000"},
{"state":"England","name":"Barnt Green","lat":"52.35902000","lon":"-2.00715000"},
{"state":"England","name":"Barnwood","lat":"51.86393000","lon":"-2.20087000"},
{"state":"England","name":"Barrow in Furness","lat":"54.11094000","lon":"-3.22758000"},
{"state":"England","name":"Barrow upon Humber","lat":"53.67550000","lon":"-0.38062000"},
{"state":"England","name":"Barrow upon Soar","lat":"52.75178000","lon":"-1.14601000"},
{"state":"England","name":"Barrowby","lat":"52.91636000","lon":"-0.69094000"},
{"state":"England","name":"Barrowford","lat":"53.84650000","lon":"-2.21838000"},
{"state":"England","name":"Bartley Green","lat":"52.43532000","lon":"-1.99707000"},
{"state":"England","name":"Barton under Needwood","lat":"52.76268000","lon":"-1.72400000"},
{"state":"England","name":"Barton upon Humber","lat":"53.68915000","lon":"-0.44377000"},
{"state":"England","name":"Barton-le-Clay","lat":"51.96598000","lon":"-0.42731000"},
{"state":"England","name":"Baschurch","lat":"52.78848000","lon":"-2.85284000"},
{"state":"England","name":"Basford","lat":"52.96667000","lon":"-1.18333000"},
{"state":"England","name":"Basildon","lat":"51.56844000","lon":"0.45782000"},
{"state":"England","name":"Basingstoke","lat":"51.26249000","lon":"-1.08708000"},
{"state":"England","name":"Baslow","lat":"53.24811000","lon":"-1.62246000"},
{"state":"England","name":"Bassingbourn","lat":"52.07821000","lon":"-0.05390000"},
{"state":"England","name":"Bassingham","lat":"53.12881000","lon":"-0.63765000"},
{"state":"England","name":"Baston","lat":"52.71311000","lon":"-0.35173000"},
{"state":"England","name":"Bath","lat":"51.37510000","lon":"-2.36172000"},
{"state":"England","name":"Bath and North East Somerset","lat":"51.33333000","lon":"-2.50000000"},
{"state":"England","name":"Batley","lat":"53.70291000","lon":"-1.63370000"},
{"state":"England","name":"Battersea","lat":"51.47475000","lon":"-0.15547000"},
{"state":"England","name":"Battle","lat":"50.91732000","lon":"0.48417000"},
{"state":"England","name":"Bawtry","lat":"53.43146000","lon":"-1.01878000"},
{"state":"England","name":"Bay Horse","lat":"53.96867000","lon":"-2.77603000"},
{"state":"England","name":"Bayston Hill","lat":"52.67550000","lon":"-2.76156000"},
{"state":"England","name":"Bayswater","lat":"51.51116000","lon":"-0.18426000"},
{"state":"England","name":"Beaconsfield","lat":"51.61219000","lon":"-0.64732000"},
{"state":"England","name":"Beadnell","lat":"55.55670000","lon":"-1.63250000"},
{"state":"England","name":"Beaminster","lat":"50.80900000","lon":"-2.73910000"},
{"state":"England","name":"Bebington","lat":"53.35000000","lon":"-3.01667000"},
{"state":"England","name":"Beccles","lat":"52.45936000","lon":"1.56465000"},
{"state":"England","name":"Beckenham","lat":"51.40878000","lon":"-0.02526000"},
{"state":"England","name":"Beckingham","lat":"53.40000000","lon":"-0.83333000"},
{"state":"England","name":"Becontree","lat":"51.55290000","lon":"0.12900000"},
{"state":"England","name":"Bedale","lat":"54.28811000","lon":"-1.59181000"},
{"state":"England","name":"Bedford","lat":"52.18831000","lon":"-0.45316000"},
{"state":"England","name":"Bedlington","lat":"55.13061000","lon":"-1.59319000"},
{"state":"England","name":"Bedworth","lat":"52.47910000","lon":"-1.46909000"},
{"state":"England","name":"Beeford","lat":"53.96999000","lon":"-0.28913000"},
{"state":"England","name":"Beighton","lat":"53.33333000","lon":"-1.33333000"},
{"state":"England","name":"Belbroughton","lat":"52.39177000","lon":"-2.11884000"},
{"state":"England","name":"Belford","lat":"55.60000000","lon":"-1.83333000"},
{"state":"England","name":"Bellingham","lat":"55.14464000","lon":"-2.25383000"},
{"state":"England","name":"Belmont","lat":"52.04272000","lon":"-2.74169000"},
{"state":"England","name":"Belper","lat":"53.02330000","lon":"-1.48119000"},
{"state":"England","name":"Belsize Park","lat":"51.54767000","lon":"-0.17228000"},
{"state":"England","name":"Belton","lat":"53.55000000","lon":"-0.81667000"},
{"state":"England","name":"Belvedere","lat":"51.49114000","lon":"0.15136000"},
{"state":"England","name":"Bembridge","lat":"50.68634000","lon":"-1.08275000"},
{"state":"England","name":"Bempton","lat":"54.13036000","lon":"-0.17853000"},
{"state":"England","name":"Benson","lat":"51.62073000","lon":"-1.10979000"},
{"state":"England","name":"Bentley","lat":"53.53333000","lon":"-1.15000000"},
{"state":"England","name":"Benwell","lat":"54.97296000","lon":"-1.66926000"},
{"state":"England","name":"Bere Alston","lat":"50.48233000","lon":"-4.19034000"},
{"state":"England","name":"Bere Regis","lat":"50.75371000","lon":"-2.21553000"},
{"state":"England","name":"Berkeley","lat":"51.69111000","lon":"-2.45917000"},
{"state":"England","name":"Berkhamsted","lat":"51.76040000","lon":"-0.56528000"},
{"state":"England","name":"Berwick-Upon-Tweed","lat":"55.76536000","lon":"-2.01186000"},
{"state":"England","name":"Bethnal Green","lat":"51.52718000","lon":"-0.06109000"},
{"state":"England","name":"Betley","lat":"53.03439000","lon":"-2.36865000"},
{"state":"England","name":"Beverley","lat":"53.84587000","lon":"-0.42332000"},
{"state":"England","name":"Bewbush","lat":"51.10329000","lon":"-0.22312000"},
{"state":"England","name":"Bewdley","lat":"52.37570000","lon":"-2.31833000"},
{"state":"England","name":"Bexhill-on-Sea","lat":"50.85023000","lon":"0.47095000"},
{"state":"England","name":"Bexley","lat":"51.44162000","lon":"0.14866000"},
{"state":"England","name":"Bicester","lat":"51.89998000","lon":"-1.15357000"},
{"state":"England","name":"Bicknacre","lat":"51.69403000","lon":"0.58519000"},
{"state":"England","name":"Bicton","lat":"52.72829000","lon":"-2.81649000"},
{"state":"England","name":"Biddenden","lat":"51.11489000","lon":"0.63819000"},
{"state":"England","name":"Biddestone","lat":"51.46083000","lon":"-2.19833000"},
{"state":"England","name":"Biddulph","lat":"53.11724000","lon":"-2.17584000"},
{"state":"England","name":"Bideford","lat":"51.01678000","lon":"-4.20832000"},
{"state":"England","name":"Bidford-on-Avon","lat":"52.16964000","lon":"-1.85955000"},
{"state":"England","name":"Biggin Hill","lat":"51.31329000","lon":"0.03433000"},
{"state":"England","name":"Biggleswade","lat":"52.08652000","lon":"-0.26493000"},
{"state":"England","name":"Bildeston","lat":"52.10658000","lon":"0.90916000"},
{"state":"England","name":"Billericay","lat":"51.62867000","lon":"0.41963000"},
{"state":"England","name":"Billingborough","lat":"52.89384000","lon":"-0.34186000"},
{"state":"England","name":"Billinge","lat":"53.49795000","lon":"-2.70810000"},
{"state":"England","name":"Billingham","lat":"54.58881000","lon":"-1.29034000"},
{"state":"England","name":"Billinghay","lat":"53.07959000","lon":"-0.27689000"},
{"state":"England","name":"Billingshurst","lat":"51.02312000","lon":"-0.45359000"},
{"state":"England","name":"Billington","lat":"53.81570000","lon":"-2.42360000"},
{"state":"England","name":"Bilsdale","lat":"54.37356000","lon":"-1.11923000"},
{"state":"England","name":"Bilsthorpe","lat":"53.14024000","lon":"-1.03392000"},
{"state":"England","name":"Bilston","lat":"52.56568000","lon":"-2.07367000"},
{"state":"England","name":"Bingham","lat":"52.94978000","lon":"-0.95907000"},
{"state":"England","name":"Bingley","lat":"53.84861000","lon":"-1.83857000"},
{"state":"England","name":"Birchington-on-Sea","lat":"51.37575000","lon":"1.30480000"},
{"state":"England","name":"Bircotes","lat":"53.41933000","lon":"-1.04905000"},
{"state":"England","name":"Birdham","lat":"50.79606000","lon":"-0.83067000"},
{"state":"England","name":"Birdwell","lat":"53.51398000","lon":"-1.47929000"},
{"state":"England","name":"Birkenhead","lat":"53.39337000","lon":"-3.01479000"},
{"state":"England","name":"Birmingham","lat":"52.48142000","lon":"-1.89983000"},
{"state":"England","name":"Bishop Auckland","lat":"54.65554000","lon":"-1.67706000"},
{"state":"England","name":"Bishop Middleham","lat":"54.67778000","lon":"-1.48826000"},
{"state":"England","name":"Bishop Sutton","lat":"51.33444000","lon":"-2.59472000"},
{"state":"England","name":"Bishop's Castle","lat":"52.49208000","lon":"-3.00210000"},
{"state":"England","name":"Bishops Cleeve","lat":"51.94749000","lon":"-2.06277000"},
{"state":"England","name":"Bishops Lydeard","lat":"51.05917000","lon":"-3.18778000"},
{"state":"England","name":"Bishops Stortford","lat":"51.87113000","lon":"0.15868000"},
{"state":"England","name":"Bishops Waltham","lat":"50.95595000","lon":"-1.21476000"},
{"state":"England","name":"Bishopsteignton","lat":"50.55193000","lon":"-3.53852000"},
{"state":"England","name":"Bishopstoke","lat":"50.96643000","lon":"-1.32832000"},
{"state":"England","name":"Bishopstone","lat":"51.55130000","lon":"-1.64701000"},
{"state":"England","name":"Bishopsworth","lat":"51.41479000","lon":"-2.62080000"},
{"state":"England","name":"Bishopthorpe","lat":"53.91910000","lon":"-1.09915000"},
{"state":"England","name":"Bishopton","lat":"54.58333000","lon":"-1.43333000"},
{"state":"England","name":"Bitton","lat":"51.42479000","lon":"-2.45965000"},
{"state":"England","name":"Blaby","lat":"52.57577000","lon":"-1.16403000"},
{"state":"England","name":"Black Notley","lat":"51.85301000","lon":"0.56846000"},
{"state":"England","name":"Blackburn","lat":"53.75000000","lon":"-2.48333000"},
{"state":"England","name":"Blackburn with Darwen","lat":"53.66667000","lon":"-2.46667000"},
{"state":"England","name":"Blackheath","lat":"51.46470000","lon":"0.00790000"},
{"state":"England","name":"Blackley","lat":"53.51765000","lon":"-2.21443000"},
{"state":"England","name":"Blackmoorfoot","lat":"53.61423000","lon":"-1.85588000"},
{"state":"England","name":"Blackpool","lat":"53.81667000","lon":"-3.05000000"},
{"state":"England","name":"Blackrod","lat":"53.59229000","lon":"-2.58026000"},
{"state":"England","name":"Blackwell","lat":"53.11667000","lon":"-1.33333000"},
{"state":"England","name":"Blacon","lat":"53.20832000","lon":"-2.92530000"},
{"state":"England","name":"Blagdon","lat":"51.32688000","lon":"-2.71731000"},
{"state":"England","name":"Blandford Forum","lat":"50.86073000","lon":"-2.16174000"},
{"state":"England","name":"Blaydon-on-Tyne","lat":"54.96461000","lon":"-1.71392000"},
{"state":"England","name":"Bleadon","lat":"51.30861000","lon":"-2.94750000"},
{"state":"England","name":"Blean","lat":"51.30679000","lon":"1.04301000"},
{"state":"England","name":"Bletchingley","lat":"51.24059000","lon":"-0.10038000"},
{"state":"England","name":"Bletchley","lat":"51.99334000","lon":"-0.73471000"},
{"state":"England","name":"Blewbury","lat":"51.56880000","lon":"-1.23261000"},
{"state":"England","name":"Blidworth","lat":"53.09849000","lon":"-1.11689000"},
{"state":"England","name":"Blindley Heath","lat":"51.19344000","lon":"-0.05116000"},
{"state":"England","name":"Blisworth","lat":"52.17498000","lon":"-0.94131000"},
{"state":"England","name":"Blockley","lat":"52.01220000","lon":"-1.76268000"},
{"state":"England","name":"Bloxham","lat":"52.02039000","lon":"-1.37321000"},
{"state":"England","name":"Bloxwich","lat":"52.61806000","lon":"-2.00431000"},
{"state":"England","name":"Blunham","lat":"52.14695000","lon":"-0.32178000"},
{"state":"England","name":"Bluntisham","lat":"52.35479000","lon":"0.00854000"},
{"state":"England","name":"Blyth","lat":"55.12708000","lon":"-1.50856000"},
{"state":"England","name":"Blyton","lat":"53.44384000","lon":"-0.71753000"},
{"state":"England","name":"Bodle Street","lat":"50.91299000","lon":"0.34332000"},
{"state":"England","name":"Bodmin","lat":"50.47151000","lon":"-4.72430000"},
{"state":"England","name":"Bognor Regis","lat":"50.78206000","lon":"-0.67978000"},
{"state":"England","name":"Bollington","lat":"53.29446000","lon":"-2.10963000"},
{"state":"England","name":"Bolsover","lat":"53.22846000","lon":"-1.29204000"},
{"state":"England","name":"Bolton","lat":"53.58333000","lon":"-2.43333000"},
{"state":"England","name":"Bolton le Sands","lat":"54.09632000","lon":"-2.80017000"},
{"state":"England","name":"Bolton upon Dearne","lat":"53.51667000","lon":"-1.31667000"},
{"state":"England","name":"Boosbeck","lat":"54.54265000","lon":"-0.98139000"},
{"state":"England","name":"Bootle","lat":"53.46667000","lon":"-3.01667000"},
{"state":"England","name":"Bordon","lat":"51.11357000","lon":"-0.86245000"},
{"state":"England","name":"Boreham","lat":"51.75955000","lon":"0.54116000"},
{"state":"England","name":"Borehamwood","lat":"51.65468000","lon":"-0.27762000"},
{"state":"England","name":"Borough Green","lat":"51.29158000","lon":"0.30478000"},
{"state":"England","name":"Borough of Bolton","lat":"53.58333000","lon":"-2.50000000"},
{"state":"England","name":"Borough of Bury","lat":"53.58333000","lon":"-2.33333000"},
{"state":"England","name":"Borough of Halton","lat":"53.33333000","lon":"-2.75000000"},
{"state":"England","name":"Borough of North Tyneside","lat":"55.03333000","lon":"-1.50000000"},
{"state":"England","name":"Borough of Oldham","lat":"53.55000000","lon":"-2.08333000"},
{"state":"England","name":"Borough of Rochdale","lat":"53.58333000","lon":"-2.16667000"},
{"state":"England","name":"Borough of Stockport","lat":"53.41667000","lon":"-2.16667000"},
{"state":"England","name":"Borough of Swindon","lat":"51.58333000","lon":"-1.75000000"},
{"state":"England","name":"Borough of Tameside","lat":"53.50000000","lon":"-2.08333000"},
{"state":"England","name":"Borough of Thurrock","lat":"51.50000000","lon":"0.41667000"},
{"state":"England","name":"Borough of Torbay","lat":"50.45160000","lon":"-3.55785000"},
{"state":"England","name":"Borough of Wigan","lat":"53.50000000","lon":"-2.58333000"},
{"state":"England","name":"Boroughbridge","lat":"54.08950000","lon":"-1.40110000"},
{"state":"England","name":"Borrowash","lat":"52.90673000","lon":"-1.38411000"},
{"state":"England","name":"Bosham","lat":"50.83088000","lon":"-0.85384000"},
{"state":"England","name":"Boston","lat":"52.97633000","lon":"-0.02664000"},
{"state":"England","name":"Boston Spa","lat":"53.90419000","lon":"-1.34523000"},
{"state":"England","name":"Botesdale","lat":"52.34216000","lon":"1.00405000"},
{"state":"England","name":"Botley","lat":"50.91433000","lon":"-1.26984000"},
{"state":"England","name":"Bottesford","lat":"52.94131000","lon":"-0.80060000"},
{"state":"England","name":"Bottisham","lat":"52.22280000","lon":"0.25878000"},
{"state":"England","name":"Boughton","lat":"53.20000000","lon":"-0.98333000"},
{"state":"England","name":"Bourne","lat":"52.76667000","lon":"-0.38333000"},
{"state":"England","name":"Bourne End","lat":"51.57622000","lon":"-0.71291000"},
{"state":"England","name":"Bournemouth","lat":"50.71918000","lon":"-1.87806000"},
{"state":"England","name":"Bourton","lat":"51.07444000","lon":"-2.32778000"},
{"state":"England","name":"Bourton on the Water","lat":"51.88584000","lon":"-1.75492000"},
{"state":"England","name":"Bovey Tracey","lat":"50.59259000","lon":"-3.67543000"},
{"state":"England","name":"Bovingdon","lat":"51.72312000","lon":"-0.53670000"},
{"state":"England","name":"Bovington Camp","lat":"50.69782000","lon":"-2.23506000"},
{"state":"England","name":"Bow","lat":"50.80000000","lon":"-3.81667000"},
{"state":"England","name":"Bow Brickhill","lat":"52.00280000","lon":"-0.68064000"},
{"state":"England","name":"Bowburn","lat":"54.73850000","lon":"-1.52521000"},
{"state":"England","name":"Bowdon","lat":"53.37644000","lon":"-2.36532000"},
{"state":"England","name":"Bowthorpe","lat":"52.63884000","lon":"1.21885000"},
{"state":"England","name":"Box","lat":"51.41472000","lon":"-2.24556000"},
{"state":"England","name":"Boxgrove","lat":"50.85884000","lon":"-0.71360000"},
{"state":"England","name":"Boxted","lat":"51.94878000","lon":"0.91002000"},
{"state":"England","name":"Bozeat","lat":"52.22270000","lon":"-0.67326000"},
{"state":"England","name":"Bracebridge Heath","lat":"53.19647000","lon":"-0.53421000"},
{"state":"England","name":"Brackley","lat":"52.03333000","lon":"-1.15000000"},
{"state":"England","name":"Bracknell","lat":"51.41363000","lon":"-0.75054000"},
{"state":"England","name":"Bracknell Forest","lat":"51.41667000","lon":"-0.75000000"},
{"state":"England","name":"Bradfield","lat":"51.44914000","lon":"-1.13082000"},
{"state":"England","name":"Bradford","lat":"53.83333000","lon":"-1.83333000"},
{"state":"England","name":"Bradford-on-Avon","lat":"51.34772000","lon":"-2.25065000"},
{"state":"England","name":"Brading","lat":"50.67990000","lon":"-1.14571000"},
{"state":"England","name":"Bradley Cross","lat":"51.27488000","lon":"-2.76256000"},
{"state":"England","name":"Bradninch","lat":"50.82491000","lon":"-3.42465000"},
{"state":"England","name":"Bradwell","lat":"52.57353000","lon":"1.69979000"},
{"state":"England","name":"Braintree","lat":"51.87819000","lon":"0.55292000"},
{"state":"England","name":"Bramford","lat":"52.07631000","lon":"1.09687000"},
{"state":"England","name":"Bramhall","lat":"53.35801000","lon":"-2.16539000"},
{"state":"England","name":"Bramham","lat":"53.88118000","lon":"-1.35452000"},
{"state":"England","name":"Bramhope","lat":"53.88489000","lon":"-1.61641000"},
{"state":"England","name":"Bramley","lat":"51.32677000","lon":"-1.05938000"},
{"state":"England","name":"Brampton","lat":"52.32039000","lon":"-0.22007000"},
{"state":"England","name":"Brandesburton","lat":"53.91110000","lon":"-0.30122000"},
{"state":"England","name":"Brandon","lat":"54.75000000","lon":"-1.61667000"},
{"state":"England","name":"Bransgore","lat":"50.78153000","lon":"-1.73771000"},
{"state":"England","name":"Branston","lat":"53.19544000","lon":"-0.47482000"},
{"state":"England","name":"Bratton","lat":"51.27056000","lon":"-2.12444000"},
{"state":"England","name":"Braunston","lat":"52.28979000","lon":"-1.20266000"},
{"state":"England","name":"Braunton","lat":"51.10847000","lon":"-4.16131000"},
{"state":"England","name":"Brayton","lat":"53.76510000","lon":"-1.08921000"},
{"state":"England","name":"Bream","lat":"51.74822000","lon":"-2.57747000"},
{"state":"England","name":"Bredbury","lat":"53.41667000","lon":"-2.11667000"},
{"state":"England","name":"Bredon","lat":"52.03008000","lon":"-2.11671000"},
{"state":"England","name":"Brenchley","lat":"51.15141000","lon":"0.39825000"},
{"state":"England","name":"Brent","lat":"51.55306000","lon":"-0.30230000"},
{"state":"England","name":"Brent Knoll","lat":"51.25219000","lon":"-2.95744000"},
{"state":"England","name":"Brentford","lat":"51.48619000","lon":"-0.30830000"},
{"state":"England","name":"Brentwood","lat":"51.62127000","lon":"0.30556000"},
{"state":"England","name":"Brewood","lat":"52.67712000","lon":"-2.17414000"},
{"state":"England","name":"Bridge","lat":"51.24513000","lon":"1.12640000"},
{"state":"England","name":"Bridgnorth","lat":"52.53661000","lon":"-2.42033000"},
{"state":"England","name":"Bridgwater","lat":"51.12837000","lon":"-3.00356000"},
{"state":"England","name":"Bridlington","lat":"54.08306000","lon":"-0.19192000"},
{"state":"England","name":"Bridport","lat":"50.73380000","lon":"-2.75831000"},
{"state":"England","name":"Brierfield","lat":"53.82468000","lon":"-2.23415000"},
{"state":"England","name":"Brierley Hill","lat":"52.48173000","lon":"-2.12139000"},
{"state":"England","name":"Brigg","lat":"53.55201000","lon":"-0.49214000"},
{"state":"England","name":"Brighouse","lat":"53.70322000","lon":"-1.78428000"},
{"state":"England","name":"Brighstone","lat":"50.64263000","lon":"-1.39479000"},
{"state":"England","name":"Brightlingsea","lat":"51.81164000","lon":"1.02336000"},
{"state":"England","name":"Brighton","lat":"50.82838000","lon":"-0.13947000"},
{"state":"England","name":"Brighton and Hove","lat":"50.83333000","lon":"-0.13333000"},
{"state":"England","name":"Brigstock","lat":"52.45775000","lon":"-0.60834000"},
{"state":"England","name":"Brill","lat":"51.81667000","lon":"-1.05000000"},
{"state":"England","name":"Brimscombe","lat":"51.71973000","lon":"-2.18553000"},
{"state":"England","name":"Brinklow","lat":"52.41091000","lon":"-1.36400000"},
{"state":"England","name":"Brinscall","lat":"53.68900000","lon":"-2.57208000"},
{"state":"England","name":"Bristol","lat":"51.45523000","lon":"-2.59665000"},
{"state":"England","name":"Briston","lat":"52.85369000","lon":"1.05899000"},
{"state":"England","name":"Brixham","lat":"50.39431000","lon":"-3.51585000"},
{"state":"England","name":"Brixton","lat":"51.46593000","lon":"-0.10652000"},
{"state":"England","name":"Brixton Hill","lat":"51.45213000","lon":"-0.12300000"},
{"state":"England","name":"Brixworth","lat":"52.32912000","lon":"-0.90350000"},
{"state":"England","name":"Broad Blunsdon","lat":"51.61339000","lon":"-1.77870000"},
{"state":"England","name":"Broadfield","lat":"51.09714000","lon":"-0.20664000"},
{"state":"England","name":"Broadstairs","lat":"51.35908000","lon":"1.43938000"},
{"state":"England","name":"Broadstone","lat":"50.75717000","lon":"-1.99406000"},
{"state":"England","name":"Broadwater","lat":"50.82887000","lon":"-0.37594000"},
{"state":"England","name":"Broadway","lat":"52.03825000","lon":"-1.86079000"},
{"state":"England","name":"Brockenhurst","lat":"50.81936000","lon":"-1.57303000"},
{"state":"England","name":"Brockley","lat":"51.40000000","lon":"-2.76667000"},
{"state":"England","name":"Bromborough","lat":"53.34850000","lon":"-2.97935000"},
{"state":"England","name":"Bromham","lat":"52.14508000","lon":"-0.52906000"},
{"state":"England","name":"Brompton","lat":"54.36015000","lon":"-1.42422000"},
{"state":"England","name":"Bromsgrove","lat":"52.33574000","lon":"-2.05983000"},
{"state":"England","name":"Bromyard","lat":"52.19019000","lon":"-2.50875000"},
{"state":"England","name":"Brooke","lat":"52.54175000","lon":"1.37076000"},
{"state":"England","name":"Broseley","lat":"52.61321000","lon":"-2.48269000"},
{"state":"England","name":"Brotton","lat":"54.56661000","lon":"-0.93929000"},
{"state":"England","name":"Brough","lat":"53.72861000","lon":"-0.57215000"},
{"state":"England","name":"Broughton","lat":"53.56667000","lon":"-0.55000000"},
{"state":"England","name":"Broughton Astley","lat":"52.52787000","lon":"-1.21768000"},
{"state":"England","name":"Brownhills","lat":"52.63333000","lon":"-1.93333000"},
{"state":"England","name":"Broxbourne","lat":"51.74712000","lon":"-0.01923000"},
{"state":"England","name":"Brundall","lat":"52.62426000","lon":"1.43509000"},
{"state":"England","name":"Bruton","lat":"51.11250000","lon":"-2.45278000"},
{"state":"England","name":"Bubwith","lat":"53.81905000","lon":"-0.91968000"},
{"state":"England","name":"Buckden","lat":"52.29415000","lon":"-0.24912000"},
{"state":"England","name":"Buckfastleigh","lat":"50.48132000","lon":"-3.77913000"},
{"state":"England","name":"Buckhurst Hill","lat":"51.62409000","lon":"0.03262000"},
{"state":"England","name":"Buckingham","lat":"51.99968000","lon":"-0.98779000"},
{"state":"England","name":"Buckinghamshire","lat":"51.75000000","lon":"-0.75000000"},
{"state":"England","name":"Bucknell","lat":"52.35997000","lon":"-2.95066000"},
{"state":"England","name":"Bude","lat":"50.82435000","lon":"-4.54130000"},
{"state":"England","name":"Budleigh Salterton","lat":"50.62983000","lon":"-3.32181000"},
{"state":"England","name":"Bugbrooke","lat":"52.21006000","lon":"-1.01304000"},
{"state":"England","name":"Bugle","lat":"50.39577000","lon":"-4.79334000"},
{"state":"England","name":"Bulford","lat":"51.18930000","lon":"-1.76009000"},
{"state":"England","name":"Bulkington","lat":"51.32361000","lon":"-2.08361000"},
{"state":"England","name":"Bulphan","lat":"51.54612000","lon":"0.36066000"},
{"state":"England","name":"Bunbury","lat":"53.11559000","lon":"-2.65151000"},
{"state":"England","name":"Bungay","lat":"52.45434000","lon":"1.43818000"},
{"state":"England","name":"Buntingford","lat":"51.94612000","lon":"-0.01841000"},
{"state":"England","name":"Burbage","lat":"51.35184000","lon":"-1.67087000"},
{"state":"England","name":"Bures Saint Mary","lat":"51.97240000","lon":"0.77488000"},
{"state":"England","name":"Burford","lat":"51.80915000","lon":"-1.63628000"},
{"state":"England","name":"Burgess Hill","lat":"50.95843000","lon":"-0.13287000"},
{"state":"England","name":"Burgh le Marsh","lat":"53.16158000","lon":"0.24484000"},
{"state":"England","name":"Burham","lat":"51.33243000","lon":"0.47833000"},
{"state":"England","name":"Burley","lat":"50.82800000","lon":"-1.69977000"},
{"state":"England","name":"Burley in Wharfedale","lat":"53.91020000","lon":"-1.75798000"},
{"state":"England","name":"Burnage","lat":"53.43265000","lon":"-2.19967000"},
{"state":"England","name":"Burneside","lat":"54.35271000","lon":"-2.76151000"},
{"state":"England","name":"Burngreave","lat":"53.39302000","lon":"-1.45789000"},
{"state":"England","name":"Burnham-on-Crouch","lat":"51.63272000","lon":"0.81488000"},
{"state":"England","name":"Burnham-on-Sea","lat":"51.23862000","lon":"-2.99780000"},
{"state":"England","name":"Burniston","lat":"54.32385000","lon":"-0.44813000"},
{"state":"England","name":"Burnley","lat":"53.80000000","lon":"-2.23333000"},
{"state":"England","name":"Burnopfield","lat":"54.90624000","lon":"-1.72486000"},
{"state":"England","name":"Burntwood","lat":"52.68075000","lon":"-1.92759000"},
{"state":"England","name":"Burringham","lat":"53.57402000","lon":"-0.73957000"},
{"state":"England","name":"Burrington","lat":"51.32884000","lon":"-2.74868000"},
{"state":"England","name":"Burscough","lat":"53.59640000","lon":"-2.83972000"},
{"state":"England","name":"Bursledon","lat":"50.88658000","lon":"-1.31596000"},
{"state":"England","name":"Burstwick","lat":"53.73211000","lon":"-0.13956000"},
{"state":"England","name":"Burton","lat":"53.26667000","lon":"-0.56667000"},
{"state":"England","name":"Burton Joyce","lat":"52.98825000","lon":"-1.03407000"},
{"state":"England","name":"Burton Latimer","lat":"52.36368000","lon":"-0.67853000"},
{"state":"England","name":"Burton on the Wolds","lat":"52.78574000","lon":"-1.12988000"},
{"state":"England","name":"Burton Pidsea","lat":"53.76327000","lon":"-0.10703000"},
{"state":"England","name":"Burton upon Stather","lat":"53.64911000","lon":"-0.68453000"},
{"state":"England","name":"Burton upon Trent","lat":"52.80728000","lon":"-1.64263000"},
{"state":"England","name":"Burtonwood","lat":"53.42948000","lon":"-2.65852000"},
{"state":"England","name":"Burwash","lat":"50.99755000","lon":"0.38504000"},
{"state":"England","name":"Burwell","lat":"52.27632000","lon":"0.32732000"},
{"state":"England","name":"Bury","lat":"53.60000000","lon":"-2.30000000"},
{"state":"England","name":"Bury St Edmunds","lat":"52.24630000","lon":"0.71111000"},
{"state":"England","name":"Bushey","lat":"51.64316000","lon":"-0.36053000"},
{"state":"England","name":"Butterwick","lat":"52.98333000","lon":"0.06667000"},
{"state":"England","name":"Buxted","lat":"50.99003000","lon":"0.13441000"},
{"state":"England","name":"Buxton","lat":"53.25741000","lon":"-1.90982000"},
{"state":"England","name":"Byfield","lat":"52.17546000","lon":"-1.24566000"},
{"state":"England","name":"Byram","lat":"53.72394000","lon":"-1.26128000"},
{"state":"England","name":"Caddington","lat":"51.86621000","lon":"-0.45679000"},
{"state":"England","name":"Cadnam","lat":"50.92047000","lon":"-1.57970000"},
{"state":"England","name":"Caister-on-Sea","lat":"52.64809000","lon":"1.72648000"},
{"state":"England","name":"Caistor","lat":"53.49673000","lon":"-0.31538000"},
{"state":"England","name":"Calcot","lat":"51.44058000","lon":"-1.05091000"},
{"state":"England","name":"Calderdale","lat":"53.70000000","lon":"-2.00000000"},
{"state":"England","name":"Callington","lat":"50.50147000","lon":"-4.31314000"},
{"state":"England","name":"Calne","lat":"51.43879000","lon":"-2.00571000"},
{"state":"England","name":"Calverton","lat":"53.03728000","lon":"-1.08263000"},
{"state":"England","name":"Camber","lat":"50.93473000","lon":"0.79848000"},
{"state":"England","name":"Camberley","lat":"51.33705000","lon":"-0.74261000"},
{"state":"England","name":"Camblesforth","lat":"53.72680000","lon":"-1.01998000"},
{"state":"England","name":"Camborne","lat":"50.21306000","lon":"-5.29731000"},
{"state":"England","name":"Cambourne","lat":"52.22115000","lon":"-0.07025000"},
{"state":"England","name":"Cambridge","lat":"52.20000000","lon":"0.11667000"},
{"state":"England","name":"Cambridgeshire","lat":"52.33333000","lon":"0.08333000"},
{"state":"England","name":"Camden Town","lat":"51.54057000","lon":"-0.14334000"},
{"state":"England","name":"Cameley","lat":"51.31616000","lon":"-2.56079000"},
{"state":"England","name":"Camelford","lat":"50.62185000","lon":"-4.67963000"},
{"state":"England","name":"Campsall","lat":"53.61917000","lon":"-1.18002000"},
{"state":"England","name":"Canary Wharf","lat":"51.50519000","lon":"-0.02085000"},
{"state":"England","name":"Canewdon","lat":"51.61759000","lon":"0.74458000"},
{"state":"England","name":"Canford Heath","lat":"50.75100000","lon":"-1.96862000"},
{"state":"England","name":"Cannock","lat":"52.69045000","lon":"-2.03085000"},
{"state":"England","name":"Canterbury","lat":"51.27904000","lon":"1.07992000"},
{"state":"England","name":"Canvey Island","lat":"51.52199000","lon":"0.58090000"},
{"state":"England","name":"Capel","lat":"51.14942000","lon":"-0.32375000"},
{"state":"England","name":"Capel le Ferne","lat":"51.10339000","lon":"1.21165000"},
{"state":"England","name":"Capel Saint Mary","lat":"52.00369000","lon":"1.04482000"},
{"state":"England","name":"Carcroft","lat":"53.58282000","lon":"-1.17648000"},
{"state":"England","name":"Cardington","lat":"52.11742000","lon":"-0.41289000"},
{"state":"England","name":"Carlisle","lat":"54.89510000","lon":"-2.93820000"},
{"state":"England","name":"Carlton","lat":"54.59004000","lon":"-1.39117000"},
{"state":"England","name":"Carnforth","lat":"54.13163000","lon":"-2.76914000"},
{"state":"England","name":"Carshalton","lat":"51.36829000","lon":"-0.16755000"},
{"state":"England","name":"Carterton","lat":"51.75905000","lon":"-1.59435000"},
{"state":"England","name":"Castle Cary","lat":"51.09000000","lon":"-2.51417000"},
{"state":"England","name":"Castle Donington","lat":"52.84291000","lon":"-1.34188000"},
{"state":"England","name":"Castle Hedingham","lat":"51.99015000","lon":"0.59882000"},
{"state":"England","name":"Castle Vale","lat":"52.51879000","lon":"-1.79683000"},
{"state":"England","name":"Castleford","lat":"53.72587000","lon":"-1.36256000"},
{"state":"England","name":"Castleside","lat":"54.83429000","lon":"-1.87849000"},
{"state":"England","name":"Castor","lat":"52.57319000","lon":"-0.34603000"},
{"state":"England","name":"Catcliffe","lat":"53.39316000","lon":"-1.36207000"},
{"state":"England","name":"Caterham","lat":"51.28230000","lon":"-0.07889000"},
{"state":"England","name":"Caton","lat":"54.07624000","lon":"-2.71903000"},
{"state":"England","name":"Catterall","lat":"53.87965000","lon":"-2.76478000"},
{"state":"England","name":"Catterick","lat":"54.37542000","lon":"-1.63328000"},
{"state":"England","name":"Catterick Garrison","lat":"54.37748000","lon":"-1.72232000"},
{"state":"England","name":"Cawood","lat":"53.83303000","lon":"-1.12962000"},
{"state":"England","name":"Cawston","lat":"52.76667000","lon":"1.16667000"},
{"state":"England","name":"Cawthorne","lat":"53.56687000","lon":"-1.57259000"},
{"state":"England","name":"Caythorpe","lat":"53.01667000","lon":"-0.60000000"},
{"state":"England","name":"Central Bedfordshire","lat":"51.99755000","lon":"-0.42148000"},
{"state":"England","name":"Chacewater","lat":"50.25675000","lon":"-5.15757000"},
{"state":"England","name":"Chadwell Heath","lat":"51.57121000","lon":"0.13271000"},
{"state":"England","name":"Chadwell St Mary","lat":"51.48140000","lon":"0.36343000"},
{"state":"England","name":"Chafford Hundred","lat":"51.48920000","lon":"0.29440000"},
{"state":"England","name":"Chagford","lat":"50.67504000","lon":"-3.83936000"},
{"state":"England","name":"Chalfont Saint Peter","lat":"51.60885000","lon":"-0.55618000"},
{"state":"England","name":"Chalfont St Giles","lat":"51.63184000","lon":"-0.57026000"},
{"state":"England","name":"Chalford","lat":"51.72583000","lon":"-2.15139000"},
{"state":"England","name":"Chalgrove","lat":"51.66476000","lon":"-1.07640000"},
{"state":"England","name":"Chalton","lat":"51.92790000","lon":"-0.50147000"},
{"state":"England","name":"Chapel Allerton","lat":"53.82901000","lon":"-1.53834000"},
{"state":"England","name":"Chapel en le Frith","lat":"53.32407000","lon":"-1.91291000"},
{"state":"England","name":"Chapel Saint Leonards","lat":"53.21667000","lon":"0.31667000"},
{"state":"England","name":"Chapeltown","lat":"53.46506000","lon":"-1.47217000"},
{"state":"England","name":"Chapmanslade","lat":"51.22917000","lon":"-2.24889000"},
{"state":"England","name":"Chard","lat":"50.87270000","lon":"-2.96597000"},
{"state":"England","name":"Charfield","lat":"51.62722000","lon":"-2.40667000"},
{"state":"England","name":"Charing","lat":"51.21073000","lon":"0.79466000"},
{"state":"England","name":"Charlbury","lat":"51.87270000","lon":"-1.48247000"},
{"state":"England","name":"Charlton Kings","lat":"51.88374000","lon":"-2.04239000"},
{"state":"England","name":"Charlton Marshall","lat":"50.83591000","lon":"-2.14231000"},
{"state":"England","name":"Charminster","lat":"50.73333000","lon":"-2.45000000"},
{"state":"England","name":"Charmouth","lat":"50.73889000","lon":"-2.90055000"},
{"state":"England","name":"Chartham","lat":"51.25620000","lon":"1.01836000"},
{"state":"England","name":"Charvil","lat":"51.47573000","lon":"-0.88591000"},
{"state":"England","name":"Chasetown","lat":"52.67232000","lon":"-1.92535000"},
{"state":"England","name":"Chatburn","lat":"53.89228000","lon":"-2.35495000"},
{"state":"England","name":"Chatham","lat":"51.37891000","lon":"0.52786000"},
{"state":"England","name":"Chatteris","lat":"52.45624000","lon":"0.05236000"},
{"state":"England","name":"Cheadle","lat":"52.98333000","lon":"-1.98333000"},
{"state":"England","name":"Cheadle Heath","lat":"53.40186000","lon":"-2.19088000"},
{"state":"England","name":"Cheadle Hulme","lat":"53.37610000","lon":"-2.18970000"},
{"state":"England","name":"Cheam","lat":"51.36179000","lon":"-0.21977000"},
{"state":"England","name":"Cheddar","lat":"51.27537000","lon":"-2.77662000"},
{"state":"England","name":"Cheddington","lat":"51.84784000","lon":"-0.66429000"},
{"state":"England","name":"Cheddleton","lat":"53.06910000","lon":"-2.04228000"},
{"state":"England","name":"Cheetham Hill","lat":"53.49862000","lon":"-2.23846000"},
{"state":"England","name":"Chelford","lat":"53.27090000","lon":"-2.28329000"},
{"state":"England","name":"Chelmsford","lat":"51.73575000","lon":"0.46958000"},
{"state":"England","name":"Chelmsley Wood","lat":"52.47810000","lon":"-1.73813000"},
{"state":"England","name":"Chelsea","lat":"51.48755000","lon":"-0.16936000"},
{"state":"England","name":"Cheltenham","lat":"51.90006000","lon":"-2.07972000"},
{"state":"England","name":"Cherry Burton","lat":"53.86667000","lon":"-0.50000000"},
{"state":"England","name":"Chertsey","lat":"51.38812000","lon":"-0.50782000"},
{"state":"England","name":"Chesham","lat":"51.70000000","lon":"-0.60000000"},
{"state":"England","name":"Cheshire East","lat":"53.16702000","lon":"-2.36245000"},
{"state":"England","name":"Cheshire West and Chester","lat":"53.16352000","lon":"-2.73595000"},
{"state":"England","name":"Cheshunt","lat":"51.70020000","lon":"-0.03026000"},
{"state":"England","name":"Chessington","lat":"51.36240000","lon":"-0.30427000"},
{"state":"England","name":"Chester","lat":"53.19050000","lon":"-2.89189000"},
{"state":"England","name":"Chester-le-Street","lat":"54.85862000","lon":"-1.57408000"},
{"state":"England","name":"Chesterfield","lat":"53.25000000","lon":"-1.41667000"},
{"state":"England","name":"Chew Magna","lat":"51.36611000","lon":"-2.61028000"},
{"state":"England","name":"Chichester","lat":"50.83673000","lon":"-0.78003000"},
{"state":"England","name":"Chickerell","lat":"50.62429000","lon":"-2.50280000"},
{"state":"England","name":"Chicksands","lat":"52.04585000","lon":"-0.36390000"},
{"state":"England","name":"Chiddingfold","lat":"51.11866000","lon":"-0.62262000"},
{"state":"England","name":"Chigwell","lat":"51.61999000","lon":"0.07596000"},
{"state":"England","name":"Chilcompton","lat":"51.26391000","lon":"-2.50502000"},
{"state":"England","name":"Child Okeford","lat":"50.91370000","lon":"-2.23679000"},
{"state":"England","name":"Chilton Foliat","lat":"51.43245000","lon":"-1.53912000"},
{"state":"England","name":"Chilworth","lat":"51.21635000","lon":"-0.53129000"},
{"state":"England","name":"Chinley","lat":"53.34025000","lon":"-1.93900000"},
{"state":"England","name":"Chinnor","lat":"51.70177000","lon":"-0.91161000"},
{"state":"England","name":"Chippenham","lat":"51.46000000","lon":"-2.12472000"},
{"state":"England","name":"Chipping Campden","lat":"52.04964000","lon":"-1.77670000"},
{"state":"England","name":"Chipping Norton","lat":"51.94109000","lon":"-1.54530000"},
{"state":"England","name":"Chipping Ongar","lat":"51.70379000","lon":"0.24548000"},
{"state":"England","name":"Chipping Sodbury","lat":"51.53813000","lon":"-2.39379000"},
{"state":"England","name":"Chiseldon","lat":"51.51606000","lon":"-1.73206000"},
{"state":"England","name":"Chislehurst","lat":"51.41709000","lon":"0.06858000"},
{"state":"England","name":"Chobham","lat":"51.34836000","lon":"-0.60639000"},
{"state":"England","name":"Cholsey","lat":"51.57280000","lon":"-1.15356000"},
{"state":"England","name":"Choppington","lat":"55.15004000","lon":"-1.60332000"},
{"state":"England","name":"Chopwell","lat":"54.91797000","lon":"-1.82013000"},
{"state":"England","name":"Chorley","lat":"53.65000000","lon":"-2.61667000"},
{"state":"England","name":"Chorleywood","lat":"51.65472000","lon":"-0.51404000"},
{"state":"England","name":"Chorlton","lat":"53.05029000","lon":"-2.40541000"},
{"state":"England","name":"Chorlton cum Hardy","lat":"53.43505000","lon":"-2.26310000"},
{"state":"England","name":"Christchurch","lat":"50.73583000","lon":"-1.78129000"},
{"state":"England","name":"Chudleigh","lat":"50.60496000","lon":"-3.60031000"},
{"state":"England","name":"Chudleigh Knighton","lat":"50.58507000","lon":"-3.63187000"},
{"state":"England","name":"Chulmleigh","lat":"50.91289000","lon":"-3.86938000"},
{"state":"England","name":"Church","lat":"53.75177000","lon":"-2.39121000"},
{"state":"England","name":"Church Fenton","lat":"53.82626000","lon":"-1.21890000"},
{"state":"England","name":"Church Stretton","lat":"52.53778000","lon":"-2.80149000"},
{"state":"England","name":"Churchdown","lat":"51.87739000","lon":"-2.17087000"},
{"state":"England","name":"Churchill","lat":"51.34291000","lon":"-2.78338000"},
{"state":"England","name":"Churt","lat":"51.13603000","lon":"-0.77534000"},
{"state":"England","name":"Cinderford","lat":"51.82421000","lon":"-2.49870000"},
{"state":"England","name":"Cirencester","lat":"51.71927000","lon":"-1.97145000"},
{"state":"England","name":"City and Borough of Birmingham","lat":"52.48048000","lon":"-1.89823000"},
{"state":"England","name":"City and Borough of Leeds","lat":"53.79644000","lon":"-1.54770000"},
{"state":"England","name":"City and Borough of Salford","lat":"53.50000000","lon":"-2.33333000"},
{"state":"England","name":"City and Borough of Wakefield","lat":"53.68085000","lon":"-1.49895000"},
{"state":"England","name":"City of Bristol","lat":"51.45000000","lon":"-2.60000000"},
{"state":"England","name":"City of Kingston upon Hull","lat":"53.75000000","lon":"-0.33333000"},
{"state":"England","name":"City of Leicester","lat":"52.63333000","lon":"-1.13333000"},
{"state":"England","name":"City of London","lat":"51.51279000","lon":"-0.09184000"},
{"state":"England","name":"City of Westminster","lat":"51.49750000","lon":"-0.13570000"},
{"state":"England","name":"City of York","lat":"53.96396000","lon":"-1.09142000"},
{"state":"England","name":"Clacton-on-Sea","lat":"51.78967000","lon":"1.15597000"},
{"state":"England","name":"Clapham","lat":"52.16085000","lon":"-0.49529000"},
{"state":"England","name":"Clarborough","lat":"53.34549000","lon":"-0.90382000"},
{"state":"England","name":"Clare","lat":"52.07861000","lon":"0.58167000"},
{"state":"England","name":"Claydon","lat":"52.10672000","lon":"1.11134000"},
{"state":"England","name":"Claypole","lat":"53.03144000","lon":"-0.73407000"},
{"state":"England","name":"Clayton le Moors","lat":"53.76667000","lon":"-2.38333000"},
{"state":"England","name":"Clayton West","lat":"53.59501000","lon":"-1.61107000"},
{"state":"England","name":"Clayton-le-Woods","lat":"53.69689000","lon":"-2.66818000"},
{"state":"England","name":"Cleator Moor","lat":"54.52143000","lon":"-3.51590000"},
{"state":"England","name":"Cleckheaton","lat":"53.72405000","lon":"-1.71294000"},
{"state":"England","name":"Cleethorpes","lat":"53.56047000","lon":"-0.03225000"},
{"state":"England","name":"Clenchwarton","lat":"52.75604000","lon":"0.35790000"},
{"state":"England","name":"Cleobury Mortimer","lat":"52.37853000","lon":"-2.48196000"},
{"state":"England","name":"Clerkenwell","lat":"51.52438000","lon":"-0.11022000"},
{"state":"England","name":"Clevedon","lat":"51.44227000","lon":"-2.85786000"},
{"state":"England","name":"Cleveleys","lat":"53.87750000","lon":"-3.03987000"},
{"state":"England","name":"Cliffe","lat":"51.46224000","lon":"0.49833000"},
{"state":"England","name":"Clifton","lat":"52.03990000","lon":"-0.30051000"},
{"state":"England","name":"Clitheroe","lat":"53.86667000","lon":"-2.40000000"},
{"state":"England","name":"Clive","lat":"52.81335000","lon":"-2.72295000"},
{"state":"England","name":"Clophill","lat":"52.02727000","lon":"-0.42377000"},
{"state":"England","name":"Clowne","lat":"53.27449000","lon":"-1.26406000"},
{"state":"England","name":"Clutton","lat":"51.32944000","lon":"-2.54306000"},
{"state":"England","name":"Coalville","lat":"52.72247000","lon":"-1.37020000"},
{"state":"England","name":"Coates","lat":"51.70750000","lon":"-2.03389000"},
{"state":"England","name":"Cobham","lat":"51.32997000","lon":"-0.41130000"},
{"state":"England","name":"Cockermouth","lat":"54.66209000","lon":"-3.36086000"},
{"state":"England","name":"Cockfield","lat":"54.61373000","lon":"-1.80897000"},
{"state":"England","name":"Cockington","lat":"50.46335000","lon":"-3.55691000"},
{"state":"England","name":"Codicote","lat":"51.85052000","lon":"-0.23670000"},
{"state":"England","name":"Codsall","lat":"52.62989000","lon":"-2.20148000"},
{"state":"England","name":"Cogenhoe","lat":"52.23758000","lon":"-0.78381000"},
{"state":"England","name":"Coggeshall","lat":"51.87077000","lon":"0.68536000"},
{"state":"England","name":"Colchester","lat":"51.88921000","lon":"0.90421000"},
{"state":"England","name":"Cold Ash","lat":"51.42426000","lon":"-1.26463000"},
{"state":"England","name":"Cold Norton","lat":"51.67209000","lon":"0.66997000"},
{"state":"England","name":"Colden Common","lat":"50.99483000","lon":"-1.31143000"},
{"state":"England","name":"Coleford","lat":"51.79535000","lon":"-2.61354000"},
{"state":"England","name":"Colerne","lat":"51.43833000","lon":"-2.26280000"},
{"state":"England","name":"Collier Row","lat":"51.59893000","lon":"0.16600000"},
{"state":"England","name":"Collingbourne Kingston","lat":"51.30105000","lon":"-1.65876000"},
{"state":"England","name":"Collingham","lat":"53.91167000","lon":"-1.41174000"},
{"state":"England","name":"Colnbrook","lat":"51.48384000","lon":"-0.52142000"},
{"state":"England","name":"Colne","lat":"53.85713000","lon":"-2.16851000"},
{"state":"England","name":"Colsterworth","lat":"52.80660000","lon":"-0.62056000"},
{"state":"England","name":"Coltishall","lat":"52.72804000","lon":"1.36653000"},
{"state":"England","name":"Colwich","lat":"52.78764000","lon":"-1.98206000"},
{"state":"England","name":"Colyton","lat":"50.74006000","lon":"-3.07021000"},
{"state":"England","name":"Combe Martin","lat":"51.19873000","lon":"-4.02343000"},
{"state":"England","name":"Comberton","lat":"52.18709000","lon":"0.01905000"},
{"state":"England","name":"Compton","lat":"51.02385000","lon":"-1.33713000"},
{"state":"England","name":"Compton Martin","lat":"51.31056000","lon":"-2.65528000"},
{"state":"England","name":"Congleton","lat":"53.16314000","lon":"-2.21253000"},
{"state":"England","name":"Congresbury","lat":"51.37135000","lon":"-2.81018000"},
{"state":"England","name":"Coningsby","lat":"53.10598000","lon":"-0.17595000"},
{"state":"England","name":"Conisbrough","lat":"53.48188000","lon":"-1.23214000"},
{"state":"England","name":"Consett","lat":"54.85404000","lon":"-1.83160000"},
{"state":"England","name":"Cookham","lat":"51.55936000","lon":"-0.70810000"},
{"state":"England","name":"Cookley","lat":"52.31667000","lon":"1.45000000"},
{"state":"England","name":"Cople","lat":"52.12342000","lon":"-0.38933000"},
{"state":"England","name":"Copmanthorpe","lat":"53.91419000","lon":"-1.14209000"},
{"state":"England","name":"Copplestone","lat":"50.81073000","lon":"-3.74607000"},
{"state":"England","name":"Coppull","lat":"53.62527000","lon":"-2.65854000"},
{"state":"England","name":"Copthorne","lat":"51.13929000","lon":"-0.11742000"},
{"state":"England","name":"Corbridge","lat":"54.97365000","lon":"-2.01798000"},
{"state":"England","name":"Corby","lat":"52.49637000","lon":"-0.68939000"},
{"state":"England","name":"Corby Glen","lat":"52.81262000","lon":"-0.51817000"},
{"state":"England","name":"Corfe Castle","lat":"50.63947000","lon":"-2.05672000"},
{"state":"England","name":"Cornholme","lat":"53.73230000","lon":"-2.13851000"},
{"state":"England","name":"Cornwall","lat":"50.41667000","lon":"-4.75000000"},
{"state":"England","name":"Corse","lat":"51.95943000","lon":"-2.30636000"},
{"state":"England","name":"Corsham","lat":"51.43433000","lon":"-2.18437000"},
{"state":"England","name":"Corston","lat":"51.38500000","lon":"-2.44028000"},
{"state":"England","name":"Cosby","lat":"52.55127000","lon":"-1.19395000"},
{"state":"England","name":"Cosham","lat":"50.84654000","lon":"-1.06344000"},
{"state":"England","name":"Costessey","lat":"52.65914000","lon":"1.20970000"},
{"state":"England","name":"Cotgrave","lat":"52.90859000","lon":"-1.03752000"},
{"state":"England","name":"Cottenham","lat":"52.28743000","lon":"0.12540000"},
{"state":"England","name":"Cottesmore","lat":"52.71384000","lon":"-0.66330000"},
{"state":"England","name":"Cottingham","lat":"52.50243000","lon":"-0.75540000"},
{"state":"England","name":"Coulsdon","lat":"51.32002000","lon":"-0.14088000"},
{"state":"England","name":"Coundon","lat":"54.66280000","lon":"-1.62688000"},
{"state":"England","name":"Countesthorpe","lat":"52.55379000","lon":"-1.14526000"},
{"state":"England","name":"County Durham","lat":"54.77680000","lon":"-1.57575000"},
{"state":"England","name":"Coven","lat":"52.65587000","lon":"-2.13530000"},
{"state":"England","name":"Coventry","lat":"52.40656000","lon":"-1.51217000"},
{"state":"England","name":"Cowbit","lat":"52.74523000","lon":"-0.12978000"},
{"state":"England","name":"Cowes","lat":"50.76306000","lon":"-1.29772000"},
{"state":"England","name":"Cowfold","lat":"50.98945000","lon":"-0.27243000"},
{"state":"England","name":"Cowley","lat":"51.73213000","lon":"-1.20631000"},
{"state":"England","name":"Cowplain","lat":"50.89411000","lon":"-1.01824000"},
{"state":"England","name":"Coxhoe","lat":"54.71475000","lon":"-1.50356000"},
{"state":"England","name":"Cradley Heath","lat":"52.47214000","lon":"-2.08212000"},
{"state":"England","name":"Cramlington","lat":"55.08652000","lon":"-1.58598000"},
{"state":"England","name":"Cranbrook","lat":"51.09662000","lon":"0.53567000"},
{"state":"England","name":"Cranfield","lat":"52.06869000","lon":"-0.60884000"},
{"state":"England","name":"Cranham","lat":"51.56565000","lon":"0.26590000"},
{"state":"England","name":"Cranleigh","lat":"51.14209000","lon":"-0.48374000"},
{"state":"England","name":"Cranwell","lat":"53.03681000","lon":"-0.46176000"},
{"state":"England","name":"Craven Arms","lat":"52.44308000","lon":"-2.83562000"},
{"state":"England","name":"Crawley","lat":"51.11303000","lon":"-0.18312000"},
{"state":"England","name":"Crawley Down","lat":"51.12061000","lon":"-0.07730000"},
{"state":"England","name":"Credenhill","lat":"52.08351000","lon":"-2.80804000"},
{"state":"England","name":"Crediton","lat":"50.78333000","lon":"-3.65000000"},
{"state":"England","name":"Creech Saint Michael","lat":"51.02333000","lon":"-3.03833000"},
{"state":"England","name":"Creswell","lat":"53.26287000","lon":"-1.21987000"},
{"state":"England","name":"Crewe","lat":"53.09787000","lon":"-2.44161000"},
{"state":"England","name":"Crewkerne","lat":"50.88298000","lon":"-2.79588000"},
{"state":"England","name":"Crick","lat":"52.34808000","lon":"-1.13708000"},
{"state":"England","name":"Cricklade","lat":"51.64061000","lon":"-1.85738000"},
{"state":"England","name":"Cringleford","lat":"52.60482000","lon":"1.24334000"},
{"state":"England","name":"Croft","lat":"52.55668000","lon":"-1.24643000"},
{"state":"England","name":"Crofton","lat":"53.65639000","lon":"-1.42968000"},
{"state":"England","name":"Cromer","lat":"52.93123000","lon":"1.29892000"},
{"state":"England","name":"Cromford","lat":"53.10848000","lon":"-1.56014000"},
{"state":"England","name":"Crondall","lat":"51.23285000","lon":"-0.86329000"},
{"state":"England","name":"Crook","lat":"54.71252000","lon":"-1.74970000"},
{"state":"England","name":"Cropwell Bishop","lat":"52.91480000","lon":"-0.98482000"},
{"state":"England","name":"Crosby","lat":"53.47778000","lon":"-3.03333000"},
{"state":"England","name":"Cross Hills","lat":"53.90606000","lon":"-1.98492000"},
{"state":"England","name":"Croston","lat":"53.66217000","lon":"-2.77523000"},
{"state":"England","name":"Crouch End","lat":"51.57971000","lon":"-0.12373000"},
{"state":"England","name":"Crowborough","lat":"51.06098000","lon":"0.16342000"},
{"state":"England","name":"Crowland","lat":"52.67571000","lon":"-0.16849000"},
{"state":"England","name":"Crowle","lat":"53.60753000","lon":"-0.83256000"},
{"state":"England","name":"Crowthorne","lat":"51.37027000","lon":"-0.79219000"},
{"state":"England","name":"Croydon","lat":"51.38333000","lon":"-0.10000000"},
{"state":"England","name":"Crumpsall","lat":"53.51827000","lon":"-2.24447000"},
{"state":"England","name":"Cuckfield","lat":"51.01073000","lon":"-0.14068000"},
{"state":"England","name":"Cuddington","lat":"53.24488000","lon":"-2.61879000"},
{"state":"England","name":"Cudworth","lat":"53.57131000","lon":"-1.41595000"},
{"state":"England","name":"Cuffley","lat":"51.70799000","lon":"-0.11209000"},
{"state":"England","name":"Culcheth","lat":"53.45110000","lon":"-2.52104000"},
{"state":"England","name":"Cullingworth","lat":"53.82444000","lon":"-1.89730000"},
{"state":"England","name":"Cullompton","lat":"50.85530000","lon":"-3.39268000"},
{"state":"England","name":"Culverstone Green","lat":"51.34085000","lon":"0.34686000"},
{"state":"England","name":"Cumbria","lat":"54.58333000","lon":"-2.83333000"},
{"state":"England","name":"Curdworth","lat":"52.53382000","lon":"-1.73687000"},
{"state":"England","name":"Curry Rivel","lat":"51.02306000","lon":"-2.86753000"},
{"state":"England","name":"Cuxton","lat":"51.37430000","lon":"0.45688000"},
{"state":"England","name":"Dagenham","lat":"51.55000000","lon":"0.16667000"},
{"state":"England","name":"Dalston","lat":"54.84207000","lon":"-2.98459000"},
{"state":"England","name":"Dalton in Furness","lat":"54.15796000","lon":"-3.17977000"},
{"state":"England","name":"Danbury","lat":"51.71645000","lon":"0.58245000"},
{"state":"England","name":"Danby","lat":"54.46606000","lon":"-0.91073000"},
{"state":"England","name":"Darenth","lat":"51.42137000","lon":"0.25784000"},
{"state":"England","name":"Daresbury","lat":"53.34184000","lon":"-2.63500000"},
{"state":"England","name":"Darfield","lat":"53.53390000","lon":"-1.37595000"},
{"state":"England","name":"Darlaston","lat":"52.56667000","lon":"-2.03333000"},
{"state":"England","name":"Darlington","lat":"54.53333000","lon":"-1.53333000"},
{"state":"England","name":"Darras Hall","lat":"55.03560000","lon":"-1.76425000"},
{"state":"England","name":"Darrington","lat":"53.67566000","lon":"-1.26901000"},
{"state":"England","name":"Dartford","lat":"51.44657000","lon":"0.21423000"},
{"state":"England","name":"Dartmouth","lat":"50.35220000","lon":"-3.57940000"},
{"state":"England","name":"Darton","lat":"53.58705000","lon":"-1.52676000"},
{"state":"England","name":"Darwen","lat":"53.69803000","lon":"-2.46494000"},
{"state":"England","name":"Datchet","lat":"51.48390000","lon":"-0.57893000"},
{"state":"England","name":"Datchworth","lat":"51.85126000","lon":"-0.15956000"},
{"state":"England","name":"Daventry","lat":"52.25688000","lon":"-1.16066000"},
{"state":"England","name":"Dawlish","lat":"50.58118000","lon":"-3.46644000"},
{"state":"England","name":"Deal","lat":"51.22322000","lon":"1.40432000"},
{"state":"England","name":"Deanshanger","lat":"52.04996000","lon":"-0.88663000"},
{"state":"England","name":"Dearham","lat":"54.71175000","lon":"-3.44364000"},
{"state":"England","name":"Debenham","lat":"52.22422000","lon":"1.18172000"},
{"state":"England","name":"Deddington","lat":"51.98060000","lon":"-1.32055000"},
{"state":"England","name":"Dedham","lat":"51.95892000","lon":"0.99336000"},
{"state":"England","name":"Delabole","lat":"50.62347000","lon":"-4.73190000"},
{"state":"England","name":"Delph","lat":"53.56667000","lon":"-2.01667000"},
{"state":"England","name":"Denby Dale","lat":"53.57228000","lon":"-1.65895000"},
{"state":"England","name":"Denham","lat":"51.56667000","lon":"-0.50000000"},
{"state":"England","name":"Denholme","lat":"53.80189000","lon":"-1.89503000"},
{"state":"England","name":"Denmead","lat":"50.90395000","lon":"-1.06744000"},
{"state":"England","name":"Denton","lat":"53.45678000","lon":"-2.11822000"},
{"state":"England","name":"Denton Holme","lat":"54.88500000","lon":"-2.94100000"},
{"state":"England","name":"Derby","lat":"52.92277000","lon":"-1.47663000"},
{"state":"England","name":"Derbyshire","lat":"53.16667000","lon":"-1.58333000"},
{"state":"England","name":"Dersingham","lat":"52.84549000","lon":"0.50339000"},
{"state":"England","name":"Desborough","lat":"52.44183000","lon":"-0.82126000"},
{"state":"England","name":"Desford","lat":"52.62598000","lon":"-1.29395000"},
{"state":"England","name":"Devizes","lat":"51.35084000","lon":"-1.99421000"},
{"state":"England","name":"Devon","lat":"50.75000000","lon":"-3.75000000"},
{"state":"England","name":"Dewsbury","lat":"53.69076000","lon":"-1.62907000"},
{"state":"England","name":"Dickens Heath","lat":"52.38568000","lon":"-1.83935000"},
{"state":"England","name":"Dickleburgh","lat":"52.39650000","lon":"1.18498000"},
{"state":"England","name":"Didcot","lat":"51.60928000","lon":"-1.24214000"},
{"state":"England","name":"Didsbury","lat":"53.41698000","lon":"-2.23145000"},
{"state":"England","name":"Diggle","lat":"53.56744000","lon":"-1.99723000"},
{"state":"England","name":"Dinnington","lat":"53.36667000","lon":"-1.20000000"},
{"state":"England","name":"Dinton","lat":"51.08333000","lon":"-1.98333000"},
{"state":"England","name":"Disley","lat":"53.35865000","lon":"-2.03848000"},
{"state":"England","name":"Diss","lat":"52.37675000","lon":"1.10910000"},
{"state":"England","name":"Distington","lat":"54.59733000","lon":"-3.53880000"},
{"state":"England","name":"District of Rutland","lat":"52.66667000","lon":"-0.66667000"},
{"state":"England","name":"Ditchingham","lat":"52.46729000","lon":"1.44370000"},
{"state":"England","name":"Ditchling","lat":"50.92100000","lon":"-0.11536000"},
{"state":"England","name":"Ditton Hill","lat":"51.37947000","lon":"-0.31281000"},
{"state":"England","name":"Dobwalls","lat":"50.45768000","lon":"-4.51735000"},
{"state":"England","name":"Doddington","lat":"52.49671000","lon":"0.06017000"},
{"state":"England","name":"Dodworth","lat":"53.54306000","lon":"-1.52779000"},
{"state":"England","name":"Doncaster","lat":"53.50000000","lon":"-1.08333000"},
{"state":"England","name":"Donington","lat":"52.90461000","lon":"-0.20505000"},
{"state":"England","name":"Donisthorpe","lat":"52.72401000","lon":"-1.53800000"},
{"state":"England","name":"Donnington","lat":"51.95135000","lon":"-1.72142000"},
{"state":"England","name":"Dorchester","lat":"50.71667000","lon":"-2.43333000"},
{"state":"England","name":"Dorking","lat":"51.23228000","lon":"-0.33380000"},
{"state":"England","name":"Dormansland","lat":"51.16024000","lon":"0.00618000"},
{"state":"England","name":"Dorridge","lat":"52.37259000","lon":"-1.75318000"},
{"state":"England","name":"Dorset","lat":"50.75000000","lon":"-2.33333000"},
{"state":"England","name":"Dorstone","lat":"52.06667000","lon":"-3.00000000"},
{"state":"England","name":"Dove Holes","lat":"53.29828000","lon":"-1.88775000"},
{"state":"England","name":"Dover","lat":"51.12598000","lon":"1.31257000"},
{"state":"England","name":"Dovercourt","lat":"51.93649000","lon":"1.27831000"},
{"state":"England","name":"Doveridge","lat":"52.90526000","lon":"-1.82480000"},
{"state":"England","name":"Downham Market","lat":"52.60714000","lon":"0.38375000"},
{"state":"England","name":"Downton","lat":"50.99366000","lon":"-1.75129000"},
{"state":"England","name":"Draycott","lat":"51.25615000","lon":"-2.75116000"},
{"state":"England","name":"Driffield","lat":"54.00613000","lon":"-0.44495000"},
{"state":"England","name":"Droitwich","lat":"52.26667000","lon":"-2.15000000"},
{"state":"England","name":"Dronfield","lat":"53.30221000","lon":"-1.47507000"},
{"state":"England","name":"Droylsden","lat":"53.48005000","lon":"-2.14543000"},
{"state":"England","name":"Drybrook","lat":"51.85550000","lon":"-2.51681000"},
{"state":"England","name":"Ducklington","lat":"51.76763000","lon":"-1.48418000"},
{"state":"England","name":"Dudley","lat":"52.50000000","lon":"-2.11667000"},
{"state":"England","name":"Duffield","lat":"52.98627000","lon":"-1.48865000"},
{"state":"England","name":"Dukinfield","lat":"53.47497000","lon":"-2.08809000"},
{"state":"England","name":"Dulverton","lat":"51.04007000","lon":"-3.55035000"},
{"state":"England","name":"Dunchurch","lat":"52.33757000","lon":"-1.29136000"},
{"state":"England","name":"Dundry","lat":"51.39880000","lon":"-2.63964000"},
{"state":"England","name":"Dunholme","lat":"53.30067000","lon":"-0.46541000"},
{"state":"England","name":"Dunkeswell","lat":"50.86301000","lon":"-3.22289000"},
{"state":"England","name":"Dunnington","lat":"53.95000000","lon":"-0.25000000"},
{"state":"England","name":"Dunstable","lat":"51.88571000","lon":"-0.52288000"},
{"state":"England","name":"Dunswell","lat":"53.80106000","lon":"-0.37139000"},
{"state":"England","name":"Durham","lat":"54.77676000","lon":"-1.57566000"},
{"state":"England","name":"Dursley","lat":"51.68139000","lon":"-2.35333000"},
{"state":"England","name":"Duxford","lat":"52.09393000","lon":"0.15917000"},
{"state":"England","name":"Dymchurch","lat":"51.02544000","lon":"0.99392000"},
{"state":"England","name":"Eaglescliffe","lat":"54.52521000","lon":"-1.35043000"},
{"state":"England","name":"Earby","lat":"53.91546000","lon":"-2.14285000"},
{"state":"England","name":"Earith","lat":"52.35422000","lon":"0.03056000"},
{"state":"England","name":"Earl Shilton","lat":"52.57682000","lon":"-1.31536000"},
{"state":"England","name":"Earls Barton","lat":"52.26627000","lon":"-0.75248000"},
{"state":"England","name":"Earls Colne","lat":"51.92744000","lon":"0.70107000"},
{"state":"England","name":"Earlsfield","lat":"51.44390000","lon":"-0.18540000"},
{"state":"England","name":"Easington","lat":"54.78528000","lon":"-1.35917000"},
{"state":"England","name":"Easingwold","lat":"54.12010000","lon":"-1.19390000"},
{"state":"England","name":"East Ayton","lat":"54.25480000","lon":"-0.47483000"},
{"state":"England","name":"East Bergholt","lat":"51.97785000","lon":"1.01761000"},
{"state":"England","name":"East Boldon","lat":"54.94452000","lon":"-1.42815000"},
{"state":"England","name":"East Bridgford","lat":"52.97954000","lon":"-0.96563000"},
{"state":"England","name":"East Chevington","lat":"55.28333000","lon":"-1.58333000"},
{"state":"England","name":"East Cowes","lat":"50.75774000","lon":"-1.28815000"},
{"state":"England","name":"East Dean","lat":"51.03979000","lon":"-1.60941000"},
{"state":"England","name":"East Dereham","lat":"52.68333000","lon":"0.93333000"},
{"state":"England","name":"East Grinstead","lat":"51.12382000","lon":"-0.00610000"},
{"state":"England","name":"East Hanney","lat":"51.63443000","lon":"-1.39518000"},
{"state":"England","name":"East Harling","lat":"52.43843000","lon":"0.93353000"},
{"state":"England","name":"East Harptree","lat":"51.30111000","lon":"-2.62167000"},
{"state":"England","name":"East Horsley","lat":"51.27358000","lon":"-0.43207000"},
{"state":"England","name":"East Keswick","lat":"53.89430000","lon":"-1.45221000"},
{"state":"England","name":"East Leake","lat":"52.83015000","lon":"-1.18103000"},
{"state":"England","name":"East Markham","lat":"53.25221000","lon":"-0.89385000"},
{"state":"England","name":"East Molesey","lat":"51.39872000","lon":"-0.34916000"},
{"state":"England","name":"East Peckham","lat":"51.21234000","lon":"0.38624000"},
{"state":"England","name":"East Rainton","lat":"54.82513000","lon":"-1.48036000"},
{"state":"England","name":"East Riding of Yorkshire","lat":"53.91667000","lon":"-0.50000000"},
{"state":"England","name":"East Sussex","lat":"50.91667000","lon":"0.33333000"},
{"state":"England","name":"East Tilbury","lat":"51.48053000","lon":"0.41714000"},
{"state":"England","name":"East Wittering","lat":"50.76969000","lon":"-0.87444000"},
{"state":"England","name":"Eastbourne","lat":"50.76871000","lon":"0.28453000"},
{"state":"England","name":"Eastchurch","lat":"51.40673000","lon":"0.85766000"},
{"state":"England","name":"Eastington","lat":"51.74722000","lon":"-2.32639000"},
{"state":"England","name":"Eastleigh","lat":"50.96667000","lon":"-1.35000000"},
{"state":"England","name":"Eastoft","lat":"53.63624000","lon":"-0.78492000"},
{"state":"England","name":"Easton","lat":"50.53333000","lon":"-2.45000000"},
{"state":"England","name":"Easton on the Hill","lat":"52.62733000","lon":"-0.50571000"},
{"state":"England","name":"Easton-in-Gordano","lat":"51.47592000","lon":"-2.69987000"},
{"state":"England","name":"Eastrington","lat":"53.76038000","lon":"-0.79325000"},
{"state":"England","name":"Eastry","lat":"51.24639000","lon":"1.30776000"},
{"state":"England","name":"Eastwood","lat":"53.00000000","lon":"-1.30000000"},
{"state":"England","name":"Eaton Bray","lat":"51.87697000","lon":"-0.59167000"},
{"state":"England","name":"Eaton Socon","lat":"52.21752000","lon":"-0.28925000"},
{"state":"England","name":"Eattington","lat":"52.13333000","lon":"-1.60000000"},
{"state":"England","name":"Eccles","lat":"53.48333000","lon":"-2.33333000"},
{"state":"England","name":"Eccleshall","lat":"52.85789000","lon":"-2.24971000"},
{"state":"England","name":"Eccleston","lat":"53.64236000","lon":"-2.72162000"},
{"state":"England","name":"Eckington","lat":"52.06667000","lon":"-2.11667000"},
{"state":"England","name":"Edenbridge","lat":"51.19172000","lon":"0.06729000"},
{"state":"England","name":"Edenfield","lat":"53.66674000","lon":"-2.30481000"},
{"state":"England","name":"Edgmond","lat":"52.77400000","lon":"-2.40967000"},
{"state":"England","name":"Edgware","lat":"51.61280000","lon":"-0.27539000"},
{"state":"England","name":"Edgworth","lat":"53.64636000","lon":"-2.39401000"},
{"state":"England","name":"Edington","lat":"51.27583000","lon":"-2.10639000"},
{"state":"England","name":"Edith Weston","lat":"52.63786000","lon":"-0.63189000"},
{"state":"England","name":"Edwinstowe","lat":"53.19454000","lon":"-1.06439000"},
{"state":"England","name":"Egham","lat":"51.43158000","lon":"-0.55239000"},
{"state":"England","name":"Egremont","lat":"54.47941000","lon":"-3.52756000"},
{"state":"England","name":"Eight Ash Green","lat":"51.89587000","lon":"0.82280000"},
{"state":"England","name":"Elland","lat":"53.68510000","lon":"-1.83878000"},
{"state":"England","name":"Ellerker","lat":"53.75323000","lon":"-0.60416000"},
{"state":"England","name":"Ellerton","lat":"53.85000000","lon":"-0.93333000"},
{"state":"England","name":"Ellesmere","lat":"52.90838000","lon":"-2.89806000"},
{"state":"England","name":"Ellesmere Port","lat":"53.27875000","lon":"-2.90134000"},
{"state":"England","name":"Elm Park","lat":"51.54970000","lon":"0.20136000"},
{"state":"England","name":"Elmstead Market","lat":"51.88219000","lon":"0.99482000"},
{"state":"England","name":"Elmswell","lat":"52.23616000","lon":"0.91247000"},
{"state":"England","name":"Elsenham","lat":"51.91431000","lon":"0.22934000"},
{"state":"England","name":"Elstead","lat":"51.18548000","lon":"-0.70536000"},
{"state":"England","name":"Elstree","lat":"51.64030000","lon":"-0.29693000"},
{"state":"England","name":"Elswick","lat":"53.83836000","lon":"-2.88147000"},
{"state":"England","name":"Elvington","lat":"53.92087000","lon":"-0.93495000"},
{"state":"England","name":"Elwick","lat":"54.68455000","lon":"-1.29559000"},
{"state":"England","name":"Ely","lat":"52.39964000","lon":"0.26196000"},
{"state":"England","name":"Emberton","lat":"52.13691000","lon":"-0.70673000"},
{"state":"England","name":"Embleton","lat":"55.49592000","lon":"-1.63619000"},
{"state":"England","name":"Embsay","lat":"53.97664000","lon":"-1.99282000"},
{"state":"England","name":"Emley","lat":"53.61395000","lon":"-1.63130000"},
{"state":"England","name":"Emneth","lat":"52.64244000","lon":"0.20857000"},
{"state":"England","name":"Empingham","lat":"52.66722000","lon":"-0.59601000"},
{"state":"England","name":"Emsworth","lat":"50.84779000","lon":"-0.93697000"},
{"state":"England","name":"Enderby","lat":"52.58778000","lon":"-1.20619000"},
{"state":"England","name":"Enfield Town","lat":"51.65147000","lon":"-0.08497000"},
{"state":"England","name":"Epping","lat":"51.69815000","lon":"0.11055000"},
{"state":"England","name":"Epsom","lat":"51.33050000","lon":"-0.27011000"},
{"state":"England","name":"Epworth","lat":"53.52602000","lon":"-0.82399000"},
{"state":"England","name":"Erith","lat":"51.48315000","lon":"0.17484000"},
{"state":"England","name":"Esher","lat":"51.36969000","lon":"-0.36693000"},
{"state":"England","name":"Essendine","lat":"52.70187000","lon":"-0.45250000"},
{"state":"England","name":"Essex","lat":"51.83333000","lon":"0.58333000"},
{"state":"England","name":"Essington","lat":"52.62910000","lon":"-2.05770000"},
{"state":"England","name":"Eton","lat":"51.48833000","lon":"-0.60905000"},
{"state":"England","name":"Eton Wick","lat":"51.49722000","lon":"-0.63437000"},
{"state":"England","name":"Etton","lat":"53.87848000","lon":"-0.51314000"},
{"state":"England","name":"Etwall","lat":"52.88353000","lon":"-1.60023000"},
{"state":"England","name":"Euxton","lat":"53.66990000","lon":"-2.67615000"},
{"state":"England","name":"Evenwood","lat":"54.62213000","lon":"-1.76133000"},
{"state":"England","name":"Evercreech","lat":"51.14806000","lon":"-2.50556000"},
{"state":"England","name":"Eversholt","lat":"51.98702000","lon":"-0.55983000"},
{"state":"England","name":"Eversley","lat":"51.35387000","lon":"-0.88888000"},
{"state":"England","name":"Everton","lat":"52.14581000","lon":"-0.24616000"},
{"state":"England","name":"Evesham","lat":"52.09237000","lon":"-1.94887000"},
{"state":"England","name":"Ewell","lat":"51.34948000","lon":"-0.24940000"},
{"state":"England","name":"Ewhurst","lat":"51.15448000","lon":"-0.44344000"},
{"state":"England","name":"Ewyas Harold","lat":"51.95358000","lon":"-2.89325000"},
{"state":"England","name":"Exeter","lat":"50.72360000","lon":"-3.52751000"},
{"state":"England","name":"Exhall","lat":"52.46464000","lon":"-1.48144000"},
{"state":"England","name":"Exminster","lat":"50.68075000","lon":"-3.49706000"},
{"state":"England","name":"Exmouth","lat":"50.61723000","lon":"-3.40233000"},
{"state":"England","name":"Exning","lat":"52.26642000","lon":"0.37439000"},
{"state":"England","name":"Exton","lat":"52.69106000","lon":"-0.63463000"},
{"state":"England","name":"Eye","lat":"52.60800000","lon":"-0.19209000"},
{"state":"England","name":"Eynsford","lat":"51.36765000","lon":"0.21132000"},
{"state":"England","name":"Eynsham","lat":"51.78077000","lon":"-1.37454000"},
{"state":"England","name":"Eythorne","lat":"51.19710000","lon":"1.26620000"},
{"state":"England","name":"Failsworth","lat":"53.50484000","lon":"-2.16568000"},
{"state":"England","name":"Fairford","lat":"51.70816000","lon":"-1.78128000"},
{"state":"England","name":"Fairlands","lat":"51.26178000","lon":"-0.62141000"},
{"state":"England","name":"Fairlight","lat":"50.87802000","lon":"0.65669000"},
{"state":"England","name":"Fakenham","lat":"52.82996000","lon":"0.84770000"},
{"state":"England","name":"Fallowfield","lat":"53.43981000","lon":"-2.21572000"},
{"state":"England","name":"Falmouth","lat":"50.15441000","lon":"-5.07113000"},
{"state":"England","name":"Fareham","lat":"50.85162000","lon":"-1.17929000"},
{"state":"England","name":"Faringdon","lat":"51.65644000","lon":"-1.58676000"},
{"state":"England","name":"Farnborough","lat":"51.29424000","lon":"-0.75565000"},
{"state":"England","name":"Farndon","lat":"53.05000000","lon":"-0.85000000"},
{"state":"England","name":"Farnham","lat":"51.21444000","lon":"-0.80054000"},
{"state":"England","name":"Farnham Royal","lat":"51.54208000","lon":"-0.61584000"},
{"state":"England","name":"Farnsfield","lat":"53.10223000","lon":"-1.03320000"},
{"state":"England","name":"Farnworth","lat":"53.55000000","lon":"-2.40000000"},
{"state":"England","name":"Faversham","lat":"51.31480000","lon":"0.88856000"},
{"state":"England","name":"Fazeley","lat":"52.61443000","lon":"-1.69850000"},
{"state":"England","name":"Featherstone","lat":"52.64483000","lon":"-2.09315000"},
{"state":"England","name":"Felixstowe","lat":"51.96375000","lon":"1.35110000"},
{"state":"England","name":"Felling","lat":"54.95297000","lon":"-1.57152000"},
{"state":"England","name":"Feltham","lat":"51.44620000","lon":"-0.41388000"},
{"state":"England","name":"Felton","lat":"55.29768000","lon":"-1.71143000"},
{"state":"England","name":"Feltwell","lat":"52.48581000","lon":"0.51945000"},
{"state":"England","name":"Fenstanton","lat":"52.29903000","lon":"-0.06712000"},
{"state":"England","name":"Ferndown","lat":"50.80743000","lon":"-1.89975000"},
{"state":"England","name":"Fernhill Heath","lat":"52.23002000","lon":"-2.19659000"},
{"state":"England","name":"Fernhurst","lat":"51.04873000","lon":"-0.71789000"},
{"state":"England","name":"Ferrybridge","lat":"53.71058000","lon":"-1.27948000"},
{"state":"England","name":"Ferryhill","lat":"54.68333000","lon":"-1.55000000"},
{"state":"England","name":"Filey","lat":"54.21000000","lon":"-0.28917000"},
{"state":"England","name":"Finchampstead","lat":"51.36149000","lon":"-0.85728000"},
{"state":"England","name":"Findern","lat":"52.87037000","lon":"-1.54409000"},
{"state":"England","name":"Findon","lat":"50.86816000","lon":"-0.40735000"},
{"state":"England","name":"Finedon","lat":"52.33917000","lon":"-0.65008000"},
{"state":"England","name":"Finningley","lat":"53.48696000","lon":"-0.99083000"},
{"state":"England","name":"Fishburn","lat":"54.68296000","lon":"-1.43631000"},
{"state":"England","name":"Fishtoft","lat":"52.96095000","lon":"0.02702000"},
{"state":"England","name":"Fitzwilliam","lat":"53.63288000","lon":"-1.37690000"},
{"state":"England","name":"Five Oak Green","lat":"51.18338000","lon":"0.35517000"},
{"state":"England","name":"Flamborough","lat":"54.11487000","lon":"-0.12274000"},
{"state":"England","name":"Fleckney","lat":"52.53497000","lon":"-1.04598000"},
{"state":"England","name":"Fleet","lat":"51.28333000","lon":"-0.83333000"},
{"state":"England","name":"Fleetwood","lat":"53.92527000","lon":"-3.01085000"},
{"state":"England","name":"Flexbury","lat":"50.83509000","lon":"-4.54499000"},
{"state":"England","name":"Flimby","lat":"54.68956000","lon":"-3.52092000"},
{"state":"England","name":"Flimwell","lat":"51.05502000","lon":"0.44531000"},
{"state":"England","name":"Flitwick","lat":"52.00338000","lon":"-0.49472000"},
{"state":"England","name":"Flockton","lat":"53.63034000","lon":"-1.63945000"},
{"state":"England","name":"Flookburgh","lat":"54.17415000","lon":"-2.97214000"},
{"state":"England","name":"Flore","lat":"52.23647000","lon":"-1.05726000"},
{"state":"England","name":"Folkestone","lat":"51.08169000","lon":"1.16734000"},
{"state":"England","name":"Fontwell","lat":"50.85520000","lon":"-0.64831000"},
{"state":"England","name":"Ford","lat":"52.71693000","lon":"-2.86881000"},
{"state":"England","name":"Fordham","lat":"52.31129000","lon":"0.39057000"},
{"state":"England","name":"Fordingbridge","lat":"50.92747000","lon":"-1.79029000"},
{"state":"England","name":"Forest Row","lat":"51.09641000","lon":"0.03262000"},
{"state":"England","name":"Formby","lat":"53.55838000","lon":"-3.06999000"},
{"state":"England","name":"Fortuneswell","lat":"50.56030000","lon":"-2.44243000"},
{"state":"England","name":"Foulridge","lat":"53.87579000","lon":"-2.16864000"},
{"state":"England","name":"Foulsham","lat":"52.78182000","lon":"1.01049000"},
{"state":"England","name":"Four Lanes","lat":"50.20163000","lon":"-5.24014000"},
{"state":"England","name":"Four Marks","lat":"51.10735000","lon":"-1.04945000"},
{"state":"England","name":"Fowey","lat":"50.33634000","lon":"-4.63860000"},
{"state":"England","name":"Fowlmere","lat":"52.09343000","lon":"0.07433000"},
{"state":"England","name":"Framlingham","lat":"52.22117000","lon":"1.34205000"},
{"state":"England","name":"Frampton on Severn","lat":"51.77054000","lon":"-2.36382000"},
{"state":"England","name":"Freckleton","lat":"53.75433000","lon":"-2.86489000"},
{"state":"England","name":"Fremington","lat":"51.06955000","lon":"-4.13660000"},
{"state":"England","name":"Freshwater","lat":"50.68365000","lon":"-1.52616000"},
{"state":"England","name":"Frimley","lat":"51.31667000","lon":"-0.74544000"},
{"state":"England","name":"Frinton-on-Sea","lat":"51.83061000","lon":"1.24424000"},
{"state":"England","name":"Friston","lat":"50.76402000","lon":"0.19930000"},
{"state":"England","name":"Frizington","lat":"54.54185000","lon":"-3.49460000"},
{"state":"England","name":"Frodsham","lat":"53.29485000","lon":"-2.72745000"},
{"state":"England","name":"Frome","lat":"51.22834000","lon":"-2.32211000"},
{"state":"England","name":"Fulbourn","lat":"52.18283000","lon":"0.22046000"},
{"state":"England","name":"Full Sutton","lat":"53.98869000","lon":"-0.86758000"},
{"state":"England","name":"Furnace Green","lat":"51.10742000","lon":"-0.16889000"},
{"state":"England","name":"Fylde","lat":"53.83333000","lon":"-2.91667000"},
{"state":"England","name":"Gainford","lat":"54.54718000","lon":"-1.73601000"},
{"state":"England","name":"Gainsborough","lat":"53.38333000","lon":"-0.76667000"},
{"state":"England","name":"Galgate","lat":"53.99362000","lon":"-2.79201000"},
{"state":"England","name":"Gamlingay","lat":"52.15561000","lon":"-0.19303000"},
{"state":"England","name":"Garforth","lat":"53.79173000","lon":"-1.38067000"},
{"state":"England","name":"Gargrave","lat":"53.98353000","lon":"-2.10459000"},
{"state":"England","name":"Garsington","lat":"51.71623000","lon":"-1.16129000"},
{"state":"England","name":"Garstang","lat":"53.90081000","lon":"-2.77417000"},
{"state":"England","name":"Gateshead","lat":"54.93333000","lon":"-1.66667000"},
{"state":"England","name":"Geddington","lat":"52.43757000","lon":"-0.68965000"},
{"state":"England","name":"Gedney Hill","lat":"52.68434000","lon":"-0.02008000"},
{"state":"England","name":"Germoe","lat":"50.11539000","lon":"-5.37881000"},
{"state":"England","name":"Gerrards Cross","lat":"51.58610000","lon":"-0.55543000"},
{"state":"England","name":"Gilberdyke","lat":"53.75297000","lon":"-0.73892000"},
{"state":"England","name":"Gillingham","lat":"51.38914000","lon":"0.54863000"},
{"state":"England","name":"Girton","lat":"52.23333000","lon":"0.08333000"},
{"state":"England","name":"Glapwell","lat":"53.18917000","lon":"-1.28334000"},
{"state":"England","name":"Glastonbury","lat":"51.14745000","lon":"-2.72075000"},
{"state":"England","name":"Glazebury","lat":"53.47078000","lon":"-2.49823000"},
{"state":"England","name":"Glemsford","lat":"52.10351000","lon":"0.66912000"},
{"state":"England","name":"Glenfield","lat":"52.64660000","lon":"-1.19493000"},
{"state":"England","name":"Glinton","lat":"52.63921000","lon":"-0.29629000"},
{"state":"England","name":"Glossop","lat":"53.44325000","lon":"-1.94900000"},
{"state":"England","name":"Gloucester","lat":"51.86568000","lon":"-2.24310000"},
{"state":"England","name":"Gloucestershire","lat":"51.83333000","lon":"-2.16667000"},
{"state":"England","name":"Glusburn","lat":"53.90000000","lon":"-2.00000000"},
{"state":"England","name":"Gnosall","lat":"52.78558000","lon":"-2.25483000"},
{"state":"England","name":"Gobowen","lat":"52.89615000","lon":"-3.03686000"},
{"state":"England","name":"Godalming","lat":"51.18580000","lon":"-0.61489000"},
{"state":"England","name":"Godmanchester","lat":"52.31939000","lon":"-0.17509000"},
{"state":"England","name":"Godshill","lat":"50.63308000","lon":"-1.25476000"},
{"state":"England","name":"Godstone","lat":"51.24779000","lon":"-0.06914000"},
{"state":"England","name":"Golborne","lat":"53.47693000","lon":"-2.59651000"},
{"state":"England","name":"Goole","lat":"53.70324000","lon":"-0.87732000"},
{"state":"England","name":"Goosnargh","lat":"53.82200000","lon":"-2.67017000"},
{"state":"England","name":"Goostrey","lat":"53.22731000","lon":"-2.33919000"},
{"state":"England","name":"Goring","lat":"51.52322000","lon":"-1.13342000"},
{"state":"England","name":"Goring-by-Sea","lat":"50.81239000","lon":"-0.42194000"},
{"state":"England","name":"Gorleston-on-Sea","lat":"52.57301000","lon":"1.73069000"},
{"state":"England","name":"Gosberton","lat":"52.86913000","lon":"-0.16102000"},
{"state":"England","name":"Gosfield","lat":"51.93657000","lon":"0.59197000"},
{"state":"England","name":"Gosforth","lat":"55.00000000","lon":"-1.61667000"},
{"state":"England","name":"Gosport","lat":"50.79509000","lon":"-1.12902000"},
{"state":"England","name":"Gossops Green","lat":"51.11105000","lon":"-0.21728000"},
{"state":"England","name":"Gotham","lat":"52.86799000","lon":"-1.20558000"},
{"state":"England","name":"Goudhurst","lat":"51.11314000","lon":"0.45615000"},
{"state":"England","name":"Goxhill","lat":"53.67635000","lon":"-0.33759000"},
{"state":"England","name":"Grain","lat":"51.45591000","lon":"0.71126000"},
{"state":"England","name":"Grange Hill","lat":"51.61185000","lon":"0.08612000"},
{"state":"England","name":"Grange-over-Sands","lat":"54.18508000","lon":"-2.92488000"},
{"state":"England","name":"Grantham","lat":"52.91149000","lon":"-0.64184000"},
{"state":"England","name":"Grappenhall","lat":"53.37204000","lon":"-2.54675000"},
{"state":"England","name":"Grassington","lat":"54.07140000","lon":"-1.99822000"},
{"state":"England","name":"Gravesend","lat":"51.44206000","lon":"0.37106000"},
{"state":"England","name":"Grays","lat":"51.47566000","lon":"0.32521000"},
{"state":"England","name":"Greasby","lat":"53.37300000","lon":"-3.12330000"},
{"state":"England","name":"Great Amwell","lat":"51.79014000","lon":"-0.01669000"},
{"state":"England","name":"Great Ayton","lat":"54.49148000","lon":"-1.13623000"},
{"state":"England","name":"Great Bardfield","lat":"51.94813000","lon":"0.43645000"},
{"state":"England","name":"Great Barford","lat":"52.15791000","lon":"-0.35235000"},
{"state":"England","name":"Great Barton","lat":"52.27257000","lon":"0.76679000"},
{"state":"England","name":"Great Bedwyn","lat":"51.37950000","lon":"-1.60151000"},
{"state":"England","name":"Great Bentley","lat":"51.85333000","lon":"1.06379000"},
{"state":"England","name":"Great Bookham","lat":"51.27916000","lon":"-0.37423000"},
{"state":"England","name":"Great Chesterford","lat":"52.06431000","lon":"0.19720000"},
{"state":"England","name":"Great Dunmow","lat":"51.87230000","lon":"0.36255000"},
{"state":"England","name":"Great Eccleston","lat":"53.85315000","lon":"-2.87026000"},
{"state":"England","name":"Great Glen","lat":"52.57548000","lon":"-1.03490000"},
{"state":"England","name":"Great Gonerby","lat":"52.93507000","lon":"-0.66685000"},
{"state":"England","name":"Great Gransden","lat":"52.18546000","lon":"-0.14574000"},
{"state":"England","name":"Great Hanwood","lat":"52.68333000","lon":"-2.81667000"},
{"state":"England","name":"Great Harwood","lat":"53.78512000","lon":"-2.40865000"},
{"state":"England","name":"Great Haywood","lat":"52.80785000","lon":"-2.00024000"},
{"state":"England","name":"Great Horkesley","lat":"51.93821000","lon":"0.87551000"},
{"state":"England","name":"Great Horwood","lat":"51.97351000","lon":"-0.88088000"},
{"state":"England","name":"Great Houghton","lat":"53.55352000","lon":"-1.34952000"},
{"state":"England","name":"Great Leighs","lat":"51.82761000","lon":"0.50640000"},
{"state":"England","name":"Great Malvern","lat":"52.11161000","lon":"-2.32515000"},
{"state":"England","name":"Great Marton","lat":"53.81185000","lon":"-3.02261000"},
{"state":"England","name":"Great Missenden","lat":"51.70419000","lon":"-0.70797000"},
{"state":"England","name":"Great Paxton","lat":"52.26057000","lon":"-0.22818000"},
{"state":"England","name":"Great Sankey","lat":"53.39234000","lon":"-2.63994000"},
{"state":"England","name":"Great Torrington","lat":"50.95309000","lon":"-4.14401000"},
{"state":"England","name":"Great Wakering","lat":"51.55242000","lon":"0.80380000"},
{"state":"England","name":"Great Waldingfield","lat":"52.05545000","lon":"0.77436000"},
{"state":"England","name":"Great Wyrley","lat":"52.66277000","lon":"-2.01111000"},
{"state":"England","name":"Great Yarmouth","lat":"52.60831000","lon":"1.73052000"},
{"state":"England","name":"Great Yeldham","lat":"52.01347000","lon":"0.56540000"},
{"state":"England","name":"Greater London","lat":"51.50000000","lon":"-0.16667000"},
{"state":"England","name":"Greatham","lat":"54.64183000","lon":"-1.23806000"},
{"state":"England","name":"Greenfield","lat":"52.00278000","lon":"-0.46605000"},
{"state":"England","name":"Greenford","lat":"51.52866000","lon":"-0.35508000"},
{"state":"England","name":"Greenhill","lat":"51.58342000","lon":"-0.33860000"},
{"state":"England","name":"Greenhithe","lat":"51.45026000","lon":"0.28539000"},
{"state":"England","name":"Greetham","lat":"52.72059000","lon":"-0.63068000"},
{"state":"England","name":"Grimethorpe","lat":"53.57650000","lon":"-1.37688000"},
{"state":"England","name":"Grimsby","lat":"53.56539000","lon":"-0.07553000"},
{"state":"England","name":"Grimston","lat":"52.77312000","lon":"0.54846000"},
{"state":"England","name":"Griston","lat":"52.55720000","lon":"0.86436000"},
{"state":"England","name":"Groombridge","lat":"51.11543000","lon":"0.18295000"},
{"state":"England","name":"Grove","lat":"51.60954000","lon":"-1.42187000"},
{"state":"England","name":"Grundisburgh","lat":"52.11222000","lon":"1.24618000"},
{"state":"England","name":"Guilden Sutton","lat":"53.20809000","lon":"-2.82984000"},
{"state":"England","name":"Guildford","lat":"51.23536000","lon":"-0.57427000"},
{"state":"England","name":"Guisborough","lat":"54.53478000","lon":"-1.05606000"},
{"state":"England","name":"Guiseley","lat":"53.87561000","lon":"-1.71232000"},
{"state":"England","name":"Gunness","lat":"53.59080000","lon":"-0.72834000"},
{"state":"England","name":"Gunnislake","lat":"50.52441000","lon":"-4.21333000"},
{"state":"England","name":"Hackleton","lat":"52.18798000","lon":"-0.82312000"},
{"state":"England","name":"Haddenham","lat":"51.77326000","lon":"-0.92628000"},
{"state":"England","name":"Hadleigh","lat":"51.55269000","lon":"0.60983000"},
{"state":"England","name":"Hadley","lat":"52.70000000","lon":"-2.48333000"},
{"state":"England","name":"Hadley Wood","lat":"51.66669000","lon":"-0.16981000"},
{"state":"England","name":"Hadlow","lat":"51.22417000","lon":"0.33914000"},
{"state":"England","name":"Hadston","lat":"55.29428000","lon":"-1.60392000"},
{"state":"England","name":"Hagley","lat":"52.42620000","lon":"-2.12819000"},
{"state":"England","name":"Hailsham","lat":"50.86220000","lon":"0.25775000"},
{"state":"England","name":"Hainault","lat":"51.60836000","lon":"0.10716000"},
{"state":"England","name":"Hale","lat":"53.37831000","lon":"-2.33271000"},
{"state":"England","name":"Halesowen","lat":"52.44859000","lon":"-2.04938000"},
{"state":"England","name":"Halesworth","lat":"52.34640000","lon":"1.50290000"},
{"state":"England","name":"Halifax","lat":"53.71667000","lon":"-1.85000000"},
{"state":"England","name":"Halling","lat":"51.35142000","lon":"0.44520000"},
{"state":"England","name":"Hallow","lat":"52.22344000","lon":"-2.25468000"},
{"state":"England","name":"Halstead","lat":"51.94506000","lon":"0.63927000"},
{"state":"England","name":"Halton","lat":"53.31667000","lon":"-2.70000000"},
{"state":"England","name":"Haltwhistle","lat":"54.97101000","lon":"-2.45682000"},
{"state":"England","name":"Hamble-le-Rice","lat":"50.85966000","lon":"-1.32432000"},
{"state":"England","name":"Hambleton","lat":"53.76667000","lon":"-1.16667000"},
{"state":"England","name":"Hameldon Hill","lat":"53.75570000","lon":"-2.29190000"},
{"state":"England","name":"Hampshire","lat":"51.00000000","lon":"-1.25000000"},
{"state":"England","name":"Hampton","lat":"51.41334000","lon":"-0.36701000"},
{"state":"England","name":"Hampton in Arden","lat":"52.42540000","lon":"-1.70271000"},
{"state":"England","name":"Handcross","lat":"51.05383000","lon":"-0.20076000"},
{"state":"England","name":"Hannington","lat":"51.63333000","lon":"-1.75000000"},
{"state":"England","name":"Hanslope","lat":"52.11425000","lon":"-0.82672000"},
{"state":"England","name":"Hapton","lat":"53.78333000","lon":"-2.31667000"},
{"state":"England","name":"Harbury","lat":"52.23537000","lon":"-1.45706000"},
{"state":"England","name":"Hardingstone","lat":"52.21358000","lon":"-0.88582000"},
{"state":"England","name":"Hardwick Village","lat":"53.27372000","lon":"-1.04320000"},
{"state":"England","name":"Harefield","lat":"51.60333000","lon":"-0.48546000"},
{"state":"England","name":"Harleston","lat":"52.40302000","lon":"1.29664000"},
{"state":"England","name":"Harlington","lat":"51.96288000","lon":"-0.49241000"},
{"state":"England","name":"Harlow","lat":"51.77655000","lon":"0.11158000"},
{"state":"England","name":"Harold Wood","lat":"51.59462000","lon":"0.23294000"},
{"state":"England","name":"Harpenden","lat":"51.81684000","lon":"-0.35706000"},
{"state":"England","name":"Harpole","lat":"52.24246000","lon":"-0.98937000"},
{"state":"England","name":"Harrietsham","lat":"51.24252000","lon":"0.67060000"},
{"state":"England","name":"Harringay","lat":"51.58240000","lon":"-0.09956000"},
{"state":"England","name":"Harrogate","lat":"53.99078000","lon":"-1.53730000"},
{"state":"England","name":"Harrold","lat":"52.20127000","lon":"-0.61038000"},
{"state":"England","name":"Harrow on the Hill","lat":"51.57142000","lon":"-0.33371000"},
{"state":"England","name":"Harston","lat":"52.13691000","lon":"0.07999000"},
{"state":"England","name":"Harthill","lat":"53.31667000","lon":"-1.26667000"},
{"state":"England","name":"Hartlebury","lat":"52.33333000","lon":"-2.23333000"},
{"state":"England","name":"Hartlepool","lat":"54.66667000","lon":"-1.25000000"},
{"state":"England","name":"Hartley","lat":"51.38673000","lon":"0.30367000"},
{"state":"England","name":"Hartley Wintney","lat":"51.30379000","lon":"-0.90019000"},
{"state":"England","name":"Hartshill","lat":"52.54831000","lon":"-1.52221000"},
{"state":"England","name":"Hartwell","lat":"52.14616000","lon":"-0.85376000"},
{"state":"England","name":"Harvington","lat":"52.14095000","lon":"-1.92313000"},
{"state":"England","name":"Harwell","lat":"51.59947000","lon":"-1.29175000"},
{"state":"England","name":"Harwich","lat":"51.94194000","lon":"1.28437000"},
{"state":"England","name":"Haslemere","lat":"51.09015000","lon":"-0.70785000"},
{"state":"England","name":"Haslingden","lat":"53.70326000","lon":"-2.32382000"},
{"state":"England","name":"Haslingfield","lat":"52.15016000","lon":"0.05579000"},
{"state":"England","name":"Hassocks","lat":"50.92814000","lon":"-0.16617000"},