[{"state":"Adjara","name":"Akhaldaba","lat":"41.65395000","lon":"42.15163000"},
{"state":"Adjara","name":"Batumi","lat":"41.64228000","lon":"41.63392000"},
{"state":"Adjara","name":"Chakvi","lat":"41.72528000","lon":"41.73278000"},
{"state":"Adjara","name":"Dioknisi","lat":"41.62933000","lon":"42.39171000"},
{"state":"Adjara","name":"Khelvachauri","lat":"41.58556000","lon":"41.66889000"},
{"state":"Adjara","name":"Khulo","lat":"41.64353000","lon":"42.30397000"},
{"state":"Adjara","name":"Kobuleti","lat":"41.82143000","lon":"41.77921000"},
{"state":"Adjara","name":"Makhinjauri","lat":"41.67385000","lon":"41.69401000"},
{"state":"Adjara","name":"Ochkhamuri","lat":"41.85975000","lon":"41.85309000"},
{"state":"Adjara","name":"Shuakhevi","lat":"41.63000000","lon":"42.19083000"},
{"state":"Adjara","name":"Tsikhisdziri","lat":"41.76659000","lon":"41.75517000"},
{"state":"Autonomous Republic of Abkhazia","name":"Bich’vinta","lat":"43.16197000","lon":"40.34102000"},
{"state":"Autonomous Republic of Abkhazia","name":"Dranda","lat":"42.87167000","lon":"41.15333000"},
{"state":"Autonomous Republic of Abkhazia","name":"Gagra","lat":"43.27858000","lon":"40.27124000"},
{"state":"Autonomous Republic of Abkhazia","name":"Gali","lat":"42.62655000","lon":"41.73808000"},
{"state":"Autonomous Republic of Abkhazia","name":"Gantiadi","lat":"43.38111000","lon":"40.07944000"},
{"state":"Autonomous Republic of Abkhazia","name":"Gudauta","lat":"43.10547000","lon":"40.62067000"},
{"state":"Autonomous Republic of Abkhazia","name":"Kelasuri","lat":"42.97877000","lon":"41.07067000"},
{"state":"Autonomous Republic of Abkhazia","name":"Och’amch’ire","lat":"42.71232000","lon":"41.46863000"},
{"state":"Autonomous Republic of Abkhazia","name":"P’rimorsk’oe","lat":"43.09236000","lon":"40.69650000"},
{"state":"Autonomous Republic of Abkhazia","name":"Sokhumi","lat":"43.00697000","lon":"40.98930000"},
{"state":"Autonomous Republic of Abkhazia","name":"Stantsiya Novyy Afon","lat":"43.08056000","lon":"40.83833000"},
{"state":"Autonomous Republic of Abkhazia","name":"Tqvarch'eli","lat":"42.84035000","lon":"41.68007000"},
{"state":"Guria","name":"Lanchkhuti","lat":"42.09027000","lon":"42.03239000"},
{"state":"Guria","name":"Naruja","lat":"41.90694000","lon":"41.95417000"},
{"state":"Guria","name":"Ozurgeti","lat":"41.92442000","lon":"42.00682000"},
{"state":"Guria","name":"Urek’i","lat":"41.99556000","lon":"41.77861000"},
{"state":"Imereti","name":"Baghdatis Munitsip’alit’et’i","lat":"42.00000000","lon":"42.90000000"},
{"state":"Imereti","name":"Chiat’ura","lat":"42.29806000","lon":"43.29889000"},
{"state":"Imereti","name":"K’alak’i Chiat’ura","lat":"42.28333000","lon":"43.25000000"},
{"state":"Imereti","name":"K’ulashi","lat":"42.20405000","lon":"42.34289000"},
{"state":"Imereti","name":"Kharagauli","lat":"42.02137000","lon":"43.19773000"},
{"state":"Imereti","name":"Khoni","lat":"42.32260000","lon":"42.42061000"},
{"state":"Imereti","name":"Kutaisi","lat":"42.26791000","lon":"42.69459000"},
{"state":"Imereti","name":"Sach’khere","lat":"42.34528000","lon":"43.41944000"},
{"state":"Imereti","name":"Samtredia","lat":"42.15370000","lon":"42.33517000"},
{"state":"Imereti","name":"Shorapani","lat":"42.08980000","lon":"43.08662000"},
{"state":"Imereti","name":"Tqibuli","lat":"42.35121000","lon":"42.99874000"},
{"state":"Imereti","name":"Tsqaltubo","lat":"42.34129000","lon":"42.59760000"},
{"state":"Imereti","name":"Vani","lat":"42.08320000","lon":"42.52163000"},
{"state":"Imereti","name":"Zestap’oni","lat":"42.11000000","lon":"43.05250000"},
{"state":"Kakheti","name":"Akhmet’a","lat":"42.03111000","lon":"45.20750000"},
{"state":"Kakheti","name":"Akhmet’is Munitsip’alit’et’i","lat":"42.25000000","lon":"45.33333000"},
{"state":"Kakheti","name":"Gurjaani","lat":"41.74292000","lon":"45.80111000"},
{"state":"Kakheti","name":"Lagodekhi","lat":"41.82681000","lon":"46.27667000"},
{"state":"Kakheti","name":"Qvareli","lat":"41.95493000","lon":"45.81716000"},
{"state":"Kakheti","name":"Sagarejo","lat":"41.73397000","lon":"45.33149000"},
{"state":"Kakheti","name":"Sighnaghi","lat":"41.62046000","lon":"45.92198000"},
{"state":"Kakheti","name":"Sighnaghis Munitsip’alit’et’i","lat":"41.56667000","lon":"45.85000000"},
{"state":"Kakheti","name":"Telavi","lat":"41.91978000","lon":"45.47315000"},
{"state":"Kakheti","name":"Tsinandali","lat":"41.89315000","lon":"45.57129000"},
{"state":"Kakheti","name":"Tsnori","lat":"41.62088000","lon":"45.96943000"},
{"state":"Kvemo Kartli","name":"Bolnisi","lat":"41.44794000","lon":"44.53838000"},
{"state":"Kvemo Kartli","name":"Bolnisis Munitsip’alit’et’i","lat":"41.36667000","lon":"44.51667000"},
{"state":"Kvemo Kartli","name":"Didi Lilo","lat":"41.73611000","lon":"44.96472000"},
{"state":"Kvemo Kartli","name":"Dmanisis Munitsip’alit’et’i","lat":"41.35000000","lon":"44.13333000"},
{"state":"Kvemo Kartli","name":"Gardabani","lat":"41.46054000","lon":"45.09283000"},
{"state":"Kvemo Kartli","name":"Gardabnis Munitsip’alit’et’i","lat":"41.61667000","lon":"45.00000000"},
{"state":"Kvemo Kartli","name":"Manglisi","lat":"41.69698000","lon":"44.38448000"},
{"state":"Kvemo Kartli","name":"Marneuli","lat":"41.47588000","lon":"44.80895000"},
{"state":"Kvemo Kartli","name":"Marneulis Munitsip’alit’et’i","lat":"41.38333000","lon":"44.85000000"},
{"state":"Kvemo Kartli","name":"Naghvarevi","lat":"41.35272000","lon":"44.76178000"},
{"state":"Kvemo Kartli","name":"Rust’avi","lat":"41.54949000","lon":"44.99323000"},
{"state":"Kvemo Kartli","name":"T’et’ri Tsqaro","lat":"41.54448000","lon":"44.46153000"},
{"state":"Kvemo Kartli","name":"Tetrits’q’alos Munitsip’alit’et’i","lat":"41.60000000","lon":"44.50000000"},
{"state":"Kvemo Kartli","name":"Ts’alk’is Munitsip’alit’et’i","lat":"41.63333000","lon":"43.96667000"},
{"state":"Kvemo Kartli","name":"Tsalka","lat":"41.59460000","lon":"44.08909000"},
{"state":"Mtskheta-Mtianeti","name":"Akhalgori","lat":"42.12597000","lon":"44.48333000"},
{"state":"Mtskheta-Mtianeti","name":"Dzegvi","lat":"41.84569000","lon":"44.60097000"},
{"state":"Mtskheta-Mtianeti","name":"Gudauri","lat":"42.47797000","lon":"44.47616000"},
{"state":"Mtskheta-Mtianeti","name":"Java","lat":"42.39972000","lon":"43.93667000"},
{"state":"Mtskheta-Mtianeti","name":"Mtskheta","lat":"41.84514000","lon":"44.71875000"},
{"state":"Mtskheta-Mtianeti","name":"P’asanauri","lat":"42.35060000","lon":"44.68912000"},
{"state":"Mtskheta-Mtianeti","name":"Step’antsminda","lat":"42.65667000","lon":"44.64333000"},
{"state":"Mtskheta-Mtianeti","name":"Zhinvali","lat":"42.13181000","lon":"44.77264000"},
{"state":"Racha-Lechkhumi and Kvemo Svaneti","name":"Ambrolauri","lat":"42.52111000","lon":"43.16222000"},
{"state":"Racha-Lechkhumi and Kvemo Svaneti","name":"Ambrolauris Munitsip’alit’et’i","lat":"42.56667000","lon":"43.10000000"},
{"state":"Racha-Lechkhumi and Kvemo Svaneti","name":"Lent’ekhi","lat":"42.78893000","lon":"42.72226000"},
{"state":"Racha-Lechkhumi and Kvemo Svaneti","name":"Oni","lat":"42.57944000","lon":"43.44250000"},
{"state":"Samegrelo-Zemo Svaneti","name":"Abasha","lat":"42.20000000","lon":"42.20000000"},
{"state":"Samegrelo-Zemo Svaneti","name":"Jvari","lat":"42.71693000","lon":"42.05200000"},
{"state":"Samegrelo-Zemo Svaneti","name":"Khobi","lat":"42.31558000","lon":"41.89871000"},
{"state":"Samegrelo-Zemo Svaneti","name":"Kveda Chkhorots’q’u","lat":"42.48103000","lon":"42.09661000"},
{"state":"Samegrelo-Zemo Svaneti","name":"Mart’vili","lat":"42.41436000","lon":"42.37924000"},
{"state":"Samegrelo-Zemo Svaneti","name":"Mest’ia","lat":"43.04581000","lon":"42.72780000"},
{"state":"Samegrelo-Zemo Svaneti","name":"Mest’iis Munitsip’alit’et’i","lat":"43.05000000","lon":"42.55000000"},
{"state":"Samegrelo-Zemo Svaneti","name":"Orsant’ia","lat":"42.46777000","lon":"41.67377000"},
{"state":"Samegrelo-Zemo Svaneti","name":"P’ot’i","lat":"42.14616000","lon":"41.67197000"},
{"state":"Samegrelo-Zemo Svaneti","name":"Senak’i","lat":"42.27042000","lon":"42.06750000"},
{"state":"Samegrelo-Zemo Svaneti","name":"Tsalenjikha","lat":"42.60444000","lon":"42.06825000"},
{"state":"Samegrelo-Zemo Svaneti","name":"Zugdidi","lat":"42.50880000","lon":"41.87088000"},
{"state":"Samtskhe-Javakheti","name":"Adigeni","lat":"41.68191000","lon":"42.69867000"},
{"state":"Samtskhe-Javakheti","name":"Adigeni Municipality","lat":"41.71667000","lon":"42.73333000"},
{"state":"Samtskhe-Javakheti","name":"Akhaldaba","lat":"41.92945000","lon":"43.48762000"},
{"state":"Samtskhe-Javakheti","name":"Akhalk’alak’i","lat":"41.40514000","lon":"43.48629000"},
{"state":"Samtskhe-Javakheti","name":"Akhaltsikhe","lat":"41.63901000","lon":"42.98262000"},
{"state":"Samtskhe-Javakheti","name":"Akhaltsikhis Munitsip’alit’et’i","lat":"41.63333000","lon":"43.00000000"},
{"state":"Samtskhe-Javakheti","name":"Asp’indzis Munitsip’alit’et’i","lat":"41.50000000","lon":"43.25000000"},
{"state":"Samtskhe-Javakheti","name":"Aspindza","lat":"41.57389000","lon":"43.24826000"},
{"state":"Samtskhe-Javakheti","name":"Bakuriani","lat":"41.74972000","lon":"43.53250000"},
{"state":"Samtskhe-Javakheti","name":"Borjomi","lat":"41.85272000","lon":"43.41284000"},
{"state":"Samtskhe-Javakheti","name":"Ninotsminda","lat":"41.26458000","lon":"43.59161000"},
{"state":"Samtskhe-Javakheti","name":"Tsaghveri","lat":"41.80365000","lon":"43.48194000"},
{"state":"Samtskhe-Javakheti","name":"Vale","lat":"41.61558000","lon":"42.87224000"},
{"state":"Shida Kartli","name":"Agara","lat":"42.03761000","lon":"43.82382000"},
{"state":"Shida Kartli","name":"Gori","lat":"41.98422000","lon":"44.11578000"},
{"state":"Shida Kartli","name":"Goris Munitsip’alit’et’i","lat":"42.06667000","lon":"44.11667000"},
{"state":"Shida Kartli","name":"Kaspi","lat":"41.92520000","lon":"44.42568000"},
{"state":"Shida Kartli","name":"Khashuri","lat":"41.99414000","lon":"43.59994000"},
{"state":"Shida Kartli","name":"Surami","lat":"42.02431000","lon":"43.55556000"},
{"state":"Shida Kartli","name":"Ts’khinvali","lat":"42.22764000","lon":"43.96861000"},
{"state":"Tbilisi","name":"Tbilisi","lat":"41.69411000","lon":"44.83368000"}]