[{"name":"Ahafo","native":null,"cities":[{"name":"Asunafo North","native":null,"lat":"6.81968910","lon":"-2.80770500"},{"name":"Asunafo South","native":null,"lat":"6.64801380","lon":"-2.68874370"},{"name":"Asutifi North","native":null,"lat":"6.94774860","lon":"-2.76757160"},{"name":"Asutifi South","native":null,"lat":"6.64801380","lon":"-2.68874370"},{"name":"Tano North","native":null,"lat":"7.22603010","lon":"-2.30456560"},{"name":"Tano South","native":null,"lat":"7.19537930","lon":"-2.12586610"}]},{"name":"Ashanti","native":null,"cities":[{"name":"Agogo","native":null,"lat":"6.80004000","lon":"-1.08193000"},{"name":"Bekwai","native":null,"lat":"6.45195000","lon":"-1.57866000"},{"name":"Ejura","native":null,"lat":"7.38558000","lon":"-1.35617000"},{"name":"Konongo","native":null,"lat":"6.61667000","lon":"-1.21667000"},{"name":"Kumasi","native":null,"lat":"6.68848000","lon":"-1.62443000"},{"name":"Mampong","native":null,"lat":"7.06273000","lon":"-1.40010000"},{"name":"Obuase","native":null,"lat":"6.20228000","lon":"-1.66796000"},{"name":"Tafo","native":null,"lat":"6.73156000","lon":"-1.61370000"}]},{"name":"Bono","native":null,"cities":[{"name":"Banda","native":null,"lat":"8.14956710","lon":"-2.36639500"},{"name":"Berekum East","native":null,"lat":"7.51117580","lon":"-2.75998310"},{"name":"Berekum West","native":null,"lat":"7.51117580","lon":"-2.75998310"},{"name":"Dormaa Central","native":null,"lat":"7.27750000","lon":"-2.87833300"},{"name":"Dormaa East","native":null,"lat":"7.30000000","lon":"-2.70000000"},{"name":"Dormaa West","native":null,"lat":"7.01666700","lon":"-3.05000000"},{"name":"Jaman North","native":null,"lat":"7.98832340","lon":"-2.96858690"},{"name":"Jaman South","native":null,"lat":"7.70843750","lon":"-3.07501700"},{"name":"Sunyani","native":null,"lat":"7.33803320","lon":"-2.34871460"},{"name":"Sunyani West","native":null,"lat":"7.35660520","lon":"-2.44618620"},{"name":"Tain","native":null,"lat":"8.18114110","lon":"-2.86487620"},{"name":"Wenchi","native":null,"lat":"7.74059920","lon":"-2.12267880"}]},{"name":"Bono East","native":null,"cities":[{"name":"Atebubu-Amantin","native":null,"lat":"7.70237000","lon":"-1.21979430"},{"name":"Kintampo North","native":null,"lat":"8.39635790","lon":"-1.82000070"},{"name":"Kintampo South","native":null,"lat":"7.98971320","lon":"-2.00711150"},{"name":"Nkoranza North","native":null,"lat":"7.56603310","lon":"-1.72365200"},{"name":"Nkoranza South","native":null,"lat":"7.62405120","lon":"-1.79974460"},{"name":"Pru East","native":null,"lat":"8.22620000","lon":"-0.65360000"},{"name":"Pru West","native":null,"lat":"8.07359930","lon":"-1.29055410"},{"name":"Sene East","native":null,"lat":"7.78300000","lon":"-0.21700000"},{"name":"Sene West","native":null,"lat":"7.73420000","lon":"-0.68180000"},{"name":"Techiman","native":null,"lat":"7.58968560","lon":"-1.95122140"},{"name":"Techiman North","native":null,"lat":"7.70428020","lon":"-2.08140570"}]},{"name":"Central","native":null,"cities":[{"name":"Apam","native":null,"lat":"5.28483000","lon":"-0.73711000"},{"name":"Cape Coast","native":null,"lat":"5.10535000","lon":"-1.24660000"},{"name":"Dunkwa","native":null,"lat":"5.95996000","lon":"-1.77792000"},{"name":"Elmina","native":null,"lat":"5.08470000","lon":"-1.35093000"},{"name":"Foso","native":null,"lat":"5.70119000","lon":"-1.28657000"},{"name":"Kasoa","native":null,"lat":"5.53449000","lon":"-0.41679000"},{"name":"Mumford","native":null,"lat":"5.26176000","lon":"-0.75897000"},{"name":"Saltpond","native":null,"lat":"5.20913000","lon":"-1.06058000"},{"name":"Swedru","native":null,"lat":"5.53711000","lon":"-0.69984000"},{"name":"Winneba","native":null,"lat":"5.35113000","lon":"-0.62313000"}]},{"name":"Eastern","native":null,"cities":[{"name":"Aburi","native":null,"lat":"5.84802000","lon":"-0.17449000"},{"name":"Akim Oda","native":null,"lat":"5.92665000","lon":"-0.98577000"},{"name":"Akim Swedru","native":null,"lat":"5.89380000","lon":"-1.01636000"},{"name":"Akropong","native":null,"lat":"5.97462000","lon":"-0.08542000"},{"name":"Akwatia","native":null,"lat":"6.04024000","lon":"-0.80876000"},{"name":"Asamankese","native":null,"lat":"5.86006000","lon":"-0.66350000"},{"name":"Begoro","native":null,"lat":"6.38706000","lon":"-0.37738000"},{"name":"Kibi","native":null,"lat":"6.16494000","lon":"-0.55376000"},{"name":"Koforidua","native":null,"lat":"6.09408000","lon":"-0.25913000"},{"name":"Mpraeso","native":null,"lat":"6.59321000","lon":"-0.73462000"},{"name":"Nsawam","native":null,"lat":"5.80893000","lon":"-0.35026000"},{"name":"Suhum","native":null,"lat":"6.04089000","lon":"-0.45004000"}]},{"name":"Greater Accra","native":null,"cities":[{"name":"Accra","native":null,"lat":"5.55602000","lon":"-0.19690000"},{"name":"Atsiaman","native":null,"lat":"5.69775000","lon":"-0.32824000"},{"name":"Dome","native":null,"lat":"5.65003000","lon":"-0.23610000"},{"name":"Gbawe","native":null,"lat":"5.57692000","lon":"-0.31038000"},{"name":"Medina Estates","native":null,"lat":"5.66580000","lon":"-0.16307000"},{"name":"Nungua","native":null,"lat":"5.60105000","lon":"-0.07713000"},{"name":"Tema","native":null,"lat":"5.66980000","lon":"-0.01657000"},{"name":"Teshi Old Town","native":null,"lat":"5.58365000","lon":"-0.10722000"}]},{"name":"North East","native":null,"cities":[{"name":"Bunkpurugu-Nyakpanduri","native":null,"lat":"10.46609170","lon":"-0.22711950"},{"name":"Chereponi","native":null,"lat":"10.13827720","lon":"0.28242580"},{"name":"East Mamprusi","native":null,"lat":"10.42931860","lon":"-0.53078850"},{"name":"Mamprugu-Moagduri","native":null,"lat":"10.23290000","lon":"-1.28360000"},{"name":"West Mamprusi","native":null,"lat":"10.29906060","lon":"-1.36750100"},{"name":"Yunyoo-Nasuan","native":null,"lat":"10.48400000","lon":"-0.00900000"}]},{"name":"Northern","native":null,"cities":[{"name":"Kpandae","native":null,"lat":"8.46885000","lon":"-0.01127000"},{"name":"Salaga","native":null,"lat":"8.55083000","lon":"-0.51875000"},{"name":"Savelugu","native":null,"lat":"9.62441000","lon":"-0.82530000"},{"name":"Tamale","native":null,"lat":"9.40079000","lon":"-0.83930000"},{"name":"Yendi","native":null,"lat":"9.44272000","lon":"-0.00991000"}]},{"name":"Oti","native":null,"cities":[{"name":"Biakoye","native":null,"lat":"7.11698690","lon":"0.32324300"},{"name":"Jasikan","native":null,"lat":"7.40940880","lon":"0.44301500"},{"name":"Kadjebi","native":null,"lat":"7.52631920","lon":"0.46704770"},{"name":"Krachi East","native":null,"lat":"7.77196980","lon":"-0.07763760"},{"name":"Krachi Nchumuru","native":null,"lat":"8.14849800","lon":"-0.16349880"},{"name":"Krachi West","native":null,"lat":"7.98282160","lon":"-0.34886270"},{"name":"Nkwanta North","native":null,"lat":"8.35180760","lon":"0.12217620"},{"name":"Nkwanta South","native":null,"lat":"8.25931340","lon":"0.50185190"}]},{"name":"Savannah","native":null,"cities":[{"name":"Bole","native":null,"lat":"9.02996640","lon":"-2.50694300"},{"name":"Central Gonja","native":null,"lat":"8.92784320","lon":"-1.95369720"},{"name":"East Gonja","native":null,"lat":"8.72568400","lon":"-1.07135790"},{"name":"North East Gonja","native":null,"lat":"9.11746690","lon":"-0.55579360"},{"name":"North Gonja","native":null,"lat":"9.54130850","lon":"-1.39766920"},{"name":"Sawla-Tuna-Kalba","native":null,"lat":"9.39114570","lon":"-2.70611660"},{"name":"West Gonja","native":null,"lat":"9.57513170","lon":"-2.26440410"}]},{"name":"Upper East","native":null,"cities":[{"name":"Bawku","native":null,"lat":"11.06160000","lon":"-0.24169000"},{"name":"Bolgatanga","native":null,"lat":"10.78556000","lon":"-0.85139000"},{"name":"Navrongo","native":null,"lat":"10.89557000","lon":"-1.09210000"}]},{"name":"Upper West","native":null,"cities":[{"name":"Wa","native":null,"lat":"10.06069000","lon":"-2.50192000"}]},{"name":"Volta","native":null,"cities":[{"name":"Aflao","native":null,"lat":"6.11982000","lon":"1.19012000"},{"name":"Anloga","native":null,"lat":"5.79473000","lon":"0.89728000"},{"name":"Ho","native":null,"lat":"6.60084000","lon":"0.47130000"},{"name":"Hohoe","native":null,"lat":"7.15181000","lon":"0.47362000"},{"name":"Keta","native":null,"lat":"5.91793000","lon":"0.98789000"},{"name":"Kete Krachi","native":null,"lat":"7.79391000","lon":"-0.04980000"},{"name":"Kpandu","native":null,"lat":"6.99536000","lon":"0.29306000"}]},{"name":"Western","native":null,"cities":[{"name":"Aboso","native":null,"lat":"5.36073000","lon":"-1.94856000"},{"name":"Axim","native":null,"lat":"4.86641000","lon":"-2.24181000"},{"name":"Bibiani","native":null,"lat":"6.46346000","lon":"-2.31938000"},{"name":"Prestea","native":null,"lat":"5.43385000","lon":"-2.14295000"},{"name":"Sekondi-Takoradi","native":null,"lat":"4.92678000","lon":"-1.75773000"},{"name":"Shama Junction","native":null,"lat":"5.01806000","lon":"-1.66437000"},{"name":"Takoradi","native":null,"lat":"4.89816000","lon":"-1.76029000"},{"name":"Tarkwa","native":null,"lat":"5.30383000","lon":"-1.98956000"}]},{"name":"Western North","native":null,"cities":[{"name":"Aowin","native":null,"lat":"5.75309280","lon":"-3.07518870"},{"name":"Bia East","native":null,"lat":"6.76860400","lon":"-3.33302410"},{"name":"Bia West","native":null,"lat":"6.76860400","lon":"-3.33302410"},{"name":"Bibiani-Anhwiaso-Bekwai","native":null,"lat":"6.30210040","lon":"-2.35675070"},{"name":"Bodi","native":null,"lat":"6.22240910","lon":"-2.76615150"},{"name":"Juaboso","native":null,"lat":"6.33331570","lon":"-2.84206140"},{"name":"Sefwi-Akontombra","native":null,"lat":"6.04285480","lon":"-2.88133620"},{"name":"Sefwi-Wiawso","native":null,"lat":"6.21965670","lon":"-2.50059150"},{"name":"Suaman","native":null,"lat":"5.75309280","lon":"-3.07518870"}]}]