[{"state":"Ahafo","name":"Asunafo North","lat":"6.81968910","lon":"-2.80770500"},
{"state":"Ahafo","name":"Asunafo South","lat":"6.64801380","lon":"-2.68874370"},
{"state":"Ahafo","name":"Asutifi North","lat":"6.94774860","lon":"-2.76757160"},
{"state":"Ahafo","name":"Asutifi South","lat":"6.64801380","lon":"-2.68874370"},
{"state":"Ahafo","name":"Tano North","lat":"7.22603010","lon":"-2.30456560"},
{"state":"Ahafo","name":"Tano South","lat":"7.19537930","lon":"-2.12586610"},
{"state":"Ashanti","name":"Agogo","lat":"6.80004000","lon":"-1.08193000"},
{"state":"Ashanti","name":"Bekwai","lat":"6.45195000","lon":"-1.57866000"},
{"state":"Ashanti","name":"Ejura","lat":"7.38558000","lon":"-1.35617000"},
{"state":"Ashanti","name":"Konongo","lat":"6.61667000","lon":"-1.21667000"},
{"state":"Ashanti","name":"Kumasi","lat":"6.68848000","lon":"-1.62443000"},
{"state":"Ashanti","name":"Mampong","lat":"7.06273000","lon":"-1.40010000"},
{"state":"Ashanti","name":"Obuase","lat":"6.20228000","lon":"-1.66796000"},
{"state":"Ashanti","name":"Tafo","lat":"6.73156000","lon":"-1.61370000"},
{"state":"Bono","name":"Banda","lat":"8.14956710","lon":"-2.36639500"},
{"state":"Bono","name":"Berekum East","lat":"7.51117580","lon":"-2.75998310"},
{"state":"Bono","name":"Berekum West","lat":"7.51117580","lon":"-2.75998310"},
{"state":"Bono","name":"Dormaa Central","lat":"7.27750000","lon":"-2.87833300"},
{"state":"Bono","name":"Dormaa East","lat":"7.30000000","lon":"-2.70000000"},
{"state":"Bono","name":"Dormaa West","lat":"7.01666700","lon":"-3.05000000"},
{"state":"Bono","name":"Jaman North","lat":"7.98832340","lon":"-2.96858690"},
{"state":"Bono","name":"Jaman South","lat":"7.70843750","lon":"-3.07501700"},
{"state":"Bono","name":"Sunyani","lat":"7.33803320","lon":"-2.34871460"},
{"state":"Bono","name":"Sunyani West","lat":"7.35660520","lon":"-2.44618620"},
{"state":"Bono","name":"Tain","lat":"8.18114110","lon":"-2.86487620"},
{"state":"Bono","name":"Wenchi","lat":"7.74059920","lon":"-2.12267880"},
{"state":"Bono East","name":"Atebubu-Amantin","lat":"7.70237000","lon":"-1.21979430"},
{"state":"Bono East","name":"Kintampo North","lat":"8.39635790","lon":"-1.82000070"},
{"state":"Bono East","name":"Kintampo South","lat":"7.98971320","lon":"-2.00711150"},
{"state":"Bono East","name":"Nkoranza North","lat":"7.56603310","lon":"-1.72365200"},
{"state":"Bono East","name":"Nkoranza South","lat":"7.62405120","lon":"-1.79974460"},
{"state":"Bono East","name":"Pru East","lat":"8.22620000","lon":"-0.65360000"},
{"state":"Bono East","name":"Pru West","lat":"8.07359930","lon":"-1.29055410"},
{"state":"Bono East","name":"Sene East","lat":"7.78300000","lon":"-0.21700000"},
{"state":"Bono East","name":"Sene West","lat":"7.73420000","lon":"-0.68180000"},
{"state":"Bono East","name":"Techiman","lat":"7.58968560","lon":"-1.95122140"},
{"state":"Bono East","name":"Techiman North","lat":"7.70428020","lon":"-2.08140570"},
{"state":"Central","name":"Apam","lat":"5.28483000","lon":"-0.73711000"},
{"state":"Central","name":"Cape Coast","lat":"5.10535000","lon":"-1.24660000"},
{"state":"Central","name":"Dunkwa","lat":"5.95996000","lon":"-1.77792000"},
{"state":"Central","name":"Elmina","lat":"5.08470000","lon":"-1.35093000"},
{"state":"Central","name":"Foso","lat":"5.70119000","lon":"-1.28657000"},
{"state":"Central","name":"Kasoa","lat":"5.53449000","lon":"-0.41679000"},
{"state":"Central","name":"Mumford","lat":"5.26176000","lon":"-0.75897000"},
{"state":"Central","name":"Saltpond","lat":"5.20913000","lon":"-1.06058000"},
{"state":"Central","name":"Swedru","lat":"5.53711000","lon":"-0.69984000"},
{"state":"Central","name":"Winneba","lat":"5.35113000","lon":"-0.62313000"},
{"state":"Eastern","name":"Aburi","lat":"5.84802000","lon":"-0.17449000"},
{"state":"Eastern","name":"Akim Oda","lat":"5.92665000","lon":"-0.98577000"},
{"state":"Eastern","name":"Akim Swedru","lat":"5.89380000","lon":"-1.01636000"},
{"state":"Eastern","name":"Akropong","lat":"5.97462000","lon":"-0.08542000"},
{"state":"Eastern","name":"Akwatia","lat":"6.04024000","lon":"-0.80876000"},
{"state":"Eastern","name":"Asamankese","lat":"5.86006000","lon":"-0.66350000"},
{"state":"Eastern","name":"Begoro","lat":"6.38706000","lon":"-0.37738000"},
{"state":"Eastern","name":"Kibi","lat":"6.16494000","lon":"-0.55376000"},
{"state":"Eastern","name":"Koforidua","lat":"6.09408000","lon":"-0.25913000"},
{"state":"Eastern","name":"Mpraeso","lat":"6.59321000","lon":"-0.73462000"},
{"state":"Eastern","name":"Nsawam","lat":"5.80893000","lon":"-0.35026000"},
{"state":"Eastern","name":"Suhum","lat":"6.04089000","lon":"-0.45004000"},
{"state":"Greater Accra","name":"Accra","lat":"5.55602000","lon":"-0.19690000"},
{"state":"Greater Accra","name":"Atsiaman","lat":"5.69775000","lon":"-0.32824000"},
{"state":"Greater Accra","name":"Dome","lat":"5.65003000","lon":"-0.23610000"},
{"state":"Greater Accra","name":"Gbawe","lat":"5.57692000","lon":"-0.31038000"},
{"state":"Greater Accra","name":"Medina Estates","lat":"5.66580000","lon":"-0.16307000"},
{"state":"Greater Accra","name":"Nungua","lat":"5.60105000","lon":"-0.07713000"},
{"state":"Greater Accra","name":"Tema","lat":"5.66980000","lon":"-0.01657000"},
{"state":"Greater Accra","name":"Teshi Old Town","lat":"5.58365000","lon":"-0.10722000"},
{"state":"North East","name":"Bunkpurugu-Nyakpanduri","lat":"10.46609170","lon":"-0.22711950"},
{"state":"North East","name":"Chereponi","lat":"10.13827720","lon":"0.28242580"},
{"state":"North East","name":"East Mamprusi","lat":"10.42931860","lon":"-0.53078850"},
{"state":"North East","name":"Mamprugu-Moagduri","lat":"10.23290000","lon":"-1.28360000"},
{"state":"North East","name":"West Mamprusi","lat":"10.29906060","lon":"-1.36750100"},
{"state":"North East","name":"Yunyoo-Nasuan","lat":"10.48400000","lon":"-0.00900000"},
{"state":"Northern","name":"Kpandae","lat":"8.46885000","lon":"-0.01127000"},
{"state":"Northern","name":"Salaga","lat":"8.55083000","lon":"-0.51875000"},
{"state":"Northern","name":"Savelugu","lat":"9.62441000","lon":"-0.82530000"},
{"state":"Northern","name":"Tamale","lat":"9.40079000","lon":"-0.83930000"},
{"state":"Northern","name":"Yendi","lat":"9.44272000","lon":"-0.00991000"},
{"state":"Oti","name":"Biakoye","lat":"7.11698690","lon":"0.32324300"},
{"state":"Oti","name":"Jasikan","lat":"7.40940880","lon":"0.44301500"},
{"state":"Oti","name":"Kadjebi","lat":"7.52631920","lon":"0.46704770"},
{"state":"Oti","name":"Krachi East","lat":"7.77196980","lon":"-0.07763760"},
{"state":"Oti","name":"Krachi Nchumuru","lat":"8.14849800","lon":"-0.16349880"},
{"state":"Oti","name":"Krachi West","lat":"7.98282160","lon":"-0.34886270"},
{"state":"Oti","name":"Nkwanta North","lat":"8.35180760","lon":"0.12217620"},
{"state":"Oti","name":"Nkwanta South","lat":"8.25931340","lon":"0.50185190"},
{"state":"Savannah","name":"Bole","lat":"9.02996640","lon":"-2.50694300"},
{"state":"Savannah","name":"Central Gonja","lat":"8.92784320","lon":"-1.95369720"},
{"state":"Savannah","name":"East Gonja","lat":"8.72568400","lon":"-1.07135790"},
{"state":"Savannah","name":"North East Gonja","lat":"9.11746690","lon":"-0.55579360"},
{"state":"Savannah","name":"North Gonja","lat":"9.54130850","lon":"-1.39766920"},
{"state":"Savannah","name":"Sawla-Tuna-Kalba","lat":"9.39114570","lon":"-2.70611660"},
{"state":"Savannah","name":"West Gonja","lat":"9.57513170","lon":"-2.26440410"},
{"state":"Upper East","name":"Bawku","lat":"11.06160000","lon":"-0.24169000"},
{"state":"Upper East","name":"Bolgatanga","lat":"10.78556000","lon":"-0.85139000"},
{"state":"Upper East","name":"Navrongo","lat":"10.89557000","lon":"-1.09210000"},
{"state":"Upper West","name":"Wa","lat":"10.06069000","lon":"-2.50192000"},
{"state":"Volta","name":"Aflao","lat":"6.11982000","lon":"1.19012000"},
{"state":"Volta","name":"Anloga","lat":"5.79473000","lon":"0.89728000"},
{"state":"Volta","name":"Ho","lat":"6.60084000","lon":"0.47130000"},
{"state":"Volta","name":"Hohoe","lat":"7.15181000","lon":"0.47362000"},
{"state":"Volta","name":"Keta","lat":"5.91793000","lon":"0.98789000"},
{"state":"Volta","name":"Kete Krachi","lat":"7.79391000","lon":"-0.04980000"},
{"state":"Volta","name":"Kpandu","lat":"6.99536000","lon":"0.29306000"},
{"state":"Western","name":"Aboso","lat":"5.36073000","lon":"-1.94856000"},
{"state":"Western","name":"Axim","lat":"4.86641000","lon":"-2.24181000"},
{"state":"Western","name":"Bibiani","lat":"6.46346000","lon":"-2.31938000"},
{"state":"Western","name":"Prestea","lat":"5.43385000","lon":"-2.14295000"},
{"state":"Western","name":"Sekondi-Takoradi","lat":"4.92678000","lon":"-1.75773000"},
{"state":"Western","name":"Shama Junction","lat":"5.01806000","lon":"-1.66437000"},
{"state":"Western","name":"Takoradi","lat":"4.89816000","lon":"-1.76029000"},
{"state":"Western","name":"Tarkwa","lat":"5.30383000","lon":"-1.98956000"},
{"state":"Western North","name":"Aowin","lat":"5.75309280","lon":"-3.07518870"},
{"state":"Western North","name":"Bia East","lat":"6.76860400","lon":"-3.33302410"},
{"state":"Western North","name":"Bia West","lat":"6.76860400","lon":"-3.33302410"},
{"state":"Western North","name":"Bibiani-Anhwiaso-Bekwai","lat":"6.30210040","lon":"-2.35675070"},
{"state":"Western North","name":"Bodi","lat":"6.22240910","lon":"-2.76615150"},
{"state":"Western North","name":"Juaboso","lat":"6.33331570","lon":"-2.84206140"},
{"state":"Western North","name":"Sefwi-Akontombra","lat":"6.04285480","lon":"-2.88133620"},
{"state":"Western North","name":"Sefwi-Wiawso","lat":"6.21965670","lon":"-2.50059150"},
{"state":"Western North","name":"Suaman","lat":"5.75309280","lon":"-3.07518870"}]