[{"state":"Banjul","name":"Bakau","lat":"13.47806000","lon":"-16.68194000"},
{"state":"Banjul","name":"Banjul","lat":"13.45274000","lon":"-16.57803000"},
{"state":"Banjul","name":"Kombo Saint Mary District","lat":"13.44389000","lon":"-16.64583000"},
{"state":"Banjul","name":"Serekunda","lat":"13.43833000","lon":"-16.67806000"},
{"state":"Central River Division","name":"Bansang","lat":"13.43333000","lon":"-14.65000000"},
{"state":"Central River Division","name":"Brikama Nding","lat":"13.53333000","lon":"-14.93333000"},
{"state":"Central River Division","name":"Dankunku","lat":"13.56667000","lon":"-15.31667000"},
{"state":"Central River Division","name":"Denton","lat":"13.50000000","lon":"-14.93333000"},
{"state":"Central River Division","name":"Fulladu West","lat":"13.50000000","lon":"-14.75000000"},
{"state":"Central River Division","name":"Galleh Manda","lat":"13.43333000","lon":"-14.78333000"},
{"state":"Central River Division","name":"Georgetown","lat":"13.54039000","lon":"-14.76374000"},
{"state":"Central River Division","name":"Jakhaly","lat":"13.55000000","lon":"-14.96667000"},
{"state":"Central River Division","name":"Janjanbureh","lat":"13.53564000","lon":"-14.76515000"},
{"state":"Central River Division","name":"Jarreng","lat":"13.61667000","lon":"-15.18333000"},
{"state":"Central River Division","name":"Karantaba","lat":"13.66667000","lon":"-15.03333000"},
{"state":"Central River Division","name":"Kass Wollof","lat":"13.78333000","lon":"-14.93333000"},
{"state":"Central River Division","name":"Kuntaur","lat":"13.67085000","lon":"-14.88977000"},
{"state":"Central River Division","name":"Kunting","lat":"13.53333000","lon":"-14.66667000"},
{"state":"Central River Division","name":"Lower Saloum","lat":"13.71667000","lon":"-15.36667000"},
{"state":"Central River Division","name":"Niamina East District","lat":"13.63333000","lon":"-15.08333000"},
{"state":"Central River Division","name":"Niamina West District","lat":"13.58333000","lon":"-15.25000000"},
{"state":"Central River Division","name":"Niani","lat":"13.66667000","lon":"-14.91667000"},
{"state":"Central River Division","name":"Nianija District","lat":"13.72900000","lon":"-15.09100000"},
{"state":"Central River Division","name":"Pateh Sam","lat":"13.61667000","lon":"-15.06667000"},
{"state":"Central River Division","name":"Sami","lat":"13.58333000","lon":"-15.20000000"},
{"state":"Central River Division","name":"Sami District","lat":"13.58333000","lon":"-14.58333000"},
{"state":"Central River Division","name":"Saruja","lat":"13.55000000","lon":"-14.91667000"},
{"state":"Central River Division","name":"Sukuta","lat":"13.61667000","lon":"-14.91667000"},
{"state":"Central River Division","name":"Upper Saloum","lat":"13.75000000","lon":"-15.20000000"},
{"state":"Central River Division","name":"Wassu","lat":"13.69094000","lon":"-14.87884000"},
{"state":"Lower River Division","name":"Baro Kunda","lat":"13.48333000","lon":"-15.26667000"},
{"state":"Lower River Division","name":"Bureng","lat":"13.41667000","lon":"-15.28333000"},
{"state":"Lower River Division","name":"Jali","lat":"13.35000000","lon":"-15.96667000"},
{"state":"Lower River Division","name":"Jarra Central","lat":"13.41667000","lon":"-15.41667000"},
{"state":"Lower River Division","name":"Jarra East","lat":"13.41667000","lon":"-15.25000000"},
{"state":"Lower River Division","name":"Jarra West","lat":"13.41667000","lon":"-15.53333000"},
{"state":"Lower River Division","name":"Jenoi","lat":"13.48333000","lon":"-15.56667000"},
{"state":"Lower River Division","name":"Jifarong","lat":"13.30000000","lon":"-15.86667000"},
{"state":"Lower River Division","name":"Kaiaf","lat":"13.40000000","lon":"-15.61667000"},
{"state":"Lower River Division","name":"Karantaba","lat":"13.43333000","lon":"-15.51667000"},
{"state":"Lower River Division","name":"Keneba","lat":"13.32889000","lon":"-16.01500000"},
{"state":"Lower River Division","name":"Kiang Central","lat":"13.40000000","lon":"-15.75000000"},
{"state":"Lower River Division","name":"Kiang East","lat":"13.41667000","lon":"-15.63333000"},
{"state":"Lower River Division","name":"Kiang West District","lat":"13.33333000","lon":"-16.00000000"},
{"state":"Lower River Division","name":"Mansa Konko","lat":"13.44325000","lon":"-15.53570000"},
{"state":"Lower River Division","name":"Nioro","lat":"13.35000000","lon":"-15.75000000"},
{"state":"Lower River Division","name":"Sankwia","lat":"13.46667000","lon":"-15.51667000"},
{"state":"Lower River Division","name":"Si Kunda","lat":"13.43333000","lon":"-15.56667000"},
{"state":"Lower River Division","name":"Soma","lat":"13.43333000","lon":"-15.53333000"},
{"state":"Lower River Division","name":"Sutukung","lat":"13.46667000","lon":"-15.26667000"},
{"state":"Lower River Division","name":"Toniataba","lat":"13.43333000","lon":"-15.58333000"},
{"state":"Lower River Division","name":"Wellingara Ba","lat":"13.41667000","lon":"-15.40000000"},
{"state":"North Bank Division","name":"Bambali","lat":"13.48333000","lon":"-15.33333000"},
{"state":"North Bank Division","name":"Barra","lat":"13.48278000","lon":"-16.54556000"},
{"state":"North Bank Division","name":"Central Baddibu","lat":"13.53333000","lon":"-15.91667000"},
{"state":"North Bank Division","name":"Chilla","lat":"13.55000000","lon":"-16.28333000"},
{"state":"North Bank Division","name":"Daru Rilwan","lat":"13.55000000","lon":"-15.98333000"},
{"state":"North Bank Division","name":"Essau","lat":"13.48389000","lon":"-16.53472000"},
{"state":"North Bank Division","name":"Farafenni","lat":"13.56667000","lon":"-15.60000000"},
{"state":"North Bank Division","name":"Gunjur","lat":"13.52278000","lon":"-16.02778000"},
{"state":"North Bank Division","name":"Jokadu","lat":"13.53333000","lon":"-16.18333000"},
{"state":"North Bank Division","name":"Katchang","lat":"13.50000000","lon":"-15.75000000"},
{"state":"North Bank Division","name":"Kerewan","lat":"13.48980000","lon":"-16.08879000"},
{"state":"North Bank Division","name":"Lamin","lat":"13.35222000","lon":"-16.43389000"},
{"state":"North Bank Division","name":"Lower Baddibu District","lat":"13.50000000","lon":"-16.05000000"},
{"state":"North Bank Division","name":"Lower Niumi District","lat":"13.53333000","lon":"-16.41667000"},
{"state":"North Bank Division","name":"No Kunda","lat":"13.56667000","lon":"-15.83333000"},
{"state":"North Bank Division","name":"Saba","lat":"13.51639000","lon":"-16.04917000"},
{"state":"North Bank Division","name":"Sara Kunda","lat":"13.53333000","lon":"-15.41667000"},
{"state":"North Bank Division","name":"Upper Baddibu","lat":"13.55000000","lon":"-15.66667000"},
{"state":"North Bank Division","name":"Upper Niumi District","lat":"13.40000000","lon":"-16.33333000"},
{"state":"Upper River Division","name":"Bakadagy","lat":"13.30000000","lon":"-14.38333000"},
{"state":"Upper River Division","name":"Basse Santa Su","lat":"13.30995000","lon":"-14.21373000"},
{"state":"Upper River Division","name":"Brifu","lat":"13.50000000","lon":"-13.93333000"},
{"state":"Upper River Division","name":"Daba Kunda","lat":"13.31667000","lon":"-14.30000000"},
{"state":"Upper River Division","name":"Demba Kunda","lat":"13.25000000","lon":"-14.26667000"},
{"state":"Upper River Division","name":"Diabugu","lat":"13.38333000","lon":"-14.40000000"},
{"state":"Upper River Division","name":"Diabugu Basilla","lat":"13.33333000","lon":"-13.95000000"},
{"state":"Upper River Division","name":"Fulladu East","lat":"13.33333000","lon":"-14.25000000"},
{"state":"Upper River Division","name":"Gunjur Kuta","lat":"13.53333000","lon":"-14.11667000"},
{"state":"Upper River Division","name":"Kantora","lat":"13.41667000","lon":"-13.91667000"},
{"state":"Upper River Division","name":"Koina","lat":"13.48333000","lon":"-13.86667000"},
{"state":"Upper River Division","name":"Kumbija","lat":"13.26667000","lon":"-14.18333000"},
{"state":"Upper River Division","name":"Nyamanari","lat":"13.33333000","lon":"-13.86667000"},
{"state":"Upper River Division","name":"Perai","lat":"13.38333000","lon":"-14.03333000"},
{"state":"Upper River Division","name":"Sabi","lat":"13.23333000","lon":"-14.20000000"},
{"state":"Upper River Division","name":"Sandu","lat":"13.41667000","lon":"-14.36667000"},
{"state":"Upper River Division","name":"Sudowol","lat":"13.36667000","lon":"-13.96667000"},
{"state":"Upper River Division","name":"Sun Kunda","lat":"13.38333000","lon":"-13.85000000"},
{"state":"Upper River Division","name":"Sutukoba","lat":"13.50000000","lon":"-14.01667000"},
{"state":"Upper River Division","name":"Wuli","lat":"13.50000000","lon":"-14.08333000"},
{"state":"West Coast Division","name":"Abuko","lat":"13.40417000","lon":"-16.65583000"},
{"state":"West Coast Division","name":"Brikama","lat":"13.27136000","lon":"-16.64944000"},
{"state":"West Coast Division","name":"Foni Bondali","lat":"13.21667000","lon":"-15.93333000"},
{"state":"West Coast Division","name":"Foni Brefet","lat":"13.21667000","lon":"-16.33333000"},
{"state":"West Coast Division","name":"Foni Jarrol","lat":"13.23333000","lon":"-15.83333000"},
{"state":"West Coast Division","name":"Foni Kansala","lat":"13.21667000","lon":"-16.05000000"},
{"state":"West Coast Division","name":"Gunjur","lat":"13.20194000","lon":"-16.73389000"},
{"state":"West Coast Division","name":"Kombo Central District","lat":"13.25000000","lon":"-16.66667000"},
{"state":"West Coast Division","name":"Kombo East District","lat":"13.21667000","lon":"-16.51667000"},
{"state":"West Coast Division","name":"Kombo North District","lat":"13.36667000","lon":"-16.66667000"},
{"state":"West Coast Division","name":"Kombo South District","lat":"13.25000000","lon":"-16.75000000"},
{"state":"West Coast Division","name":"Somita","lat":"13.20583000","lon":"-16.30556000"},
{"state":"West Coast Division","name":"Sukuta","lat":"13.41033000","lon":"-16.70815000"}]