[{"state":"Boké Region","name":"Boffa","lat":"10.33333000","lon":"-14.16667000"},
{"state":"Boké Region","name":"Boké","lat":"10.93217000","lon":"-14.29055000"},
{"state":"Boké Region","name":"Boke Prefecture","lat":"11.08333000","lon":"-14.41667000"},
{"state":"Boké Region","name":"Fria","lat":"10.41667000","lon":"-13.58333000"},
{"state":"Boké Region","name":"Gaoual","lat":"11.75000000","lon":"-13.20000000"},
{"state":"Boké Region","name":"Gaoual Prefecture","lat":"11.75000000","lon":"-13.20000000"},
{"state":"Boké Region","name":"Kimbo","lat":"10.40000000","lon":"-13.55000000"},
{"state":"Boké Region","name":"Koundara","lat":"12.48333000","lon":"-13.30000000"},
{"state":"Boké Region","name":"Koundara Prefecture","lat":"12.41667000","lon":"-13.16667000"},
{"state":"Boké Region","name":"Sanguéya","lat":"10.70000000","lon":"-14.36667000"},
{"state":"Boké Region","name":"Youkounkoun","lat":"12.53110000","lon":"-13.12240000"},
{"state":"Conakry","name":"Camayenne","lat":"9.53500000","lon":"-13.68778000"},
{"state":"Conakry","name":"Conakry","lat":"9.53795000","lon":"-13.67729000"},
{"state":"Kankan Region","name":"Kankan","lat":"10.38542000","lon":"-9.30568000"},
{"state":"Kankan Region","name":"Kankan Prefecture","lat":"10.27100000","lon":"-9.17800000"},
{"state":"Kankan Region","name":"Kérouané","lat":"9.26667000","lon":"-9.01667000"},
{"state":"Kankan Region","name":"Kerouane Prefecture","lat":"9.16667000","lon":"-9.08333000"},
{"state":"Kankan Region","name":"Kouroussa","lat":"10.66667000","lon":"-9.91667000"},
{"state":"Kankan Region","name":"Mandiana","lat":"10.62577000","lon":"-8.69413000"},
{"state":"Kankan Region","name":"Mandiana Prefecture","lat":"10.65800000","lon":"-8.61500000"},
{"state":"Kankan Region","name":"Siguiri","lat":"11.42282000","lon":"-9.16852000"},
{"state":"Kankan Region","name":"Siguiri Prefecture","lat":"11.66667000","lon":"-9.50000000"},
{"state":"Kankan Region","name":"Tokonou","lat":"9.65000000","lon":"-9.78333000"},
{"state":"Kindia Region","name":"Coyah","lat":"9.75000000","lon":"-13.41667000"},
{"state":"Kindia Region","name":"Dubréka","lat":"9.79111000","lon":"-13.52333000"},
{"state":"Kindia Region","name":"Forécariah","lat":"9.43056000","lon":"-13.08806000"},
{"state":"Kindia Region","name":"Kindia","lat":"10.08333000","lon":"-12.80000000"},
{"state":"Kindia Region","name":"Préfecture de Dubréka","lat":"10.25000000","lon":"-13.41667000"},
{"state":"Kindia Region","name":"Préfecture de Forécariah","lat":"9.43333000","lon":"-13.10000000"},
{"state":"Kindia Region","name":"Télimélé","lat":"10.90000000","lon":"-13.03333000"},
{"state":"Kindia Region","name":"Telimele Prefecture","lat":"10.91667000","lon":"-13.33333000"},
{"state":"Kindia Region","name":"Tondon","lat":"10.36667000","lon":"-13.35000000"},
{"state":"Labé Region","name":"Koubia","lat":"11.58333000","lon":"-11.83333000"},
{"state":"Labé Region","name":"Labé","lat":"11.31823000","lon":"-12.28332000"},
{"state":"Labé Region","name":"Labe Prefecture","lat":"11.36600000","lon":"-12.30000000"},
{"state":"Labé Region","name":"Lélouma","lat":"11.42383000","lon":"-12.68183000"},
{"state":"Labé Region","name":"Lelouma Prefecture","lat":"11.41667000","lon":"-12.66667000"},
{"state":"Labé Region","name":"Mali","lat":"12.07900000","lon":"-12.29820000"},
{"state":"Labé Region","name":"Mali Prefecture","lat":"12.08333000","lon":"-12.08333000"},
{"state":"Labé Region","name":"Tougué","lat":"11.44503000","lon":"-11.66422000"},
{"state":"Labé Region","name":"Tougue Prefecture","lat":"11.46667000","lon":"-11.60000000"},
{"state":"Mamou Region","name":"Dalaba","lat":"10.75000000","lon":"-12.30000000"},
{"state":"Mamou Region","name":"Mamou","lat":"10.37546000","lon":"-12.09148000"},
{"state":"Mamou Region","name":"Mamou Prefecture","lat":"10.45900000","lon":"-11.81500000"},
{"state":"Mamou Region","name":"Pita","lat":"10.83333000","lon":"-12.58333000"},
{"state":"Nzérékoré Region","name":"Beyla","lat":"8.69011000","lon":"-8.64869000"},
{"state":"Nzérékoré Region","name":"Beyla Prefecture","lat":"8.91667000","lon":"-8.41667000"},
{"state":"Nzérékoré Region","name":"Gueckedou","lat":"8.56744000","lon":"-10.13360000"},
{"state":"Nzérékoré Region","name":"Lola","lat":"7.83333000","lon":"-8.33333000"},
{"state":"Nzérékoré Region","name":"Macenta","lat":"8.50000000","lon":"-9.41667000"},
{"state":"Nzérékoré Region","name":"Nzérékoré","lat":"7.75624000","lon":"-8.81790000"},
{"state":"Nzérékoré Region","name":"Nzerekore Prefecture","lat":"7.94500000","lon":"-8.78300000"},
{"state":"Nzérékoré Region","name":"Préfecture de Guékédou","lat":"8.66667000","lon":"-10.25000000"},
{"state":"Nzérékoré Region","name":"Yomou","lat":"7.50000000","lon":"-9.16667000"}]