[{"state":"Annobón Province","name":"San Antonio de Palé","lat":"-1.40680000","lon":"5.63178000"},
{"state":"Bioko Norte Province","name":"Malabo","lat":"3.75578000","lon":"8.78166000"},
{"state":"Bioko Norte Province","name":"Rebola","lat":"3.71667000","lon":"8.83333000"},
{"state":"Bioko Norte Province","name":"Santiago de Baney","lat":"3.69920000","lon":"8.90840000"},
{"state":"Bioko Sur Province","name":"Luba","lat":"3.45683000","lon":"8.55465000"},
{"state":"Centro Sur Province","name":"Acurenam","lat":"1.03225000","lon":"10.64882000"},
{"state":"Centro Sur Province","name":"Bicurga","lat":"1.58113000","lon":"10.46716000"},
{"state":"Centro Sur Province","name":"Evinayong","lat":"1.43677000","lon":"10.55124000"},
{"state":"Kié-Ntem Province","name":"Ebebiyin","lat":"2.15106000","lon":"11.33528000"},
{"state":"Kié-Ntem Province","name":"Mikomeseng","lat":"2.13609000","lon":"10.61322000"},
{"state":"Kié-Ntem Province","name":"Ncue","lat":"2.01643000","lon":"10.47066000"},
{"state":"Kié-Ntem Province","name":"Nsang","lat":"2.02475000","lon":"10.94599000"},
{"state":"Litoral Province","name":"Bata","lat":"1.86391000","lon":"9.76582000"},
{"state":"Litoral Province","name":"Bitica","lat":"1.42610000","lon":"9.62316000"},
{"state":"Litoral Province","name":"Cogo","lat":"1.08425000","lon":"9.69300000"},
{"state":"Litoral Province","name":"Machinda","lat":"1.88262000","lon":"9.95133000"},
{"state":"Litoral Province","name":"Mbini","lat":"1.58267000","lon":"9.61478000"},
{"state":"Litoral Province","name":"Río Campo","lat":"2.33812000","lon":"9.82212000"},
{"state":"Wele-Nzas Province","name":"Aconibe","lat":"1.29683000","lon":"10.93691000"},
{"state":"Wele-Nzas Province","name":"Añisoc","lat":"1.86580000","lon":"10.76892000"},
{"state":"Wele-Nzas Province","name":"Ayene","lat":"1.85592000","lon":"10.68994000"},
{"state":"Wele-Nzas Province","name":"Mengomeyén","lat":"1.69439000","lon":"11.03422000"},
{"state":"Wele-Nzas Province","name":"Mongomo","lat":"1.62742000","lon":"11.31346000"},
{"state":"Wele-Nzas Province","name":"Nsok","lat":"1.12985000","lon":"11.26603000"}]