[{"state":"Attica Region","name":"Acharnés","lat":"38.08333000","lon":"23.73333000"},
{"state":"Attica Region","name":"Aegina","lat":"37.74667000","lon":"23.42750000"},
{"state":"Attica Region","name":"Afidnés","lat":"38.20332000","lon":"23.83982000"},
{"state":"Attica Region","name":"Aghios Panteleímon","lat":"38.11643000","lon":"23.98182000"},
{"state":"Attica Region","name":"Agía Marína","lat":"37.82036000","lon":"23.84424000"},
{"state":"Attica Region","name":"Agía Paraskeví","lat":"38.01667000","lon":"23.83333000"},
{"state":"Attica Region","name":"Agía Varvára","lat":"37.98938000","lon":"23.66011000"},
{"state":"Attica Region","name":"Ágioi Anárgyroi","lat":"38.03013000","lon":"23.72379000"},
{"state":"Attica Region","name":"Agios Dimitrios","lat":"37.93333000","lon":"23.73333000"},
{"state":"Attica Region","name":"Agios Dimítrios Kropiás","lat":"37.80612000","lon":"23.85793000"},
{"state":"Attica Region","name":"Agios Ioannis Rentis","lat":"37.96491000","lon":"23.66511000"},
{"state":"Attica Region","name":"Ágios Stéfanos","lat":"38.14657000","lon":"23.85608000"},
{"state":"Attica Region","name":"Aiánteio","lat":"37.92135000","lon":"23.45877000"},
{"state":"Attica Region","name":"Aigáleo","lat":"37.98333000","lon":"23.68333000"},
{"state":"Attica Region","name":"Álimos","lat":"37.91033000","lon":"23.72361000"},
{"state":"Attica Region","name":"Ampelákia","lat":"37.95055000","lon":"23.52803000"},
{"state":"Attica Region","name":"Anávyssos","lat":"37.73414000","lon":"23.94389000"},
{"state":"Attica Region","name":"Áno Liósia","lat":"38.08333000","lon":"23.70000000"},
{"state":"Attica Region","name":"Anoixi","lat":"38.13267000","lon":"23.85874000"},
{"state":"Attica Region","name":"Anthoúsa","lat":"38.02544000","lon":"23.87617000"},
{"state":"Attica Region","name":"Argithéa","lat":"37.97506000","lon":"23.88556000"},
{"state":"Attica Region","name":"Argyroúpoli","lat":"37.90594000","lon":"23.75035000"},
{"state":"Attica Region","name":"Artémida","lat":"37.96727000","lon":"23.99684000"},
{"state":"Attica Region","name":"Asprópyrgos","lat":"38.06134000","lon":"23.58971000"},
{"state":"Attica Region","name":"Athens","lat":"37.98376000","lon":"23.72784000"},
{"state":"Attica Region","name":"Avlónas","lat":"38.25149000","lon":"23.69554000"},
{"state":"Attica Region","name":"Áyioi Apóstoloi","lat":"38.29169000","lon":"23.91011000"},
{"state":"Attica Region","name":"Chaïdári","lat":"38.01135000","lon":"23.66597000"},
{"state":"Attica Region","name":"Cholargós","lat":"38.00000000","lon":"23.80000000"},
{"state":"Attica Region","name":"Dhafní","lat":"37.95002000","lon":"23.73437000"},
{"state":"Attica Region","name":"Dhráfi","lat":"38.02375000","lon":"23.90788000"},
{"state":"Attica Region","name":"Dióni","lat":"38.02328000","lon":"23.93286000"},
{"state":"Attica Region","name":"Diónysos","lat":"38.10458000","lon":"23.87938000"},
{"state":"Attica Region","name":"Drapetsóna","lat":"37.94988000","lon":"23.62309000"},
{"state":"Attica Region","name":"Drosiá","lat":"38.11977000","lon":"23.86428000"},
{"state":"Attica Region","name":"Ekáli","lat":"38.11035000","lon":"23.83505000"},
{"state":"Attica Region","name":"Elefsína","lat":"38.04135000","lon":"23.54295000"},
{"state":"Attica Region","name":"Ellinikó","lat":"37.89013000","lon":"23.74406000"},
{"state":"Attica Region","name":"Erythrés","lat":"38.21741000","lon":"23.32234000"},
{"state":"Attica Region","name":"Filothéi","lat":"38.02524000","lon":"23.78257000"},
{"state":"Attica Region","name":"Fylí","lat":"38.10235000","lon":"23.66901000"},
{"state":"Attica Region","name":"Galatás","lat":"37.49618000","lon":"23.44886000"},
{"state":"Attica Region","name":"Galátsi","lat":"38.01667000","lon":"23.75000000"},
{"state":"Attica Region","name":"Gérakas","lat":"38.02277000","lon":"23.85760000"},
{"state":"Attica Region","name":"Glyfáda","lat":"37.86289000","lon":"23.75802000"},
{"state":"Attica Region","name":"Grammatikó","lat":"38.20251000","lon":"23.96504000"},
{"state":"Attica Region","name":"Ílion","lat":"38.03333000","lon":"23.70000000"},
{"state":"Attica Region","name":"Ilioúpoli","lat":"37.93149000","lon":"23.76779000"},
{"state":"Attica Region","name":"Irákleio","lat":"38.05282000","lon":"23.76523000"},
{"state":"Attica Region","name":"Kaisarianí","lat":"37.96340000","lon":"23.76523000"},
{"state":"Attica Region","name":"Kálamos","lat":"38.28447000","lon":"23.86308000"},
{"state":"Attica Region","name":"Kallithéa","lat":"37.95000000","lon":"23.70000000"},
{"state":"Attica Region","name":"Kalývia Thorikoú","lat":"37.83894000","lon":"23.92505000"},
{"state":"Attica Region","name":"Kamaterón","lat":"38.05586000","lon":"23.70515000"},
{"state":"Attica Region","name":"Kapandríti","lat":"38.21579000","lon":"23.87938000"},
{"state":"Attica Region","name":"Karellás","lat":"37.93445000","lon":"23.86484000"},
{"state":"Attica Region","name":"Káto Soúlion","lat":"38.16803000","lon":"24.01628000"},
{"state":"Attica Region","name":"Keratéa","lat":"37.80585000","lon":"23.97740000"},
{"state":"Attica Region","name":"Keratsíni","lat":"37.96250000","lon":"23.61972000"},
{"state":"Attica Region","name":"Khalándrion","lat":"38.02369000","lon":"23.80068000"},
{"state":"Attica Region","name":"Khalkoútsion","lat":"38.33263000","lon":"23.73188000"},
{"state":"Attica Region","name":"Kifisiá","lat":"38.07438000","lon":"23.81106000"},
{"state":"Attica Region","name":"Kinéta","lat":"37.96843000","lon":"23.21351000"},
{"state":"Attica Region","name":"Kipséli","lat":"38.00288000","lon":"23.73755000"},
{"state":"Attica Region","name":"Kítsi","lat":"37.85181000","lon":"23.84068000"},
{"state":"Attica Region","name":"Koropí","lat":"37.89886000","lon":"23.87181000"},
{"state":"Attica Region","name":"Korydallós","lat":"37.98468000","lon":"23.64711000"},
{"state":"Attica Region","name":"Kouvarás","lat":"37.82711000","lon":"23.96715000"},
{"state":"Attica Region","name":"Kryonéri","lat":"38.13712000","lon":"23.83055000"},
{"state":"Attica Region","name":"Kypséli","lat":"37.76021000","lon":"23.45448000"},
{"state":"Attica Region","name":"Kýthira","lat":"36.14955000","lon":"22.98979000"},
{"state":"Attica Region","name":"Lávrio","lat":"37.71445000","lon":"24.05647000"},
{"state":"Attica Region","name":"Leondárion","lat":"37.98700000","lon":"23.85518000"},
{"state":"Attica Region","name":"Limín Mesoyaías","lat":"37.89108000","lon":"24.00307000"},
{"state":"Attica Region","name":"Lykóvrysi","lat":"38.06933000","lon":"23.78223000"},
{"state":"Attica Region","name":"Magoúla","lat":"38.07989000","lon":"23.52108000"},
{"state":"Attica Region","name":"Mándra","lat":"38.06667000","lon":"23.50000000"},
{"state":"Attica Region","name":"Marathónas","lat":"38.15317000","lon":"23.96278000"},
{"state":"Attica Region","name":"Markópoulo","lat":"37.88333000","lon":"23.93333000"},
{"state":"Attica Region","name":"Markópoulo Oropoú","lat":"38.28980000","lon":"23.82475000"},
{"state":"Attica Region","name":"Maroúsi","lat":"38.05000000","lon":"23.80000000"},
{"state":"Attica Region","name":"Megalochóri","lat":"37.71051000","lon":"23.34659000"},
{"state":"Attica Region","name":"Mégara","lat":"37.99471000","lon":"23.34324000"},
{"state":"Attica Region","name":"Melíssia","lat":"38.05000000","lon":"23.83333000"},
{"state":"Attica Region","name":"Metamórfosi","lat":"38.06576000","lon":"23.76356000"},
{"state":"Attica Region","name":"Moskháton","lat":"37.94789000","lon":"23.67880000"},
{"state":"Attica Region","name":"Néa Chalkidóna","lat":"38.02710000","lon":"23.73051000"},
{"state":"Attica Region","name":"Néa Erythraía","lat":"38.09270000","lon":"23.82223000"},
{"state":"Attica Region","name":"Néa Filadélfeia","lat":"38.03491000","lon":"23.73811000"},
{"state":"Attica Region","name":"Néa Ionía","lat":"38.03570000","lon":"23.75733000"},
{"state":"Attica Region","name":"Néa Mákri","lat":"38.08733000","lon":"23.97642000"},
{"state":"Attica Region","name":"Néa Palátia","lat":"38.31942000","lon":"23.79649000"},
{"state":"Attica Region","name":"Néa Pentéli","lat":"38.06059000","lon":"23.85926000"},
{"state":"Attica Region","name":"Néa Péramos","lat":"38.00647000","lon":"23.42348000"},
{"state":"Attica Region","name":"Néa Smýrni","lat":"37.94504000","lon":"23.71416000"},
{"state":"Attica Region","name":"Néo Psychikó","lat":"38.00624000","lon":"23.78373000"},
{"state":"Attica Region","name":"Neos Voutzás","lat":"38.04312000","lon":"23.97749000"},
{"state":"Attica Region","name":"Níkaia","lat":"37.96667000","lon":"23.65000000"},
{"state":"Attica Region","name":"Oropós","lat":"38.30326000","lon":"23.75549000"},
{"state":"Attica Region","name":"Paianía","lat":"37.95527000","lon":"23.85443000"},
{"state":"Attica Region","name":"Palaiá Fókaia","lat":"37.71998000","lon":"23.94792000"},
{"state":"Attica Region","name":"Palaió Fáliro","lat":"37.92812000","lon":"23.70105000"},
{"state":"Attica Region","name":"Pallíni","lat":"38.00514000","lon":"23.88302000"},
{"state":"Attica Region","name":"Papágou","lat":"37.98642000","lon":"23.79347000"},
{"state":"Attica Region","name":"Péfki","lat":"38.06019000","lon":"23.79264000"},
{"state":"Attica Region","name":"Pentéli","lat":"38.05000000","lon":"23.86667000"},
{"state":"Attica Region","name":"Pérama","lat":"37.96775000","lon":"23.57210000"},
{"state":"Attica Region","name":"Peristéri","lat":"38.01539000","lon":"23.69187000"},
{"state":"Attica Region","name":"Petroúpolis","lat":"38.04187000","lon":"23.68494000"},
{"state":"Attica Region","name":"Pikérmi","lat":"38.00161000","lon":"23.94075000"},
{"state":"Attica Region","name":"Piraeus","lat":"37.94203000","lon":"23.64619000"},
{"state":"Attica Region","name":"Polydéndri","lat":"38.21600000","lon":"23.86806000"},
{"state":"Attica Region","name":"Póros","lat":"37.49944000","lon":"23.45361000"},
{"state":"Attica Region","name":"Psychikó","lat":"38.01324000","lon":"23.77223000"},
{"state":"Attica Region","name":"Rafína","lat":"38.01812000","lon":"24.00599000"},
{"state":"Attica Region","name":"Rodópoli","lat":"38.11669000","lon":"23.87572000"},
{"state":"Attica Region","name":"Salamína","lat":"37.96427000","lon":"23.49649000"},
{"state":"Attica Region","name":"Saronída","lat":"37.74809000","lon":"23.91059000"},
{"state":"Attica Region","name":"Selínia","lat":"37.93320000","lon":"23.53147000"},
{"state":"Attica Region","name":"Skála Oropoú","lat":"38.31964000","lon":"23.78763000"},
{"state":"Attica Region","name":"Skarmagkás","lat":"38.01133000","lon":"23.60303000"},
{"state":"Attica Region","name":"Spáta","lat":"37.96163000","lon":"23.91514000"},
{"state":"Attica Region","name":"Spétses","lat":"37.26191000","lon":"23.15943000"},
{"state":"Attica Region","name":"Stamáta","lat":"38.12546000","lon":"23.88038000"},
{"state":"Attica Region","name":"Távros","lat":"37.97064000","lon":"23.69043000"},
{"state":"Attica Region","name":"Thrakomakedónes","lat":"38.12964000","lon":"23.75751000"},
{"state":"Attica Region","name":"Vári","lat":"37.83320000","lon":"23.80311000"},
{"state":"Attica Region","name":"Varnávas","lat":"38.22358000","lon":"23.92307000"},
{"state":"Attica Region","name":"Varybóbi","lat":"38.12723000","lon":"23.78729000"},
{"state":"Attica Region","name":"Vathý","lat":"37.76420000","lon":"23.48011000"},
{"state":"Attica Region","name":"Vília","lat":"38.16716000","lon":"23.33659000"},
{"state":"Attica Region","name":"Vlycháda","lat":"38.02734000","lon":"23.43663000"},
{"state":"Attica Region","name":"Voúla","lat":"37.84221000","lon":"23.77651000"},
{"state":"Attica Region","name":"Vouliagméni","lat":"37.81423000","lon":"23.77892000"},
{"state":"Attica Region","name":"Vraná","lat":"38.12497000","lon":"23.95198000"},
{"state":"Attica Region","name":"Vrilissia","lat":"38.03381000","lon":"23.82962000"},
{"state":"Attica Region","name":"Výronas","lat":"37.96105000","lon":"23.75300000"},
{"state":"Attica Region","name":"Ýdra","lat":"37.34976000","lon":"23.46560000"},
{"state":"Attica Region","name":"Ymittos","lat":"37.95342000","lon":"23.74897000"},
{"state":"Attica Region","name":"Zefyri","lat":"38.06647000","lon":"23.71701000"},
{"state":"Attica Region","name":"Zográfos","lat":"37.97574000","lon":"23.76911000"},
{"state":"Central Greece Region","name":"Afrátion","lat":"38.45212000","lon":"23.68775000"},
{"state":"Central Greece Region","name":"Agía Triáda","lat":"38.35505000","lon":"22.90881000"},
{"state":"Central Greece Region","name":"Ágios Geórgios","lat":"38.39343000","lon":"22.93189000"},
{"state":"Central Greece Region","name":"Aidipsós","lat":"38.87924000","lon":"23.04691000"},
{"state":"Central Greece Region","name":"Akraifnía","lat":"38.45663000","lon":"23.22093000"},
{"state":"Central Greece Region","name":"Alíartos","lat":"38.36667000","lon":"23.10000000"},
{"state":"Central Greece Region","name":"Alivéri","lat":"38.41667000","lon":"24.03333000"},
{"state":"Central Greece Region","name":"Amárynthos","lat":"38.39300000","lon":"23.88492000"},
{"state":"Central Greece Region","name":"Amfíkleia","lat":"38.63912000","lon":"22.59171000"},
{"state":"Central Greece Region","name":"Ámfissa","lat":"38.52813000","lon":"22.37713000"},
{"state":"Central Greece Region","name":"Anthíli","lat":"38.85000000","lon":"22.47906000"},
{"state":"Central Greece Region","name":"Antikyra","lat":"38.38333000","lon":"22.63333000"},
{"state":"Central Greece Region","name":"Aráchova","lat":"38.47958000","lon":"22.58350000"},
{"state":"Central Greece Region","name":"Árma","lat":"38.35121000","lon":"23.48599000"},
{"state":"Central Greece Region","name":"Asopía","lat":"38.29882000","lon":"23.50189000"},
{"state":"Central Greece Region","name":"Atalánti","lat":"38.65111000","lon":"22.99917000"},
{"state":"Central Greece Region","name":"Áyios Konstandínos","lat":"38.75612000","lon":"22.85757000"},
{"state":"Central Greece Region","name":"Áyios Nikólaos","lat":"38.42051000","lon":"23.64772000"},
{"state":"Central Greece Region","name":"Áyios Thomás","lat":"38.27717000","lon":"23.58906000"},
{"state":"Central Greece Region","name":"Chairóneia","lat":"38.49551000","lon":"22.84424000"},
{"state":"Central Greece Region","name":"Chalkída","lat":"38.46354000","lon":"23.60284000"},
{"state":"Central Greece Region","name":"Delphi","lat":"38.47942000","lon":"22.49357000"},
{"state":"Central Greece Region","name":"Dhrosiá","lat":"38.48413000","lon":"23.54774000"},
{"state":"Central Greece Region","name":"Dílesi","lat":"38.33762000","lon":"23.67077000"},
{"state":"Central Greece Region","name":"Dístomo","lat":"38.42892000","lon":"22.66728000"},
{"state":"Central Greece Region","name":"Domokós","lat":"39.12722000","lon":"22.30028000"},
{"state":"Central Greece Region","name":"Domvraína","lat":"38.25300000","lon":"22.98211000"},
{"state":"Central Greece Region","name":"Eláteia","lat":"38.62770000","lon":"22.76492000"},
{"state":"Central Greece Region","name":"Erétria","lat":"38.40097000","lon":"23.80220000"},
{"state":"Central Greece Region","name":"Fáros","lat":"38.39959000","lon":"23.62275000"},
{"state":"Central Greece Region","name":"Fílla","lat":"38.44177000","lon":"23.68306000"},
{"state":"Central Greece Region","name":"Galaxídhion","lat":"38.38067000","lon":"22.38001000"},
{"state":"Central Greece Region","name":"Istiaía","lat":"38.95520000","lon":"23.15210000"},
{"state":"Central Greece Region","name":"Itéa","lat":"38.43201000","lon":"22.42443000"},
{"state":"Central Greece Region","name":"Kainoúryion","lat":"38.79283000","lon":"22.72470000"},
{"state":"Central Greece Region","name":"Kaména Voúrla","lat":"38.77844000","lon":"22.78573000"},
{"state":"Central Greece Region","name":"Kaparéllion","lat":"38.23697000","lon":"23.21411000"},
{"state":"Central Greece Region","name":"Karpenísi","lat":"38.91218000","lon":"21.79836000"},
{"state":"Central Greece Region","name":"Kárystos","lat":"38.01333000","lon":"24.41611000"},
{"state":"Central Greece Region","name":"Kastélla","lat":"38.57048000","lon":"23.63131000"},
{"state":"Central Greece Region","name":"Káto Tithoréa","lat":"38.60751000","lon":"22.71348000"},
{"state":"Central Greece Region","name":"Kerasochóri","lat":"39.00556000","lon":"21.63778000"},
{"state":"Central Greece Region","name":"Kírra","lat":"38.42944000","lon":"22.44443000"},
{"state":"Central Greece Region","name":"Kými","lat":"38.63477000","lon":"24.10287000"},
{"state":"Central Greece Region","name":"Kyriáki","lat":"38.35365000","lon":"22.78841000"},
{"state":"Central Greece Region","name":"Lamía","lat":"38.90000000","lon":"22.43333000"},
{"state":"Central Greece Region","name":"Lianokládhion","lat":"38.91655000","lon":"22.30336000"},
{"state":"Central Greece Region","name":"Lidoríki","lat":"38.52389000","lon":"22.19972000"},
{"state":"Central Greece Region","name":"Límni","lat":"38.76667000","lon":"23.31667000"},
{"state":"Central Greece Region","name":"Livadeiá","lat":"38.43616000","lon":"22.87665000"},
{"state":"Central Greece Region","name":"Livanátes","lat":"38.71100000","lon":"23.05030000"},
{"state":"Central Greece Region","name":"Loukísia","lat":"38.47946000","lon":"23.44796000"},
{"state":"Central Greece Region","name":"Loutrá Aidhipsoú","lat":"38.85695000","lon":"23.04739000"},
{"state":"Central Greece Region","name":"Magoúla","lat":"38.41178000","lon":"23.82128000"},
{"state":"Central Greece Region","name":"Makrakómi","lat":"38.94150000","lon":"22.11535000"},
{"state":"Central Greece Region","name":"Malakónta","lat":"38.40000000","lon":"23.76667000"},
{"state":"Central Greece Region","name":"Malesína","lat":"38.62225000","lon":"23.23370000"},
{"state":"Central Greece Region","name":"Mantoúdi","lat":"38.79808000","lon":"23.47967000"},
{"state":"Central Greece Region","name":"Marmárion","lat":"38.04839000","lon":"24.32039000"},
{"state":"Central Greece Region","name":"Martínon","lat":"38.56817000","lon":"23.21458000"},
{"state":"Central Greece Region","name":"Mólos","lat":"38.80998000","lon":"22.64544000"},
{"state":"Central Greece Region","name":"Mytikas","lat":"38.44373000","lon":"23.65365000"},
{"state":"Central Greece Region","name":"Néa Artáki","lat":"38.52027000","lon":"23.63296000"},
{"state":"Central Greece Region","name":"Néa Lámpsakos","lat":"38.43729000","lon":"23.62824000"},
{"state":"Central Greece Region","name":"Néa Stíra","lat":"38.17935000","lon":"24.20842000"},
{"state":"Central Greece Region","name":"Néon Monastírion","lat":"39.23988000","lon":"22.27465000"},
{"state":"Central Greece Region","name":"Nomós Evrytanías","lat":"39.00000000","lon":"21.66667000"},
{"state":"Central Greece Region","name":"Nomós Fokídos","lat":"38.50000000","lon":"22.25000000"},
{"state":"Central Greece Region","name":"Oinófyta","lat":"38.31163000","lon":"23.64000000"},
{"state":"Central Greece Region","name":"Omvriakí","lat":"39.10118000","lon":"22.27106000"},
{"state":"Central Greece Region","name":"Orchomenós","lat":"38.49290000","lon":"22.97962000"},
{"state":"Central Greece Region","name":"Oreoí","lat":"38.95034000","lon":"23.09191000"},
{"state":"Central Greece Region","name":"Oxílithos","lat":"38.57988000","lon":"24.11184000"},
{"state":"Central Greece Region","name":"Paralía Avlídhos","lat":"38.38002000","lon":"23.62842000"},
{"state":"Central Greece Region","name":"Pelasgía","lat":"38.94813000","lon":"22.83980000"},
{"state":"Central Greece Region","name":"Pláka Dílesi","lat":"38.34950000","lon":"23.65056000"},
{"state":"Central Greece Region","name":"Politiká","lat":"38.59673000","lon":"23.54457000"},
{"state":"Central Greece Region","name":"Prokópi","lat":"38.73402000","lon":"23.49060000"},
{"state":"Central Greece Region","name":"Psachná","lat":"38.57852000","lon":"23.64326000"},
{"state":"Central Greece Region","name":"Rodhítsa","lat":"38.88829000","lon":"22.46410000"},
{"state":"Central Greece Region","name":"Roviés","lat":"38.80971000","lon":"23.23073000"},
{"state":"Central Greece Region","name":"Schimatári","lat":"38.35000000","lon":"23.58333000"},
{"state":"Central Greece Region","name":"Skýros","lat":"38.90417000","lon":"24.56306000"},
{"state":"Central Greece Region","name":"Spercheiáda","lat":"38.90656000","lon":"22.12792000"},
{"state":"Central Greece Region","name":"Stavrós","lat":"38.89641000","lon":"22.37082000"},
{"state":"Central Greece Region","name":"Steíri","lat":"38.40831000","lon":"22.71162000"},
{"state":"Central Greece Region","name":"Stylída","lat":"38.91667000","lon":"22.61667000"},
{"state":"Central Greece Region","name":"Thespiés","lat":"38.30300000","lon":"23.15016000"},
{"state":"Central Greece Region","name":"Thívai","lat":"38.32500000","lon":"23.31889000"},
{"state":"Central Greece Region","name":"Vágia","lat":"38.31748000","lon":"23.17752000"},
{"state":"Central Greece Region","name":"Vasilikón","lat":"38.42586000","lon":"23.67189000"},
{"state":"Central Greece Region","name":"Vathí","lat":"38.40490000","lon":"23.60332000"},
{"state":"Central Greece Region","name":"Yimnón","lat":"38.44048000","lon":"23.88400000"},
{"state":"Central Macedonia","name":"Ádendro","lat":"40.67131000","lon":"22.60466000"},
{"state":"Central Macedonia","name":"Áfytos","lat":"40.09915000","lon":"23.43670000"},
{"state":"Central Macedonia","name":"Agía Paraskeví","lat":"40.48150000","lon":"23.04863000"},
{"state":"Central Macedonia","name":"Agía Triáda","lat":"40.50003000","lon":"22.87351000"},
{"state":"Central Macedonia","name":"Ágio Pnévma","lat":"41.10142000","lon":"23.67992000"},
{"state":"Central Macedonia","name":"Ágios Athanásios","lat":"40.71598000","lon":"22.72841000"},
{"state":"Central Macedonia","name":"Ágios Geórgios","lat":"40.60215000","lon":"22.19430000"},
{"state":"Central Macedonia","name":"Ágios Loukás","lat":"40.71799000","lon":"22.29545000"},
{"state":"Central Macedonia","name":"Ágios Nikólaos","lat":"40.24926000","lon":"23.69616000"},
{"state":"Central Macedonia","name":"Ágios Pávlos","lat":"40.64075000","lon":"22.96039000"},
{"state":"Central Macedonia","name":"Ágios Pétros","lat":"40.86725000","lon":"22.58298000"},
{"state":"Central Macedonia","name":"Ágios Spyrídon","lat":"40.20778000","lon":"22.44311000"},
{"state":"Central Macedonia","name":"Ágios Vasíleios","lat":"40.66424000","lon":"23.11373000"},
{"state":"Central Macedonia","name":"Agkathiá","lat":"40.55535000","lon":"22.47083000"},
{"state":"Central Macedonia","name":"Aigínio","lat":"40.50139000","lon":"22.54000000"},
{"state":"Central Macedonia","name":"Akrolímni","lat":"40.68020000","lon":"22.26450000"},
{"state":"Central Macedonia","name":"Alexándreia","lat":"40.62667000","lon":"22.44417000"},
{"state":"Central Macedonia","name":"Alistráti","lat":"41.06443000","lon":"23.95751000"},
{"state":"Central Macedonia","name":"Ampeleíes","lat":"40.83417000","lon":"22.38767000"},
{"state":"Central Macedonia","name":"Ampelókipoi","lat":"40.65304000","lon":"22.92624000"},
{"state":"Central Macedonia","name":"Anatolikó","lat":"40.66152000","lon":"22.71190000"},
{"state":"Central Macedonia","name":"Angelochóri","lat":"40.67862000","lon":"22.19933000"},
{"state":"Central Macedonia","name":"Ápsalos","lat":"40.89240000","lon":"22.05709000"},
{"state":"Central Macedonia","name":"Aravissós","lat":"40.84352000","lon":"22.30178000"},
{"state":"Central Macedonia","name":"Aridaía","lat":"40.97306000","lon":"22.05639000"},
{"state":"Central Macedonia","name":"Arnaía","lat":"40.48652000","lon":"23.59537000"},
{"state":"Central Macedonia","name":"Árnissa","lat":"40.79555000","lon":"21.83577000"},
{"state":"Central Macedonia","name":"Arsénio","lat":"40.71412000","lon":"22.15923000"},
{"state":"Central Macedonia","name":"Askós","lat":"40.75105000","lon":"23.38721000"},
{"state":"Central Macedonia","name":"Asproválta","lat":"40.73049000","lon":"23.71180000"},
{"state":"Central Macedonia","name":"Ássiros","lat":"40.82143000","lon":"23.03008000"},
{"state":"Central Macedonia","name":"Asvestochóri","lat":"40.64125000","lon":"23.02528000"},
{"state":"Central Macedonia","name":"Áthyra","lat":"40.82615000","lon":"22.59279000"},
{"state":"Central Macedonia","name":"Axioúpoli","lat":"40.98582000","lon":"22.54165000"},
{"state":"Central Macedonia","name":"Axós","lat":"40.80223000","lon":"22.36158000"},
{"state":"Central Macedonia","name":"Chalástra","lat":"40.62643000","lon":"22.73291000"},
{"state":"Central Macedonia","name":"Chalkidóna","lat":"40.73184000","lon":"22.59992000"},
{"state":"Central Macedonia","name":"Charopó","lat":"41.26031000","lon":"23.37279000"},
{"state":"Central Macedonia","name":"Chortiátis","lat":"40.60954000","lon":"23.10014000"},
{"state":"Central Macedonia","name":"Chrysó","lat":"41.05806000","lon":"23.65108000"},
{"state":"Central Macedonia","name":"Chrysochórafa","lat":"41.18097000","lon":"23.23551000"},
{"state":"Central Macedonia","name":"Diavatá","lat":"40.68744000","lon":"22.85799000"},
{"state":"Central Macedonia","name":"Diavatós","lat":"40.54606000","lon":"22.26686000"},
{"state":"Central Macedonia","name":"Díon","lat":"40.17169000","lon":"22.48463000"},
{"state":"Central Macedonia","name":"Dravískos","lat":"40.92393000","lon":"23.87119000"},
{"state":"Central Macedonia","name":"Drymós","lat":"40.78099000","lon":"22.95889000"},
{"state":"Central Macedonia","name":"Édessa","lat":"40.80260000","lon":"22.04751000"},
{"state":"Central Macedonia","name":"Efkarpía","lat":"40.68797000","lon":"22.95348000"},
{"state":"Central Macedonia","name":"Eirinoúpoli","lat":"40.67806000","lon":"22.19278000"},
{"state":"Central Macedonia","name":"Epanomí","lat":"40.42614000","lon":"22.92782000"},
{"state":"Central Macedonia","name":"Episkopí","lat":"40.68748000","lon":"22.13640000"},
{"state":"Central Macedonia","name":"Évosmos","lat":"40.67056000","lon":"22.90833000"},
{"state":"Central Macedonia","name":"Evropós","lat":"40.89703000","lon":"22.55277000"},
{"state":"Central Macedonia","name":"Exaplátanos","lat":"40.97643000","lon":"22.12958000"},
{"state":"Central Macedonia","name":"Fíliro","lat":"40.69151000","lon":"23.00460000"},
{"state":"Central Macedonia","name":"Galatádes","lat":"40.75590000","lon":"22.28062000"},
{"state":"Central Macedonia","name":"Galátista","lat":"40.46820000","lon":"23.28015000"},
{"state":"Central Macedonia","name":"Gázoros","lat":"41.02557000","lon":"23.77574000"},
{"state":"Central Macedonia","name":"Géfyra","lat":"40.73253000","lon":"22.69359000"},
{"state":"Central Macedonia","name":"Gerakaroú","lat":"40.62666000","lon":"23.21566000"},
{"state":"Central Macedonia","name":"Giannitsá","lat":"40.79194000","lon":"22.40750000"},
{"state":"Central Macedonia","name":"Gouménissa","lat":"40.94604000","lon":"22.44974000"},
{"state":"Central Macedonia","name":"Ierissós","lat":"40.39748000","lon":"23.87505000"},
{"state":"Central Macedonia","name":"Irákleia","lat":"41.18217000","lon":"23.28243000"},
{"state":"Central Macedonia","name":"Kalá Déndra","lat":"41.09941000","lon":"23.42396000"},
{"state":"Central Macedonia","name":"Kalamariá","lat":"40.58250000","lon":"22.95028000"},
{"state":"Central Macedonia","name":"Kalí","lat":"40.81931000","lon":"22.17761000"},
{"state":"Central Macedonia","name":"Kallithéa","lat":"40.07374000","lon":"23.44637000"},
{"state":"Central Macedonia","name":"Kalochóri","lat":"40.64189000","lon":"22.85734000"},
{"state":"Central Macedonia","name":"Kalýves Polygýrou","lat":"40.28659000","lon":"23.39033000"},
{"state":"Central Macedonia","name":"Kalývia","lat":"40.75508000","lon":"22.21753000"},
{"state":"Central Macedonia","name":"Kampánis","lat":"40.88951000","lon":"22.91682000"},
{"state":"Central Macedonia","name":"Kardiá","lat":"40.46909000","lon":"22.99378000"},
{"state":"Central Macedonia","name":"Karítsa","lat":"40.18745000","lon":"22.48171000"},
{"state":"Central Macedonia","name":"Karyótissa","lat":"40.76915000","lon":"22.31331000"},
{"state":"Central Macedonia","name":"Kassándreia","lat":"40.04835000","lon":"23.41362000"},
{"state":"Central Macedonia","name":"Kateríni","lat":"40.26956000","lon":"22.50608000"},
{"state":"Central Macedonia","name":"Káto Kamíla","lat":"41.02119000","lon":"23.48336000"},
{"state":"Central Macedonia","name":"Káto Lipochóri","lat":"40.75754000","lon":"22.17962000"},
{"state":"Central Macedonia","name":"Káto Miliá","lat":"40.25403000","lon":"22.34342000"},
{"state":"Central Macedonia","name":"Káto Scholári","lat":"40.42906000","lon":"23.02978000"},
{"state":"Central Macedonia","name":"Kavallári","lat":"40.71539000","lon":"23.04588000"},
{"state":"Central Macedonia","name":"Kilkís","lat":"40.99302000","lon":"22.87433000"},
{"state":"Central Macedonia","name":"Kítros","lat":"40.37399000","lon":"22.57862000"},
{"state":"Central Macedonia","name":"Kleidí","lat":"40.56632000","lon":"22.59033000"},
{"state":"Central Macedonia","name":"Koímisi","lat":"41.21282000","lon":"23.30035000"},
{"state":"Central Macedonia","name":"Kolchikón","lat":"40.75662000","lon":"23.13377000"},
{"state":"Central Macedonia","name":"Kolindrós","lat":"40.47888000","lon":"22.48319000"},
{"state":"Central Macedonia","name":"Kontariótissa","lat":"40.22754000","lon":"22.46100000"},
{"state":"Central Macedonia","name":"Kopanós","lat":"40.63382000","lon":"22.12893000"},
{"state":"Central Macedonia","name":"Korinós","lat":"40.31659000","lon":"22.58817000"},
{"state":"Central Macedonia","name":"Koryfí","lat":"40.60286000","lon":"22.50681000"},
{"state":"Central Macedonia","name":"Koufália","lat":"40.77778000","lon":"22.57194000"},
{"state":"Central Macedonia","name":"Kouloúra","lat":"40.54652000","lon":"22.31795000"},
{"state":"Central Macedonia","name":"Krithiá","lat":"40.84184000","lon":"22.98292000"},
{"state":"Central Macedonia","name":"Krýa Vrýsi","lat":"40.68738000","lon":"22.30516000"},
{"state":"Central Macedonia","name":"Kýmina","lat":"40.61354000","lon":"22.69278000"},
{"state":"Central Macedonia","name":"Lagkadás","lat":"40.75000000","lon":"23.06667000"},
{"state":"Central Macedonia","name":"Lagyná","lat":"40.72351000","lon":"23.00420000"},
{"state":"Central Macedonia","name":"Lákkoma","lat":"40.39139000","lon":"23.05578000"},
{"state":"Central Macedonia","name":"Lefkónas","lat":"41.10029000","lon":"23.49658000"},
{"state":"Central Macedonia","name":"Leptokaryá","lat":"40.06032000","lon":"22.56120000"},
{"state":"Central Macedonia","name":"Lianovérgi","lat":"40.63526000","lon":"22.50820000"},
{"state":"Central Macedonia","name":"Lití","lat":"40.74533000","lon":"22.97982000"},
{"state":"Central Macedonia","name":"Litóchoro","lat":"40.10056000","lon":"22.49778000"},
{"state":"Central Macedonia","name":"Lófos","lat":"40.24395000","lon":"22.38033000"},
{"state":"Central Macedonia","name":"Loutráki","lat":"40.97116000","lon":"21.94659000"},
{"state":"Central Macedonia","name":"Loutrós","lat":"40.58873000","lon":"22.39976000"},
{"state":"Central Macedonia","name":"Makrochóri","lat":"40.55125000","lon":"22.24955000"},
{"state":"Central Macedonia","name":"Makrýgialos","lat":"40.41551000","lon":"22.60392000"},
{"state":"Central Macedonia","name":"Mándalo","lat":"40.85677000","lon":"22.21264000"},
{"state":"Central Macedonia","name":"Marína","lat":"40.69200000","lon":"22.10099000"},
{"state":"Central Macedonia","name":"Mavrothálassa","lat":"40.89427000","lon":"23.75048000"},
{"state":"Central Macedonia","name":"Mavrovoúni","lat":"40.78243000","lon":"22.15629000"},
{"state":"Central Macedonia","name":"Megáli Panagía","lat":"40.44505000","lon":"23.67999000"},
{"state":"Central Macedonia","name":"Melíki","lat":"40.51685000","lon":"22.39599000"},
{"state":"Central Macedonia","name":"Melíssi","lat":"40.77406000","lon":"22.35304000"},
{"state":"Central Macedonia","name":"Melissochóri","lat":"40.76796000","lon":"22.92858000"},
{"state":"Central Macedonia","name":"Meneméni","lat":"40.65829000","lon":"22.89712000"},
{"state":"Central Macedonia","name":"Mesiméri","lat":"40.41344000","lon":"23.00750000"},
{"state":"Central Macedonia","name":"Mikró Monastíri","lat":"40.70430000","lon":"22.54112000"},
{"state":"Central Macedonia","name":"Mitroúsi","lat":"41.07041000","lon":"23.46064000"},
{"state":"Central Macedonia","name":"Náousa","lat":"40.62944000","lon":"22.06806000"},
{"state":"Central Macedonia","name":"Néa Apollonía","lat":"40.62558000","lon":"23.44074000"},
{"state":"Central Macedonia","name":"Néa Éfesos","lat":"40.22923000","lon":"22.49811000"},
{"state":"Central Macedonia","name":"Néa Flogitá","lat":"40.26108000","lon":"23.22107000"},
{"state":"Central Macedonia","name":"Néa Fókaia","lat":"40.13333000","lon":"23.39754000"},
{"state":"Central Macedonia","name":"Néa Kallikráteia","lat":"40.31312000","lon":"23.06343000"},
{"state":"Central Macedonia","name":"Néa Magnisía","lat":"40.68785000","lon":"22.84582000"},
{"state":"Central Macedonia","name":"Néa Málgara","lat":"40.60985000","lon":"22.68196000"},
{"state":"Central Macedonia","name":"Néa Mesimvría","lat":"40.75158000","lon":"22.76904000"},
{"state":"Central Macedonia","name":"Néa Michanióna","lat":"40.46371000","lon":"22.86170000"},
{"state":"Central Macedonia","name":"Néa Moudhaniá","lat":"40.24390000","lon":"23.28484000"},
{"state":"Central Macedonia","name":"Néa Pélla","lat":"40.76516000","lon":"22.49173000"},
{"state":"Central Macedonia","name":"Néa Plágia","lat":"40.26537000","lon":"23.20376000"},
{"state":"Central Macedonia","name":"Néa Poteídaia","lat":"40.19409000","lon":"23.32832000"},
{"state":"Central Macedonia","name":"Néa Potídhaia","lat":"40.19428000","lon":"23.32874000"},
{"state":"Central Macedonia","name":"Néa Róda","lat":"40.38119000","lon":"23.92374000"},
{"state":"Central Macedonia","name":"Néa Sánta","lat":"40.84084000","lon":"22.92163000"},
{"state":"Central Macedonia","name":"Néa Tríglia","lat":"40.30575000","lon":"23.20660000"},
{"state":"Central Macedonia","name":"Néa Vrasná","lat":"40.70592000","lon":"23.69850000"},
{"state":"Central Macedonia","name":"Néa Zíchni","lat":"41.03204000","lon":"23.82870000"},
{"state":"Central Macedonia","name":"Neapoli","lat":"40.65320000","lon":"22.94156000"},
{"state":"Central Macedonia","name":"Néo Agionéri","lat":"40.80826000","lon":"22.70733000"},
{"state":"Central Macedonia","name":"Néo Petrítsi","lat":"41.27459000","lon":"23.29381000"},
{"state":"Central Macedonia","name":"Néo Rýsi","lat":"40.49605000","lon":"22.98794000"},
{"state":"Central Macedonia","name":"Néo Soúli","lat":"41.09397000","lon":"23.64376000"},
{"state":"Central Macedonia","name":"Neochóri","lat":"41.05231000","lon":"23.57997000"},
{"state":"Central Macedonia","name":"Neochoroúda","lat":"40.73817000","lon":"22.87557000"},
{"state":"Central Macedonia","name":"Néoi Epivátes","lat":"40.49863000","lon":"22.91192000"},
{"state":"Central Macedonia","name":"Néos Marmarás","lat":"40.09610000","lon":"23.78323000"},
{"state":"Central Macedonia","name":"Néos Mylótopos","lat":"40.81872000","lon":"22.35489000"},
{"state":"Central Macedonia","name":"Néos Skopós","lat":"41.02390000","lon":"23.60927000"},
{"state":"Central Macedonia","name":"Nigríta","lat":"40.90528000","lon":"23.49944000"},
{"state":"Central Macedonia","name":"Níkiti","lat":"40.22204000","lon":"23.66837000"},
{"state":"Central Macedonia","name":"Nisí","lat":"40.63610000","lon":"22.38884000"},
{"state":"Central Macedonia","name":"Nomós Chalkidikís","lat":"40.41667000","lon":"23.50000000"},
{"state":"Central Macedonia","name":"Nomós Péllis","lat":"40.83333000","lon":"22.25000000"},
{"state":"Central Macedonia","name":"Nomós Thessaloníkis","lat":"40.66667000","lon":"23.00000000"},
{"state":"Central Macedonia","name":"Ólynthos","lat":"40.29147000","lon":"23.34205000"},
{"state":"Central Macedonia","name":"Oraiókastro","lat":"40.73083000","lon":"22.91722000"},
{"state":"Central Macedonia","name":"Ormýlia","lat":"40.29451000","lon":"23.54332000"},
{"state":"Central Macedonia","name":"Ouranoupolis","lat":"40.33333000","lon":"23.98333000"},
{"state":"Central Macedonia","name":"Palaífyto","lat":"40.78283000","lon":"22.27388000"},
{"state":"Central Macedonia","name":"Palaiochóri","lat":"40.49186000","lon":"23.64928000"},
{"state":"Central Macedonia","name":"Palaiokómi","lat":"40.87068000","lon":"23.90121000"},
{"state":"Central Macedonia","name":"Panórama","lat":"40.58779000","lon":"23.03150000"},
{"state":"Central Macedonia","name":"Paralía","lat":"40.26710000","lon":"22.59615000"},
{"state":"Central Macedonia","name":"Patrída","lat":"40.56071000","lon":"22.18545000"},
{"state":"Central Macedonia","name":"Péfka","lat":"40.65806000","lon":"22.99378000"},
{"state":"Central Macedonia","name":"Pefkochóri","lat":"39.98784000","lon":"23.61219000"},
{"state":"Central Macedonia","name":"Pélla","lat":"40.76169000","lon":"22.52637000"},
{"state":"Central Macedonia","name":"Pentálofos","lat":"40.74296000","lon":"22.85256000"},
{"state":"Central Macedonia","name":"Pentaplátano","lat":"40.81902000","lon":"22.41903000"},
{"state":"Central Macedonia","name":"Peraía","lat":"40.49874000","lon":"22.92617000"},
{"state":"Central Macedonia","name":"Perístasi","lat":"40.27443000","lon":"22.54164000"},
{"state":"Central Macedonia","name":"Peristerá","lat":"40.54881000","lon":"23.16540000"},
{"state":"Central Macedonia","name":"Plagiári","lat":"40.47276000","lon":"22.95790000"},
{"state":"Central Macedonia","name":"Platý","lat":"40.64241000","lon":"22.53458000"},
{"state":"Central Macedonia","name":"Políchni","lat":"40.66671000","lon":"22.94881000"},
{"state":"Central Macedonia","name":"Polýgyros","lat":"40.37704000","lon":"23.44135000"},
{"state":"Central Macedonia","name":"Polykárpi","lat":"40.92598000","lon":"22.01634000"},
{"state":"Central Macedonia","name":"Polýkastro","lat":"40.99444000","lon":"22.56909000"},
{"state":"Central Macedonia","name":"Pontisméno","lat":"41.20885000","lon":"23.28325000"},
{"state":"Central Macedonia","name":"Portariá","lat":"40.28405000","lon":"23.29549000"},
{"state":"Central Macedonia","name":"Próchoma","lat":"40.79826000","lon":"22.66659000"},
{"state":"Central Macedonia","name":"Profítis Ilías","lat":"40.81373000","lon":"22.16166000"},
{"state":"Central Macedonia","name":"Prómachoi","lat":"41.02517000","lon":"22.00437000"},
{"state":"Central Macedonia","name":"Próti","lat":"40.94411000","lon":"24.00118000"},
{"state":"Central Macedonia","name":"Provatás","lat":"41.06825000","lon":"23.39030000"},
{"state":"Central Macedonia","name":"Pylaía","lat":"40.59918000","lon":"22.98613000"},
{"state":"Central Macedonia","name":"Ritíni","lat":"40.28835000","lon":"22.28361000"},
{"state":"Central Macedonia","name":"Rizári","lat":"40.78373000","lon":"22.08800000"},
{"state":"Central Macedonia","name":"Rizó","lat":"40.73331000","lon":"22.13674000"},
{"state":"Central Macedonia","name":"Rizómata","lat":"40.35061000","lon":"22.21079000"},
{"state":"Central Macedonia","name":"Rodolívos","lat":"40.92055000","lon":"23.97489000"},
{"state":"Central Macedonia","name":"Sárti","lat":"40.09369000","lon":"23.97859000"},
{"state":"Central Macedonia","name":"Sérres","lat":"41.08499000","lon":"23.54757000"},
{"state":"Central Macedonia","name":"Sevastianá","lat":"40.76874000","lon":"22.12346000"},
{"state":"Central Macedonia","name":"Sfendámi","lat":"40.41307000","lon":"22.54677000"},
{"state":"Central Macedonia","name":"Sidirókastro","lat":"41.23499000","lon":"23.38899000"},
{"state":"Central Macedonia","name":"Símantra","lat":"40.34563000","lon":"23.31026000"},
{"state":"Central Macedonia","name":"Síndos","lat":"40.67045000","lon":"22.80545000"},
{"state":"Central Macedonia","name":"Skotoússa","lat":"41.12844000","lon":"23.38174000"},
{"state":"Central Macedonia","name":"Skoútari","lat":"41.01871000","lon":"23.51971000"},
{"state":"Central Macedonia","name":"Skýdra","lat":"40.76722000","lon":"22.15194000"},
{"state":"Central Macedonia","name":"Sochós","lat":"40.81788000","lon":"23.35546000"},
{"state":"Central Macedonia","name":"Sosándra","lat":"40.99894000","lon":"22.03254000"},
{"state":"Central Macedonia","name":"Sourotí","lat":"40.47274000","lon":"23.09197000"},
{"state":"Central Macedonia","name":"Stathmós Mourión","lat":"41.26378000","lon":"22.83855000"},
{"state":"Central Macedonia","name":"Stavrós","lat":"40.66498000","lon":"23.70015000"},
{"state":"Central Macedonia","name":"Stavroúpoli","lat":"40.66944000","lon":"22.93806000"},
{"state":"Central Macedonia","name":"Stratónion","lat":"40.51406000","lon":"23.82471000"},
{"state":"Central Macedonia","name":"Strymonikó","lat":"41.04144000","lon":"23.31487000"},
{"state":"Central Macedonia","name":"Svorónos","lat":"40.26805000","lon":"22.46366000"},
{"state":"Central Macedonia","name":"Sykiá","lat":"40.03874000","lon":"23.94046000"},
{"state":"Central Macedonia","name":"Sykiés","lat":"40.64944000","lon":"22.95083000"},
{"state":"Central Macedonia","name":"Terpní","lat":"40.91643000","lon":"23.48137000"},
{"state":"Central Macedonia","name":"Thérmi","lat":"40.54712000","lon":"23.01967000"},
{"state":"Central Macedonia","name":"Thessaloníki","lat":"40.64361000","lon":"22.93086000"},
{"state":"Central Macedonia","name":"Triandría","lat":"40.61500000","lon":"22.97620000"},
{"state":"Central Macedonia","name":"Tríkala","lat":"40.59814000","lon":"22.55733000"},
{"state":"Central Macedonia","name":"Trílofos","lat":"40.46898000","lon":"22.97180000"},
{"state":"Central Macedonia","name":"Valteró","lat":"41.17927000","lon":"23.32022000"},
{"state":"Central Macedonia","name":"Vamvakófyto","lat":"41.17916000","lon":"23.39602000"},
{"state":"Central Macedonia","name":"Vasiliká","lat":"40.47966000","lon":"23.13695000"},
{"state":"Central Macedonia","name":"Vathýlakkos","lat":"40.76942000","lon":"22.70880000"},
{"state":"Central Macedonia","name":"Vergína","lat":"40.48654000","lon":"22.31735000"},
{"state":"Central Macedonia","name":"Véroia","lat":"40.52437000","lon":"22.20242000"},
{"state":"Central Macedonia","name":"Vrontoú","lat":"40.19356000","lon":"22.43203000"},
{"state":"Central Macedonia","name":"Xilópolis","lat":"40.92713000","lon":"23.17944000"},
{"state":"Corfu Prefecture","name":"Farkadóna","lat":"39.60000000","lon":"22.06667000"},
{"state":"Corfu Prefecture","name":"Fíki","lat":"39.51602000","lon":"21.65556000"},
{"state":"Corfu Prefecture","name":"Gómfoi","lat":"39.46413000","lon":"21.69342000"},
{"state":"Corfu Prefecture","name":"Grizáno","lat":"39.63192000","lon":"22.05258000"},
{"state":"Corfu Prefecture","name":"Kalampáka","lat":"39.70444000","lon":"21.62694000"},
{"state":"Corfu Prefecture","name":"Kastráki","lat":"39.71692000","lon":"21.61865000"},
{"state":"Corfu Prefecture","name":"Megála Kalývia","lat":"39.49693000","lon":"21.78802000"},
{"state":"Corfu Prefecture","name":"Megalochóri","lat":"39.55982000","lon":"21.84195000"},
{"state":"Corfu Prefecture","name":"Oichalía","lat":"39.60827000","lon":"21.97996000"},
{"state":"Corfu Prefecture","name":"Palaiomonástiro","lat":"39.46269000","lon":"21.65793000"},
{"state":"Corfu Prefecture","name":"Palaiópyrgos","lat":"39.60845000","lon":"21.81720000"},
{"state":"Corfu Prefecture","name":"Pigí","lat":"39.51061000","lon":"21.70103000"},
{"state":"Corfu Prefecture","name":"Pýli","lat":"39.45806000","lon":"21.61889000"},
{"state":"Corfu Prefecture","name":"Pyrgetós","lat":"39.55276000","lon":"21.74846000"},
{"state":"Corfu Prefecture","name":"Rízoma","lat":"39.66432000","lon":"21.73541000"},
{"state":"Corfu Prefecture","name":"Taxiárches","lat":"39.57565000","lon":"21.89245000"},
{"state":"Corfu Prefecture","name":"Tríkala","lat":"39.55493000","lon":"21.76837000"},
{"state":"Corfu Prefecture","name":"Vasilikí","lat":"39.63984000","lon":"21.70448000"},
{"state":"Corfu Prefecture","name":"Zárkos","lat":"39.60860000","lon":"22.12336000"},
{"state":"Crete Region","name":"Agía Foteiní","lat":"35.25459000","lon":"24.63495000"},
{"state":"Crete Region","name":"Agía Galíni","lat":"35.09707000","lon":"24.68818000"},
{"state":"Crete Region","name":"Agía Marína","lat":"35.51778000","lon":"23.92675000"},
{"state":"Crete Region","name":"Agía Varvára","lat":"35.13715000","lon":"25.00131000"},
{"state":"Crete Region","name":"Ágioi Déka","lat":"35.06667000","lon":"24.96667000"},
{"state":"Crete Region","name":"Ágios Nikólaos","lat":"35.19106000","lon":"25.71524000"},
{"state":"Crete Region","name":"Ano Arhanes","lat":"35.23333000","lon":"25.16667000"},
{"state":"Crete Region","name":"Anógeia","lat":"35.29084000","lon":"24.88412000"},
{"state":"Crete Region","name":"Arkalochóri","lat":"35.14634000","lon":"25.26538000"},
{"state":"Crete Region","name":"Asímion","lat":"35.04321000","lon":"25.09277000"},
{"state":"Crete Region","name":"Atsipópoulo","lat":"35.35253000","lon":"24.43378000"},
{"state":"Crete Region","name":"Chaniá","lat":"35.51124000","lon":"24.02921000"},
{"state":"Crete Region","name":"Chóra Sfakíon","lat":"35.20176000","lon":"24.13711000"},
{"state":"Crete Region","name":"Darátsos","lat":"35.49955000","lon":"23.97488000"},
{"state":"Crete Region","name":"Eloúnda","lat":"35.26500000","lon":"25.72127000"},
{"state":"Crete Region","name":"Galatás","lat":"35.49864000","lon":"23.96341000"},
{"state":"Crete Region","name":"Gázi","lat":"35.32531000","lon":"25.06694000"},
{"state":"Crete Region","name":"Georgioupolis","lat":"35.36225000","lon":"24.26013000"},
{"state":"Crete Region","name":"Geráni","lat":"35.51721000","lon":"23.87818000"},
{"state":"Crete Region","name":"Gérgeri","lat":"35.13281000","lon":"24.94963000"},
{"state":"Crete Region","name":"Goúrnes","lat":"35.32626000","lon":"25.27740000"},
{"state":"Crete Region","name":"Gra Liyiá","lat":"35.01467000","lon":"25.69127000"},
{"state":"Crete Region","name":"Ierápetra","lat":"35.01186000","lon":"25.74234000"},
{"state":"Crete Region","name":"Irákleion","lat":"35.32787000","lon":"25.14341000"},
{"state":"Crete Region","name":"Kalýves","lat":"35.45046000","lon":"24.17507000"},
{"state":"Crete Region","name":"Kastélli","lat":"35.20902000","lon":"25.33773000"},
{"state":"Crete Region","name":"Kastrí","lat":"34.83460000","lon":"24.08572000"},
{"state":"Crete Region","name":"Káto Asítai","lat":"35.20271000","lon":"24.99827000"},
{"state":"Crete Region","name":"Káto Goúves","lat":"35.32934000","lon":"25.31353000"},
{"state":"Crete Region","name":"Kentrí","lat":"35.03258000","lon":"25.75280000"},
{"state":"Crete Region","name":"Kíssamos","lat":"35.49459000","lon":"23.65375000"},
{"state":"Crete Region","name":"Kokkíni Cháni","lat":"35.32827000","lon":"25.25810000"},
{"state":"Crete Region","name":"Kolympári","lat":"35.54115000","lon":"23.77995000"},
{"state":"Crete Region","name":"Kritsá","lat":"35.15821000","lon":"25.64459000"},
{"state":"Crete Region","name":"Krousón","lat":"35.23062000","lon":"24.98291000"},
{"state":"Crete Region","name":"Limín Khersonísou","lat":"35.32297000","lon":"25.39275000"},
{"state":"Crete Region","name":"Mália","lat":"35.28367000","lon":"25.46262000"},
{"state":"Crete Region","name":"Moíres","lat":"35.05143000","lon":"24.87330000"},
{"state":"Crete Region","name":"Mokhós","lat":"35.26342000","lon":"25.42305000"},
{"state":"Crete Region","name":"Mourniés","lat":"35.48228000","lon":"24.01253000"},
{"state":"Crete Region","name":"Mouzourás","lat":"35.53885000","lon":"24.15554000"},
{"state":"Crete Region","name":"Néa Alikarnassós","lat":"35.33977000","lon":"25.15895000"},
{"state":"Crete Region","name":"Néa Anatolí","lat":"35.00920000","lon":"25.66170000"},
{"state":"Crete Region","name":"Neápoli","lat":"35.25627000","lon":"25.60415000"},
{"state":"Crete Region","name":"Nerokoúros","lat":"35.47587000","lon":"24.03995000"},
{"state":"Crete Region","name":"Nomós Irakleíou","lat":"35.32969000","lon":"25.12985000"},
{"state":"Crete Region","name":"Nomós Rethýmnis","lat":"35.25000000","lon":"24.58333000"},
{"state":"Crete Region","name":"Palaióchora","lat":"35.23128000","lon":"23.68185000"},
{"state":"Crete Region","name":"Palekastro","lat":"35.19793000","lon":"26.25429000"},
{"state":"Crete Region","name":"Pánormos","lat":"35.41815000","lon":"24.69091000"},
{"state":"Crete Region","name":"Pérama","lat":"35.37030000","lon":"24.70345000"},
{"state":"Crete Region","name":"Perivólia","lat":"35.48491000","lon":"23.99421000"},
{"state":"Crete Region","name":"Pithári","lat":"35.51672000","lon":"24.08653000"},
{"state":"Crete Region","name":"Profítis Ilías","lat":"35.20555000","lon":"25.09985000"},
{"state":"Crete Region","name":"Pýrgos","lat":"35.00611000","lon":"25.15191000"},
{"state":"Crete Region","name":"Rethymno","lat":"35.36555000","lon":"24.48232000"},
{"state":"Crete Region","name":"Schísma Eloúndas","lat":"35.25757000","lon":"25.72796000"},
{"state":"Crete Region","name":"Sísion","lat":"35.30770000","lon":"25.52021000"},
{"state":"Crete Region","name":"Sitia","lat":"35.20783000","lon":"26.10467000"},
{"state":"Crete Region","name":"Skalánion","lat":"35.28262000","lon":"25.18684000"},
{"state":"Crete Region","name":"Soúda","lat":"35.48717000","lon":"24.07344000"},
{"state":"Crete Region","name":"Stalís","lat":"35.29257000","lon":"25.43292000"},
{"state":"Crete Region","name":"Thrapsanón","lat":"35.18798000","lon":"25.28091000"},
{"state":"Crete Region","name":"Tílisos","lat":"35.29607000","lon":"25.01587000"},
{"state":"Crete Region","name":"Tsikalariá","lat":"35.47623000","lon":"24.06274000"},
{"state":"Crete Region","name":"Tympáki","lat":"35.07286000","lon":"24.76851000"},
{"state":"Crete Region","name":"Violí Charáki","lat":"35.35864000","lon":"24.43857000"},
{"state":"Crete Region","name":"Vrýses","lat":"35.37585000","lon":"24.20109000"},
{"state":"Crete Region","name":"Zarós","lat":"35.13030000","lon":"24.90412000"},
{"state":"Crete Region","name":"Zonianá","lat":"35.29502000","lon":"24.82944000"},
{"state":"East Attica Regional Unit","name":"Ágios Athanásios","lat":"41.07463000","lon":"24.24545000"},
{"state":"East Attica Regional Unit","name":"Alexandroupoli","lat":"40.84995000","lon":"25.87644000"},
{"state":"East Attica Regional Unit","name":"Amygdaleónas","lat":"40.96346000","lon":"24.36007000"},
{"state":"East Attica Regional Unit","name":"Áratos","lat":"41.08139000","lon":"25.55186000"},
{"state":"East Attica Regional Unit","name":"Arísvi","lat":"41.07000000","lon":"25.59041000"},
{"state":"East Attica Regional Unit","name":"Arrianá","lat":"41.08131000","lon":"25.69494000"},
{"state":"East Attica Regional Unit","name":"Ávato","lat":"40.96279000","lon":"24.80441000"},
{"state":"East Attica Regional Unit","name":"Choristí","lat":"41.13056000","lon":"24.20843000"},
{"state":"East Attica Regional Unit","name":"Chrysochóri","lat":"40.93328000","lon":"24.71088000"},
{"state":"East Attica Regional Unit","name":"Chrysoúpolis","lat":"40.98556000","lon":"24.69389000"},
{"state":"East Attica Regional Unit","name":"Didymóteicho","lat":"41.34806000","lon":"26.49611000"},
{"state":"East Attica Regional Unit","name":"Dráma","lat":"41.15283000","lon":"24.14730000"},
{"state":"East Attica Regional Unit","name":"Echínos","lat":"41.27558000","lon":"24.97237000"},
{"state":"East Attica Regional Unit","name":"Elaiochóri","lat":"40.82030000","lon":"24.24373000"},
{"state":"East Attica Regional Unit","name":"Eleftherés","lat":"40.84666000","lon":"24.25431000"},
{"state":"East Attica Regional Unit","name":"Eleftheroúpolis","lat":"40.91389000","lon":"24.25139000"},
{"state":"East Attica Regional Unit","name":"Évlalo","lat":"40.98333000","lon":"24.80000000"},
{"state":"East Attica Regional Unit","name":"Féres","lat":"40.89305000","lon":"26.17234000"},
{"state":"East Attica Regional Unit","name":"Fillýra","lat":"41.11667000","lon":"25.63333000"},
{"state":"East Attica Regional Unit","name":"Fotolívos","lat":"41.06013000","lon":"24.04724000"},
{"state":"East Attica Regional Unit","name":"Fteliá","lat":"41.08266000","lon":"24.18968000"},
{"state":"East Attica Regional Unit","name":"Genisséa","lat":"41.06165000","lon":"24.96248000"},
{"state":"East Attica Regional Unit","name":"Íasmos","lat":"41.12747000","lon":"25.18573000"},
{"state":"East Attica Regional Unit","name":"Iliokentima","lat":"40.94931000","lon":"24.78859000"},
{"state":"East Attica Regional Unit","name":"Kalampáki","lat":"41.05000000","lon":"24.18333000"},
{"state":"East Attica Regional Unit","name":"Kalí Vrýsi","lat":"41.14653000","lon":"23.90667000"},
{"state":"East Attica Regional Unit","name":"Kallífytos","lat":"41.17280000","lon":"24.21527000"},
{"state":"East Attica Regional Unit","name":"Kalós Agrós","lat":"41.10543000","lon":"24.08570000"},
{"state":"East Attica Regional Unit","name":"Kamariótissa","lat":"40.47501000","lon":"25.47456000"},
{"state":"East Attica Regional Unit","name":"Kastaniés","lat":"41.64551000","lon":"26.47676000"},
{"state":"East Attica Regional Unit","name":"Káto Nevrokópi","lat":"41.35000000","lon":"23.86667000"},
{"state":"East Attica Regional Unit","name":"Kavála","lat":"40.93959000","lon":"24.40687000"},
{"state":"East Attica Regional Unit","name":"Kavýli","lat":"41.56225000","lon":"26.51470000"},
{"state":"East Attica Regional Unit","name":"Keramotí","lat":"40.85591000","lon":"24.70595000"},
{"state":"East Attica Regional Unit","name":"Kimméria","lat":"41.14788000","lon":"24.93869000"},
{"state":"East Attica Regional Unit","name":"Kokkinóchoma","lat":"40.92690000","lon":"24.30805000"},
{"state":"East Attica Regional Unit","name":"Komotiní","lat":"41.11917000","lon":"25.40535000"},
{"state":"East Attica Regional Unit","name":"Krinídes","lat":"41.01396000","lon":"24.29647000"},
{"state":"East Attica Regional Unit","name":"Kyprínos","lat":"41.57542000","lon":"26.22905000"},
{"state":"East Attica Regional Unit","name":"Kýria","lat":"41.09900000","lon":"24.28915000"},
{"state":"East Attica Regional Unit","name":"Lagós","lat":"41.45102000","lon":"26.46067000"},
{"state":"East Attica Regional Unit","name":"Lávara","lat":"41.26957000","lon":"26.38522000"},
{"state":"East Attica Regional Unit","name":"Limenária","lat":"40.62741000","lon":"24.57650000"},
{"state":"East Attica Regional Unit","name":"Lýkeio","lat":"41.06413000","lon":"25.68570000"},
{"state":"East Attica Regional Unit","name":"Mikrópolis","lat":"41.19351000","lon":"23.81570000"},
{"state":"East Attica Regional Unit","name":"Mýki","lat":"41.24384000","lon":"24.92084000"},
{"state":"East Attica Regional Unit","name":"Néa Iraklítsa","lat":"40.86442000","lon":"24.31650000"},
{"state":"East Attica Regional Unit","name":"Néa Karváli","lat":"40.96148000","lon":"24.51132000"},
{"state":"East Attica Regional Unit","name":"Néa Karyá","lat":"40.90621000","lon":"24.70726000"},
{"state":"East Attica Regional Unit","name":"Néa Péramos","lat":"40.83854000","lon":"24.30130000"},
{"state":"East Attica Regional Unit","name":"Néa Výssa","lat":"41.58449000","lon":"26.54318000"},
{"state":"East Attica Regional Unit","name":"Neochóri","lat":"41.51131000","lon":"26.45740000"},
{"state":"East Attica Regional Unit","name":"Nikísiani","lat":"40.94739000","lon":"24.14311000"},
{"state":"East Attica Regional Unit","name":"Orestiáda","lat":"41.50306000","lon":"26.52972000"},
{"state":"East Attica Regional Unit","name":"Páchni","lat":"41.30506000","lon":"24.89438000"},
{"state":"East Attica Regional Unit","name":"Palaió Tsiflíki","lat":"40.90495000","lon":"24.35083000"},
{"state":"East Attica Regional Unit","name":"Palaiochóri","lat":"40.94338000","lon":"24.17747000"},
{"state":"East Attica Regional Unit","name":"Paralía Ofryníou","lat":"40.76663000","lon":"23.90039000"},
{"state":"East Attica Regional Unit","name":"Paranésti","lat":"41.26667000","lon":"24.50000000"},
{"state":"East Attica Regional Unit","name":"Péplos","lat":"40.95755000","lon":"26.26577000"},
{"state":"East Attica Regional Unit","name":"Peteinós","lat":"41.10056000","lon":"24.89847000"},
{"state":"East Attica Regional Unit","name":"Petrochóri","lat":"41.08742000","lon":"24.84092000"},
{"state":"East Attica Regional Unit","name":"Petroússa","lat":"41.19470000","lon":"24.01731000"},
{"state":"East Attica Regional Unit","name":"Potamiá","lat":"40.71633000","lon":"24.72859000"},
{"state":"East Attica Regional Unit","name":"Prínos","lat":"40.74090000","lon":"24.57787000"},
{"state":"East Attica Regional Unit","name":"Prosotsáni","lat":"41.18333000","lon":"23.96667000"},
{"state":"East Attica Regional Unit","name":"Rízia","lat":"41.62490000","lon":"26.42771000"},
{"state":"East Attica Regional Unit","name":"Samothráki","lat":"40.47333000","lon":"25.52222000"},
{"state":"East Attica Regional Unit","name":"Sápes","lat":"41.02861000","lon":"25.69306000"},
{"state":"East Attica Regional Unit","name":"Sélero","lat":"41.13382000","lon":"24.99408000"},
{"state":"East Attica Regional Unit","name":"Sitagroí","lat":"41.11067000","lon":"24.02755000"},
{"state":"East Attica Regional Unit","name":"Smínthi","lat":"41.23333000","lon":"24.86667000"},
{"state":"East Attica Regional Unit","name":"Souflí","lat":"41.19194000","lon":"26.29944000"},
{"state":"East Attica Regional Unit","name":"Thásos","lat":"40.77806000","lon":"24.70944000"},
{"state":"East Attica Regional Unit","name":"Tycheró","lat":"41.02878000","lon":"26.29455000"},
{"state":"East Attica Regional Unit","name":"Vólakas","lat":"41.31661000","lon":"24.00215000"},
{"state":"East Attica Regional Unit","name":"Xánthi","lat":"41.13488000","lon":"24.88800000"},
{"state":"East Attica Regional Unit","name":"Xiropótamos","lat":"41.19206000","lon":"24.10385000"},
{"state":"East Attica Regional Unit","name":"Xylaganí","lat":"40.97437000","lon":"25.42022000"},
{"state":"East Attica Regional Unit","name":"Zygós","lat":"41.01320000","lon":"24.38132000"},
{"state":"Epirus Region","name":"Agía Kyriakí","lat":"39.52264000","lon":"20.88358000"},
{"state":"Epirus Region","name":"Anatolí","lat":"39.63531000","lon":"20.86578000"},
{"state":"Epirus Region","name":"Anéza","lat":"39.08658000","lon":"20.92300000"},
{"state":"Epirus Region","name":"Áno Kalentíni","lat":"39.25000000","lon":"21.18528000"},
{"state":"Epirus Region","name":"Árta","lat":"39.16014000","lon":"20.98561000"},
{"state":"Epirus Region","name":"Asprángeloi","lat":"39.82328000","lon":"20.72862000"},
{"state":"Epirus Region","name":"Chalkiádes","lat":"39.15981000","lon":"20.93292000"},
{"state":"Epirus Region","name":"Eksochí","lat":"39.68744000","lon":"20.82240000"},
{"state":"Epirus Region","name":"Eleoúsa","lat":"39.15278000","lon":"20.96214000"},
{"state":"Epirus Region","name":"Filiátes","lat":"39.60111000","lon":"20.31194000"},
{"state":"Epirus Region","name":"Filippiáda","lat":"39.20472000","lon":"20.88222000"},
{"state":"Epirus Region","name":"Graikochóri","lat":"39.49789000","lon":"20.27608000"},
{"state":"Epirus Region","name":"Grammenítsa","lat":"39.18444000","lon":"20.97933000"},
{"state":"Epirus Region","name":"Igoumenítsa","lat":"39.50342000","lon":"20.26728000"},
{"state":"Epirus Region","name":"Ioánnina","lat":"39.66486000","lon":"20.85189000"},
{"state":"Epirus Region","name":"Kalamiá","lat":"39.16528000","lon":"20.93206000"},
{"state":"Epirus Region","name":"Kalpáki","lat":"39.88778000","lon":"20.62389000"},
{"state":"Epirus Region","name":"Kanaláki","lat":"39.23361000","lon":"20.60000000"},
{"state":"Epirus Region","name":"Kardamítsia","lat":"39.67816000","lon":"20.81956000"},
{"state":"Epirus Region","name":"Katsikás","lat":"39.62281000","lon":"20.88758000"},
{"state":"Epirus Region","name":"Kompóti","lat":"39.10255000","lon":"21.08389000"},
{"state":"Epirus Region","name":"Kónitsa","lat":"40.04861000","lon":"20.75667000"},
{"state":"Epirus Region","name":"Kostakioí","lat":"39.13672000","lon":"20.95761000"},
{"state":"Epirus Region","name":"Koutselió","lat":"39.58808000","lon":"20.91197000"},
{"state":"Epirus Region","name":"Loúros","lat":"39.16600000","lon":"20.75608000"},
{"state":"Epirus Region","name":"Metsovo","lat":"39.76944000","lon":"21.18222000"},
{"state":"Epirus Region","name":"Néa Seléfkeia","lat":"39.52461000","lon":"20.25519000"},
{"state":"Epirus Region","name":"Neochóri","lat":"39.07025000","lon":"21.01892000"},
{"state":"Epirus Region","name":"Neochorópoulo","lat":"39.62553000","lon":"20.83558000"},
{"state":"Epirus Region","name":"Néos Oropós","lat":"39.15064000","lon":"20.73636000"},
{"state":"Epirus Region","name":"Nomós Ioannínon","lat":"39.75000000","lon":"20.66667000"},
{"state":"Epirus Region","name":"Pappadátes","lat":"39.31444000","lon":"20.79314000"},
{"state":"Epirus Region","name":"Paramythiá","lat":"39.47111000","lon":"20.51111000"},
{"state":"Epirus Region","name":"Parapótamos","lat":"39.54858000","lon":"20.32436000"},
{"state":"Epirus Region","name":"Párga","lat":"39.28572000","lon":"20.40044000"},
{"state":"Epirus Region","name":"Pediní","lat":"39.59994000","lon":"20.84261000"},
{"state":"Epirus Region","name":"Pérama","lat":"39.69331000","lon":"20.84656000"},
{"state":"Epirus Region","name":"Pérdika","lat":"39.36967000","lon":"20.30419000"},
{"state":"Epirus Region","name":"Péta","lat":"39.16667000","lon":"21.03472000"},
{"state":"Epirus Region","name":"Platariá","lat":"39.45044000","lon":"20.27781000"},
{"state":"Epirus Region","name":"Prámanta","lat":"39.52306000","lon":"21.10139000"},
{"state":"Epirus Region","name":"Préveza","lat":"38.95617000","lon":"20.75050000"},
{"state":"Epirus Region","name":"Rodotópi","lat":"39.70822000","lon":"20.72656000"},
{"state":"Epirus Region","name":"Stavráki","lat":"39.65614000","lon":"20.81806000"},
{"state":"Epirus Region","name":"Thesprotikó","lat":"39.25114000","lon":"20.78528000"},
{"state":"Epirus Region","name":"Tsiflikópoulo","lat":"39.65624000","lon":"20.83882000"},
{"state":"Epirus Region","name":"Voulgaréli","lat":"39.37194000","lon":"21.18333000"},
{"state":"Epirus Region","name":"Vounoplagiá","lat":"39.69161000","lon":"20.78597000"},
{"state":"Ionian Islands Region","name":"Acharávi","lat":"39.79360000","lon":"19.81736000"},
{"state":"Ionian Islands Region","name":"Agios Georgis","lat":"39.72363000","lon":"19.69969000"},
{"state":"Ionian Islands Region","name":"Ágios Matthaíos","lat":"39.49506000","lon":"19.87336000"},
{"state":"Ionian Islands Region","name":"Alepoú","lat":"39.61594000","lon":"19.89564000"},
{"state":"Ionian Islands Region","name":"Ambelókipoi","lat":"37.75809000","lon":"20.87248000"},
{"state":"Ionian Islands Region","name":"Argostólion","lat":"38.18109000","lon":"20.48903000"},
{"state":"Ionian Islands Region","name":"Corfu","lat":"39.62069000","lon":"19.91975000"},
{"state":"Ionian Islands Region","name":"Gáïos","lat":"39.19722000","lon":"20.18556000"},
{"state":"Ionian Islands Region","name":"Gaïtánion","lat":"37.79134000","lon":"20.87407000"},
{"state":"Ionian Islands Region","name":"Itháki","lat":"38.36421000","lon":"20.71848000"},
{"state":"Ionian Islands Region","name":"Kanáli","lat":"39.60556000","lon":"19.89250000"},
{"state":"Ionian Islands Region","name":"Katastárion","lat":"37.83012000","lon":"20.75755000"},
{"state":"Ionian Islands Region","name":"Kontokáli","lat":"39.64436000","lon":"19.85194000"},
{"state":"Ionian Islands Region","name":"Kynopiástes","lat":"39.56785000","lon":"19.88362000"},
{"state":"Ionian Islands Region","name":"Lefkada","lat":"38.75000000","lon":"20.66667000"},
{"state":"Ionian Islands Region","name":"Lefkímmi","lat":"39.42336000","lon":"20.07094000"},
{"state":"Ionian Islands Region","name":"Lithakiá","lat":"37.71935000","lon":"20.83013000"},
{"state":"Ionian Islands Region","name":"Lixoúri","lat":"38.20133000","lon":"20.43706000"},
{"state":"Ionian Islands Region","name":"Mouzaki","lat":"37.73565000","lon":"20.82291000"},
{"state":"Ionian Islands Region","name":"Nomós Kerkýras","lat":"39.66667000","lon":"19.75000000"},
{"state":"Ionian Islands Region","name":"Nomós Zakýnthou","lat":"37.75000000","lon":"20.75000000"},
{"state":"Ionian Islands Region","name":"Perama","lat":"39.58289000","lon":"19.91220000"},
{"state":"Ionian Islands Region","name":"Perivóli","lat":"39.41936000","lon":"20.01469000"},
{"state":"Ionian Islands Region","name":"Póros","lat":"38.15369000","lon":"20.77120000"},
{"state":"Ionian Islands Region","name":"Potamós","lat":"39.62420000","lon":"19.87826000"},
{"state":"Ionian Islands Region","name":"Sámi","lat":"38.25081000","lon":"20.64686000"},
{"state":"Ionian Islands Region","name":"Valsamáta","lat":"38.17600000","lon":"20.58392000"},
{"state":"Ionian Islands Region","name":"Vanáton","lat":"37.79446000","lon":"20.85188000"},
{"state":"Ionian Islands Region","name":"Virós","lat":"39.58340000","lon":"19.88270000"},
{"state":"Ionian Islands Region","name":"Zakynthos","lat":"37.78022000","lon":"20.89555000"},
{"state":"Kefalonia Prefecture","name":"Agía Triáda","lat":"39.46361000","lon":"21.89848000"},
{"state":"Kefalonia Prefecture","name":"Agnanteró","lat":"39.48586000","lon":"21.84789000"},
{"state":"Kefalonia Prefecture","name":"Anávra","lat":"39.18996000","lon":"22.09308000"},
{"state":"Kefalonia Prefecture","name":"Anthiró","lat":"39.34722000","lon":"21.45833000"},
{"state":"Kefalonia Prefecture","name":"Artesianó","lat":"39.40194000","lon":"21.89649000"},
{"state":"Kefalonia Prefecture","name":"Itéa","lat":"39.45669000","lon":"22.16577000"},
{"state":"Kefalonia Prefecture","name":"Kallifóni","lat":"39.27712000","lon":"21.96128000"},
{"state":"Kefalonia Prefecture","name":"Kallíthiro","lat":"39.28099000","lon":"21.90491000"},
{"state":"Kefalonia Prefecture","name":"Kardítsa","lat":"39.36485000","lon":"21.92191000"},
{"state":"Kefalonia Prefecture","name":"Karditsomagoúla","lat":"39.39061000","lon":"21.92330000"},
{"state":"Kefalonia Prefecture","name":"Karpochóri","lat":"39.33575000","lon":"22.01129000"},
{"state":"Kefalonia Prefecture","name":"Magoúla","lat":"39.45395000","lon":"21.80351000"},
{"state":"Kefalonia Prefecture","name":"Makrychóri","lat":"39.43978000","lon":"21.96582000"},
{"state":"Kefalonia Prefecture","name":"Mavrommáti","lat":"39.42386000","lon":"21.69379000"},
{"state":"Kefalonia Prefecture","name":"Mitrópoli","lat":"39.33933000","lon":"21.83751000"},
{"state":"Kefalonia Prefecture","name":"Morfovoúni","lat":"39.35250000","lon":"21.75000000"},
{"state":"Kefalonia Prefecture","name":"Mouzáki","lat":"39.42972000","lon":"21.66361000"},
{"state":"Kefalonia Prefecture","name":"Palamás","lat":"39.46667000","lon":"22.08333000"},
{"state":"Kefalonia Prefecture","name":"Proástio","lat":"39.48682000","lon":"21.90288000"},
{"state":"Kefalonia Prefecture","name":"Sofádes","lat":"39.33333000","lon":"22.10000000"},
{"state":"Lefkada Regional Unit","name":"Agriá","lat":"39.34078000","lon":"23.01258000"},
{"state":"Lefkada Regional Unit","name":"Álli Meriá","lat":"39.37039000","lon":"22.98350000"},
{"state":"Lefkada Regional Unit","name":"Almyrós","lat":"39.18222000","lon":"22.75944000"},
{"state":"Lefkada Regional Unit","name":"Anakasiá","lat":"39.38112000","lon":"22.97484000"},
{"state":"Lefkada Regional Unit","name":"Áno Lekhónia","lat":"39.32763000","lon":"23.05395000"},
{"state":"Lefkada Regional Unit","name":"Argalastí","lat":"39.22627000","lon":"23.21868000"},
{"state":"Lefkada Regional Unit","name":"Evxinoúpolis","lat":"39.18414000","lon":"22.73831000"},
{"state":"Lefkada Regional Unit","name":"Kanália","lat":"39.49928000","lon":"22.88589000"},
{"state":"Lefkada Regional Unit","name":"Káto Lekhónia","lat":"39.33091000","lon":"23.03957000"},
{"state":"Lefkada Regional Unit","name":"Néa Anchiálos","lat":"39.28015000","lon":"22.81819000"},
{"state":"Lefkada Regional Unit","name":"Néa Ionía","lat":"39.37904000","lon":"22.92752000"},
{"state":"Lefkada Regional Unit","name":"Patitírion","lat":"39.14657000","lon":"23.86494000"},
{"state":"Lefkada Regional Unit","name":"Portariá","lat":"39.38950000","lon":"22.99948000"},
{"state":"Lefkada Regional Unit","name":"Pteleós","lat":"39.05261000","lon":"22.95271000"},
{"state":"Lefkada Regional Unit","name":"Rizómylos","lat":"39.42763000","lon":"22.74717000"},
{"state":"Lefkada Regional Unit","name":"Skiáthos","lat":"39.16227000","lon":"23.49089000"},
{"state":"Lefkada Regional Unit","name":"Skópelos","lat":"39.12144000","lon":"23.72686000"},
{"state":"Lefkada Regional Unit","name":"Soúrpi","lat":"39.10319000","lon":"22.89789000"},
{"state":"Lefkada Regional Unit","name":"Stefanovíkeio","lat":"39.46354000","lon":"22.74198000"},
{"state":"Lefkada Regional Unit","name":"Tríkeri","lat":"39.10114000","lon":"23.07669000"},
{"state":"Lefkada Regional Unit","name":"Velestíno","lat":"39.38181000","lon":"22.74616000"},
{"state":"Lefkada Regional Unit","name":"Volos","lat":"39.36103000","lon":"22.94248000"},
{"state":"Lefkada Regional Unit","name":"Zagorá","lat":"39.45000000","lon":"23.10000000"},
{"state":"Peloponnese Region","name":"Ágioi Theódoroi","lat":"37.92736000","lon":"23.14221000"},
{"state":"Peloponnese Region","name":"Ágios Andréas","lat":"37.34519000","lon":"22.76466000"},
{"state":"Peloponnese Region","name":"Arfará","lat":"37.15619000","lon":"22.04485000"},
{"state":"Peloponnese Region","name":"Árgos","lat":"37.63333000","lon":"22.73333000"},
{"state":"Peloponnese Region","name":"Aria","lat":"37.57372000","lon":"22.83539000"},
{"state":"Peloponnese Region","name":"Áris","lat":"37.09920000","lon":"22.00443000"},
{"state":"Peloponnese Region","name":"Arkhaía Kórinthos","lat":"37.90953000","lon":"22.88353000"},
{"state":"Peloponnese Region","name":"Asíni","lat":"37.54431000","lon":"22.86435000"},
{"state":"Peloponnese Region","name":"Asopós","lat":"36.72986000","lon":"22.85455000"},
{"state":"Peloponnese Region","name":"Ássos","lat":"37.93955000","lon":"22.82223000"},
{"state":"Peloponnese Region","name":"Ástros","lat":"37.40395000","lon":"22.72118000"},
{"state":"Peloponnese Region","name":"Athíkia","lat":"37.81675000","lon":"22.92939000"},
{"state":"Peloponnese Region","name":"Ayía Triás","lat":"37.63707000","lon":"22.80504000"},
{"state":"Peloponnese Region","name":"Áyios Adhrianós","lat":"37.59975000","lon":"22.84560000"},
{"state":"Peloponnese Region","name":"Áyios Vasílios","lat":"37.79763000","lon":"22.79727000"},
{"state":"Peloponnese Region","name":"Chóra","lat":"37.05106000","lon":"21.71690000"},
{"state":"Peloponnese Region","name":"Dídyma","lat":"37.46250000","lon":"23.17183000"},
{"state":"Peloponnese Region","name":"Dimitsána","lat":"37.59524000","lon":"22.04025000"},
{"state":"Peloponnese Region","name":"Drépanon","lat":"37.53888000","lon":"22.89323000"},
{"state":"Peloponnese Region","name":"Ermióni","lat":"37.38492000","lon":"23.24686000"},
{"state":"Peloponnese Region","name":"Examília","lat":"37.89736000","lon":"22.92832000"},
{"state":"Peloponnese Region","name":"Filiatrá","lat":"37.15637000","lon":"21.58532000"},
{"state":"Peloponnese Region","name":"Gargaliánoi","lat":"37.06518000","lon":"21.63809000"},
{"state":"Peloponnese Region","name":"Géfyra","lat":"36.68715000","lon":"23.03509000"},
{"state":"Peloponnese Region","name":"Geráki","lat":"36.99227000","lon":"22.70663000"},
{"state":"Peloponnese Region","name":"Gýtheio","lat":"36.75500000","lon":"22.56417000"},
{"state":"Peloponnese Region","name":"Isthmía","lat":"37.91356000","lon":"23.00460000"},
{"state":"Peloponnese Region","name":"Kalamata","lat":"37.03913000","lon":"22.11265000"},
{"state":"Peloponnese Region","name":"Kardamýli","lat":"36.88778000","lon":"22.23317000"},
{"state":"Peloponnese Region","name":"Karyés","lat":"37.29119000","lon":"22.50066000"},
{"state":"Peloponnese Region","name":"Káto Dhiminió","lat":"38.02490000","lon":"22.73294000"},
{"state":"Peloponnese Region","name":"Káto Glykóvrysi","lat":"36.82791000","lon":"22.77732000"},
{"state":"Peloponnese Region","name":"Khiliomódhi","lat":"37.81016000","lon":"22.86972000"},
{"state":"Peloponnese Region","name":"Kiáto","lat":"38.01321000","lon":"22.74839000"},
{"state":"Peloponnese Region","name":"Koilás","lat":"37.41230000","lon":"23.12553000"},
{"state":"Peloponnese Region","name":"Kokkónion","lat":"37.97061000","lon":"22.78018000"},
{"state":"Peloponnese Region","name":"Kopanáki","lat":"37.28913000","lon":"21.81854000"},
{"state":"Peloponnese Region","name":"Kórinthos","lat":"37.94007000","lon":"22.95130000"},
{"state":"Peloponnese Region","name":"Koróni","lat":"36.79526000","lon":"21.95794000"},
{"state":"Peloponnese Region","name":"Koutsopódi","lat":"37.68426000","lon":"22.71355000"},
{"state":"Peloponnese Region","name":"Kranídi","lat":"37.37974000","lon":"23.15969000"},
{"state":"Peloponnese Region","name":"Krokeés","lat":"36.88297000","lon":"22.54683000"},
{"state":"Peloponnese Region","name":"Kyparissía","lat":"37.25111000","lon":"21.67361000"},
{"state":"Peloponnese Region","name":"Kyrás Vrýsi","lat":"37.91295000","lon":"22.98651000"},
{"state":"Peloponnese Region","name":"Langádhia","lat":"37.68186000","lon":"22.03002000"},
{"state":"Peloponnese Region","name":"Lékhaio","lat":"37.93279000","lon":"22.85002000"},
{"state":"Peloponnese Region","name":"Leonídio","lat":"37.16679000","lon":"22.85773000"},
{"state":"Peloponnese Region","name":"Levídion","lat":"37.68269000","lon":"22.29586000"},
{"state":"Peloponnese Region","name":"Ligourión","lat":"37.61233000","lon":"23.03773000"},
{"state":"Peloponnese Region","name":"Loutrá Oraías Elénis","lat":"37.86466000","lon":"22.99614000"},
{"state":"Peloponnese Region","name":"Loutráki","lat":"37.97830000","lon":"22.97781000"},
{"state":"Peloponnese Region","name":"Magoúla","lat":"37.08007000","lon":"22.40469000"},
{"state":"Peloponnese Region","name":"Megalópoli","lat":"37.40111000","lon":"22.14222000"},
{"state":"Peloponnese Region","name":"Meligalás","lat":"37.21667000","lon":"21.96667000"},
{"state":"Peloponnese Region","name":"Messíni","lat":"37.05111000","lon":"22.00778000"},
{"state":"Peloponnese Region","name":"Methóni","lat":"36.81973000","lon":"21.70486000"},
{"state":"Peloponnese Region","name":"Moláoi","lat":"36.80757000","lon":"22.85132000"},
{"state":"Peloponnese Region","name":"Moúlki","lat":"37.99319000","lon":"22.72531000"},
{"state":"Peloponnese Region","name":"Náfplio","lat":"37.56863000","lon":"22.80691000"},
{"state":"Peloponnese Region","name":"Néa Kíos","lat":"37.59023000","lon":"22.74342000"},
{"state":"Peloponnese Region","name":"Néa Tírins","lat":"37.60793000","lon":"22.81996000"},
{"state":"Peloponnese Region","name":"Neméa","lat":"37.82068000","lon":"22.66102000"},
{"state":"Peloponnese Region","name":"Nomós Arkadías","lat":"37.58333000","lon":"22.25000000"},
{"state":"Peloponnese Region","name":"Palaiá Epídavros","lat":"37.63847000","lon":"23.15609000"},
{"state":"Peloponnese Region","name":"Paralía Vérgas","lat":"37.00708000","lon":"22.15676000"},
{"state":"Peloponnese Region","name":"Pásion","lat":"38.01294000","lon":"22.72814000"},
{"state":"Peloponnese Region","name":"Perachóra","lat":"38.03021000","lon":"22.94902000"},
{"state":"Peloponnese Region","name":"Periyiáli","lat":"37.94041000","lon":"22.83946000"},
{"state":"Peloponnese Region","name":"Pórto Chéli","lat":"37.32786000","lon":"23.14384000"},
{"state":"Peloponnese Region","name":"Pýlos","lat":"36.91298000","lon":"21.69650000"},
{"state":"Peloponnese Region","name":"Sikyón","lat":"37.98230000","lon":"22.72462000"},
{"state":"Peloponnese Region","name":"Skála","lat":"36.85000000","lon":"22.66667000"},
{"state":"Peloponnese Region","name":"Sofikón","lat":"37.79412000","lon":"23.05204000"},
{"state":"Peloponnese Region","name":"Spárti","lat":"37.07446000","lon":"22.43009000"},
{"state":"Peloponnese Region","name":"Sperchógeia","lat":"37.07405000","lon":"22.06248000"},
{"state":"Peloponnese Region","name":"Sykiá","lat":"36.76398000","lon":"22.94302000"},
{"state":"Peloponnese Region","name":"Thouría","lat":"37.08356000","lon":"22.04891000"},
{"state":"Peloponnese Region","name":"Tolón","lat":"37.52021000","lon":"22.85860000"},
{"state":"Peloponnese Region","name":"Traganón","lat":"37.89789000","lon":"21.31245000"},
{"state":"Peloponnese Region","name":"Trípoli","lat":"37.50889000","lon":"22.37944000"},
{"state":"Peloponnese Region","name":"Vélo","lat":"37.97610000","lon":"22.75985000"},
{"state":"Peloponnese Region","name":"Vlachiótis","lat":"36.86094000","lon":"22.70831000"},
{"state":"Peloponnese Region","name":"Vlachópoulo","lat":"37.03186000","lon":"21.79158000"},
{"state":"Peloponnese Region","name":"Vokhaïkó","lat":"37.94843000","lon":"22.79203000"},
{"state":"Peloponnese Region","name":"Vrakháti","lat":"37.95895000","lon":"22.80573000"},
{"state":"Peloponnese Region","name":"Xylókastro","lat":"38.07762000","lon":"22.63166000"},
{"state":"Peloponnese Region","name":"Zevgolateió","lat":"37.93333000","lon":"22.80000000"},
{"state":"South Aegean","name":"Adámas","lat":"36.72506000","lon":"24.44685000"},
{"state":"South Aegean","name":"Afántou","lat":"36.29354000","lon":"28.16225000"},
{"state":"South Aegean","name":"Agía Marína","lat":"37.15430000","lon":"26.85162000"},
{"state":"South Aegean","name":"Amorgós","lat":"36.83175000","lon":"25.89821000"},
{"state":"South Aegean","name":"Anáfi","lat":"36.35000000","lon":"25.76667000"},
{"state":"South Aegean","name":"Andros","lat":"37.83333000","lon":"24.93333000"},
{"state":"South Aegean","name":"Áno Merá","lat":"37.44904000","lon":"25.39095000"},
{"state":"South Aegean","name":"Áno Sýros","lat":"37.44997000","lon":"24.93562000"},
{"state":"South Aegean","name":"Antimácheia","lat":"36.80888000","lon":"27.09764000"},
{"state":"South Aegean","name":"Antíparos","lat":"37.03940000","lon":"25.08258000"},
{"state":"South Aegean","name":"Archángelos","lat":"36.21492000","lon":"28.11487000"},
{"state":"South Aegean","name":"Astypálaia","lat":"36.55000000","lon":"26.35000000"},
{"state":"South Aegean","name":"Chálki","lat":"36.22243000","lon":"27.61191000"},
{"state":"South Aegean","name":"Émponas","lat":"36.22683000","lon":"27.85645000"},
{"state":"South Aegean","name":"Emporeío","lat":"36.35816000","lon":"25.44615000"},
{"state":"South Aegean","name":"Ermoúpolis","lat":"37.44466000","lon":"24.94290000"},
{"state":"South Aegean","name":"Faliraki","lat":"36.33981000","lon":"28.19942000"},
{"state":"South Aegean","name":"Filótion","lat":"37.05167000","lon":"25.49829000"},
{"state":"South Aegean","name":"Firá","lat":"36.42107000","lon":"25.43087000"},
{"state":"South Aegean","name":"Folégandros","lat":"36.62794000","lon":"24.92021000"},
{"state":"South Aegean","name":"Fry","lat":"35.41623000","lon":"26.92328000"},
{"state":"South Aegean","name":"Ialysós","lat":"36.41352000","lon":"28.15516000"},
{"state":"South Aegean","name":"Íos","lat":"36.73333000","lon":"25.28333000"},
{"state":"South Aegean","name":"Kálymnos","lat":"36.95030000","lon":"26.98388000"},
{"state":"South Aegean","name":"Kardámaina","lat":"36.78305000","lon":"27.14289000"},
{"state":"South Aegean","name":"Karpathos","lat":"35.50701000","lon":"27.21322000"},
{"state":"South Aegean","name":"Kéfalos","lat":"36.74507000","lon":"26.95961000"},
{"state":"South Aegean","name":"Kímolos","lat":"36.79368000","lon":"24.57577000"},
{"state":"South Aegean","name":"Kos","lat":"36.89295000","lon":"27.28768000"},
{"state":"South Aegean","name":"Kremastí","lat":"36.40981000","lon":"28.11920000"},
{"state":"South Aegean","name":"Kýthnos","lat":"37.41237000","lon":"24.43068000"},
{"state":"South Aegean","name":"Lakkí","lat":"37.13344000","lon":"26.85237000"},
{"state":"South Aegean","name":"Lárdos","lat":"36.09419000","lon":"28.01565000"},
{"state":"South Aegean","name":"Mandráki","lat":"36.61139000","lon":"27.13333000"},
{"state":"South Aegean","name":"Megálo Chorió","lat":"37.45820000","lon":"26.97272000"},
{"state":"South Aegean","name":"Megísti","lat":"36.14889000","lon":"29.59361000"},
{"state":"South Aegean","name":"Mesariá","lat":"36.39893000","lon":"25.44807000"},
{"state":"South Aegean","name":"Mílos","lat":"36.74536000","lon":"24.42650000"},
{"state":"South Aegean","name":"Mykonos","lat":"37.44529000","lon":"25.32872000"},
{"state":"South Aegean","name":"Náousa","lat":"37.12181000","lon":"25.24014000"},
{"state":"South Aegean","name":"Náxos","lat":"37.10556000","lon":"25.37639000"},
{"state":"South Aegean","name":"Nomós Kykládon","lat":"37.41667000","lon":"24.91667000"},
{"state":"South Aegean","name":"Oía","lat":"36.46260000","lon":"25.37637000"},
{"state":"South Aegean","name":"Ornós","lat":"37.42391000","lon":"25.32248000"},
{"state":"South Aegean","name":"Pánormos","lat":"36.97156000","lon":"26.93727000"},
{"state":"South Aegean","name":"Páros","lat":"37.08333000","lon":"25.15000000"},
{"state":"South Aegean","name":"Pátmos","lat":"37.30895000","lon":"26.54723000"},
{"state":"South Aegean","name":"Pylí","lat":"36.84472000","lon":"27.15932000"},
{"state":"South Aegean","name":"Ródos","lat":"36.43556000","lon":"28.22199000"},
{"state":"South Aegean","name":"Sérifos","lat":"37.15397000","lon":"24.50614000"},
{"state":"South Aegean","name":"Skála","lat":"37.32218000","lon":"26.54300000"},
{"state":"South Aegean","name":"Sými","lat":"36.61547000","lon":"27.83619000"},
{"state":"South Aegean","name":"Tínos","lat":"37.53753000","lon":"25.16343000"},
{"state":"South Aegean","name":"Vári","lat":"37.39859000","lon":"24.94904000"},
{"state":"South Aegean","name":"Zipári","lat":"36.87696000","lon":"27.20532000"},
{"state":"West Greece Region","name":"Agrínio","lat":"38.62139000","lon":"21.40778000"},
{"state":"West Greece Region","name":"Aígio","lat":"38.24861000","lon":"22.08194000"},
{"state":"West Greece Region","name":"Aitolikó","lat":"38.43704000","lon":"21.35358000"},
{"state":"West Greece Region","name":"Aíyira","lat":"38.14846000","lon":"22.35426000"},
{"state":"West Greece Region","name":"Akráta","lat":"38.15469000","lon":"22.31830000"},
{"state":"West Greece Region","name":"Aktaío","lat":"38.30444000","lon":"21.79440000"},
{"state":"West Greece Region","name":"Alfeioúsa","lat":"37.64019000","lon":"21.53750000"},
{"state":"West Greece Region","name":"Amaliáda","lat":"37.79842000","lon":"21.35068000"},
{"state":"West Greece Region","name":"Amfilochía","lat":"38.85944000","lon":"21.16639000"},
{"state":"West Greece Region","name":"Andravída","lat":"37.90588000","lon":"21.26936000"},
{"state":"West Greece Region","name":"Angelókastro","lat":"38.56585000","lon":"21.29631000"},
{"state":"West Greece Region","name":"Áno Kastrítsi","lat":"38.27228000","lon":"21.83600000"},
{"state":"West Greece Region","name":"Antirrio","lat":"38.33014000","lon":"21.76413000"},
{"state":"West Greece Region","name":"Archaía Olympía","lat":"37.64788000","lon":"21.62710000"},
{"state":"West Greece Region","name":"Archontochóri","lat":"38.70053000","lon":"21.03896000"},
{"state":"West Greece Region","name":"Arkoúdi","lat":"37.84681000","lon":"21.11022000"},
{"state":"West Greece Region","name":"Astakós","lat":"38.53556000","lon":"21.08135000"},
{"state":"West Greece Region","name":"Áyios Konstandínos","lat":"38.63337000","lon":"21.39950000"},
{"state":"West Greece Region","name":"Chalandrítsa","lat":"38.10843000","lon":"21.78349000"},
{"state":"West Greece Region","name":"Chávari","lat":"37.84842000","lon":"21.38403000"},
{"state":"West Greece Region","name":"Dhokímion","lat":"38.61352000","lon":"21.38072000"},
{"state":"West Greece Region","name":"Epitálio","lat":"37.62675000","lon":"21.49528000"},
{"state":"West Greece Region","name":"Fyteíes","lat":"38.69524000","lon":"21.18467000"},
{"state":"West Greece Region","name":"Galatás","lat":"38.35742000","lon":"21.56222000"},
{"state":"West Greece Region","name":"Gastoúni","lat":"37.85000000","lon":"21.25000000"},
{"state":"West Greece Region","name":"Gavaloú","lat":"38.52903000","lon":"21.53226000"},
{"state":"West Greece Region","name":"Goúmero","lat":"37.76236000","lon":"21.61853000"},
{"state":"West Greece Region","name":"Kainoúryion","lat":"38.60453000","lon":"21.48776000"},
{"state":"West Greece Region","name":"Kalávryta","lat":"38.03222000","lon":"22.11250000"},
{"state":"West Greece Region","name":"Kamárai","lat":"38.29881000","lon":"21.99892000"},
{"state":"West Greece Region","name":"Kandíla","lat":"38.70564000","lon":"20.94749000"},
{"state":"West Greece Region","name":"Karátoula","lat":"37.73564000","lon":"21.53578000"},
{"state":"West Greece Region","name":"Kardamás","lat":"37.76729000","lon":"21.33946000"},
{"state":"West Greece Region","name":"Káto Achaḯa","lat":"38.15000000","lon":"21.55000000"},
{"state":"West Greece Region","name":"Káto Mazaráki","lat":"38.07035000","lon":"21.65097000"},
{"state":"West Greece Region","name":"Katochí","lat":"38.41237000","lon":"21.25258000"},
{"state":"West Greece Region","name":"Katoúna","lat":"38.78547000","lon":"21.11417000"},
{"state":"West Greece Region","name":"Kavásila","lat":"37.87581000","lon":"21.26422000"},
{"state":"West Greece Region","name":"Kréstena","lat":"37.59193000","lon":"21.62034000"},
{"state":"West Greece Region","name":"Kríkellos","lat":"38.94532000","lon":"21.17910000"},
{"state":"West Greece Region","name":"Kyllíni","lat":"37.93542000","lon":"21.14503000"},
{"state":"West Greece Region","name":"Lálas","lat":"37.70936000","lon":"21.72117000"},
{"state":"West Greece Region","name":"Lápas","lat":"38.09755000","lon":"21.41861000"},
{"state":"West Greece Region","name":"Lechainá","lat":"37.93333000","lon":"21.26667000"},
{"state":"West Greece Region","name":"Lepenoú","lat":"38.70839000","lon":"21.28970000"},
{"state":"West Greece Region","name":"Limnokhórion","lat":"38.14115000","lon":"21.48047000"},
{"state":"West Greece Region","name":"Makrísia","lat":"37.60957000","lon":"21.60509000"},
{"state":"West Greece Region","name":"Manoláda","lat":"38.04708000","lon":"21.34814000"},
{"state":"West Greece Region","name":"Mataránga","lat":"38.52359000","lon":"21.47325000"},
{"state":"West Greece Region","name":"Megáli Khóra","lat":"38.64629000","lon":"21.37309000"},
{"state":"West Greece Region","name":"Menídi","lat":"39.04213000","lon":"21.11875000"},
{"state":"West Greece Region","name":"Mesolóngi","lat":"38.37138000","lon":"21.43151000"},
{"state":"West Greece Region","name":"Mindilóglion","lat":"38.18387000","lon":"21.70133000"},
{"state":"West Greece Region","name":"Monastiráki","lat":"38.85053000","lon":"20.94458000"},
{"state":"West Greece Region","name":"Myrsíni","lat":"37.92117000","lon":"21.23700000"},
{"state":"West Greece Region","name":"Náfpaktos","lat":"38.39167000","lon":"21.82750000"},
{"state":"West Greece Region","name":"Néa Manoláda","lat":"38.05378000","lon":"21.38189000"},
{"state":"West Greece Region","name":"Neápolis","lat":"38.67144000","lon":"21.36274000"},
{"state":"West Greece Region","name":"Neochóri","lat":"37.90794000","lon":"21.20392000"},
{"state":"West Greece Region","name":"Neochórion","lat":"38.40847000","lon":"21.27511000"},
{"state":"West Greece Region","name":"Nomós Achaḯas","lat":"38.00000000","lon":"22.00000000"},
{"state":"West Greece Region","name":"Nomós Aitolías kai Akarnanías","lat":"38.50000000","lon":"21.50000000"},
{"state":"West Greece Region","name":"Nomós Ileías","lat":"37.75000000","lon":"21.58333000"},
{"state":"West Greece Region","name":"Ovriá","lat":"38.18866000","lon":"21.72903000"},
{"state":"West Greece Region","name":"Pálairos","lat":"38.78300000","lon":"20.88183000"},
{"state":"West Greece Region","name":"Panaitólion","lat":"38.58316000","lon":"21.44729000"},
{"state":"West Greece Region","name":"Pappadhátai","lat":"38.52816000","lon":"21.45016000"},
{"state":"West Greece Region","name":"Paralía","lat":"38.19833000","lon":"21.70263000"},
{"state":"West Greece Region","name":"Paravóla","lat":"38.61472000","lon":"21.52046000"},
{"state":"West Greece Region","name":"Pátra","lat":"38.24444000","lon":"21.73444000"},
{"state":"West Greece Region","name":"Pelópi","lat":"37.67444000","lon":"21.59344000"},
{"state":"West Greece Region","name":"Plátanos","lat":"37.66731000","lon":"21.61108000"},
{"state":"West Greece Region","name":"Pýrgos","lat":"37.67513000","lon":"21.44102000"},
{"state":"West Greece Region","name":"Río","lat":"38.29558000","lon":"21.78504000"},
{"state":"West Greece Region","name":"Rododáfni","lat":"38.26976000","lon":"22.04875000"},
{"state":"West Greece Region","name":"Royítika","lat":"38.18268000","lon":"21.68414000"},
{"state":"West Greece Region","name":"Sardínia","lat":"38.89003000","lon":"21.20619000"},
{"state":"West Greece Region","name":"Savália","lat":"37.82158000","lon":"21.29425000"},
{"state":"West Greece Region","name":"Stános","lat":"38.80453000","lon":"21.17461000"},
{"state":"West Greece Region","name":"Sylivainiótika","lat":"38.16139000","lon":"22.33156000"},
{"state":"West Greece Region","name":"Synoikismós Chavaríou","lat":"37.85575000","lon":"21.38789000"},
{"state":"West Greece Region","name":"Témeni","lat":"38.23707000","lon":"22.12533000"},
{"state":"West Greece Region","name":"Thérmo","lat":"38.57358000","lon":"21.66628000"},
{"state":"West Greece Region","name":"Triandaíika","lat":"38.65530000","lon":"21.38315000"},
{"state":"West Greece Region","name":"Várda","lat":"38.03058000","lon":"21.36506000"},
{"state":"West Greece Region","name":"Vartholomió","lat":"37.86219000","lon":"21.20575000"},
{"state":"West Greece Region","name":"Varvásaina","lat":"37.67106000","lon":"21.49886000"},
{"state":"West Greece Region","name":"Vónitsa","lat":"38.91639000","lon":"20.88639000"},
{"state":"West Greece Region","name":"Vrachnaíika","lat":"38.16253000","lon":"21.66693000"},
{"state":"West Greece Region","name":"Zacháro","lat":"37.48333000","lon":"21.65000000"},
{"state":"West Macedonia Region","name":"Aianí","lat":"40.16381000","lon":"21.81945000"},
{"state":"West Macedonia Region","name":"Akriní","lat":"40.43492000","lon":"21.90609000"},
{"state":"West Macedonia Region","name":"Ammochóri","lat":"40.78203000","lon":"21.48458000"},
{"state":"West Macedonia Region","name":"Amýntaio","lat":"40.68967000","lon":"21.67974000"},
{"state":"West Macedonia Region","name":"Anaráchi","lat":"40.49234000","lon":"21.57279000"},
{"state":"West Macedonia Region","name":"Áno Kómi","lat":"40.22660000","lon":"21.82827000"},
{"state":"West Macedonia Region","name":"Argos Orestiko","lat":"40.45354000","lon":"21.25889000"},
{"state":"West Macedonia Region","name":"Chlói","lat":"40.53918000","lon":"21.25923000"},
{"state":"West Macedonia Region","name":"Deskáti","lat":"39.92422000","lon":"21.81031000"},
{"state":"West Macedonia Region","name":"Empório","lat":"40.48866000","lon":"21.55768000"},
{"state":"West Macedonia Region","name":"Erátyra","lat":"40.34253000","lon":"21.51333000"},
{"state":"West Macedonia Region","name":"Filótas","lat":"40.62520000","lon":"21.70851000"},
{"state":"West Macedonia Region","name":"Flórina","lat":"40.78197000","lon":"21.40981000"},
{"state":"West Macedonia Region","name":"Galatiní","lat":"40.31966000","lon":"21.55148000"},
{"state":"West Macedonia Region","name":"Grevená","lat":"40.08452000","lon":"21.42744000"},
{"state":"West Macedonia Region","name":"Kastoria","lat":"40.52165000","lon":"21.26341000"},
{"state":"West Macedonia Region","name":"Kleítos","lat":"40.43140000","lon":"21.85806000"},
{"state":"West Macedonia Region","name":"Koíla","lat":"40.33055000","lon":"21.79102000"},
{"state":"West Macedonia Region","name":"Komniná","lat":"40.59057000","lon":"21.77671000"},
{"state":"West Macedonia Region","name":"Kozáni","lat":"40.30069000","lon":"21.78896000"},
{"state":"West Macedonia Region","name":"Krókos","lat":"40.26349000","lon":"21.81760000"},
{"state":"West Macedonia Region","name":"Laimós","lat":"40.83628000","lon":"21.14061000"},
{"state":"West Macedonia Region","name":"Léchovo","lat":"40.58442000","lon":"21.49218000"},
{"state":"West Macedonia Region","name":"Livaderó","lat":"40.03455000","lon":"21.94279000"},
{"state":"West Macedonia Region","name":"Maniákoi","lat":"40.50064000","lon":"21.24446000"},
{"state":"West Macedonia Region","name":"Mavrochóri","lat":"40.51224000","lon":"21.32038000"},
{"state":"West Macedonia Region","name":"Melíti","lat":"40.83434000","lon":"21.58426000"},
{"state":"West Macedonia Region","name":"Mesopotamía","lat":"40.50252000","lon":"21.16110000"},
{"state":"West Macedonia Region","name":"Nea Lava","lat":"40.19048000","lon":"22.01320000"},
{"state":"West Macedonia Region","name":"Nestório","lat":"40.41278000","lon":"21.06222000"},
{"state":"West Macedonia Region","name":"Nomós Kozánis","lat":"40.33333000","lon":"21.71667000"},
{"state":"West Macedonia Region","name":"Platanórevma","lat":"40.20083000","lon":"22.02488000"},
{"state":"West Macedonia Region","name":"Ptolemaḯda","lat":"40.51472000","lon":"21.67861000"},
{"state":"West Macedonia Region","name":"Sérvia","lat":"40.17972000","lon":"21.99444000"},
{"state":"West Macedonia Region","name":"Siátista","lat":"40.26194000","lon":"21.54417000"},
{"state":"West Macedonia Region","name":"Tsotíli","lat":"40.26147000","lon":"21.32533000"},
{"state":"West Macedonia Region","name":"Velventós","lat":"40.25532000","lon":"22.07543000"},
{"state":"West Macedonia Region","name":"Xinó Neró","lat":"40.69028000","lon":"21.62324000"}]