[{"state":"Alta Verapaz Department","name":"Cahabón","lat":"15.56667000","lon":"-89.81667000"},
{"state":"Alta Verapaz Department","name":"Chahal Guatemala","lat":"15.79122000","lon":"-89.60518000"},
{"state":"Alta Verapaz Department","name":"Chisec","lat":"15.81667000","lon":"-90.28333000"},
{"state":"Alta Verapaz Department","name":"Cobán","lat":"15.47083000","lon":"-90.37083000"},
{"state":"Alta Verapaz Department","name":"La Tinta","lat":"15.31667000","lon":"-89.88333000"},
{"state":"Alta Verapaz Department","name":"Lanquín","lat":"15.56667000","lon":"-89.96667000"},
{"state":"Alta Verapaz Department","name":"Panzós","lat":"15.40000000","lon":"-89.66667000"},
{"state":"Alta Verapaz Department","name":"San Cristóbal Verapaz","lat":"15.39632000","lon":"-90.56513000"},
{"state":"Alta Verapaz Department","name":"San Juan Chamelco","lat":"15.43333000","lon":"-90.33333000"},
{"state":"Alta Verapaz Department","name":"San Pedro Carchá","lat":"15.48333000","lon":"-90.26667000"},
{"state":"Alta Verapaz Department","name":"Santa Cruz Verapaz","lat":"15.36667000","lon":"-90.43333000"},
{"state":"Alta Verapaz Department","name":"Senahú","lat":"15.40000000","lon":"-89.83333000"},
{"state":"Alta Verapaz Department","name":"Tactic","lat":"15.32218000","lon":"-90.35448000"},
{"state":"Alta Verapaz Department","name":"Tamahú","lat":"15.30890000","lon":"-90.23599000"},
{"state":"Alta Verapaz Department","name":"Tucurú","lat":"15.30000000","lon":"-90.06667000"},
{"state":"Baja Verapaz Department","name":"Cubulco","lat":"15.10452000","lon":"-90.62871000"},
{"state":"Baja Verapaz Department","name":"El Chol","lat":"14.96055000","lon":"-90.48799000"},
{"state":"Baja Verapaz Department","name":"Granados","lat":"14.91649000","lon":"-90.52292000"},
{"state":"Baja Verapaz Department","name":"Purulhá","lat":"15.26667000","lon":"-90.20000000"},
{"state":"Baja Verapaz Department","name":"Rabinal","lat":"15.08530000","lon":"-90.49255000"},
{"state":"Baja Verapaz Department","name":"Salamá","lat":"15.10278000","lon":"-90.31806000"},
{"state":"Baja Verapaz Department","name":"San Jerónimo","lat":"15.06032000","lon":"-90.24050000"},
{"state":"Baja Verapaz Department","name":"San Miguel Chicaj","lat":"15.09472000","lon":"-90.39442000"},
{"state":"Chimaltenango Department","name":"Acatenango","lat":"14.55451000","lon":"-90.94368000"},
{"state":"Chimaltenango Department","name":"Chimaltenango","lat":"14.66111000","lon":"-90.81944000"},
{"state":"Chimaltenango Department","name":"Comalapa","lat":"14.74086000","lon":"-90.88761000"},
{"state":"Chimaltenango Department","name":"El Tejar","lat":"14.64683000","lon":"-90.79122000"},
{"state":"Chimaltenango Department","name":"Parramos","lat":"14.60891000","lon":"-90.80303000"},
{"state":"Chimaltenango Department","name":"Patzicía","lat":"14.63194000","lon":"-90.92659000"},
{"state":"Chimaltenango Department","name":"Patzún","lat":"14.68189000","lon":"-91.01397000"},
{"state":"Chimaltenango Department","name":"Pochuta","lat":"14.54450000","lon":"-91.08904000"},
{"state":"Chimaltenango Department","name":"San Andrés Itzapa","lat":"14.62222000","lon":"-90.84314000"},
{"state":"Chimaltenango Department","name":"San José Poaquil","lat":"14.81808000","lon":"-90.91248000"},
{"state":"Chimaltenango Department","name":"San Martín Jilotepeque","lat":"14.78008000","lon":"-90.79259000"},
{"state":"Chimaltenango Department","name":"Santa Apolonia","lat":"14.79049000","lon":"-90.97267000"},
{"state":"Chimaltenango Department","name":"Santa Cruz Balanyá","lat":"14.68522000","lon":"-90.91906000"},
{"state":"Chimaltenango Department","name":"Tecpán Guatemala","lat":"14.76181000","lon":"-90.99247000"},
{"state":"Chimaltenango Department","name":"Yepocapa","lat":"14.50195000","lon":"-90.95396000"},
{"state":"Chimaltenango Department","name":"Zaragoza","lat":"14.64968000","lon":"-90.89034000"},
{"state":"Chiquimula Department","name":"Camotán","lat":"14.82017000","lon":"-89.37224000"},
{"state":"Chiquimula Department","name":"Chiquimula","lat":"14.80000000","lon":"-89.54583000"},
{"state":"Chiquimula Department","name":"Concepción Las Minas","lat":"14.52173000","lon":"-89.45717000"},
{"state":"Chiquimula Department","name":"Esquipulas","lat":"14.56571000","lon":"-89.35166000"},
{"state":"Chiquimula Department","name":"Ipala","lat":"14.61667000","lon":"-89.61667000"},
{"state":"Chiquimula Department","name":"Jocotán","lat":"14.82072000","lon":"-89.38991000"},
{"state":"Chiquimula Department","name":"Olopa","lat":"14.69229000","lon":"-89.35003000"},
{"state":"Chiquimula Department","name":"Quezaltepeque","lat":"14.63553000","lon":"-89.44241000"},
{"state":"Chiquimula Department","name":"San Jacinto","lat":"14.66667000","lon":"-89.50000000"},
{"state":"Chiquimula Department","name":"San José La Arada","lat":"14.71667000","lon":"-89.58333000"},
{"state":"Chiquimula Department","name":"San Juan Ermita","lat":"14.76471000","lon":"-89.43014000"},
{"state":"El Progreso Department","name":"El Jícaro","lat":"14.91667000","lon":"-89.90000000"},
{"state":"El Progreso Department","name":"Guastatoya","lat":"14.85417000","lon":"-90.06944000"},
{"state":"El Progreso Department","name":"Morazán","lat":"14.93278000","lon":"-90.14306000"},
{"state":"El Progreso Department","name":"San Agustín Acasaguastlán","lat":"14.95000000","lon":"-89.96667000"},
{"state":"El Progreso Department","name":"San Antonio La Paz","lat":"14.75888000","lon":"-90.28485000"},
{"state":"El Progreso Department","name":"San Cristóbal Acasaguastlán","lat":"14.91667000","lon":"-89.88333000"},
{"state":"El Progreso Department","name":"Sanarate","lat":"14.78828000","lon":"-90.19876000"},
{"state":"El Progreso Department","name":"Sansare","lat":"14.74572000","lon":"-90.11615000"},
{"state":"Escuintla Department","name":"Escuintla","lat":"14.30500000","lon":"-90.78500000"},
{"state":"Escuintla Department","name":"Guanagazapa","lat":"14.22528000","lon":"-90.64333000"},
{"state":"Escuintla Department","name":"Iztapa","lat":"13.93333000","lon":"-90.70750000"},
{"state":"Escuintla Department","name":"La Democracia","lat":"14.23083000","lon":"-90.94722000"},
{"state":"Escuintla Department","name":"La Gomera","lat":"14.08213000","lon":"-91.05383000"},
{"state":"Escuintla Department","name":"Masagua","lat":"14.20306000","lon":"-90.84806000"},
{"state":"Escuintla Department","name":"Nueva Concepción","lat":"14.20000000","lon":"-91.30000000"},
{"state":"Escuintla Department","name":"Palín","lat":"14.40358000","lon":"-90.69659000"},
{"state":"Escuintla Department","name":"Puerto San José","lat":"13.92740000","lon":"-90.82166000"},
{"state":"Escuintla Department","name":"San Vicente Pacaya","lat":"14.41466000","lon":"-90.63613000"},
{"state":"Escuintla Department","name":"Santa Lucía Cotzumalguapa","lat":"14.33505000","lon":"-91.02339000"},
{"state":"Escuintla Department","name":"Siquinalá","lat":"14.30611000","lon":"-90.96500000"},
{"state":"Escuintla Department","name":"Tiquisate","lat":"14.28356000","lon":"-91.36063000"},
{"state":"Guatemala Department","name":"Amatitlán","lat":"14.47740000","lon":"-90.63489000"},
{"state":"Guatemala Department","name":"Chinautla","lat":"14.70289000","lon":"-90.49983000"},
{"state":"Guatemala Department","name":"Chuarrancho","lat":"14.81794000","lon":"-90.51568000"},
{"state":"Guatemala Department","name":"Fraijanes","lat":"14.46528000","lon":"-90.44083000"},
{"state":"Guatemala Department","name":"Guatemala City","lat":"14.64072000","lon":"-90.51327000"},
{"state":"Guatemala Department","name":"Mixco","lat":"14.63077000","lon":"-90.60711000"},
{"state":"Guatemala Department","name":"Palencia","lat":"14.66715000","lon":"-90.35721000"},
{"state":"Guatemala Department","name":"Petapa","lat":"14.50189000","lon":"-90.56196000"},
{"state":"Guatemala Department","name":"San José del Golfo","lat":"14.76414000","lon":"-90.37228000"},
{"state":"Guatemala Department","name":"San José Pinula","lat":"14.54600000","lon":"-90.41288000"},
{"state":"Guatemala Department","name":"San Juan Sacatepéquez","lat":"14.71889000","lon":"-90.64417000"},
{"state":"Guatemala Department","name":"San Pedro Ayampuc","lat":"14.77943000","lon":"-90.45318000"},
{"state":"Guatemala Department","name":"San Pedro Sacatepéquez","lat":"14.68612000","lon":"-90.64253000"},
{"state":"Guatemala Department","name":"San Raimundo","lat":"14.76462000","lon":"-90.59493000"},
{"state":"Guatemala Department","name":"Santa Catarina Pinula","lat":"14.57047000","lon":"-90.49925000"},
{"state":"Guatemala Department","name":"Villa Canales","lat":"14.48285000","lon":"-90.53425000"},
{"state":"Guatemala Department","name":"Villa Nueva","lat":"14.52512000","lon":"-90.58544000"},
{"state":"Huehuetenango Department","name":"Aguacatán","lat":"15.34222000","lon":"-91.31141000"},
{"state":"Huehuetenango Department","name":"Barillas","lat":"15.80361000","lon":"-91.31583000"},
{"state":"Huehuetenango Department","name":"Chiantla","lat":"15.35484000","lon":"-91.45807000"},
{"state":"Huehuetenango Department","name":"Colotenango","lat":"15.40602000","lon":"-91.71267000"},
{"state":"Huehuetenango Department","name":"Concepción Huista","lat":"15.62378000","lon":"-91.66521000"},
{"state":"Huehuetenango Department","name":"Cuilco","lat":"15.40719000","lon":"-91.94667000"},
{"state":"Huehuetenango Department","name":"Huehuetenango","lat":"15.31918000","lon":"-91.47241000"},
{"state":"Huehuetenango Department","name":"Ixtahuacán","lat":"15.41688000","lon":"-91.76927000"},
{"state":"Huehuetenango Department","name":"Jacaltenango","lat":"15.66662000","lon":"-91.71177000"},
{"state":"Huehuetenango Department","name":"La Libertad","lat":"15.51421000","lon":"-91.86944000"},
{"state":"Huehuetenango Department","name":"Malacatancito","lat":"15.24457000","lon":"-91.49901000"},
{"state":"Huehuetenango Department","name":"Nentón","lat":"15.80070000","lon":"-91.75464000"},
{"state":"Huehuetenango Department","name":"San Antonio Huista","lat":"15.65010000","lon":"-91.77163000"},
{"state":"Huehuetenango Department","name":"San Gaspar Ixchil","lat":"15.38796000","lon":"-91.72564000"},
{"state":"Huehuetenango Department","name":"San Juan Atitán","lat":"15.42886000","lon":"-91.62398000"},
{"state":"Huehuetenango Department","name":"San Juan Ixcoy","lat":"15.60022000","lon":"-91.44639000"},
{"state":"Huehuetenango Department","name":"San Mateo Ixtatán","lat":"15.83194000","lon":"-91.47806000"},
{"state":"Huehuetenango Department","name":"San Miguel Acatán","lat":"15.70401000","lon":"-91.59771000"},
{"state":"Huehuetenango Department","name":"San Pedro Necta","lat":"15.49142000","lon":"-91.76551000"},
{"state":"Huehuetenango Department","name":"San Rafael La Independencia","lat":"15.70150000","lon":"-91.53553000"},
{"state":"Huehuetenango Department","name":"San Rafael Petzal","lat":"15.40487000","lon":"-91.66451000"},
{"state":"Huehuetenango Department","name":"San Sebastián Coatán","lat":"15.73584000","lon":"-91.56285000"},
{"state":"Huehuetenango Department","name":"San Sebastián Huehuetenango","lat":"15.38768000","lon":"-91.61530000"},
{"state":"Huehuetenango Department","name":"Santa Ana Huista","lat":"15.68085000","lon":"-91.82005000"},
{"state":"Huehuetenango Department","name":"Santa Bárbara","lat":"15.31617000","lon":"-91.63279000"},
{"state":"Huehuetenango Department","name":"Santa Eulalia","lat":"15.73060000","lon":"-91.45846000"},
{"state":"Huehuetenango Department","name":"Santiago Chimaltenango","lat":"15.47658000","lon":"-91.69656000"},
{"state":"Huehuetenango Department","name":"Soloma","lat":"15.65841000","lon":"-91.42994000"},
{"state":"Huehuetenango Department","name":"Tectitán","lat":"15.30630000","lon":"-92.06051000"},
{"state":"Huehuetenango Department","name":"Todos Santos Cuchumatán","lat":"15.50846000","lon":"-91.60382000"},
{"state":"Izabal Department","name":"El Estor","lat":"15.53333000","lon":"-89.35000000"},
{"state":"Izabal Department","name":"Lívingston","lat":"15.82826000","lon":"-88.75039000"},
{"state":"Izabal Department","name":"Los Amates","lat":"15.25645000","lon":"-89.09723000"},
{"state":"Izabal Department","name":"Morales","lat":"15.48333000","lon":"-88.81667000"},
{"state":"Izabal Department","name":"Municipio de Morales","lat":"15.44494000","lon":"-88.76646000"},
{"state":"Izabal Department","name":"Municipio de Puerto Barrios","lat":"15.71754000","lon":"-88.58517000"},
{"state":"Izabal Department","name":"Puerto Barrios","lat":"15.72778000","lon":"-88.59444000"},
{"state":"Jalapa Department","name":"Jalapa","lat":"14.63472000","lon":"-89.98889000"},
{"state":"Jalapa Department","name":"Mataquescuintla","lat":"14.52917000","lon":"-90.18417000"},
{"state":"Jalapa Department","name":"Monjas","lat":"14.50000000","lon":"-89.86667000"},
{"state":"Jalapa Department","name":"Municipio de Jalapa","lat":"14.63275000","lon":"-90.03301000"},
{"state":"Jalapa Department","name":"Municipio de Mataquescuintla","lat":"14.54777000","lon":"-90.20008000"},
{"state":"Jalapa Department","name":"San Luis Jilotepeque","lat":"14.65000000","lon":"-89.73333000"},
{"state":"Jalapa Department","name":"San Manuel Chaparrón","lat":"14.51667000","lon":"-89.76667000"},
{"state":"Jalapa Department","name":"San Pedro Pinula","lat":"14.66667000","lon":"-89.85000000"},
{"state":"Jutiapa Department","name":"Agua Blanca","lat":"14.50000000","lon":"-89.65000000"},
{"state":"Jutiapa Department","name":"Asunción Mita","lat":"14.33083000","lon":"-89.71083000"},
{"state":"Jutiapa Department","name":"Atescatempa","lat":"14.17444000","lon":"-89.74250000"},
{"state":"Jutiapa Department","name":"Comapa","lat":"14.11667000","lon":"-89.91667000"},
{"state":"Jutiapa Department","name":"Conguaco","lat":"14.04417000","lon":"-90.03111000"},
{"state":"Jutiapa Department","name":"El Adelanto","lat":"14.16667000","lon":"-89.83333000"},
{"state":"Jutiapa Department","name":"El Progreso","lat":"14.35000000","lon":"-89.85000000"},
{"state":"Jutiapa Department","name":"Jalpatagua","lat":"14.14167000","lon":"-90.00861000"},
{"state":"Jutiapa Department","name":"Jerez","lat":"14.10000000","lon":"-89.75000000"},
{"state":"Jutiapa Department","name":"Jutiapa","lat":"14.29167000","lon":"-89.89583000"},
{"state":"Jutiapa Department","name":"Moyuta","lat":"14.03861000","lon":"-90.08083000"},
{"state":"Jutiapa Department","name":"Municipio de Asunción Mita","lat":"14.30330000","lon":"-89.67623000"},
{"state":"Jutiapa Department","name":"Pasaco","lat":"13.97722000","lon":"-90.20639000"},
{"state":"Jutiapa Department","name":"Quesada","lat":"14.27028000","lon":"-90.04028000"},
{"state":"Jutiapa Department","name":"San José Acatempa","lat":"14.26528000","lon":"-90.12694000"},
{"state":"Jutiapa Department","name":"Santa Catarina Mita","lat":"14.45000000","lon":"-89.75000000"},
{"state":"Jutiapa Department","name":"Yupiltepeque","lat":"14.20000000","lon":"-89.78333000"},
{"state":"Jutiapa Department","name":"Zapotitlán","lat":"14.13333000","lon":"-89.83333000"},
{"state":"Petén Department","name":"Dolores","lat":"16.51178000","lon":"-89.41704000"},
{"state":"Petén Department","name":"Flores","lat":"16.92258000","lon":"-89.89941000"},
{"state":"Petén Department","name":"La Libertad","lat":"16.78850000","lon":"-90.11698000"},
{"state":"Petén Department","name":"Melchor de Mencos","lat":"17.06606000","lon":"-89.15229000"},
{"state":"Petén Department","name":"Municipio de Flores","lat":"16.92381000","lon":"-89.89709000"},
{"state":"Petén Department","name":"Municipio de Poptún","lat":"16.35687000","lon":"-89.58912000"},
{"state":"Petén Department","name":"Municipio de San Andrés","lat":"17.49541000","lon":"-90.39883000"},
{"state":"Petén Department","name":"Municipio de San Benito","lat":"16.91289000","lon":"-89.90979000"},
{"state":"Petén Department","name":"Municipio de San Francisco","lat":"16.72425000","lon":"-89.90877000"},
{"state":"Petén Department","name":"Municipio de Santa Ana","lat":"16.77305000","lon":"-89.66878000"},
{"state":"Petén Department","name":"Municipio de Sayaxché","lat":"16.33160000","lon":"-90.16339000"},
{"state":"Petén Department","name":"Poptún","lat":"16.33111000","lon":"-89.41694000"},
{"state":"Petén Department","name":"San Andrés","lat":"16.96667000","lon":"-89.91667000"},
{"state":"Petén Department","name":"San Benito","lat":"16.91675000","lon":"-89.91898000"},
{"state":"Petén Department","name":"San Francisco","lat":"16.80000000","lon":"-89.93333000"},
{"state":"Petén Department","name":"San José","lat":"16.98333000","lon":"-89.90000000"},
{"state":"Petén Department","name":"San Luis","lat":"16.19889000","lon":"-89.44028000"},
{"state":"Petén Department","name":"Santa Ana","lat":"16.80000000","lon":"-89.83333000"},
{"state":"Petén Department","name":"Sayaxché","lat":"16.52446000","lon":"-90.18801000"},
{"state":"Quetzaltenango Department","name":"Almolonga","lat":"14.81591000","lon":"-91.49464000"},
{"state":"Quetzaltenango Department","name":"Cabricán","lat":"15.07485000","lon":"-91.64800000"},
{"state":"Quetzaltenango Department","name":"Cajolá","lat":"14.92205000","lon":"-91.61478000"},
{"state":"Quetzaltenango Department","name":"Cantel","lat":"14.81154000","lon":"-91.45536000"},
{"state":"Quetzaltenango Department","name":"Coatepeque","lat":"14.70413000","lon":"-91.86426000"},
{"state":"Quetzaltenango Department","name":"Colomba","lat":"14.70730000","lon":"-91.73167000"},
{"state":"Quetzaltenango Department","name":"Concepción Chiquirichapa","lat":"14.85510000","lon":"-91.62360000"},
{"state":"Quetzaltenango Department","name":"El Palmar","lat":"14.65083000","lon":"-91.57800000"},
{"state":"Quetzaltenango Department","name":"Flores Costa Cuca","lat":"14.63238000","lon":"-91.86341000"},
{"state":"Quetzaltenango Department","name":"Génova","lat":"14.61667000","lon":"-91.83333000"},
{"state":"Quetzaltenango Department","name":"Huitán","lat":"15.04920000","lon":"-91.63944000"},
{"state":"Quetzaltenango Department","name":"La Esperanza","lat":"14.87169000","lon":"-91.56140000"},
{"state":"Quetzaltenango Department","name":"Municipio de Almolonga","lat":"14.81118000","lon":"-91.48354000"},
{"state":"Quetzaltenango Department","name":"Municipio de Cabricán","lat":"15.10305000","lon":"-91.64918000"},
{"state":"Quetzaltenango Department","name":"Municipio de Cantel","lat":"14.81659000","lon":"-91.43781000"},
{"state":"Quetzaltenango Department","name":"Municipio de Coatepeque","lat":"14.64309000","lon":"-91.97926000"},
{"state":"Quetzaltenango Department","name":"Municipio de Colomba","lat":"14.71002000","lon":"-91.74691000"},
{"state":"Quetzaltenango Department","name":"Municipio de Concepción Chiquirichapa","lat":"14.84624000","lon":"-91.61854000"},
{"state":"Quetzaltenango Department","name":"Municipio de Flores Costa Cuca","lat":"14.63238000","lon":"-91.86341000"},
{"state":"Quetzaltenango Department","name":"Municipio de San Juan Ostuncalco","lat":"14.87477000","lon":"-91.68842000"},
{"state":"Quetzaltenango Department","name":"Olintepeque","lat":"14.88605000","lon":"-91.51472000"},
{"state":"Quetzaltenango Department","name":"Ostuncalco","lat":"14.86899000","lon":"-91.62137000"},
{"state":"Quetzaltenango Department","name":"Palestina de los Altos","lat":"14.93338000","lon":"-91.69403000"},
{"state":"Quetzaltenango Department","name":"Quetzaltenango","lat":"14.83472000","lon":"-91.51806000"},
{"state":"Quetzaltenango Department","name":"Salcajá","lat":"14.87964000","lon":"-91.45699000"},
{"state":"Quetzaltenango Department","name":"Samayac","lat":"14.58084000","lon":"-91.46135000"},
{"state":"Quetzaltenango Department","name":"San Carlos Sija","lat":"14.98436000","lon":"-91.54912000"},
{"state":"Quetzaltenango Department","name":"San Francisco la Unión","lat":"14.92350000","lon":"-91.54157000"},
{"state":"Quetzaltenango Department","name":"San Martín Sacatepéquez","lat":"14.82443000","lon":"-91.64192000"},
{"state":"Quetzaltenango Department","name":"San Mateo","lat":"14.85800000","lon":"-91.59004000"},
{"state":"Quetzaltenango Department","name":"San Miguel Sigüilá","lat":"14.89547000","lon":"-91.61457000"},
{"state":"Quetzaltenango Department","name":"Sibilia","lat":"14.99391000","lon":"-91.62371000"},
{"state":"Quetzaltenango Department","name":"Zunil","lat":"14.78463000","lon":"-91.48345000"},
{"state":"Quiché Department","name":"Canillá","lat":"15.16549000","lon":"-90.85256000"},
{"state":"Quiché Department","name":"Chajul","lat":"15.48523000","lon":"-91.03520000"},
{"state":"Quiché Department","name":"Chicamán","lat":"15.34786000","lon":"-90.79968000"},
{"state":"Quiché Department","name":"Chiché","lat":"15.00885000","lon":"-91.06379000"},
{"state":"Quiché Department","name":"Chichicastenango","lat":"14.94333000","lon":"-91.11116000"},
{"state":"Quiché Department","name":"Chinique","lat":"15.04147000","lon":"-91.02594000"},
{"state":"Quiché Department","name":"Cunén","lat":"15.33626000","lon":"-91.02776000"},
{"state":"Quiché Department","name":"Joyabaj","lat":"14.99311000","lon":"-90.80161000"},
{"state":"Quiché Department","name":"Municipio de Canillá","lat":"15.19546000","lon":"-90.85970000"},
{"state":"Quiché Department","name":"Municipio de Chajul","lat":"15.48710000","lon":"-91.03786000"},
{"state":"Quiché Department","name":"Municipio de Chicaman","lat":"15.34833000","lon":"-90.79944000"},
{"state":"Quiché Department","name":"Municipio de Chiché","lat":"15.01196000","lon":"-91.03836000"},
{"state":"Quiché Department","name":"Municipio de Chichicastenango","lat":"14.89203000","lon":"-91.08808000"},
{"state":"Quiché Department","name":"Municipio de Chinique","lat":"15.06947000","lon":"-91.01803000"},
{"state":"Quiché Department","name":"Municipio de Cunén","lat":"15.36312000","lon":"-91.01889000"},
{"state":"Quiché Department","name":"Municipio de Ixcan","lat":"15.98333000","lon":"-90.76667000"},
{"state":"Quiché Department","name":"Municipio de Joyabaj","lat":"14.98073000","lon":"-90.82079000"},
{"state":"Quiché Department","name":"Municipio de Pachalum","lat":"14.91798000","lon":"-90.65443000"},
{"state":"Quiché Department","name":"Municipio de Patzité","lat":"14.97097000","lon":"-91.19722000"},
{"state":"Quiché Department","name":"Municipio de San Andrés Sajcabajá","lat":"15.22527000","lon":"-90.93018000"},
{"state":"Quiché Department","name":"Municipio de San Antonio Ilotenango","lat":"15.04898000","lon":"-91.20872000"},
{"state":"Quiché Department","name":"Municipio de San Juan Cotzal","lat":"15.42699000","lon":"-91.02097000"},
{"state":"Quiché Department","name":"Municipio de San Pedro Jocopilas","lat":"15.15472000","lon":"-91.15610000"},
{"state":"Quiché Department","name":"Municipio de Uspantán","lat":"15.44393000","lon":"-90.84398000"},
{"state":"Quiché Department","name":"Municipio de Zacualpa","lat":"15.09239000","lon":"-90.88514000"},
{"state":"Quiché Department","name":"Nebaj","lat":"15.40614000","lon":"-91.14682000"},
{"state":"Quiché Department","name":"Pachalum","lat":"14.92472000","lon":"-90.66278000"},
{"state":"Quiché Department","name":"Patzité","lat":"14.96426000","lon":"-91.20788000"},
{"state":"Quiché Department","name":"Playa Grande","lat":"15.93333000","lon":"-90.73333000"},
{"state":"Quiché Department","name":"Sacapulas","lat":"15.28801000","lon":"-91.08914000"},
{"state":"Quiché Department","name":"San Andrés Sajcabajá","lat":"15.17603000","lon":"-90.94220000"},
{"state":"Quiché Department","name":"San Antonio Ilotenango","lat":"15.05472000","lon":"-91.22986000"},
{"state":"Quiché Department","name":"San Bartolomé Jocotenango","lat":"15.19153000","lon":"-91.07806000"},
{"state":"Quiché Department","name":"San Juan Cotzal","lat":"15.43368000","lon":"-91.03481000"},
{"state":"Quiché Department","name":"San Luis Ixcán","lat":"15.78722000","lon":"-91.09500000"},
{"state":"Quiché Department","name":"San Pédro Jocopilas","lat":"15.09525000","lon":"-91.15135000"},
{"state":"Quiché Department","name":"Santa Cruz del Quiché","lat":"15.03085000","lon":"-91.14871000"},
{"state":"Quiché Department","name":"Uspantán","lat":"15.34672000","lon":"-90.87050000"},
{"state":"Quiché Department","name":"Zacualpa","lat":"15.02681000","lon":"-90.87815000"},
{"state":"Retalhuleu Department","name":"Champerico","lat":"14.29337000","lon":"-91.91214000"},
{"state":"Retalhuleu Department","name":"El Asintal","lat":"14.59626000","lon":"-91.72744000"},
{"state":"Retalhuleu Department","name":"Municipio de San Felipe","lat":"14.63009000","lon":"-91.60261000"},
{"state":"Retalhuleu Department","name":"Nuevo San Carlos","lat":"14.59300000","lon":"-91.69390000"},
{"state":"Retalhuleu Department","name":"Retalhuleu","lat":"14.53611000","lon":"-91.67778000"},
{"state":"Retalhuleu Department","name":"San Andrés Villa Seca","lat":"14.57801000","lon":"-91.58539000"},
{"state":"Retalhuleu Department","name":"San Felipe","lat":"14.62304000","lon":"-91.59500000"},
{"state":"Retalhuleu Department","name":"San Martín Zapotitlán","lat":"14.60794000","lon":"-91.60613000"},
{"state":"Retalhuleu Department","name":"San Sebastián","lat":"14.56177000","lon":"-91.64865000"},
{"state":"Retalhuleu Department","name":"Santa Cruz Muluá","lat":"14.58153000","lon":"-91.62441000"},
{"state":"Sacatepéquez Department","name":"Alotenango","lat":"14.48028000","lon":"-90.80750000"},
{"state":"Sacatepéquez Department","name":"Antigua Guatemala","lat":"14.56111000","lon":"-90.73444000"},
{"state":"Sacatepéquez Department","name":"Ciudad Vieja","lat":"14.52396000","lon":"-90.76308000"},
{"state":"Sacatepéquez Department","name":"Jocotenango","lat":"14.57814000","lon":"-90.73804000"},
{"state":"Sacatepéquez Department","name":"Magdalena Milpas Altas","lat":"14.54801000","lon":"-90.67477000"},
{"state":"Sacatepéquez Department","name":"Municipio de Alotenango","lat":"14.46485000","lon":"-90.82773000"},
{"state":"Sacatepéquez Department","name":"Municipio de Antigua Guatemala","lat":"14.54313000","lon":"-90.72683000"},
{"state":"Sacatepéquez Department","name":"Municipio de Ciudad Vieja","lat":"14.50800000","lon":"-90.77028000"},
{"state":"Sacatepéquez Department","name":"Municipio de Jocotenango","lat":"14.58658000","lon":"-90.73579000"},
{"state":"Sacatepéquez Department","name":"Municipio de Magdalena Milpas Altas","lat":"14.54206000","lon":"-90.67553000"},
{"state":"Sacatepéquez Department","name":"Municipio de Santa Lucía Milpas Altas","lat":"14.56753000","lon":"-90.67551000"},
{"state":"Sacatepéquez Department","name":"Municipio de Santa María de Jesús","lat":"14.47849000","lon":"-90.69989000"},
{"state":"Sacatepéquez Department","name":"Pastores","lat":"14.59433000","lon":"-90.75473000"},
{"state":"Sacatepéquez Department","name":"San Antonio Aguas Calientes","lat":"14.54676000","lon":"-90.78054000"},
{"state":"Sacatepéquez Department","name":"San Bartolomé Milpas Altas","lat":"14.60690000","lon":"-90.67807000"},
{"state":"Sacatepéquez Department","name":"San Lucas Sacatepéquez","lat":"14.61075000","lon":"-90.65681000"},
{"state":"Sacatepéquez Department","name":"San Miguel Dueñas","lat":"14.52241000","lon":"-90.79938000"},
{"state":"Sacatepéquez Department","name":"Santa Catarina Barahona","lat":"14.55135000","lon":"-90.78598000"},
{"state":"Sacatepéquez Department","name":"Santa Lucía Milpas Altas","lat":"14.57655000","lon":"-90.67632000"},
{"state":"Sacatepéquez Department","name":"Santa María de Jesús","lat":"14.49452000","lon":"-90.71036000"},
{"state":"Sacatepéquez Department","name":"Santiago Sacatepéquez","lat":"14.63510000","lon":"-90.67654000"},
{"state":"Sacatepéquez Department","name":"Santo Domingo Xenacoj","lat":"14.68057000","lon":"-90.70012000"},
{"state":"Sacatepéquez Department","name":"Sumpango","lat":"14.64623000","lon":"-90.73427000"},
{"state":"San Marcos Department","name":"Catarina","lat":"14.85354000","lon":"-92.07682000"},
{"state":"San Marcos Department","name":"Ciudad Tecún Umán","lat":"14.67737000","lon":"-92.14039000"},
{"state":"San Marcos Department","name":"Comitancillo","lat":"15.08937000","lon":"-91.74971000"},
{"state":"San Marcos Department","name":"Concepción Tutuapa","lat":"15.23940000","lon":"-91.84460000"},
{"state":"San Marcos Department","name":"El Quetzal","lat":"14.76865000","lon":"-91.81757000"},
{"state":"San Marcos Department","name":"El Rodeo","lat":"14.91447000","lon":"-91.97631000"},
{"state":"San Marcos Department","name":"El Tumbador","lat":"14.86375000","lon":"-91.93416000"},
{"state":"San Marcos Department","name":"Esquipulas Palo Gordo","lat":"14.94135000","lon":"-91.82564000"},
{"state":"San Marcos Department","name":"Ixchiguán","lat":"15.16375000","lon":"-91.93256000"},
{"state":"San Marcos Department","name":"La Reforma","lat":"14.80104000","lon":"-91.82233000"},
{"state":"San Marcos Department","name":"Malacatán","lat":"14.91132000","lon":"-92.05788000"},
{"state":"San Marcos Department","name":"Municipio de Concepción Tutuapa","lat":"15.28795000","lon":"-91.86738000"},
{"state":"San Marcos Department","name":"Municipio de Malacatán","lat":"14.91829000","lon":"-92.10548000"},
{"state":"San Marcos Department","name":"Municipio de Sipacapa","lat":"15.19243000","lon":"-91.65541000"},
{"state":"San Marcos Department","name":"Municipio de Tejutla","lat":"15.15638000","lon":"-91.82457000"},
{"state":"San Marcos Department","name":"Nuevo Progreso","lat":"14.79174000","lon":"-91.91946000"},
{"state":"San Marcos Department","name":"Ocós","lat":"14.50998000","lon":"-92.19298000"},
{"state":"San Marcos Department","name":"Pajapita","lat":"14.72152000","lon":"-92.03521000"},
{"state":"San Marcos Department","name":"Río Blanco","lat":"15.03820000","lon":"-91.68463000"},
{"state":"San Marcos Department","name":"San Antonio Sacatepéquez","lat":"14.96060000","lon":"-91.73154000"},
{"state":"San Marcos Department","name":"San Cristóbal Cucho","lat":"14.90505000","lon":"-91.78123000"},
{"state":"San Marcos Department","name":"San José Ojetenam","lat":"15.23443000","lon":"-91.97317000"},
{"state":"San Marcos Department","name":"San José Ojetenán","lat":"15.21667000","lon":"-91.96667000"},
{"state":"San Marcos Department","name":"San Lorenzo","lat":"15.03087000","lon":"-91.73534000"},
{"state":"San Marcos Department","name":"San Marcos","lat":"14.96389000","lon":"-91.79444000"},
{"state":"San Marcos Department","name":"San Miguel Ixtahuacán","lat":"15.27247000","lon":"-91.74785000"},
{"state":"San Marcos Department","name":"San Pablo","lat":"14.93269000","lon":"-92.00415000"},
{"state":"San Marcos Department","name":"San Pedro Sacatepéquez","lat":"14.96807000","lon":"-91.76172000"},
{"state":"San Marcos Department","name":"San Rafael Pie de la Cuesta","lat":"14.93052000","lon":"-91.91388000"},
{"state":"San Marcos Department","name":"Sibinal","lat":"15.14963000","lon":"-92.04892000"},
{"state":"San Marcos Department","name":"Sipacapa","lat":"15.21246000","lon":"-91.63416000"},
{"state":"San Marcos Department","name":"Tacaná","lat":"15.24058000","lon":"-92.06721000"},
{"state":"San Marcos Department","name":"Tajumulco","lat":"15.08349000","lon":"-91.92225000"},
{"state":"San Marcos Department","name":"Tejutla","lat":"15.12254000","lon":"-91.80635000"},
{"state":"Santa Rosa Department","name":"Barberena","lat":"14.30739000","lon":"-90.36156000"},
{"state":"Santa Rosa Department","name":"Casillas","lat":"14.42222000","lon":"-90.24417000"},
{"state":"Santa Rosa Department","name":"Chiquimulilla","lat":"14.08380000","lon":"-90.38547000"},
{"state":"Santa Rosa Department","name":"Cuilapa","lat":"14.27639000","lon":"-90.29889000"},
{"state":"Santa Rosa Department","name":"Guazacapán","lat":"14.07417000","lon":"-90.41667000"},
{"state":"Santa Rosa Department","name":"Municipio de Casillas","lat":"14.37854000","lon":"-90.17260000"},
{"state":"Santa Rosa Department","name":"Municipio de Chiquimulilla","lat":"14.09716000","lon":"-90.37903000"},
{"state":"Santa Rosa Department","name":"Municipio de Guazacapán","lat":"14.01786000","lon":"-90.43400000"},
{"state":"Santa Rosa Department","name":"Nueva Santa Rosa","lat":"14.38111000","lon":"-90.27611000"},
{"state":"Santa Rosa Department","name":"Oratorio","lat":"14.22806000","lon":"-90.17583000"},
{"state":"Santa Rosa Department","name":"Pueblo Nuevo Viñas","lat":"14.22576000","lon":"-90.47613000"},
{"state":"Santa Rosa Department","name":"San Juan Tecuaco","lat":"14.08361000","lon":"-90.26649000"},
{"state":"Santa Rosa Department","name":"San Rafael Las Flores","lat":"14.48139000","lon":"-90.17333000"},
{"state":"Santa Rosa Department","name":"Santa Cruz Naranjo","lat":"14.38806000","lon":"-90.36972000"},
{"state":"Santa Rosa Department","name":"Santa María Ixhuatán","lat":"14.19000000","lon":"-90.27472000"},
{"state":"Santa Rosa Department","name":"Santa Rosa de Lima","lat":"14.38806000","lon":"-90.29556000"},
{"state":"Santa Rosa Department","name":"Taxisco","lat":"14.06719000","lon":"-90.46791000"},
{"state":"Sololá Department","name":"Concepción","lat":"14.78417000","lon":"-91.14754000"},
{"state":"Sololá Department","name":"Municipio de Nahualá","lat":"14.77548000","lon":"-91.41616000"},
{"state":"Sololá Department","name":"Municipio de Panajachel","lat":"14.74676000","lon":"-91.14935000"},
{"state":"Sololá Department","name":"Municipio de Santa Catarina Palopó","lat":"14.71794000","lon":"-91.13060000"},
{"state":"Sololá Department","name":"Municipio de Santa Cruz La Laguna","lat":"14.74324000","lon":"-91.22178000"},
{"state":"Sololá Department","name":"Nahualá","lat":"14.84290000","lon":"-91.31799000"},
{"state":"Sololá Department","name":"Panajachel","lat":"14.74185000","lon":"-91.15676000"},
{"state":"Sololá Department","name":"San Andrés Semetabaj","lat":"14.74497000","lon":"-91.13344000"},
{"state":"Sololá Department","name":"San Antonio Palopó","lat":"14.69232000","lon":"-91.11638000"},
{"state":"Sololá Department","name":"San José Chacayá","lat":"14.77096000","lon":"-91.21564000"},
{"state":"Sololá Department","name":"San Juan La Laguna","lat":"14.69453000","lon":"-91.28666000"},
{"state":"Sololá Department","name":"San Lucas Tolimán","lat":"14.59471000","lon":"-91.14659000"},
{"state":"Sololá Department","name":"San Marcos La Laguna","lat":"14.72504000","lon":"-91.25844000"},
{"state":"Sololá Department","name":"San Pablo La Laguna","lat":"14.72092000","lon":"-91.27242000"},
{"state":"Sololá Department","name":"San Pedro La Laguna","lat":"14.69297000","lon":"-91.27201000"},
{"state":"Sololá Department","name":"Santa Catarina Ixtahuacán","lat":"14.79797000","lon":"-91.35866000"},
{"state":"Sololá Department","name":"Santa Catarina Palopó","lat":"14.72335000","lon":"-91.13428000"},
{"state":"Sololá Department","name":"Santa Clara La Laguna","lat":"14.71509000","lon":"-91.30355000"},
{"state":"Sololá Department","name":"Santa Cruz La Laguna","lat":"14.74421000","lon":"-91.20716000"},
{"state":"Sololá Department","name":"Santa Lucía Utatlán","lat":"14.77135000","lon":"-91.26700000"},
{"state":"Sololá Department","name":"Santa María Visitación","lat":"14.71717000","lon":"-91.30844000"},
{"state":"Sololá Department","name":"Santiago Atitlán","lat":"14.63823000","lon":"-91.22901000"},
{"state":"Sololá Department","name":"Sololá","lat":"14.77222000","lon":"-91.18333000"},
{"state":"Suchitepéquez Department","name":"Chicacao","lat":"14.54295000","lon":"-91.32636000"},
{"state":"Suchitepéquez Department","name":"Cuyotenango","lat":"14.54006000","lon":"-91.57179000"},
{"state":"Suchitepéquez Department","name":"Mazatenango","lat":"14.53417000","lon":"-91.50333000"},
{"state":"Suchitepéquez Department","name":"Municipio de San Antonio Suchitepéquez","lat":"14.51839000","lon":"-91.40438000"},
{"state":"Suchitepéquez Department","name":"Municipio de San Miguel Panán","lat":"14.50525000","lon":"-91.35956000"},
{"state":"Suchitepéquez Department","name":"Municipio de Santa Bárbara","lat":"14.47317000","lon":"-91.24688000"},
{"state":"Suchitepéquez Department","name":"Patulul","lat":"14.42321000","lon":"-91.16049000"},
{"state":"Suchitepéquez Department","name":"Pueblo Nuevo","lat":"14.64709000","lon":"-91.53946000"},
{"state":"Suchitepéquez Department","name":"Río Bravo","lat":"14.40042000","lon":"-91.31713000"},
{"state":"Suchitepéquez Department","name":"San Antonio Suchitepéquez","lat":"14.53938000","lon":"-91.41442000"},
{"state":"Suchitepéquez Department","name":"San Bernardino","lat":"14.54240000","lon":"-91.45811000"},
{"state":"Suchitepéquez Department","name":"San Francisco Zapotitlán","lat":"14.58939000","lon":"-91.52144000"},
{"state":"Suchitepéquez Department","name":"San Gabriel","lat":"14.51076000","lon":"-91.50745000"},
{"state":"Suchitepéquez Department","name":"San José El Ídolo","lat":"14.45016000","lon":"-91.42222000"},
{"state":"Suchitepéquez Department","name":"San Juan Bautista","lat":"14.42274000","lon":"-91.17904000"},
{"state":"Suchitepéquez Department","name":"San Lorenzo","lat":"14.48606000","lon":"-91.51263000"},
{"state":"Suchitepéquez Department","name":"San Miguel Panán","lat":"14.52865000","lon":"-91.36733000"},
{"state":"Suchitepéquez Department","name":"San Pablo Jocopilas","lat":"14.58882000","lon":"-91.45188000"},
{"state":"Suchitepéquez Department","name":"Santa Bárbara","lat":"14.43563000","lon":"-91.22685000"},
{"state":"Suchitepéquez Department","name":"Santo Domingo Suchitepéquez","lat":"14.47901000","lon":"-91.48327000"},
{"state":"Suchitepéquez Department","name":"Santo Tomás La Unión","lat":"14.63219000","lon":"-91.41075000"},
{"state":"Suchitepéquez Department","name":"Zunilito","lat":"14.61264000","lon":"-91.50980000"},
{"state":"Totonicapán Department","name":"Momostenango","lat":"15.04437000","lon":"-91.40864000"},
{"state":"Totonicapán Department","name":"Municipio de Momostenango","lat":"15.04726000","lon":"-91.40625000"},
{"state":"Totonicapán Department","name":"Municipio de Santa María Chiquimula","lat":"15.02886000","lon":"-91.32917000"},
{"state":"Totonicapán Department","name":"Municipio de Totonicapán","lat":"14.90193000","lon":"-91.31999000"},
{"state":"Totonicapán Department","name":"San Andrés Xecul","lat":"14.90482000","lon":"-91.48307000"},
{"state":"Totonicapán Department","name":"San Bartolo","lat":"15.08438000","lon":"-91.45606000"},
{"state":"Totonicapán Department","name":"San Cristóbal Totonicapán","lat":"14.91682000","lon":"-91.44060000"},
{"state":"Totonicapán Department","name":"San Francisco El Alto","lat":"14.94490000","lon":"-91.44310000"},
{"state":"Totonicapán Department","name":"Santa Lucia La Reforma","lat":"15.12819000","lon":"-91.23619000"},
{"state":"Totonicapán Department","name":"Santa María Chiquimula","lat":"15.02992000","lon":"-91.32920000"},
{"state":"Totonicapán Department","name":"Totonicapán","lat":"14.91167000","lon":"-91.36111000"}]