[{"state":"Atlántida Department","name":"Arizona","lat":"15.63333000","lon":"-87.31667000"},
{"state":"Atlántida Department","name":"Atenas de San Cristóbal","lat":"15.68333000","lon":"-87.31667000"},
{"state":"Atlántida Department","name":"Corozal","lat":"15.80000000","lon":"-86.71667000"},
{"state":"Atlántida Department","name":"El Pino","lat":"15.70000000","lon":"-86.93333000"},
{"state":"Atlántida Department","name":"El Porvenir","lat":"15.75000000","lon":"-86.93333000"},
{"state":"Atlántida Department","name":"El Triunfo de la Cruz","lat":"15.76667000","lon":"-87.43333000"},
{"state":"Atlántida Department","name":"Esparta","lat":"15.66291000","lon":"-87.25622000"},
{"state":"Atlántida Department","name":"Jutiapa","lat":"15.69586000","lon":"-86.50414000"},
{"state":"Atlántida Department","name":"La Ceiba","lat":"15.75971000","lon":"-86.78221000"},
{"state":"Atlántida Department","name":"La Masica","lat":"15.59865000","lon":"-87.13500000"},
{"state":"Atlántida Department","name":"La Unión","lat":"15.71667000","lon":"-87.00000000"},
{"state":"Atlántida Department","name":"Mezapa","lat":"15.58333000","lon":"-87.65000000"},
{"state":"Atlántida Department","name":"Nueva Armenia","lat":"15.79556000","lon":"-86.49845000"},
{"state":"Atlántida Department","name":"Sambo Creek","lat":"15.81667000","lon":"-86.68333000"},
{"state":"Atlántida Department","name":"San Antonio","lat":"15.60000000","lon":"-87.15000000"},
{"state":"Atlántida Department","name":"San Francisco","lat":"15.65246000","lon":"-87.01736000"},
{"state":"Atlántida Department","name":"San Juan Pueblo","lat":"15.58333000","lon":"-87.23333000"},
{"state":"Atlántida Department","name":"Santa Ana","lat":"15.65000000","lon":"-87.06667000"},
{"state":"Atlántida Department","name":"Tela","lat":"15.77425000","lon":"-87.46731000"},
{"state":"Atlántida Department","name":"Tornabé","lat":"15.75000000","lon":"-87.55000000"},
{"state":"Bay Islands Department","name":"Coxen Hole","lat":"16.31759000","lon":"-86.53793000"},
{"state":"Bay Islands Department","name":"French Harbor","lat":"16.35000000","lon":"-86.43333000"},
{"state":"Bay Islands Department","name":"Guanaja","lat":"16.44795000","lon":"-85.89431000"},
{"state":"Bay Islands Department","name":"José Santos Guardiola","lat":"16.41765000","lon":"-86.30631000"},
{"state":"Bay Islands Department","name":"Roatán","lat":"16.34098000","lon":"-86.53763000"},
{"state":"Bay Islands Department","name":"Sandy Bay","lat":"16.32923000","lon":"-86.56446000"},
{"state":"Bay Islands Department","name":"Savannah Bight","lat":"16.45000000","lon":"-85.85000000"},
{"state":"Bay Islands Department","name":"Utila","lat":"16.10026000","lon":"-86.93070000"},
{"state":"Choluteca Department","name":"Apacilagua","lat":"13.45821000","lon":"-87.01122000"},
{"state":"Choluteca Department","name":"Choluteca","lat":"13.28261000","lon":"-87.20119000"},
{"state":"Choluteca Department","name":"Ciudad Choluteca","lat":"13.30028000","lon":"-87.19083000"},
{"state":"Choluteca Department","name":"Concepción de María","lat":"13.22363000","lon":"-86.96244000"},
{"state":"Choluteca Department","name":"Corpus","lat":"13.28889000","lon":"-87.03472000"},
{"state":"Choluteca Department","name":"Duyure","lat":"13.63333000","lon":"-86.81667000"},
{"state":"Choluteca Department","name":"El Corpus","lat":"13.30464000","lon":"-87.00970000"},
{"state":"Choluteca Department","name":"El Obraje","lat":"13.15417000","lon":"-87.13083000"},
{"state":"Choluteca Department","name":"El Puente","lat":"13.28333000","lon":"-87.11667000"},
{"state":"Choluteca Department","name":"El Triunfo","lat":"13.08024000","lon":"-87.01780000"},
{"state":"Choluteca Department","name":"Los Llanitos","lat":"13.28694000","lon":"-87.33444000"},
{"state":"Choluteca Department","name":"Marcovia","lat":"13.28806000","lon":"-87.30972000"},
{"state":"Choluteca Department","name":"Monjarás","lat":"13.20056000","lon":"-87.37417000"},
{"state":"Choluteca Department","name":"Morolica","lat":"13.56800000","lon":"-86.88821000"},
{"state":"Choluteca Department","name":"Namasigüe","lat":"13.20472000","lon":"-87.13889000"},
{"state":"Choluteca Department","name":"Orocuina","lat":"13.48167000","lon":"-87.10500000"},
{"state":"Choluteca Department","name":"Pespire","lat":"13.59222000","lon":"-87.36167000"},
{"state":"Choluteca Department","name":"San Antonio de Flores","lat":"13.64152000","lon":"-87.34075000"},
{"state":"Choluteca Department","name":"San Isidro","lat":"13.64454000","lon":"-87.26093000"},
{"state":"Choluteca Department","name":"San Jerónimo","lat":"13.17667000","lon":"-87.13639000"},
{"state":"Choluteca Department","name":"San José","lat":"13.71415000","lon":"-87.42256000"},
{"state":"Choluteca Department","name":"San José de Las Conchas","lat":"13.32528000","lon":"-87.39556000"},
{"state":"Choluteca Department","name":"San Marcos de Colón","lat":"13.41512000","lon":"-86.82095000"},
{"state":"Choluteca Department","name":"Santa Ana de Yusguare","lat":"13.30056000","lon":"-87.11389000"},
{"state":"Choluteca Department","name":"Santa Cruz","lat":"13.25806000","lon":"-87.34833000"},
{"state":"Colón Department","name":"Balfate","lat":"15.75709000","lon":"-86.29048000"},
{"state":"Colón Department","name":"Bonito Oriental","lat":"15.74641000","lon":"-85.73610000"},
{"state":"Colón Department","name":"Corocito","lat":"15.75000000","lon":"-85.78333000"},
{"state":"Colón Department","name":"Cusuna","lat":"15.85000000","lon":"-85.23333000"},
{"state":"Colón Department","name":"Elíxir","lat":"15.48333000","lon":"-86.30000000"},
{"state":"Colón Department","name":"Francia","lat":"15.85000000","lon":"-85.58333000"},
{"state":"Colón Department","name":"Iriona","lat":"15.59079000","lon":"-85.20549000"},
{"state":"Colón Department","name":"Jericó","lat":"15.95000000","lon":"-85.96667000"},
{"state":"Colón Department","name":"La Brea","lat":"15.80000000","lon":"-85.96667000"},
{"state":"Colón Department","name":"La Esperanza","lat":"15.63333000","lon":"-85.76667000"},
{"state":"Colón Department","name":"Limón","lat":"15.79664000","lon":"-85.50805000"},
{"state":"Colón Department","name":"Municipio de Sabá","lat":"15.48654000","lon":"-86.16322000"},
{"state":"Colón Department","name":"Prieta","lat":"15.58060000","lon":"-86.13664000"},
{"state":"Colón Department","name":"Puerto Castilla","lat":"16.01667000","lon":"-85.96667000"},
{"state":"Colón Department","name":"Punta Piedra","lat":"15.90000000","lon":"-85.28333000"},
{"state":"Colón Department","name":"Quebrada de Arena","lat":"15.76667000","lon":"-85.91667000"},
{"state":"Colón Department","name":"Río Esteban","lat":"15.83333000","lon":"-86.30000000"},
{"state":"Colón Department","name":"Sabá","lat":"15.46667000","lon":"-86.25000000"},
{"state":"Colón Department","name":"Salamá","lat":"15.75000000","lon":"-85.96667000"},
{"state":"Colón Department","name":"Santa Fe","lat":"15.85424000","lon":"-86.11083000"},
{"state":"Colón Department","name":"Santa Rosa de Aguán","lat":"15.95000000","lon":"-85.71667000"},
{"state":"Colón Department","name":"Sonaguera","lat":"15.64000000","lon":"-86.26000000"},
{"state":"Colón Department","name":"Taujica","lat":"15.70000000","lon":"-85.91667000"},
{"state":"Colón Department","name":"Tocoa","lat":"15.68333000","lon":"-86.00000000"},
{"state":"Colón Department","name":"Trujillo","lat":"15.91667000","lon":"-85.95417000"},
{"state":"Colón Department","name":"Zamora","lat":"15.63333000","lon":"-86.06667000"},
{"state":"Comayagua Department","name":"Aguas del Padre","lat":"14.56667000","lon":"-87.88333000"},
{"state":"Comayagua Department","name":"Ajuterique","lat":"14.38333000","lon":"-87.70000000"},
{"state":"Comayagua Department","name":"Cerro Blanco","lat":"14.66667000","lon":"-87.78333000"},
{"state":"Comayagua Department","name":"Comayagua","lat":"14.48412000","lon":"-87.60060000"},
{"state":"Comayagua Department","name":"Concepción de Guasistagua","lat":"14.60000000","lon":"-87.65000000"},
{"state":"Comayagua Department","name":"El Agua Dulcita","lat":"14.70000000","lon":"-87.75000000"},
{"state":"Comayagua Department","name":"El Porvenir","lat":"14.58333000","lon":"-87.88333000"},
{"state":"Comayagua Department","name":"El Rancho","lat":"14.68333000","lon":"-87.50000000"},
{"state":"Comayagua Department","name":"El Rincón","lat":"14.58333000","lon":"-87.93333000"},
{"state":"Comayagua Department","name":"El Rosario","lat":"14.57500000","lon":"-87.74306000"},
{"state":"Comayagua Department","name":"El Sauce","lat":"14.52850000","lon":"-87.66571000"},
{"state":"Comayagua Department","name":"El Socorro","lat":"14.63333000","lon":"-87.91667000"},
{"state":"Comayagua Department","name":"Esquías","lat":"14.73333000","lon":"-87.36667000"},
{"state":"Comayagua Department","name":"Flores","lat":"14.28333000","lon":"-87.56667000"},
{"state":"Comayagua Department","name":"Humuya","lat":"14.25000000","lon":"-87.66667000"},
{"state":"Comayagua Department","name":"Jamalteca","lat":"14.70000000","lon":"-87.58333000"},
{"state":"Comayagua Department","name":"La Libertad","lat":"14.88000000","lon":"-87.55000000"},
{"state":"Comayagua Department","name":"La Trinidad","lat":"14.70000000","lon":"-87.66286000"},
{"state":"Comayagua Department","name":"Lamaní","lat":"14.20000000","lon":"-87.61667000"},
{"state":"Comayagua Department","name":"Las Lajas","lat":"14.90000000","lon":"-87.58333000"},
{"state":"Comayagua Department","name":"Lejamaní","lat":"14.36667000","lon":"-87.70000000"},
{"state":"Comayagua Department","name":"Meámbar","lat":"14.82047000","lon":"-87.78424000"},
{"state":"Comayagua Department","name":"Minas de Oro","lat":"14.80000000","lon":"-87.35000000"},
{"state":"Comayagua Department","name":"Ojos de Agua","lat":"14.79498000","lon":"-87.65010000"},
{"state":"Comayagua Department","name":"Potrerillos","lat":"14.55000000","lon":"-87.86667000"},
{"state":"Comayagua Department","name":"Río Bonito","lat":"14.76667000","lon":"-87.88333000"},
{"state":"Comayagua Department","name":"San Antonio de la Cuesta","lat":"14.63333000","lon":"-87.60000000"},
{"state":"Comayagua Department","name":"San Jerónimo","lat":"14.64043000","lon":"-87.56768000"},
{"state":"Comayagua Department","name":"San José de Comayagua","lat":"14.73333000","lon":"-88.03333000"},
{"state":"Comayagua Department","name":"San José del Potrero","lat":"14.86203000","lon":"-87.29049000"},
{"state":"Comayagua Department","name":"San Luis","lat":"14.75000000","lon":"-87.41667000"},
{"state":"Comayagua Department","name":"San Sebastián","lat":"14.23687000","lon":"-87.63215000"},
{"state":"Comayagua Department","name":"Siguatepeque","lat":"14.60000000","lon":"-87.83333000"},
{"state":"Comayagua Department","name":"Taulabé","lat":"14.67145000","lon":"-87.98693000"},
{"state":"Comayagua Department","name":"Valle de Ángeles","lat":"14.50000000","lon":"-87.63333000"},
{"state":"Comayagua Department","name":"Villa de San Antonio","lat":"14.31667000","lon":"-87.61667000"},
{"state":"Copán Department","name":"Agua Caliente","lat":"14.88333000","lon":"-88.81667000"},
{"state":"Copán Department","name":"Buenos Aires","lat":"15.03333000","lon":"-88.96667000"},
{"state":"Copán Department","name":"Cabañas","lat":"14.76000000","lon":"-89.06000000"},
{"state":"Copán Department","name":"Chalmeca","lat":"15.10000000","lon":"-88.68333000"},
{"state":"Copán Department","name":"Concepción","lat":"14.88077000","lon":"-88.87919000"},
{"state":"Copán Department","name":"Concepción de la Barranca","lat":"15.16667000","lon":"-88.71667000"},
{"state":"Copán Department","name":"Copán","lat":"14.83333000","lon":"-89.15000000"},
{"state":"Copán Department","name":"Copán Ruinas","lat":"14.92000000","lon":"-89.15000000"},
{"state":"Copán Department","name":"Corquín","lat":"14.56667000","lon":"-88.86667000"},
{"state":"Copán Department","name":"Cucuyagua","lat":"14.65000000","lon":"-88.86667000"},
{"state":"Copán Department","name":"Dolores","lat":"14.86667000","lon":"-88.83333000"},
{"state":"Copán Department","name":"Dulce Nombre","lat":"14.85552000","lon":"-88.83856000"},
{"state":"Copán Department","name":"El Corpus","lat":"14.70000000","lon":"-88.91667000"},
{"state":"Copán Department","name":"El Ocotón","lat":"15.03333000","lon":"-88.88333000"},
{"state":"Copán Department","name":"El Paraíso","lat":"15.04217000","lon":"-88.98045000"},
{"state":"Copán Department","name":"Florida","lat":"15.03333000","lon":"-88.83333000"},
{"state":"Copán Department","name":"La Entrada","lat":"15.05000000","lon":"-88.73333000"},
{"state":"Copán Department","name":"La Jigua","lat":"15.10000000","lon":"-88.76000000"},
{"state":"Copán Department","name":"La Playona","lat":"15.11667000","lon":"-88.98333000"},
{"state":"Copán Department","name":"La Unión","lat":"14.69350000","lon":"-88.94734000"},
{"state":"Copán Department","name":"La Zumbadora","lat":"15.01667000","lon":"-88.90000000"},
{"state":"Copán Department","name":"Los Tangos","lat":"15.15000000","lon":"-88.68333000"},
{"state":"Copán Department","name":"Nueva Arcadia","lat":"15.08000000","lon":"-88.69000000"},
{"state":"Copán Department","name":"Ojos de Agua","lat":"14.70000000","lon":"-88.81667000"},
{"state":"Copán Department","name":"Pueblo Nuevo","lat":"15.00000000","lon":"-88.75000000"},
{"state":"Copán Department","name":"Quezailica","lat":"14.88333000","lon":"-88.73333000"},
{"state":"Copán Department","name":"San Agustín","lat":"14.81973000","lon":"-88.93027000"},
{"state":"Copán Department","name":"San Antonio","lat":"15.04000000","lon":"-88.88000000"},
{"state":"Copán Department","name":"San Jerónimo","lat":"14.96207000","lon":"-88.90270000"},
{"state":"Copán Department","name":"San Joaquín","lat":"15.05000000","lon":"-88.90000000"},
{"state":"Copán Department","name":"San José","lat":"14.91184000","lon":"-88.71667000"},
{"state":"Copán Department","name":"San José de Copán","lat":"14.90000000","lon":"-88.71667000"},
{"state":"Copán Department","name":"San Juan de Opoa","lat":"14.78333000","lon":"-88.70000000"},
{"state":"Copán Department","name":"San Juan de Planes","lat":"14.93333000","lon":"-88.78333000"},
{"state":"Copán Department","name":"San Nicolás","lat":"14.98000000","lon":"-88.73000000"},
{"state":"Copán Department","name":"San Pedro de Copán","lat":"14.61667000","lon":"-88.80000000"},
{"state":"Copán Department","name":"Santa Rita","lat":"14.88000000","lon":"-89.01000000"},
{"state":"Copán Department","name":"Santa Rita Copan","lat":"14.86748000","lon":"-89.10000000"},
{"state":"Copán Department","name":"Santa Rosa de Copán","lat":"14.76667000","lon":"-88.77917000"},
{"state":"Copán Department","name":"Trinidad de Copán","lat":"14.95000000","lon":"-88.75000000"},
{"state":"Copán Department","name":"Veracruz","lat":"14.88343000","lon":"-88.78570000"},
{"state":"Cortés Department","name":"Agua Azul","lat":"14.91667000","lon":"-87.96667000"},
{"state":"Cortés Department","name":"Agua Azul Rancho","lat":"14.90000000","lon":"-87.95000000"},
{"state":"Cortés Department","name":"Armenta","lat":"15.50000000","lon":"-88.05000000"},
{"state":"Cortés Department","name":"Baja Mar","lat":"15.88851000","lon":"-87.85547000"},
{"state":"Cortés Department","name":"Baracoa","lat":"15.76667000","lon":"-87.85000000"},
{"state":"Cortés Department","name":"Bejuco","lat":"15.13333000","lon":"-87.93333000"},
{"state":"Cortés Department","name":"Cañaveral","lat":"14.98333000","lon":"-88.01667000"},
{"state":"Cortés Department","name":"Casa Quemada","lat":"15.11667000","lon":"-88.08333000"},
{"state":"Cortés Department","name":"Chivana","lat":"15.75000000","lon":"-87.98333000"},
{"state":"Cortés Department","name":"Choloma","lat":"15.64000000","lon":"-87.92000000"},
{"state":"Cortés Department","name":"Chotepe","lat":"15.41667000","lon":"-87.98333000"},
{"state":"Cortés Department","name":"Cofradía","lat":"15.40000000","lon":"-88.15000000"},
{"state":"Cortés Department","name":"Cuyamel","lat":"15.66667000","lon":"-88.20000000"},
{"state":"Cortés Department","name":"El Llano","lat":"15.15000000","lon":"-87.88333000"},
{"state":"Cortés Department","name":"El Marañón","lat":"15.40000000","lon":"-88.05000000"},
{"state":"Cortés Department","name":"El Milagro","lat":"15.40000000","lon":"-87.96667000"},
{"state":"Cortés Department","name":"El Olivar","lat":"15.08333000","lon":"-87.88333000"},
{"state":"Cortés Department","name":"El Perico","lat":"15.08333000","lon":"-88.10000000"},
{"state":"Cortés Department","name":"El Plan","lat":"15.28333000","lon":"-87.96667000"},
{"state":"Cortés Department","name":"El Porvenir","lat":"15.83333000","lon":"-87.93333000"},
{"state":"Cortés Department","name":"El Rancho","lat":"15.66667000","lon":"-87.95000000"},
{"state":"Cortés Department","name":"El Tigre","lat":"14.93333000","lon":"-87.98333000"},
{"state":"Cortés Department","name":"El Zapotal del Norte","lat":"15.51667000","lon":"-88.05000000"},
{"state":"Cortés Department","name":"La Guama","lat":"14.88333000","lon":"-87.93333000"},
{"state":"Cortés Department","name":"La Huesa","lat":"15.58333000","lon":"-87.88333000"},
{"state":"Cortés Department","name":"La Jutosa","lat":"15.63333000","lon":"-88.00000000"},
{"state":"Cortés Department","name":"La Lima","lat":"15.43333000","lon":"-87.91667000"},
{"state":"Cortés Department","name":"La Sabana","lat":"15.36667000","lon":"-87.93333000"},
{"state":"Cortés Department","name":"Los Caminos","lat":"14.95000000","lon":"-87.96667000"},
{"state":"Cortés Department","name":"Los Naranjos","lat":"14.90000000","lon":"-88.05000000"},
{"state":"Cortés Department","name":"Monterrey","lat":"15.58333000","lon":"-87.88333000"},
{"state":"Cortés Department","name":"Nuevo Chamelecón","lat":"15.38333000","lon":"-88.01667000"},
{"state":"Cortés Department","name":"Omoa","lat":"15.76667000","lon":"-88.03333000"},
{"state":"Cortés Department","name":"Oropéndolas","lat":"15.01667000","lon":"-87.93333000"},
{"state":"Cortés Department","name":"Peña Blanca","lat":"15.53333000","lon":"-88.05000000"},
{"state":"Cortés Department","name":"Pimienta","lat":"15.26500000","lon":"-87.96667000"},
{"state":"Cortés Department","name":"Pimienta Vieja","lat":"15.23333000","lon":"-87.96667000"},
{"state":"Cortés Department","name":"Potrerillos","lat":"15.21000000","lon":"-87.95000000"},
{"state":"Cortés Department","name":"Pueblo Nuevo","lat":"15.28333000","lon":"-88.01667000"},
{"state":"Cortés Department","name":"Puerto Alto","lat":"15.70000000","lon":"-87.86667000"},
{"state":"Cortés Department","name":"Puerto Cortés","lat":"15.79000000","lon":"-87.84900000"},
{"state":"Cortés Department","name":"Puerto Cortez","lat":"15.82562000","lon":"-87.92968000"},
{"state":"Cortés Department","name":"Quebrada Seca","lat":"15.66667000","lon":"-87.95000000"},
{"state":"Cortés Department","name":"Río Blanquito","lat":"15.73333000","lon":"-87.90000000"},
{"state":"Cortés Department","name":"Río Chiquito","lat":"15.63333000","lon":"-88.25000000"},
{"state":"Cortés Department","name":"Río Lindo","lat":"15.03333000","lon":"-87.98333000"},
{"state":"Cortés Department","name":"San Antonio de Cortés","lat":"15.11667000","lon":"-88.03333000"},
{"state":"Cortés Department","name":"San Buenaventura","lat":"15.01667000","lon":"-88.00000000"},
{"state":"Cortés Department","name":"San Francisco de Yojoa","lat":"15.01667000","lon":"-87.96667000"},
{"state":"Cortés Department","name":"San José del Boquerón","lat":"15.48333000","lon":"-87.86667000"},
{"state":"Cortés Department","name":"San Manuel","lat":"15.37279000","lon":"-87.90167000"},
{"state":"Cortés Department","name":"San Pedro Sula","lat":"15.50417000","lon":"-88.02500000"},
{"state":"Cortés Department","name":"Santa Cruz de Yojoa","lat":"14.98333000","lon":"-87.90000000"},
{"state":"Cortés Department","name":"Santa Elena","lat":"15.38333000","lon":"-88.13333000"},
{"state":"Cortés Department","name":"Travesía","lat":"15.86667000","lon":"-87.90000000"},
{"state":"Cortés Department","name":"Villanueva","lat":"15.31667000","lon":"-88.00000000"},
{"state":"El Paraíso Department","name":"Alauca","lat":"13.84020000","lon":"-86.69526000"},
{"state":"El Paraíso Department","name":"Araulí","lat":"13.95000000","lon":"-86.55000000"},
{"state":"El Paraíso Department","name":"Cuyalí","lat":"13.88333000","lon":"-86.55000000"},
{"state":"El Paraíso Department","name":"Danlí","lat":"14.03333000","lon":"-86.58333000"},
{"state":"El Paraíso Department","name":"El Benque","lat":"14.03333000","lon":"-86.46667000"},
{"state":"El Paraíso Department","name":"El Chichicaste","lat":"14.06667000","lon":"-86.30000000"},
{"state":"El Paraíso Department","name":"El Obraje","lat":"14.00000000","lon":"-86.43333000"},
{"state":"El Paraíso Department","name":"El Paraíso","lat":"13.85381000","lon":"-86.53094000"},
{"state":"El Paraíso Department","name":"Güinope","lat":"13.88333000","lon":"-86.93333000"},
{"state":"El Paraíso Department","name":"Jacaleapa","lat":"14.01667000","lon":"-86.66667000"},
{"state":"El Paraíso Department","name":"Jutiapa","lat":"13.98333000","lon":"-86.40000000"},
{"state":"El Paraíso Department","name":"Las Ánimas","lat":"14.25000000","lon":"-86.56667000"},
{"state":"El Paraíso Department","name":"Las Trojes","lat":"14.06667000","lon":"-85.98333000"},
{"state":"El Paraíso Department","name":"Liure","lat":"13.53583000","lon":"-87.09194000"},
{"state":"El Paraíso Department","name":"Morocelí","lat":"14.11667000","lon":"-86.86667000"},
{"state":"El Paraíso Department","name":"Municipio de Texiguat","lat":"13.66372000","lon":"-87.03479000"},
{"state":"El Paraíso Department","name":"Ojo de Agua","lat":"14.01667000","lon":"-86.35000000"},
{"state":"El Paraíso Department","name":"Oropolí","lat":"13.81667000","lon":"-86.81667000"},
{"state":"El Paraíso Department","name":"Potrerillos","lat":"14.04478000","lon":"-86.76201000"},
{"state":"El Paraíso Department","name":"Quebrada Larga","lat":"14.10000000","lon":"-86.36667000"},
{"state":"El Paraíso Department","name":"San Antonio de Flores","lat":"13.71089000","lon":"-86.84226000"},
{"state":"El Paraíso Department","name":"San Diego","lat":"14.05000000","lon":"-86.46667000"},
{"state":"El Paraíso Department","name":"San Lucas","lat":"13.74586000","lon":"-86.95163000"},
{"state":"El Paraíso Department","name":"San Matías","lat":"13.95966000","lon":"-86.64032000"},
{"state":"El Paraíso Department","name":"Santa Cruz","lat":"13.86667000","lon":"-86.63333000"},
{"state":"El Paraíso Department","name":"Soledad","lat":"13.58333000","lon":"-87.11667000"},
{"state":"El Paraíso Department","name":"Teupasenti","lat":"14.21667000","lon":"-86.70000000"},
{"state":"El Paraíso Department","name":"Texíguat","lat":"13.64972000","lon":"-87.02250000"},
{"state":"El Paraíso Department","name":"Trojes","lat":"14.05966000","lon":"-86.00166000"},
{"state":"El Paraíso Department","name":"Vado Ancho","lat":"13.64355000","lon":"-86.95546000"},
{"state":"El Paraíso Department","name":"Yauyupe","lat":"13.74867000","lon":"-87.07610000"},
{"state":"El Paraíso Department","name":"Yuscarán","lat":"13.95708000","lon":"-86.83170000"},
{"state":"Francisco Morazán Department","name":"Agalteca","lat":"14.45000000","lon":"-87.26667000"},
{"state":"Francisco Morazán Department","name":"Alubarén","lat":"13.78226000","lon":"-87.46990000"},
{"state":"Francisco Morazán Department","name":"Cedros","lat":"14.50464000","lon":"-87.21680000"},
{"state":"Francisco Morazán Department","name":"Cerro Grande","lat":"13.81667000","lon":"-87.25000000"},
{"state":"Francisco Morazán Department","name":"Cofradía","lat":"14.21667000","lon":"-87.18333000"},
{"state":"Francisco Morazán Department","name":"Curarén","lat":"13.83000000","lon":"-87.57000000"},
{"state":"Francisco Morazán Department","name":"Distrito Central","lat":"14.14975000","lon":"-87.24806000"},
{"state":"Francisco Morazán Department","name":"El Chimbo","lat":"14.13333000","lon":"-87.11667000"},
{"state":"Francisco Morazán Department","name":"El Escanito","lat":"14.66667000","lon":"-87.10000000"},
{"state":"Francisco Morazán Department","name":"El Escaño de Tepale","lat":"14.75000000","lon":"-87.06667000"},
{"state":"Francisco Morazán Department","name":"El Guante","lat":"14.55000000","lon":"-87.10000000"},
{"state":"Francisco Morazán Department","name":"El Guantillo","lat":"14.60000000","lon":"-87.30000000"},
{"state":"Francisco Morazán Department","name":"El Guapinol","lat":"13.76667000","lon":"-87.46667000"},
{"state":"Francisco Morazán Department","name":"El Lolo","lat":"14.11667000","lon":"-87.26667000"},
{"state":"Francisco Morazán Department","name":"El Pedernal","lat":"14.70000000","lon":"-87.11667000"},
{"state":"Francisco Morazán Department","name":"El Porvenir","lat":"14.72009000","lon":"-87.21039000"},
{"state":"Francisco Morazán Department","name":"El Suyatal","lat":"14.51667000","lon":"-87.21667000"},
{"state":"Francisco Morazán Department","name":"El Tablón","lat":"14.03333000","lon":"-87.16667000"},
{"state":"Francisco Morazán Department","name":"El Terrero","lat":"14.06667000","lon":"-87.06667000"},
{"state":"Francisco Morazán Department","name":"Guaimaca","lat":"14.53333000","lon":"-86.81667000"},
{"state":"Francisco Morazán Department","name":"La Ermita","lat":"14.46667000","lon":"-87.06667000"},
{"state":"Francisco Morazán Department","name":"La Libertad","lat":"13.70662000","lon":"-87.50421000"},
{"state":"Francisco Morazán Department","name":"La Venta","lat":"13.73113000","lon":"-87.32874000"},
{"state":"Francisco Morazán Department","name":"Lepaterique","lat":"14.05590000","lon":"-87.47908000"},
{"state":"Francisco Morazán Department","name":"Maraita","lat":"13.87197000","lon":"-87.05633000"},
{"state":"Francisco Morazán Department","name":"Marale","lat":"14.94113000","lon":"-87.09892000"},
{"state":"Francisco Morazán Department","name":"Mata de Plátano","lat":"14.60000000","lon":"-87.28333000"},
{"state":"Francisco Morazán Department","name":"Mateo","lat":"14.08333000","lon":"-87.31667000"},
{"state":"Francisco Morazán Department","name":"Nueva Armenia","lat":"13.75000000","lon":"-87.15307000"},
{"state":"Francisco Morazán Department","name":"Ojojona","lat":"13.93389000","lon":"-87.29583000"},
{"state":"Francisco Morazán Department","name":"Orica","lat":"14.80645000","lon":"-86.95760000"},
{"state":"Francisco Morazán Department","name":"Quebradas","lat":"14.50000000","lon":"-87.35000000"},
{"state":"Francisco Morazán Department","name":"Reitoca","lat":"13.82583000","lon":"-87.46528000"},
{"state":"Francisco Morazán Department","name":"Río Abajo","lat":"14.16667000","lon":"-87.21667000"},
{"state":"Francisco Morazán Department","name":"Sabanagrande","lat":"13.80778000","lon":"-87.25917000"},
{"state":"Francisco Morazán Department","name":"San Antonio de Oriente","lat":"14.03859000","lon":"-86.98951000"},
{"state":"Francisco Morazán Department","name":"San Buenaventura","lat":"13.89100000","lon":"-87.18554000"},
{"state":"Francisco Morazán Department","name":"San Ignacio","lat":"14.73795000","lon":"-87.04759000"},
{"state":"Francisco Morazán Department","name":"San Juan de Flores","lat":"14.26667000","lon":"-87.03333000"},
{"state":"Francisco Morazán Department","name":"San Miguelito","lat":"13.74572000","lon":"-87.49233000"},
{"state":"Francisco Morazán Department","name":"Santa Ana","lat":"13.94000000","lon":"-87.21000000"},
{"state":"Francisco Morazán Department","name":"Santa Lucía","lat":"14.12595000","lon":"-87.09175000"},
{"state":"Francisco Morazán Department","name":"Talanga","lat":"14.41393000","lon":"-87.06941000"},
{"state":"Francisco Morazán Department","name":"Támara","lat":"14.15000000","lon":"-87.33333000"},
{"state":"Francisco Morazán Department","name":"Tatumbla","lat":"13.98467000","lon":"-87.06977000"},
{"state":"Francisco Morazán Department","name":"Tegucigalpa","lat":"14.08180000","lon":"-87.20681000"},
{"state":"Francisco Morazán Department","name":"Valle de Ángeles","lat":"14.15000000","lon":"-87.03333000"},
{"state":"Francisco Morazán Department","name":"Vallecillo","lat":"14.51313000","lon":"-87.40242000"},
{"state":"Francisco Morazán Department","name":"Villa de San Francisco","lat":"14.16667000","lon":"-86.96667000"},
{"state":"Francisco Morazán Department","name":"Villa Nueva","lat":"14.03333000","lon":"-87.13333000"},
{"state":"Francisco Morazán Department","name":"Yaguacire","lat":"14.01667000","lon":"-87.21667000"},
{"state":"Francisco Morazán Department","name":"Zambrano","lat":"14.26667000","lon":"-87.40000000"},
{"state":"Gracias a Dios Department","name":"Ahuas","lat":"15.46923000","lon":"-84.34479000"},
{"state":"Gracias a Dios Department","name":"Auas","lat":"15.48333000","lon":"-84.33333000"},
{"state":"Gracias a Dios Department","name":"Auka","lat":"14.94087000","lon":"-83.83229000"},
{"state":"Gracias a Dios Department","name":"Barra Patuca","lat":"15.80000000","lon":"-84.28333000"},
{"state":"Gracias a Dios Department","name":"Brus Laguna","lat":"15.75000000","lon":"-84.48333000"},
{"state":"Gracias a Dios Department","name":"Iralaya","lat":"15.00000000","lon":"-83.23333000"},
{"state":"Gracias a Dios Department","name":"Juan Francisco Bulnes","lat":"15.91676000","lon":"-84.90990000"},
{"state":"Gracias a Dios Department","name":"Paptalaya","lat":"15.50000000","lon":"-84.31667000"},
{"state":"Gracias a Dios Department","name":"Puerto Lempira","lat":"15.26667000","lon":"-83.77222000"},
{"state":"Gracias a Dios Department","name":"Villeda Morales","lat":"15.08472000","lon":"-83.35361000"},
{"state":"Gracias a Dios Department","name":"Wampusirpi","lat":"15.18333000","lon":"-84.61667000"},
{"state":"Gracias a Dios Department","name":"Wawina","lat":"15.41667000","lon":"-84.43333000"},
{"state":"Intibucá Department","name":"Camasca","lat":"14.00000000","lon":"-88.38333000"},
{"state":"Intibucá Department","name":"Colomoncagua","lat":"13.97245000","lon":"-88.27673000"},
{"state":"Intibucá Department","name":"Concepción","lat":"14.04725000","lon":"-88.31942000"},
{"state":"Intibucá Department","name":"Dolores","lat":"14.26188000","lon":"-88.35787000"},
{"state":"Intibucá Department","name":"Intibucá","lat":"14.43000000","lon":"-88.17000000"},
{"state":"Intibucá Department","name":"Jesús de Otoro","lat":"14.48333000","lon":"-87.98333000"},
{"state":"Intibucá Department","name":"Jiquinlaca","lat":"14.00000000","lon":"-88.35000000"},
{"state":"Intibucá Department","name":"La Esperanza","lat":"14.31111000","lon":"-88.18056000"},
{"state":"Intibucá Department","name":"Magdalena","lat":"13.92452000","lon":"-88.36675000"},
{"state":"Intibucá Department","name":"Masaguara","lat":"14.40428000","lon":"-87.98247000"},
{"state":"Intibucá Department","name":"San Antonio","lat":"13.95043000","lon":"-88.46493000"},
{"state":"Intibucá Department","name":"San Francisco de Opalaca","lat":"14.58441000","lon":"-88.30253000"},
{"state":"Intibucá Department","name":"San Isidro","lat":"14.56763000","lon":"-88.11743000"},
{"state":"Intibucá Department","name":"San Juan","lat":"14.42127000","lon":"-88.41953000"},
{"state":"Intibucá Department","name":"San Marcos de la Sierra","lat":"14.13236000","lon":"-88.24690000"},
{"state":"Intibucá Department","name":"San Miguelito","lat":"14.34875000","lon":"-88.33983000"},
{"state":"Intibucá Department","name":"Santa Lucía","lat":"13.90812000","lon":"-88.41566000"},
{"state":"Intibucá Department","name":"Yamaranguila","lat":"14.26826000","lon":"-88.24652000"},
{"state":"La Paz Department","name":"Aguanqueterique","lat":"13.98606000","lon":"-87.64622000"},
{"state":"La Paz Department","name":"Cabañas","lat":"13.99419000","lon":"-88.02864000"},
{"state":"La Paz Department","name":"Cane","lat":"14.28333000","lon":"-87.66667000"},
{"state":"La Paz Department","name":"Chinacla","lat":"14.18289000","lon":"-87.95395000"},
{"state":"La Paz Department","name":"Guajiquiro","lat":"14.06982000","lon":"-87.77451000"},
{"state":"La Paz Department","name":"La Paz","lat":"14.31944000","lon":"-87.67917000"},
{"state":"La Paz Department","name":"Lauterique","lat":"13.86425000","lon":"-87.65792000"},
{"state":"La Paz Department","name":"Los Planes","lat":"14.05000000","lon":"-88.01667000"},
{"state":"La Paz Department","name":"Marcala","lat":"14.14845000","lon":"-88.02405000"},
{"state":"La Paz Department","name":"Mercedes de Oriente","lat":"13.90937000","lon":"-87.77795000"},
{"state":"La Paz Department","name":"Opatoro","lat":"14.02451000","lon":"-87.87982000"},
{"state":"La Paz Department","name":"San Antonio del Norte","lat":"13.88000000","lon":"-87.72000000"},
{"state":"La Paz Department","name":"San José","lat":"14.22642000","lon":"-87.96238000"},
{"state":"La Paz Department","name":"San Juan","lat":"13.95428000","lon":"-87.72948000"},
{"state":"La Paz Department","name":"San Pedro de Tutule","lat":"14.25000000","lon":"-87.85000000"},
{"state":"La Paz Department","name":"Santa Ana","lat":"14.00011000","lon":"-87.94107000"},
{"state":"La Paz Department","name":"Santa Elena","lat":"14.07149000","lon":"-88.15445000"},
{"state":"La Paz Department","name":"Santa María","lat":"14.26904000","lon":"-87.91164000"},
{"state":"La Paz Department","name":"Santiago Puringla","lat":"14.35000000","lon":"-87.90000000"},
{"state":"La Paz Department","name":"Tepanguare","lat":"14.33333000","lon":"-87.75000000"},
{"state":"La Paz Department","name":"Yarula","lat":"14.10000000","lon":"-88.08000000"},
{"state":"La Paz Department","name":"Yarumela","lat":"14.33333000","lon":"-87.63333000"},
{"state":"Lempira Department","name":"Belén","lat":"14.50834000","lon":"-88.42819000"},
{"state":"Lempira Department","name":"Candelaria","lat":"14.06072000","lon":"-88.55913000"},
{"state":"Lempira Department","name":"Cololaca","lat":"14.31189000","lon":"-88.87720000"},
{"state":"Lempira Department","name":"El Achiotal","lat":"14.08333000","lon":"-88.75000000"},
{"state":"Lempira Department","name":"Erandique","lat":"14.23333000","lon":"-88.46667000"},
{"state":"Lempira Department","name":"Gracias","lat":"14.59028000","lon":"-88.58194000"},
{"state":"Lempira Department","name":"Gualcince","lat":"14.12869000","lon":"-88.56812000"},
{"state":"Lempira Department","name":"Guarita","lat":"14.20784000","lon":"-88.85161000"},
{"state":"Lempira Department","name":"La Campa","lat":"14.47280000","lon":"-88.56090000"},
{"state":"Lempira Department","name":"La Iguala","lat":"14.66441000","lon":"-88.46360000"},
{"state":"Lempira Department","name":"La Libertad","lat":"14.80000000","lon":"-88.58333000"},
{"state":"Lempira Department","name":"La Unión","lat":"14.81667000","lon":"-88.40000000"},
{"state":"Lempira Department","name":"La Virtud","lat":"14.07156000","lon":"-88.68584000"},
{"state":"Lempira Department","name":"Las Flores","lat":"14.67930000","lon":"-88.65040000"},
{"state":"Lempira Department","name":"Las Tejeras","lat":"14.80000000","lon":"-88.60000000"},
{"state":"Lempira Department","name":"Lepaera","lat":"14.78333000","lon":"-88.58333000"},
{"state":"Lempira Department","name":"Mapulaca","lat":"14.04293000","lon":"-88.62440000"},
{"state":"Lempira Department","name":"Piraera","lat":"14.06261000","lon":"-88.46319000"},
{"state":"Lempira Department","name":"San Andrés","lat":"14.21968000","lon":"-88.54981000"},
{"state":"Lempira Department","name":"San Francisco","lat":"14.12435000","lon":"-88.37189000"},
{"state":"Lempira Department","name":"San Juan Guarita","lat":"14.15492000","lon":"-88.77477000"},
{"state":"Lempira Department","name":"San Manuel Colohete","lat":"14.44435000","lon":"-88.67050000"},
{"state":"Lempira Department","name":"San Marcos de Caiquin","lat":"14.41614000","lon":"-88.60126000"},
{"state":"Lempira Department","name":"San Rafael","lat":"14.73333000","lon":"-88.41667000"},
{"state":"Lempira Department","name":"San Sebastián","lat":"14.34594000","lon":"-88.73487000"},
{"state":"Lempira Department","name":"Santa Cruz","lat":"14.34427000","lon":"-88.52684000"},
{"state":"Lempira Department","name":"Talgua","lat":"14.68110000","lon":"-88.72800000"},
{"state":"Lempira Department","name":"Tambla","lat":"14.21276000","lon":"-88.76768000"},
{"state":"Lempira Department","name":"Taragual","lat":"14.75000000","lon":"-88.48333000"},
{"state":"Lempira Department","name":"Tomalá","lat":"14.24330000","lon":"-88.73140000"},
{"state":"Lempira Department","name":"Valladolid","lat":"14.14710000","lon":"-88.70840000"},
{"state":"Lempira Department","name":"Virginia","lat":"14.00522000","lon":"-88.56193000"},
{"state":"Ocotepeque Department","name":"Antigua Ocotepeque","lat":"14.40000000","lon":"-89.20000000"},
{"state":"Ocotepeque Department","name":"Belén Gualcho","lat":"14.48333000","lon":"-88.80000000"},
{"state":"Ocotepeque Department","name":"Concepción","lat":"14.52383000","lon":"-89.19371000"},
{"state":"Ocotepeque Department","name":"Dolores Merendón","lat":"14.55095000","lon":"-89.12493000"},
{"state":"Ocotepeque Department","name":"El Tránsito","lat":"14.38333000","lon":"-88.91667000"},
{"state":"Ocotepeque Department","name":"Fraternidad","lat":"14.58087000","lon":"-89.07740000"},
{"state":"Ocotepeque Department","name":"La Encarnación","lat":"14.66667000","lon":"-89.04742000"},
{"state":"Ocotepeque Department","name":"La Labor","lat":"14.48333000","lon":"-89.00000000"},
{"state":"Ocotepeque Department","name":"Lucerna","lat":"14.55000000","lon":"-88.93333000"},
{"state":"Ocotepeque Department","name":"Mercedes","lat":"14.31667000","lon":"-88.98333000"},
{"state":"Ocotepeque Department","name":"Nueva Ocotepeque","lat":"14.43333000","lon":"-89.18333000"},
{"state":"Ocotepeque Department","name":"San Fernando","lat":"14.68793000","lon":"-89.10153000"},
{"state":"Ocotepeque Department","name":"San Francisco de Cones","lat":"14.51667000","lon":"-88.90000000"},
{"state":"Ocotepeque Department","name":"San Francisco del Valle","lat":"14.43333000","lon":"-88.95000000"},
{"state":"Ocotepeque Department","name":"San Jorge","lat":"14.63697000","lon":"-89.11860000"},
{"state":"Ocotepeque Department","name":"San Marcos","lat":"14.38000000","lon":"-88.92000000"},
{"state":"Ocotepeque Department","name":"Santa Fe","lat":"14.50038000","lon":"-89.27320000"},
{"state":"Ocotepeque Department","name":"Santa Lucía","lat":"14.41667000","lon":"-89.20000000"},
{"state":"Ocotepeque Department","name":"Sensenti","lat":"14.48333000","lon":"-88.93333000"},
{"state":"Ocotepeque Department","name":"Sinuapa","lat":"14.45000000","lon":"-89.18333000"},
{"state":"Ocotepeque Department","name":"Yaruchel","lat":"14.53333000","lon":"-88.81667000"},
{"state":"Olancho Department","name":"Arimís","lat":"14.78333000","lon":"-86.00000000"},
{"state":"Olancho Department","name":"Campamento","lat":"14.55000000","lon":"-86.65000000"},
{"state":"Olancho Department","name":"Catacamas","lat":"14.60384000","lon":"-85.54261000"},
{"state":"Olancho Department","name":"Concordia","lat":"14.61667000","lon":"-86.65000000"},
{"state":"Olancho Department","name":"Dulce Nombre de Culmí","lat":"15.10000000","lon":"-85.53333000"},
{"state":"Olancho Department","name":"El Guayabito","lat":"14.83333000","lon":"-86.03333000"},
{"state":"Olancho Department","name":"El Rosario","lat":"14.88720000","lon":"-86.68764000"},
{"state":"Olancho Department","name":"El Rusio","lat":"14.46667000","lon":"-86.36667000"},
{"state":"Olancho Department","name":"Esquipulas del Norte","lat":"15.27763000","lon":"-86.55760000"},
{"state":"Olancho Department","name":"Gualaco","lat":"15.02521000","lon":"-86.07076000"},
{"state":"Olancho Department","name":"Guarizama","lat":"14.91667000","lon":"-86.33333000"},
{"state":"Olancho Department","name":"Guata","lat":"15.15133000","lon":"-86.37624000"},
{"state":"Olancho Department","name":"Guayape","lat":"14.71667000","lon":"-86.83333000"},
{"state":"Olancho Department","name":"Jano","lat":"15.07902000","lon":"-86.51521000"},
{"state":"Olancho Department","name":"Juticalpa","lat":"14.66667000","lon":"-86.21944000"},
{"state":"Olancho Department","name":"Jutiquile","lat":"14.71667000","lon":"-86.08333000"},
{"state":"Olancho Department","name":"La Concepción","lat":"14.70000000","lon":"-86.23333000"},
{"state":"Olancho Department","name":"La Estancia","lat":"15.05000000","lon":"-86.35000000"},
{"state":"Olancho Department","name":"La Guata","lat":"15.08333000","lon":"-86.38333000"},
{"state":"Olancho Department","name":"La Unión","lat":"15.09759000","lon":"-86.68910000"},
{"state":"Olancho Department","name":"Laguna Seca","lat":"14.70000000","lon":"-86.10000000"},
{"state":"Olancho Department","name":"Mangulile","lat":"15.06667000","lon":"-86.80000000"},
{"state":"Olancho Department","name":"Manto","lat":"14.91667000","lon":"-86.38333000"},
{"state":"Olancho Department","name":"Municipio de San Francisco de La Paz","lat":"14.84183000","lon":"-86.11819000"},
{"state":"Olancho Department","name":"Patuca","lat":"14.36000000","lon":"-85.97000000"},
{"state":"Olancho Department","name":"Punuare","lat":"14.73333000","lon":"-85.96667000"},
{"state":"Olancho Department","name":"Salamá","lat":"14.81052000","lon":"-86.61996000"},
{"state":"Olancho Department","name":"San Esteban","lat":"15.29467000","lon":"-85.69487000"},
{"state":"Olancho Department","name":"San Francisco de Becerra","lat":"14.63333000","lon":"-86.10000000"},
{"state":"Olancho Department","name":"San Francisco de la Paz","lat":"14.90000000","lon":"-86.20000000"},
{"state":"Olancho Department","name":"San José de Río Tinto","lat":"14.93333000","lon":"-85.70000000"},
{"state":"Olancho Department","name":"San Nicolás","lat":"14.55000000","lon":"-86.25000000"},
{"state":"Olancho Department","name":"Santa María del Real","lat":"14.76667000","lon":"-85.95000000"},
{"state":"Olancho Department","name":"Silca","lat":"14.76205000","lon":"-86.51521000"},
{"state":"Olancho Department","name":"Yocón","lat":"14.95000000","lon":"-86.82000000"},
{"state":"Olancho Department","name":"Zopilotepe","lat":"14.60000000","lon":"-86.26667000"},
{"state":"Santa Bárbara Department","name":"Agualote","lat":"15.33528000","lon":"-88.55306000"},
{"state":"Santa Bárbara Department","name":"Arada","lat":"14.85000000","lon":"-88.30000000"},
{"state":"Santa Bárbara Department","name":"Atima","lat":"14.93333000","lon":"-88.48333000"},
{"state":"Santa Bárbara Department","name":"Azacualpa","lat":"14.71667000","lon":"-88.10000000"},
{"state":"Santa Bárbara Department","name":"Berlín","lat":"14.83333000","lon":"-88.50000000"},
{"state":"Santa Bárbara Department","name":"Callejones","lat":"15.16667000","lon":"-88.65000000"},
{"state":"Santa Bárbara Department","name":"Camalote","lat":"15.33333000","lon":"-88.33333000"},
{"state":"Santa Bárbara Department","name":"Casa Quemada","lat":"15.26667000","lon":"-88.55000000"},
{"state":"Santa Bárbara Department","name":"Ceguaca","lat":"14.80000000","lon":"-88.20000000"},
{"state":"Santa Bárbara Department","name":"Chinda","lat":"15.11667000","lon":"-88.20000000"},
{"state":"Santa Bárbara Department","name":"Concepción del Norte","lat":"15.20227000","lon":"-88.13728000"},
{"state":"Santa Bárbara Department","name":"Concepción del Sur","lat":"14.81263000","lon":"-88.15316000"},
{"state":"Santa Bárbara Department","name":"Correderos","lat":"15.41667000","lon":"-88.45000000"},
{"state":"Santa Bárbara Department","name":"El Ciruelo","lat":"15.30000000","lon":"-88.50000000"},
{"state":"Santa Bárbara Department","name":"El Corozal","lat":"15.06667000","lon":"-88.61667000"},
{"state":"Santa Bárbara Department","name":"El Mochito","lat":"14.86667000","lon":"-88.08333000"},
{"state":"Santa Bárbara Department","name":"El Níspero","lat":"14.75957000","lon":"-88.34438000"},
{"state":"Santa Bárbara Department","name":"Guacamaya","lat":"15.01667000","lon":"-88.15000000"},
{"state":"Santa Bárbara Department","name":"Gualala","lat":"14.98000000","lon":"-88.17000000"},
{"state":"Santa Bárbara Department","name":"Gualjoco","lat":"14.95000000","lon":"-88.23333000"},
{"state":"Santa Bárbara Department","name":"Ilama","lat":"15.06667000","lon":"-88.21667000"},
{"state":"Santa Bárbara Department","name":"Joconal","lat":"15.35444000","lon":"-88.63556000"},
{"state":"Santa Bárbara Department","name":"La Flecha","lat":"15.28333000","lon":"-88.48333000"},
{"state":"Santa Bárbara Department","name":"Laguna Verde","lat":"15.20000000","lon":"-88.16667000"},
{"state":"Santa Bárbara Department","name":"Las Vegas","lat":"14.86636000","lon":"-88.07233000"},
{"state":"Santa Bárbara Department","name":"Las Vegas Santa Barbara","lat":"14.87649000","lon":"-88.07473000"},
{"state":"Santa Bárbara Department","name":"Loma Alta","lat":"15.39667000","lon":"-88.55972000"},
{"state":"Santa Bárbara Department","name":"Macuelizo","lat":"15.26000000","lon":"-88.66000000"},
{"state":"Santa Bárbara Department","name":"Naco","lat":"15.38333000","lon":"-88.18333000"},
{"state":"Santa Bárbara Department","name":"Naranjito","lat":"14.95000000","lon":"-88.68333000"},
{"state":"Santa Bárbara Department","name":"Nueva Frontera","lat":"15.21000000","lon":"-88.56000000"},
{"state":"Santa Bárbara Department","name":"Nueva Jalapa","lat":"14.91667000","lon":"-88.33333000"},
{"state":"Santa Bárbara Department","name":"Nuevo Celilac","lat":"14.97554000","lon":"-88.36726000"},
{"state":"Santa Bárbara Department","name":"Petoa","lat":"15.26667000","lon":"-88.28333000"},
{"state":"Santa Bárbara Department","name":"Pinalejo","lat":"15.38333000","lon":"-88.40000000"},
{"state":"Santa Bárbara Department","name":"Protección","lat":"15.03333000","lon":"-88.65000000"},
{"state":"Santa Bárbara Department","name":"Quimistán","lat":"15.35000000","lon":"-88.40000000"},
{"state":"Santa Bárbara Department","name":"San Francisco de Ojuera","lat":"14.67000000","lon":"-88.21000000"},
{"state":"Santa Bárbara Department","name":"San José de Colinas","lat":"15.03333000","lon":"-88.30000000"},
{"state":"Santa Bárbara Department","name":"San José de Tarros","lat":"15.30000000","lon":"-88.70000000"},
{"state":"Santa Bárbara Department","name":"San Luis","lat":"15.08333000","lon":"-88.38333000"},
{"state":"Santa Bárbara Department","name":"San Luis de Planes","lat":"14.98333000","lon":"-88.13333000"},
{"state":"Santa Bárbara Department","name":"San Marcos","lat":"15.30000000","lon":"-88.41667000"},
{"state":"Santa Bárbara Department","name":"San Nicolás","lat":"14.91913000","lon":"-88.37910000"},
{"state":"Santa Bárbara Department","name":"San Pedro Zacapa","lat":"14.75000000","lon":"-88.11667000"},
{"state":"Santa Bárbara Department","name":"San Vicente Centenario","lat":"14.88333000","lon":"-88.28333000"},
{"state":"Santa Bárbara Department","name":"Santa Bárbara","lat":"14.91944000","lon":"-88.23611000"},
{"state":"Santa Bárbara Department","name":"Santa Rita","lat":"14.76015000","lon":"-88.26782000"},
{"state":"Santa Bárbara Department","name":"Sula","lat":"15.25000000","lon":"-88.56667000"},
{"state":"Santa Bárbara Department","name":"Tras Cerros","lat":"15.30000000","lon":"-88.66667000"},
{"state":"Santa Bárbara Department","name":"Trinidad","lat":"15.13333000","lon":"-88.23333000"},
{"state":"Valle Department","name":"Agua Fría","lat":"13.46889000","lon":"-87.55111000"},
{"state":"Valle Department","name":"Alianza","lat":"13.44815000","lon":"-87.68643000"},
{"state":"Valle Department","name":"Amapala","lat":"13.29222000","lon":"-87.65389000"},
{"state":"Valle Department","name":"Aramecina","lat":"13.74222000","lon":"-87.71028000"},
{"state":"Valle Department","name":"Caridad","lat":"13.81562000","lon":"-87.68121000"},
{"state":"Valle Department","name":"El Cubolero","lat":"13.46667000","lon":"-87.66667000"},
{"state":"Valle Department","name":"El Tular","lat":"13.46639000","lon":"-87.51528000"},
{"state":"Valle Department","name":"Goascorán","lat":"13.58333000","lon":"-87.61667000"},
{"state":"Valle Department","name":"Jícaro Galán","lat":"13.53167000","lon":"-87.43889000"},
{"state":"Valle Department","name":"La Alianza","lat":"13.51222000","lon":"-87.72444000"},
{"state":"Valle Department","name":"La Criba","lat":"13.45361000","lon":"-87.41333000"},
{"state":"Valle Department","name":"Langue","lat":"13.62083000","lon":"-87.65250000"},
{"state":"Valle Department","name":"Nacaome","lat":"13.52209000","lon":"-87.52477000"},
{"state":"Valle Department","name":"San Francisco de Coray","lat":"13.66139000","lon":"-87.53278000"},
{"state":"Valle Department","name":"San Lorenzo","lat":"13.45149000","lon":"-87.40743000"},
{"state":"Yoro Department","name":"Agua Blanca Sur","lat":"15.25000000","lon":"-87.88333000"},
{"state":"Yoro Department","name":"Arenal","lat":"15.35000000","lon":"-86.83333000"},
{"state":"Yoro Department","name":"Armenia","lat":"15.46667000","lon":"-86.36667000"},
{"state":"Yoro Department","name":"Ayapa","lat":"15.11174000","lon":"-87.17557000"},
{"state":"Yoro Department","name":"Bálsamo Oriental","lat":"15.48333000","lon":"-86.33333000"},
{"state":"Yoro Department","name":"Carbajales","lat":"15.51667000","lon":"-86.35000000"},
{"state":"Yoro Department","name":"Coyoles Central","lat":"15.40000000","lon":"-86.66667000"},
{"state":"Yoro Department","name":"El Bálsamo","lat":"15.06667000","lon":"-87.46667000"},
{"state":"Yoro Department","name":"El Juncal","lat":"15.45000000","lon":"-86.43333000"},
{"state":"Yoro Department","name":"El Negrito","lat":"15.31667000","lon":"-87.70000000"},
{"state":"Yoro Department","name":"El Ocote","lat":"15.41667000","lon":"-86.56667000"},
{"state":"Yoro Department","name":"El Progreso","lat":"15.42762000","lon":"-87.77396000"},
{"state":"Yoro Department","name":"Guaimitas","lat":"15.50000000","lon":"-87.71667000"},
{"state":"Yoro Department","name":"Jocón","lat":"15.28333000","lon":"-86.96667000"},
{"state":"Yoro Department","name":"La Estancia","lat":"15.28333000","lon":"-87.55000000"},
{"state":"Yoro Department","name":"La Guacamaya","lat":"15.25000000","lon":"-87.80000000"},
{"state":"Yoro Department","name":"La Mina","lat":"15.31667000","lon":"-87.83333000"},
{"state":"Yoro Department","name":"La Rosa","lat":"15.35000000","lon":"-87.06667000"},
{"state":"Yoro Department","name":"La Sarrosa","lat":"15.23333000","lon":"-87.83333000"},
{"state":"Yoro Department","name":"La Trinidad","lat":"15.10000000","lon":"-87.20000000"},
{"state":"Yoro Department","name":"Las Vegas","lat":"15.01667000","lon":"-87.45000000"},
{"state":"Yoro Department","name":"Lomitas","lat":"15.10000000","lon":"-87.21667000"},
{"state":"Yoro Department","name":"Mojimán","lat":"15.26667000","lon":"-87.60000000"},
{"state":"Yoro Department","name":"Morazán","lat":"15.31667000","lon":"-87.60000000"},
{"state":"Yoro Department","name":"Nombre de Jesús","lat":"15.35000000","lon":"-86.68333000"},
{"state":"Yoro Department","name":"Nueva Esperanza","lat":"15.26667000","lon":"-87.60000000"},
{"state":"Yoro Department","name":"Ocote Paulino","lat":"15.41667000","lon":"-87.60000000"},
{"state":"Yoro Department","name":"Olanchito","lat":"15.48131000","lon":"-86.57415000"},
{"state":"Yoro Department","name":"Paujiles","lat":"15.10000000","lon":"-87.35000000"},
{"state":"Yoro Department","name":"Punta Ocote","lat":"15.20000000","lon":"-87.28333000"},
{"state":"Yoro Department","name":"San Antonio","lat":"15.33333000","lon":"-87.15000000"},
{"state":"Yoro Department","name":"San José","lat":"15.31667000","lon":"-87.16667000"},
{"state":"Yoro Department","name":"Santa Rita","lat":"15.18000000","lon":"-87.81000000"},
{"state":"Yoro Department","name":"Subirana","lat":"15.20000000","lon":"-87.45000000"},
{"state":"Yoro Department","name":"Sulaco","lat":"14.91667000","lon":"-87.26667000"},
{"state":"Yoro Department","name":"Teguajinal","lat":"15.36667000","lon":"-86.60000000"},
{"state":"Yoro Department","name":"Tepusteca","lat":"15.41667000","lon":"-86.31667000"},
{"state":"Yoro Department","name":"Toyós","lat":"15.55000000","lon":"-87.65000000"},
{"state":"Yoro Department","name":"Trojas","lat":"15.35000000","lon":"-86.70000000"},
{"state":"Yoro Department","name":"Victoria","lat":"15.10012000","lon":"-87.53020000"},
{"state":"Yoro Department","name":"Yorito","lat":"15.06667000","lon":"-87.28333000"},
{"state":"Yoro Department","name":"Yoro","lat":"15.13750000","lon":"-87.12778000"}]