[{"state":"Bjelovar-Bilogora","name":"Bjelovar","lat":"45.89861000","lon":"16.84889000"},
{"state":"Bjelovar-Bilogora","name":"Brezovac","lat":"45.86750000","lon":"16.84083000"},
{"state":"Bjelovar-Bilogora","name":"Čazma","lat":"45.74818000","lon":"16.61390000"},
{"state":"Bjelovar-Bilogora","name":"Daruvar","lat":"45.59056000","lon":"17.22500000"},
{"state":"Bjelovar-Bilogora","name":"Dežanovac","lat":"45.57056000","lon":"17.08667000"},
{"state":"Bjelovar-Bilogora","name":"Đulovac","lat":"45.66588000","lon":"17.42981000"},
{"state":"Bjelovar-Bilogora","name":"Garešnica","lat":"45.57444000","lon":"16.94139000"},
{"state":"Bjelovar-Bilogora","name":"Grad Bjelovar","lat":"45.90172000","lon":"16.84522000"},
{"state":"Bjelovar-Bilogora","name":"Grad Čazma","lat":"45.75000000","lon":"16.61667000"},
{"state":"Bjelovar-Bilogora","name":"Grad Daruvar","lat":"45.60000000","lon":"17.23333000"},
{"state":"Bjelovar-Bilogora","name":"Grad Garešnica","lat":"45.56667000","lon":"16.93333000"},
{"state":"Bjelovar-Bilogora","name":"Grad Grubišno Polje","lat":"45.70000000","lon":"17.16667000"},
{"state":"Bjelovar-Bilogora","name":"Grubišno Polje","lat":"45.70214000","lon":"17.17268000"},
{"state":"Bjelovar-Bilogora","name":"Gudovac","lat":"45.88028000","lon":"16.78083000"},
{"state":"Bjelovar-Bilogora","name":"Hercegovac","lat":"45.65861000","lon":"17.01361000"},
{"state":"Bjelovar-Bilogora","name":"Ivanska","lat":"45.77889000","lon":"16.81194000"},
{"state":"Bjelovar-Bilogora","name":"Kapela","lat":"45.98543000","lon":"16.85174000"},
{"state":"Bjelovar-Bilogora","name":"Končanica","lat":"45.63611000","lon":"17.16639000"},
{"state":"Bjelovar-Bilogora","name":"Predavac","lat":"45.93583000","lon":"16.78333000"},
{"state":"Bjelovar-Bilogora","name":"Rovišće","lat":"45.94472000","lon":"16.73500000"},
{"state":"Bjelovar-Bilogora","name":"Šandrovac","lat":"45.90556000","lon":"17.02111000"},
{"state":"Bjelovar-Bilogora","name":"Severin","lat":"45.84152000","lon":"16.96950000"},
{"state":"Bjelovar-Bilogora","name":"Sirač","lat":"45.52333000","lon":"17.25500000"},
{"state":"Bjelovar-Bilogora","name":"Velika Pisanica","lat":"45.80160000","lon":"17.06551000"},
{"state":"Bjelovar-Bilogora","name":"Veliki Grđevac","lat":"45.75028000","lon":"17.04750000"},
{"state":"Bjelovar-Bilogora","name":"Ždralovi","lat":"45.87639000","lon":"16.87500000"},
{"state":"Bjelovar-Bilogora","name":"Zrinski Topolovac","lat":"46.02120000","lon":"16.75509000"},
{"state":"Brod-Posavina","name":"Batrina","lat":"45.18944000","lon":"17.66639000"},
{"state":"Brod-Posavina","name":"Brodski Varoš","lat":"45.18111000","lon":"17.97861000"},
{"state":"Brod-Posavina","name":"Bukovlje","lat":"45.18528000","lon":"18.07000000"},
{"state":"Brod-Posavina","name":"Cernik","lat":"45.28861000","lon":"17.38194000"},
{"state":"Brod-Posavina","name":"Davor","lat":"45.11528000","lon":"17.51639000"},
{"state":"Brod-Posavina","name":"Donji Andrijevci","lat":"45.18833000","lon":"18.29972000"},
{"state":"Brod-Posavina","name":"Garčin","lat":"45.18278000","lon":"18.18306000"},
{"state":"Brod-Posavina","name":"Gornji Bogićevci","lat":"45.25572000","lon":"17.23454000"},
{"state":"Brod-Posavina","name":"Grad Nova Gradiška","lat":"45.26667000","lon":"17.40000000"},
{"state":"Brod-Posavina","name":"Grad Slavonski Brod","lat":"45.16267000","lon":"18.03062000"},
{"state":"Brod-Posavina","name":"Gundinci","lat":"45.15833000","lon":"18.49139000"},
{"state":"Brod-Posavina","name":"Korenica","lat":"45.22472000","lon":"18.16556000"},
{"state":"Brod-Posavina","name":"Kruševica","lat":"45.07750000","lon":"18.48278000"},
{"state":"Brod-Posavina","name":"Lužani","lat":"45.16806000","lon":"17.70694000"},
{"state":"Brod-Posavina","name":"Nova Gradiška","lat":"45.25500000","lon":"17.38306000"},
{"state":"Brod-Posavina","name":"Okučani","lat":"45.26034000","lon":"17.19925000"},
{"state":"Brod-Posavina","name":"Oprisavci","lat":"45.15111000","lon":"18.22972000"},
{"state":"Brod-Posavina","name":"Oriovac","lat":"45.16611000","lon":"17.76000000"},
{"state":"Brod-Posavina","name":"Podvinje","lat":"45.19028000","lon":"18.02694000"},
{"state":"Brod-Posavina","name":"Rešetari","lat":"45.26232000","lon":"17.42346000"},
{"state":"Brod-Posavina","name":"Ruščica","lat":"45.14667000","lon":"18.07944000"},
{"state":"Brod-Posavina","name":"Sibinj","lat":"45.19167000","lon":"17.90806000"},
{"state":"Brod-Posavina","name":"Sikirevci","lat":"45.10889000","lon":"18.46444000"},
{"state":"Brod-Posavina","name":"Slavonski Brod","lat":"45.16028000","lon":"18.01556000"},
{"state":"Brod-Posavina","name":"Slobodnica","lat":"45.16222000","lon":"17.93278000"},
{"state":"Brod-Posavina","name":"Stari Perkovci","lat":"45.21750000","lon":"18.34861000"},
{"state":"Brod-Posavina","name":"Velika Kopanica","lat":"45.15611000","lon":"18.39306000"},
{"state":"Brod-Posavina","name":"Vrpolje","lat":"45.21056000","lon":"18.40556000"},
{"state":"Dubrovnik-Neretva","name":"Cavtat","lat":"42.58111000","lon":"18.21806000"},
{"state":"Dubrovnik-Neretva","name":"Čibača","lat":"42.62889000","lon":"18.17111000"},
{"state":"Dubrovnik-Neretva","name":"Dubrovačko primorje","lat":"42.78988000","lon":"17.86240000"},
{"state":"Dubrovnik-Neretva","name":"Grad Dubrovnik","lat":"42.64861000","lon":"18.09397000"},
{"state":"Dubrovnik-Neretva","name":"Grad Korčula","lat":"42.95693000","lon":"17.13181000"},
{"state":"Dubrovnik-Neretva","name":"Grad Ploče","lat":"43.06667000","lon":"17.43333000"},
{"state":"Dubrovnik-Neretva","name":"Komin","lat":"43.04083000","lon":"17.53694000"},
{"state":"Dubrovnik-Neretva","name":"Konavle","lat":"42.54010000","lon":"18.33944000"},
{"state":"Dubrovnik-Neretva","name":"Korčula","lat":"42.96038000","lon":"17.13525000"},
{"state":"Dubrovnik-Neretva","name":"Lastovo","lat":"42.76757000","lon":"16.89708000"},
{"state":"Dubrovnik-Neretva","name":"Lumbarda","lat":"42.92278000","lon":"17.16722000"},
{"state":"Dubrovnik-Neretva","name":"Metković","lat":"43.05417000","lon":"17.64833000"},
{"state":"Dubrovnik-Neretva","name":"Mljet","lat":"42.74439000","lon":"17.53645000"},
{"state":"Dubrovnik-Neretva","name":"Mokošica","lat":"42.67556000","lon":"18.09028000"},
{"state":"Dubrovnik-Neretva","name":"Općina Lastovo","lat":"42.75000000","lon":"16.90000000"},
{"state":"Dubrovnik-Neretva","name":"Opuzen","lat":"43.01528000","lon":"17.56556000"},
{"state":"Dubrovnik-Neretva","name":"Orebić","lat":"42.98556000","lon":"17.17472000"},
{"state":"Dubrovnik-Neretva","name":"Podgora","lat":"42.84861000","lon":"17.83639000"},
{"state":"Dubrovnik-Neretva","name":"Pojezerje","lat":"43.15741000","lon":"17.45152000"},
{"state":"Dubrovnik-Neretva","name":"Slivno","lat":"42.95864000","lon":"17.54431000"},
{"state":"Dubrovnik-Neretva","name":"Smokvica","lat":"42.93056000","lon":"16.89639000"},
{"state":"Dubrovnik-Neretva","name":"Ston","lat":"42.83861000","lon":"17.69639000"},
{"state":"Dubrovnik-Neretva","name":"Vela Luka","lat":"42.96333000","lon":"16.72250000"},
{"state":"Dubrovnik-Neretva","name":"Zažablje","lat":"43.01113000","lon":"17.65683000"},
{"state":"Dubrovnik-Neretva","name":"Žrnovo","lat":"42.95111000","lon":"17.11417000"},
{"state":"Dubrovnik-Neretva","name":"Župa dubrovačka","lat":"42.62683000","lon":"18.19475000"},
{"state":"Istria","name":"Bale","lat":"45.04056000","lon":"13.78361000"},
{"state":"Istria","name":"Bale-Valle","lat":"45.04089000","lon":"13.78565000"},
{"state":"Istria","name":"Brtonigla","lat":"45.38139000","lon":"13.62944000"},
{"state":"Istria","name":"Brtonigla-Verteneglio","lat":"45.37918000","lon":"13.62554000"},
{"state":"Istria","name":"Buje","lat":"45.41000000","lon":"13.66194000"},
{"state":"Istria","name":"Buje-Buie","lat":"45.40790000","lon":"13.65914000"},
{"state":"Istria","name":"Buzet","lat":"45.40944000","lon":"13.96667000"},
{"state":"Istria","name":"Fažana","lat":"44.92750000","lon":"13.80361000"},
{"state":"Istria","name":"Fažana-Fasana","lat":"44.92822000","lon":"13.80548000"},
{"state":"Istria","name":"Funtana","lat":"45.17472000","lon":"13.60500000"},
{"state":"Istria","name":"Funtana-Fontane","lat":"45.17483000","lon":"13.60627000"},
{"state":"Istria","name":"Galižana","lat":"44.93167000","lon":"13.86861000"},
{"state":"Istria","name":"Grad Buzet","lat":"45.41667000","lon":"13.96667000"},
{"state":"Istria","name":"Grad Labin","lat":"45.08333000","lon":"14.13333000"},
{"state":"Istria","name":"Grad Pazin","lat":"45.23333000","lon":"13.93333000"},
{"state":"Istria","name":"Grožnjan","lat":"45.37889000","lon":"13.72389000"},
{"state":"Istria","name":"Grožnjan-Grisignana","lat":"45.37728000","lon":"13.72145000"},
{"state":"Istria","name":"Kanfanar","lat":"45.12194000","lon":"13.83917000"},
{"state":"Istria","name":"Karojba","lat":"45.30083000","lon":"13.82306000"},
{"state":"Istria","name":"Kaštelir-Labinci","lat":"45.30277000","lon":"13.68841000"},
{"state":"Istria","name":"Labin","lat":"45.09500000","lon":"14.11972000"},
{"state":"Istria","name":"Ližnjan","lat":"44.82833000","lon":"13.95694000"},
{"state":"Istria","name":"Ližnjan-Lisignano","lat":"44.82765000","lon":"13.96028000"},
{"state":"Istria","name":"Lupoglav","lat":"45.35204000","lon":"14.10846000"},
{"state":"Istria","name":"Marčana","lat":"44.95528000","lon":"13.95389000"},
{"state":"Istria","name":"Medulin","lat":"44.82250000","lon":"13.93500000"},
{"state":"Istria","name":"Motovun","lat":"45.33667000","lon":"13.82861000"},
{"state":"Istria","name":"Motovun-Montona","lat":"45.33633000","lon":"13.82977000"},
{"state":"Istria","name":"Novigrad","lat":"45.31500000","lon":"13.55806000"},
{"state":"Istria","name":"Novigrad-Cittanova","lat":"45.31669000","lon":"13.56155000"},
{"state":"Istria","name":"Općina Lanišće","lat":"45.43520000","lon":"14.08196000"},
{"state":"Istria","name":"Oprtalj-Portole","lat":"45.38226000","lon":"13.82406000"},
{"state":"Istria","name":"Pazin","lat":"45.24028000","lon":"13.93667000"},
{"state":"Istria","name":"Poreč","lat":"45.22567000","lon":"13.59511000"},
{"state":"Istria","name":"Poreč-Parenzo","lat":"45.22717000","lon":"13.59653000"},
{"state":"Istria","name":"Pula","lat":"44.86833000","lon":"13.84806000"},
{"state":"Istria","name":"Pula-Pola","lat":"44.86711000","lon":"13.84882000"},
{"state":"Istria","name":"Rabac","lat":"45.07944000","lon":"14.15750000"},
{"state":"Istria","name":"Raša","lat":"45.08028000","lon":"14.07889000"},
{"state":"Istria","name":"Rovinj","lat":"45.08000000","lon":"13.64000000"},
{"state":"Istria","name":"Rovinj-Rovigno","lat":"45.08190000","lon":"13.63970000"},
{"state":"Istria","name":"Sveta Nedelja","lat":"45.14932000","lon":"14.09889000"},
{"state":"Istria","name":"Sveti Lovreč","lat":"45.17770000","lon":"13.74317000"},
{"state":"Istria","name":"Tar","lat":"45.30083000","lon":"13.62528000"},
{"state":"Istria","name":"Tar-Vabriga-Torre Abrega","lat":"45.29946000","lon":"13.62489000"},
{"state":"Istria","name":"Umag","lat":"45.43139000","lon":"13.52389000"},
{"state":"Istria","name":"Umag-Umago","lat":"45.43462000","lon":"13.52589000"},
{"state":"Istria","name":"Valbandon","lat":"44.91879000","lon":"13.81344000"},
{"state":"Istria","name":"Vinež","lat":"45.09806000","lon":"14.10694000"},
{"state":"Istria","name":"Višnjan-Visignano","lat":"45.27614000","lon":"13.72128000"},
{"state":"Istria","name":"Vižinada-Visinada","lat":"45.33126000","lon":"13.75943000"},
{"state":"Istria","name":"Vodnjan","lat":"44.95944000","lon":"13.85167000"},
{"state":"Istria","name":"Vodnjan-Dignano","lat":"44.96187000","lon":"13.85041000"},
{"state":"Istria","name":"Vrsar","lat":"45.14917000","lon":"13.60528000"},
{"state":"Istria","name":"Vrsar-Orsera","lat":"45.15074000","lon":"13.60558000"},
{"state":"Istria","name":"Žminj","lat":"45.14278000","lon":"13.90889000"},
{"state":"Koprivnica-Križevci","name":"Drnje","lat":"46.20694000","lon":"16.91694000"},
{"state":"Koprivnica-Križevci","name":"Đelekovec","lat":"46.24989000","lon":"16.87011000"},
{"state":"Koprivnica-Križevci","name":"Đurđevac","lat":"46.03972000","lon":"17.07168000"},
{"state":"Koprivnica-Križevci","name":"Ferdinandovac","lat":"46.05000000","lon":"17.20000000"},
{"state":"Koprivnica-Križevci","name":"Gola","lat":"46.19583000","lon":"17.05806000"},
{"state":"Koprivnica-Križevci","name":"Gornja Rijeka","lat":"46.10977000","lon":"16.39079000"},
{"state":"Koprivnica-Križevci","name":"Grad Koprivnica","lat":"46.16667000","lon":"16.83333000"},
{"state":"Koprivnica-Križevci","name":"Grad Križevci","lat":"46.03333000","lon":"16.56667000"},
{"state":"Koprivnica-Križevci","name":"Hlebine","lat":"46.15694000","lon":"16.96278000"},
{"state":"Koprivnica-Križevci","name":"Kalinovac","lat":"46.02944000","lon":"17.11556000"},
{"state":"Koprivnica-Križevci","name":"Koprivnica","lat":"46.16278000","lon":"16.82750000"},
{"state":"Koprivnica-Križevci","name":"Koprivnički Ivanec","lat":"46.19907000","lon":"16.81629000"},
{"state":"Koprivnica-Križevci","name":"Križevci","lat":"46.02194000","lon":"16.54250000"},
{"state":"Koprivnica-Križevci","name":"Legrad","lat":"46.29750000","lon":"16.85667000"},
{"state":"Koprivnica-Križevci","name":"Molve","lat":"46.10917000","lon":"17.03167000"},
{"state":"Koprivnica-Križevci","name":"Novo Virje","lat":"46.09834000","lon":"17.15215000"},
{"state":"Koprivnica-Križevci","name":"Peteranec","lat":"46.19222000","lon":"16.89167000"},
{"state":"Koprivnica-Križevci","name":"Rasinja","lat":"46.18389000","lon":"16.70667000"},
{"state":"Koprivnica-Križevci","name":"Reka","lat":"46.13028000","lon":"16.76694000"},
{"state":"Koprivnica-Križevci","name":"Sigetec","lat":"46.18833000","lon":"16.93583000"},
{"state":"Koprivnica-Križevci","name":"Virje","lat":"46.06722000","lon":"16.99000000"},
{"state":"Krapina-Zagorje","name":"Bedekovčina","lat":"46.04111000","lon":"15.99639000"},
{"state":"Krapina-Zagorje","name":"Budinščina","lat":"46.12785000","lon":"16.20415000"},
{"state":"Krapina-Zagorje","name":"Đurmanec","lat":"46.19708000","lon":"15.83786000"},
{"state":"Krapina-Zagorje","name":"Grad Donja Stubica","lat":"45.97955000","lon":"15.97069000"},
{"state":"Krapina-Zagorje","name":"Grad Klanjec","lat":"46.04977000","lon":"15.74615000"},
{"state":"Krapina-Zagorje","name":"Grad Krapina","lat":"46.15968000","lon":"15.87258000"},
{"state":"Krapina-Zagorje","name":"Grad Zabok","lat":"46.02808000","lon":"15.90855000"},
{"state":"Krapina-Zagorje","name":"Grad Zlatar","lat":"46.09198000","lon":"16.07695000"},
{"state":"Krapina-Zagorje","name":"Jesenje","lat":"46.20724000","lon":"15.88194000"},
{"state":"Krapina-Zagorje","name":"Klanjec","lat":"46.04982000","lon":"15.74418000"},
{"state":"Krapina-Zagorje","name":"Konjščina","lat":"46.05435000","lon":"16.17763000"},
{"state":"Krapina-Zagorje","name":"Krapina","lat":"46.16083000","lon":"15.87889000"},
{"state":"Krapina-Zagorje","name":"Kumrovec","lat":"46.07750000","lon":"15.67556000"},
{"state":"Krapina-Zagorje","name":"Mače","lat":"46.09472000","lon":"16.03528000"},
{"state":"Krapina-Zagorje","name":"Marija Bistrica","lat":"46.00611000","lon":"16.11111000"},
{"state":"Krapina-Zagorje","name":"Mihovljan","lat":"46.13306000","lon":"15.97222000"},
{"state":"Krapina-Zagorje","name":"Oroslavje","lat":"45.99672000","lon":"15.91507000"},
{"state":"Krapina-Zagorje","name":"Pregrada","lat":"46.16417000","lon":"15.75083000"},
{"state":"Krapina-Zagorje","name":"Radoboj","lat":"46.16639000","lon":"15.92361000"},
{"state":"Krapina-Zagorje","name":"Stubičke Toplice","lat":"45.97585000","lon":"15.93238000"},
{"state":"Krapina-Zagorje","name":"Sveti Križ Začretje","lat":"46.08224000","lon":"15.90704000"},
{"state":"Krapina-Zagorje","name":"Zabok","lat":"46.02944000","lon":"15.91500000"},
{"state":"Krapina-Zagorje","name":"Zlatar","lat":"46.09417000","lon":"16.07083000"},
{"state":"Krapina-Zagorje","name":"Zlatar Bistrica","lat":"46.04788000","lon":"16.08527000"},
{"state":"Lika-Senj","name":"Brinje","lat":"45.00250000","lon":"15.13389000"},
{"state":"Lika-Senj","name":"Gospić","lat":"44.54611000","lon":"15.37472000"},
{"state":"Lika-Senj","name":"Karlobag","lat":"44.52750000","lon":"15.07389000"},
{"state":"Lika-Senj","name":"Lički Osik","lat":"44.60389000","lon":"15.42472000"},
{"state":"Lika-Senj","name":"Novalja","lat":"44.55778000","lon":"14.88667000"},
{"state":"Lika-Senj","name":"Otočac","lat":"44.86944000","lon":"15.23750000"},
{"state":"Lika-Senj","name":"Perušić","lat":"44.64944000","lon":"15.38333000"},
{"state":"Lika-Senj","name":"Plitvička Jezera","lat":"44.88053000","lon":"15.62123000"},
{"state":"Lika-Senj","name":"Popovača","lat":"44.63917000","lon":"15.17917000"},
{"state":"Lika-Senj","name":"Senj","lat":"44.98944000","lon":"14.90583000"},
{"state":"Međimurje","name":"Belica","lat":"46.40417000","lon":"16.51833000"},
{"state":"Međimurje","name":"Čakovec","lat":"46.38444000","lon":"16.43389000"},
{"state":"Međimurje","name":"Dekanovec","lat":"46.44861000","lon":"16.58472000"},
{"state":"Međimurje","name":"Domašinec","lat":"46.43250000","lon":"16.60000000"},
{"state":"Međimurje","name":"Goričan","lat":"46.38417000","lon":"16.68083000"},
{"state":"Međimurje","name":"Grad Čakovec","lat":"46.38583000","lon":"16.43333000"},
{"state":"Međimurje","name":"Hodošan","lat":"46.39528000","lon":"16.64389000"},
{"state":"Međimurje","name":"Ivanovec","lat":"46.36833000","lon":"16.47667000"},
{"state":"Međimurje","name":"Kotoriba","lat":"46.35500000","lon":"16.81806000"},
{"state":"Međimurje","name":"Kuršanec","lat":"46.33028000","lon":"16.40167000"},
{"state":"Međimurje","name":"Lopatinec","lat":"46.43333000","lon":"16.38333000"},
{"state":"Međimurje","name":"Mačkovec","lat":"46.42417000","lon":"16.43361000"},
{"state":"Međimurje","name":"Mala Subotica","lat":"46.37616000","lon":"16.52893000"},
{"state":"Međimurje","name":"Mihovljan","lat":"46.40861000","lon":"16.44806000"},
{"state":"Međimurje","name":"Mursko Središće","lat":"46.50944000","lon":"16.44111000"},
{"state":"Međimurje","name":"Nedelišće","lat":"46.37583000","lon":"16.38750000"},
{"state":"Međimurje","name":"Novo Selo Rok","lat":"46.42839000","lon":"16.46215000"},
{"state":"Međimurje","name":"Orehovica","lat":"46.33167000","lon":"16.50694000"},
{"state":"Međimurje","name":"Peklenica","lat":"46.49528000","lon":"16.47611000"},
{"state":"Međimurje","name":"Podturen","lat":"46.46472000","lon":"16.54306000"},
{"state":"Međimurje","name":"Prelog","lat":"46.33500000","lon":"16.61556000"},
{"state":"Međimurje","name":"Pribislavec","lat":"46.39250000","lon":"16.48250000"},
{"state":"Međimurje","name":"Šenkovec","lat":"46.40889000","lon":"16.42167000"},
{"state":"Međimurje","name":"Strahoninec","lat":"46.36889000","lon":"16.41500000"},
{"state":"Međimurje","name":"Sveti Juraj na Bregu","lat":"46.42853000","lon":"16.38525000"},
{"state":"Međimurje","name":"Vratišinec","lat":"46.47806000","lon":"16.45778000"},
{"state":"Osijek-Baranja","name":"Antunovac","lat":"45.49083000","lon":"18.67500000"},
{"state":"Osijek-Baranja","name":"Beli Manastir","lat":"45.77000000","lon":"18.60361000"},
{"state":"Osijek-Baranja","name":"Belišće","lat":"45.68028000","lon":"18.40583000"},
{"state":"Osijek-Baranja","name":"Bijelo Brdo","lat":"45.51722000","lon":"18.87083000"},
{"state":"Osijek-Baranja","name":"Bilje","lat":"45.60694000","lon":"18.74389000"},
{"state":"Osijek-Baranja","name":"Bistrinci","lat":"45.69167000","lon":"18.39861000"},
{"state":"Osijek-Baranja","name":"Bizovac","lat":"45.59278000","lon":"18.45889000"},
{"state":"Osijek-Baranja","name":"Brijest","lat":"45.52056000","lon":"18.67194000"},
{"state":"Osijek-Baranja","name":"Budrovci","lat":"45.27111000","lon":"18.44861000"},
{"state":"Osijek-Baranja","name":"Čeminac","lat":"45.68639000","lon":"18.66750000"},
{"state":"Osijek-Baranja","name":"Čepin","lat":"45.52361000","lon":"18.56333000"},
{"state":"Osijek-Baranja","name":"Dalj","lat":"45.48438000","lon":"18.98610000"},
{"state":"Osijek-Baranja","name":"Darda","lat":"45.62806000","lon":"18.69972000"},
{"state":"Osijek-Baranja","name":"Donji Miholjac","lat":"45.76083000","lon":"18.16722000"},
{"state":"Osijek-Baranja","name":"Draž","lat":"45.84222000","lon":"18.78861000"},
{"state":"Osijek-Baranja","name":"Đakovo","lat":"45.30833000","lon":"18.41056000"},
{"state":"Osijek-Baranja","name":"Đurđenovac","lat":"45.54333000","lon":"18.04583000"},
{"state":"Osijek-Baranja","name":"Erdut","lat":"45.52639000","lon":"19.06028000"},
{"state":"Osijek-Baranja","name":"Ernestinovo","lat":"45.45194000","lon":"18.65917000"},
{"state":"Osijek-Baranja","name":"Feričanci","lat":"45.52889000","lon":"17.97583000"},
{"state":"Osijek-Baranja","name":"Gorjani","lat":"45.39889000","lon":"18.37222000"},
{"state":"Osijek-Baranja","name":"Grad Beli Manastir","lat":"45.77219000","lon":"18.61084000"},
{"state":"Osijek-Baranja","name":"Grad Donji Miholjac","lat":"45.75000000","lon":"18.16667000"},
{"state":"Osijek-Baranja","name":"Grad Našice","lat":"45.50000000","lon":"18.10000000"},
{"state":"Osijek-Baranja","name":"Grad Osijek","lat":"45.58333000","lon":"18.66667000"},
{"state":"Osijek-Baranja","name":"Grad Valpovo","lat":"45.66667000","lon":"18.41667000"},
{"state":"Osijek-Baranja","name":"Jagodnjak","lat":"45.69917000","lon":"18.57694000"},
{"state":"Osijek-Baranja","name":"Jelisavac","lat":"45.52889000","lon":"18.15611000"},
{"state":"Osijek-Baranja","name":"Josipovac","lat":"45.58278000","lon":"18.58139000"},
{"state":"Osijek-Baranja","name":"Karanac","lat":"45.76056000","lon":"18.68444000"},
{"state":"Osijek-Baranja","name":"Kneževi Vinogradi","lat":"45.75028000","lon":"18.73306000"},
{"state":"Osijek-Baranja","name":"Koška","lat":"45.54528000","lon":"18.28583000"},
{"state":"Osijek-Baranja","name":"Kuševac","lat":"45.34778000","lon":"18.42889000"},
{"state":"Osijek-Baranja","name":"Ladimirevci","lat":"45.62556000","lon":"18.44861000"},
{"state":"Osijek-Baranja","name":"Laslovo","lat":"45.41500000","lon":"18.69611000"},
{"state":"Osijek-Baranja","name":"Magadenovac","lat":"45.66159000","lon":"18.18679000"},
{"state":"Osijek-Baranja","name":"Marijanci","lat":"45.66645000","lon":"18.29284000"},
{"state":"Osijek-Baranja","name":"Marjanci","lat":"45.66694000","lon":"18.29222000"},
{"state":"Osijek-Baranja","name":"Markovac Našički","lat":"45.49389000","lon":"18.12556000"},
{"state":"Osijek-Baranja","name":"Martin","lat":"45.49222000","lon":"18.06667000"},
{"state":"Osijek-Baranja","name":"Našice","lat":"45.48861000","lon":"18.08778000"},
{"state":"Osijek-Baranja","name":"Osijek","lat":"45.55111000","lon":"18.69389000"},
{"state":"Osijek-Baranja","name":"Petlovac","lat":"45.75833000","lon":"18.52806000"},
{"state":"Osijek-Baranja","name":"Petrijevci","lat":"45.61278000","lon":"18.53528000"},
{"state":"Osijek-Baranja","name":"Piškorevci","lat":"45.25528000","lon":"18.40417000"},
{"state":"Osijek-Baranja","name":"Podgorač","lat":"45.45861000","lon":"18.22278000"},
{"state":"Osijek-Baranja","name":"Podravska Moslavina","lat":"45.78456000","lon":"17.98410000"},
{"state":"Osijek-Baranja","name":"Sarvaš","lat":"45.52722000","lon":"18.83750000"},
{"state":"Osijek-Baranja","name":"Satnica Đakovačka","lat":"45.35367000","lon":"18.37729000"},
{"state":"Osijek-Baranja","name":"Semeljci","lat":"45.36056000","lon":"18.54361000"},
{"state":"Osijek-Baranja","name":"Široko Polje","lat":"45.40528000","lon":"18.47250000"},
{"state":"Osijek-Baranja","name":"Šodolovci","lat":"45.40000000","lon":"18.62028000"},
{"state":"Osijek-Baranja","name":"Strizivojna","lat":"45.22611000","lon":"18.42389000"},
{"state":"Osijek-Baranja","name":"Tenja","lat":"45.49806000","lon":"18.74722000"},
{"state":"Osijek-Baranja","name":"Valpovo","lat":"45.66083000","lon":"18.41861000"},
{"state":"Osijek-Baranja","name":"Velimirovac","lat":"45.52361000","lon":"18.10944000"},
{"state":"Osijek-Baranja","name":"Viljevo","lat":"45.75139000","lon":"18.06306000"},
{"state":"Osijek-Baranja","name":"Viškovci","lat":"45.34500000","lon":"18.46222000"},
{"state":"Osijek-Baranja","name":"Višnjevac","lat":"45.56861000","lon":"18.61389000"},
{"state":"Osijek-Baranja","name":"Vladislavci","lat":"45.45944000","lon":"18.57417000"},
{"state":"Osijek-Baranja","name":"Vuka","lat":"45.43389000","lon":"18.50500000"},
{"state":"Požega-Slavonia","name":"Brestovac","lat":"45.33056000","lon":"17.59694000"},
{"state":"Požega-Slavonia","name":"Grad Pakrac","lat":"45.43333000","lon":"17.20000000"},
{"state":"Požega-Slavonia","name":"Grad Požega","lat":"45.33333000","lon":"17.66667000"},
{"state":"Požega-Slavonia","name":"Jakšić","lat":"45.35765000","lon":"17.76502000"},
{"state":"Požega-Slavonia","name":"Kaptol","lat":"45.43472000","lon":"17.72611000"},
{"state":"Požega-Slavonia","name":"Kutjevo","lat":"45.42611000","lon":"17.88250000"},
{"state":"Požega-Slavonia","name":"Lipik","lat":"45.41139000","lon":"17.15222000"},
{"state":"Požega-Slavonia","name":"Pakrac","lat":"45.43639000","lon":"17.18889000"},
{"state":"Požega-Slavonia","name":"Pleternica","lat":"45.28861000","lon":"17.80639000"},
{"state":"Požega-Slavonia","name":"Požega","lat":"45.34028000","lon":"17.68528000"},
{"state":"Požega-Slavonia","name":"Velika","lat":"45.45444000","lon":"17.66139000"},
{"state":"Požega-Slavonia","name":"Vidovci","lat":"45.33250000","lon":"17.71472000"},
{"state":"Primorje-Gorski Kotar","name":"Bakar","lat":"45.30861000","lon":"14.53028000"},
{"state":"Primorje-Gorski Kotar","name":"Banjol","lat":"44.75000000","lon":"14.78333000"},
{"state":"Primorje-Gorski Kotar","name":"Baška","lat":"44.97028000","lon":"14.75333000"},
{"state":"Primorje-Gorski Kotar","name":"Bribir","lat":"45.16111000","lon":"14.76472000"},
{"state":"Primorje-Gorski Kotar","name":"Buzdohanj","lat":"45.34528000","lon":"14.48833000"},
{"state":"Primorje-Gorski Kotar","name":"Čavle","lat":"45.35194000","lon":"14.48389000"},
{"state":"Primorje-Gorski Kotar","name":"Cernik","lat":"45.34361000","lon":"14.50222000"},
{"state":"Primorje-Gorski Kotar","name":"Cres","lat":"44.96111000","lon":"14.40840000"},
{"state":"Primorje-Gorski Kotar","name":"Crikvenica","lat":"45.17722000","lon":"14.69278000"},
{"state":"Primorje-Gorski Kotar","name":"Delnice","lat":"45.40083000","lon":"14.79972000"},
{"state":"Primorje-Gorski Kotar","name":"Dražice","lat":"45.39083000","lon":"14.47028000"},
{"state":"Primorje-Gorski Kotar","name":"Drenova","lat":"45.35000000","lon":"14.43028000"},
{"state":"Primorje-Gorski Kotar","name":"Fužine","lat":"45.30528000","lon":"14.71556000"},
{"state":"Primorje-Gorski Kotar","name":"Grad Čabar","lat":"45.58333000","lon":"14.58333000"},
{"state":"Primorje-Gorski Kotar","name":"Grad Crikvenica","lat":"45.16667000","lon":"14.70000000"},
{"state":"Primorje-Gorski Kotar","name":"Grad Delnice","lat":"45.39806000","lon":"14.80111000"},
{"state":"Primorje-Gorski Kotar","name":"Grad Krk","lat":"45.02829000","lon":"14.57233000"},
{"state":"Primorje-Gorski Kotar","name":"Grad Opatija","lat":"45.33333000","lon":"14.26667000"},
{"state":"Primorje-Gorski Kotar","name":"Grad Rijeka","lat":"45.32693000","lon":"14.43758000"},
{"state":"Primorje-Gorski Kotar","name":"Grad Vrbovsko","lat":"45.37542000","lon":"15.07856000"},
{"state":"Primorje-Gorski Kotar","name":"Hreljin","lat":"45.28250000","lon":"14.59917000"},
{"state":"Primorje-Gorski Kotar","name":"Jadranovo","lat":"45.23111000","lon":"14.61833000"},
{"state":"Primorje-Gorski Kotar","name":"Kampor","lat":"44.77500000","lon":"14.71861000"},
{"state":"Primorje-Gorski Kotar","name":"Kastav","lat":"45.37528000","lon":"14.34861000"},
{"state":"Primorje-Gorski Kotar","name":"Klana","lat":"45.44694000","lon":"14.37694000"},
{"state":"Primorje-Gorski Kotar","name":"Kraljevica","lat":"45.27395000","lon":"14.56830000"},
{"state":"Primorje-Gorski Kotar","name":"Krasica","lat":"45.30972000","lon":"14.55556000"},
{"state":"Primorje-Gorski Kotar","name":"Krk","lat":"45.02744000","lon":"14.57542000"},
{"state":"Primorje-Gorski Kotar","name":"Lopar","lat":"44.83250000","lon":"14.73028000"},
{"state":"Primorje-Gorski Kotar","name":"Lovran","lat":"45.29194000","lon":"14.27417000"},
{"state":"Primorje-Gorski Kotar","name":"Mali Lošinj","lat":"44.53056000","lon":"14.46861000"},
{"state":"Primorje-Gorski Kotar","name":"Malinska-Dubašnica","lat":"45.12277000","lon":"14.52873000"},
{"state":"Primorje-Gorski Kotar","name":"Marčelji","lat":"45.39611000","lon":"14.38944000"},
{"state":"Primorje-Gorski Kotar","name":"Marinići","lat":"45.36500000","lon":"14.39389000"},
{"state":"Primorje-Gorski Kotar","name":"Matulji","lat":"45.36167000","lon":"14.32500000"},
{"state":"Primorje-Gorski Kotar","name":"Mihotići","lat":"45.36125000","lon":"14.30553000"},
{"state":"Primorje-Gorski Kotar","name":"Mrkopalj","lat":"45.31556000","lon":"14.85528000"},
{"state":"Primorje-Gorski Kotar","name":"Njivice","lat":"45.15806000","lon":"14.53861000"},
{"state":"Primorje-Gorski Kotar","name":"Novi Vinodolski","lat":"45.12806000","lon":"14.78889000"},
{"state":"Primorje-Gorski Kotar","name":"Omišalj","lat":"45.21134000","lon":"14.55495000"},
{"state":"Primorje-Gorski Kotar","name":"Opatija","lat":"45.33771000","lon":"14.30515000"},
{"state":"Primorje-Gorski Kotar","name":"Podhum","lat":"45.38722000","lon":"14.47944000"},
{"state":"Primorje-Gorski Kotar","name":"Punat","lat":"45.01472000","lon":"14.62889000"},
{"state":"Primorje-Gorski Kotar","name":"Rab","lat":"44.75769000","lon":"14.75906000"},
{"state":"Primorje-Gorski Kotar","name":"Rijeka","lat":"45.32673000","lon":"14.44241000"},
{"state":"Primorje-Gorski Kotar","name":"Rubeši","lat":"45.36694000","lon":"14.34806000"},
{"state":"Primorje-Gorski Kotar","name":"Selce","lat":"45.15639000","lon":"14.72111000"},
{"state":"Primorje-Gorski Kotar","name":"Skrad","lat":"45.42778000","lon":"14.91111000"},
{"state":"Primorje-Gorski Kotar","name":"Škrljevo","lat":"45.32053000","lon":"14.53268000"},
{"state":"Primorje-Gorski Kotar","name":"Supetarska Draga","lat":"44.79750000","lon":"14.72472000"},
{"state":"Primorje-Gorski Kotar","name":"Vinodolska općina","lat":"45.22219000","lon":"14.68941000"},
{"state":"Primorje-Gorski Kotar","name":"Viškovo","lat":"45.37572000","lon":"14.38400000"},
{"state":"Primorje-Gorski Kotar","name":"Vrbnik","lat":"45.07583000","lon":"14.67250000"},
{"state":"Primorje-Gorski Kotar","name":"Vrbovsko","lat":"45.36861000","lon":"15.07833000"},
{"state":"Šibenik-Knin","name":"Brodarica","lat":"43.68000000","lon":"15.91972000"},
{"state":"Šibenik-Knin","name":"Drniš","lat":"43.86250000","lon":"16.15556000"},
{"state":"Šibenik-Knin","name":"Grad Drniš","lat":"43.83333000","lon":"16.16667000"},
{"state":"Šibenik-Knin","name":"Grad Šibenik","lat":"43.73576000","lon":"15.89602000"},
{"state":"Šibenik-Knin","name":"Kistanje","lat":"43.98278000","lon":"15.96500000"},
{"state":"Šibenik-Knin","name":"Knin","lat":"44.04063000","lon":"16.19662000"},
{"state":"Šibenik-Knin","name":"Murter","lat":"43.82043000","lon":"15.58988000"},
{"state":"Šibenik-Knin","name":"Murter-Kornati","lat":"43.80959000","lon":"15.60024000"},
{"state":"Šibenik-Knin","name":"Pirovac","lat":"43.81917000","lon":"15.67278000"},
{"state":"Šibenik-Knin","name":"Primošten","lat":"43.58632000","lon":"15.92302000"},
{"state":"Šibenik-Knin","name":"Promina","lat":"43.95798000","lon":"16.09737000"},
{"state":"Šibenik-Knin","name":"Rogoznica","lat":"43.52472000","lon":"15.97000000"},
{"state":"Šibenik-Knin","name":"Rogoznica Općina","lat":"43.53620000","lon":"15.97086000"},
{"state":"Šibenik-Knin","name":"Šibenik","lat":"43.72722000","lon":"15.90583000"},
{"state":"Šibenik-Knin","name":"Skradin","lat":"43.82028000","lon":"15.92361000"},
{"state":"Šibenik-Knin","name":"Tisno","lat":"43.80417000","lon":"15.64333000"},
{"state":"Šibenik-Knin","name":"Tribunj","lat":"43.75547000","lon":"15.74444000"},
{"state":"Šibenik-Knin","name":"Vodice","lat":"43.76083000","lon":"15.78278000"},
{"state":"Sisak-Moslavina","name":"Budaševo","lat":"45.47472000","lon":"16.43667000"},
{"state":"Sisak-Moslavina","name":"Dvor","lat":"45.07306000","lon":"16.37083000"},
{"state":"Sisak-Moslavina","name":"Glina","lat":"45.33806000","lon":"16.08806000"},
{"state":"Sisak-Moslavina","name":"Grad Glina","lat":"45.33333000","lon":"16.10000000"},
{"state":"Sisak-Moslavina","name":"Grad Hrvatska Kostajnica","lat":"45.25000000","lon":"16.56667000"},
{"state":"Sisak-Moslavina","name":"Grad Kutina","lat":"45.50000000","lon":"16.75000000"},
{"state":"Sisak-Moslavina","name":"Grad Novska","lat":"45.33333000","lon":"17.00000000"},
{"state":"Sisak-Moslavina","name":"Grad Petrinja","lat":"45.43333000","lon":"16.26667000"},
{"state":"Sisak-Moslavina","name":"Grad Sisak","lat":"45.50000000","lon":"16.36667000"},
{"state":"Sisak-Moslavina","name":"Gvozd","lat":"45.35305000","lon":"15.86563000"},
{"state":"Sisak-Moslavina","name":"Hrvatska Kostajnica","lat":"45.23167000","lon":"16.53917000"},
{"state":"Sisak-Moslavina","name":"Kutina","lat":"45.47500000","lon":"16.78194000"},
{"state":"Sisak-Moslavina","name":"Lekenik","lat":"45.58556000","lon":"16.21139000"},
{"state":"Sisak-Moslavina","name":"Lipovljani","lat":"45.39667000","lon":"16.88972000"},
{"state":"Sisak-Moslavina","name":"Martinska Ves","lat":"45.58670000","lon":"16.37465000"},
{"state":"Sisak-Moslavina","name":"Novska","lat":"45.34056000","lon":"16.97694000"},
{"state":"Sisak-Moslavina","name":"Općina Dvor","lat":"45.10000000","lon":"16.30000000"},
{"state":"Sisak-Moslavina","name":"Općina Gvozd","lat":"45.33333000","lon":"15.90000000"},
{"state":"Sisak-Moslavina","name":"Petrinja","lat":"45.43750000","lon":"16.29000000"},
{"state":"Sisak-Moslavina","name":"Popovača","lat":"45.56972000","lon":"16.62500000"},
{"state":"Sisak-Moslavina","name":"Repušnica","lat":"45.49278000","lon":"16.73083000"},
{"state":"Sisak-Moslavina","name":"Sisak","lat":"45.46611000","lon":"16.37833000"},
{"state":"Sisak-Moslavina","name":"Sunja","lat":"45.36850000","lon":"16.56702000"},
{"state":"Sisak-Moslavina","name":"Voloder","lat":"45.54806000","lon":"16.67889000"},
{"state":"Split-Dalmatia","name":"Baška Voda","lat":"43.35694000","lon":"16.95028000"},
{"state":"Split-Dalmatia","name":"Bol","lat":"43.26194000","lon":"16.65500000"},
{"state":"Split-Dalmatia","name":"Brela","lat":"43.36889000","lon":"16.93417000"},
{"state":"Split-Dalmatia","name":"Brnaze","lat":"43.68000000","lon":"16.64972000"},
{"state":"Split-Dalmatia","name":"Dicmo","lat":"43.63678000","lon":"16.58978000"},
{"state":"Split-Dalmatia","name":"Donji Vinjani","lat":"43.44613000","lon":"17.24064000"},
{"state":"Split-Dalmatia","name":"Duće","lat":"43.44278000","lon":"16.66833000"},
{"state":"Split-Dalmatia","name":"Dugi Rat Općina","lat":"43.44923000","lon":"16.64738000"},
{"state":"Split-Dalmatia","name":"Dugopolje","lat":"43.58056000","lon":"16.60278000"},
{"state":"Split-Dalmatia","name":"Gala","lat":"43.71500000","lon":"16.72694000"},
{"state":"Split-Dalmatia","name":"Grabovci","lat":"43.49278000","lon":"17.20111000"},
{"state":"Split-Dalmatia","name":"Grad Hvar","lat":"43.17263000","lon":"16.44550000"},
{"state":"Split-Dalmatia","name":"Grad Imotski","lat":"43.43333000","lon":"17.16667000"},
{"state":"Split-Dalmatia","name":"Grad Makarska","lat":"43.30000000","lon":"17.03333000"},
{"state":"Split-Dalmatia","name":"Grad Omiš","lat":"43.46667000","lon":"16.70000000"},
{"state":"Split-Dalmatia","name":"Grad Sinj","lat":"43.72285000","lon":"16.65819000"},
{"state":"Split-Dalmatia","name":"Grad Split","lat":"43.50000000","lon":"16.50000000"},
{"state":"Split-Dalmatia","name":"Grad Supetar","lat":"43.38444000","lon":"16.55528000"},
{"state":"Split-Dalmatia","name":"Grad Trogir","lat":"43.52061000","lon":"16.25144000"},
{"state":"Split-Dalmatia","name":"Grad Vis","lat":"43.05315000","lon":"16.18698000"},
{"state":"Split-Dalmatia","name":"Grad Vrgorac","lat":"43.20000000","lon":"17.36667000"},
{"state":"Split-Dalmatia","name":"Gradac","lat":"43.10583000","lon":"17.34167000"},
{"state":"Split-Dalmatia","name":"Greda","lat":"43.61528000","lon":"16.69361000"},
{"state":"Split-Dalmatia","name":"Grubine","lat":"43.42986000","lon":"17.16292000"},
{"state":"Split-Dalmatia","name":"Hrvace","lat":"43.76333000","lon":"16.61500000"},
{"state":"Split-Dalmatia","name":"Hvar","lat":"43.17250000","lon":"16.44278000"},
{"state":"Split-Dalmatia","name":"Imotski","lat":"43.44667000","lon":"17.21667000"},
{"state":"Split-Dalmatia","name":"Jelsa","lat":"43.16139000","lon":"16.69306000"},
{"state":"Split-Dalmatia","name":"Jesenice","lat":"43.46158000","lon":"16.60197000"},
{"state":"Split-Dalmatia","name":"Kamen","lat":"43.51417000","lon":"16.51472000"},
{"state":"Split-Dalmatia","name":"Kaštel Gomilica","lat":"43.55000000","lon":"16.40000000"},
{"state":"Split-Dalmatia","name":"Kaštel Kambelovac","lat":"43.55000000","lon":"16.38333000"},
{"state":"Split-Dalmatia","name":"Kaštel Lukšić","lat":"43.55528000","lon":"16.36750000"},
{"state":"Split-Dalmatia","name":"Kaštel Novi","lat":"43.55000000","lon":"16.33333000"},
{"state":"Split-Dalmatia","name":"Kaštel Štafilić","lat":"43.55000000","lon":"16.33333000"},
{"state":"Split-Dalmatia","name":"Kaštel Stari","lat":"43.55000000","lon":"16.35000000"},
{"state":"Split-Dalmatia","name":"Kaštela","lat":"43.53865000","lon":"16.30740000"},
{"state":"Split-Dalmatia","name":"Klis","lat":"43.55944000","lon":"16.51944000"},
{"state":"Split-Dalmatia","name":"Komiža","lat":"43.04306000","lon":"16.09306000"},
{"state":"Split-Dalmatia","name":"Košute","lat":"43.63083000","lon":"16.69500000"},
{"state":"Split-Dalmatia","name":"Lokvičići","lat":"43.46428000","lon":"17.09142000"},
{"state":"Split-Dalmatia","name":"Lovreć","lat":"43.48761000","lon":"16.98632000"},
{"state":"Split-Dalmatia","name":"Makarska","lat":"43.29694000","lon":"17.01778000"},
{"state":"Split-Dalmatia","name":"Milna","lat":"43.32667000","lon":"16.45083000"},
{"state":"Split-Dalmatia","name":"Mravince","lat":"43.53333000","lon":"16.52194000"},
{"state":"Split-Dalmatia","name":"Muć","lat":"43.69328000","lon":"16.47267000"},
{"state":"Split-Dalmatia","name":"Nerežišća","lat":"43.32959000","lon":"16.57743000"},
{"state":"Split-Dalmatia","name":"Okrug","lat":"43.49638000","lon":"16.26732000"},
{"state":"Split-Dalmatia","name":"Okrug Gornji","lat":"43.49473000","lon":"16.26531000"},
{"state":"Split-Dalmatia","name":"Omiš","lat":"43.44472000","lon":"16.68861000"},
{"state":"Split-Dalmatia","name":"Otok","lat":"43.68661000","lon":"16.73488000"},
{"state":"Split-Dalmatia","name":"Podstrana","lat":"43.48668000","lon":"16.55013000"},
{"state":"Split-Dalmatia","name":"Postira","lat":"43.37551000","lon":"16.63091000"},
{"state":"Split-Dalmatia","name":"Proložac","lat":"43.46690000","lon":"17.15507000"},
{"state":"Split-Dalmatia","name":"Pučišća","lat":"43.34778000","lon":"16.73389000"},
{"state":"Split-Dalmatia","name":"Runović","lat":"43.37667000","lon":"17.23667000"},
{"state":"Split-Dalmatia","name":"Runovići","lat":"43.38704000","lon":"17.23892000"},
{"state":"Split-Dalmatia","name":"Seget","lat":"43.54305000","lon":"16.21222000"},
{"state":"Split-Dalmatia","name":"Seget Vranjica","lat":"43.50999000","lon":"16.18704000"},
{"state":"Split-Dalmatia","name":"Selca","lat":"43.29722000","lon":"16.85083000"},
{"state":"Split-Dalmatia","name":"Sinj","lat":"43.70361000","lon":"16.63944000"},
{"state":"Split-Dalmatia","name":"Slatine","lat":"43.49944000","lon":"16.33333000"},
{"state":"Split-Dalmatia","name":"Solin","lat":"43.54320000","lon":"16.49314000"},
{"state":"Split-Dalmatia","name":"Šolta","lat":"43.38714000","lon":"16.28865000"},
{"state":"Split-Dalmatia","name":"Split","lat":"43.50891000","lon":"16.43915000"},
{"state":"Split-Dalmatia","name":"Srinjine","lat":"43.48333000","lon":"16.60000000"},
{"state":"Split-Dalmatia","name":"Stari Grad","lat":"43.18472000","lon":"16.59528000"},
{"state":"Split-Dalmatia","name":"Stobreč","lat":"43.50250000","lon":"16.52222000"},
{"state":"Split-Dalmatia","name":"Supetar","lat":"43.38417000","lon":"16.55083000"},
{"state":"Split-Dalmatia","name":"Trilj","lat":"43.61833000","lon":"16.72417000"},
{"state":"Split-Dalmatia","name":"Trogir","lat":"43.51250000","lon":"16.25167000"},
{"state":"Split-Dalmatia","name":"Tučepi","lat":"43.27222000","lon":"17.05444000"},
{"state":"Split-Dalmatia","name":"Turjaci","lat":"43.65000000","lon":"16.66917000"},
{"state":"Split-Dalmatia","name":"Veliki Drvenik","lat":"43.45000000","lon":"16.15000000"},
{"state":"Split-Dalmatia","name":"Vis","lat":"43.06194000","lon":"16.18306000"},
{"state":"Split-Dalmatia","name":"Vranjic","lat":"43.53333000","lon":"16.46667000"},
{"state":"Split-Dalmatia","name":"Vrgorac","lat":"43.20583000","lon":"17.37111000"},
{"state":"Split-Dalmatia","name":"Vrlika","lat":"43.91098000","lon":"16.39933000"},
{"state":"Split-Dalmatia","name":"Zagvozd","lat":"43.39750000","lon":"17.05694000"},
{"state":"Split-Dalmatia","name":"Zmijavci","lat":"43.41083000","lon":"17.20556000"},
{"state":"Split-Dalmatia","name":"Žrnovnica","lat":"43.52111000","lon":"16.55917000"},
{"state":"Varaždin","name":"Beretinec","lat":"46.25000000","lon":"16.30000000"},
{"state":"Varaždin","name":"Breznica","lat":"46.07111000","lon":"16.27111000"},
{"state":"Varaždin","name":"Breznički Hum","lat":"46.10722000","lon":"16.27667000"},
{"state":"Varaždin","name":"Cestica","lat":"46.37167000","lon":"16.12528000"},
{"state":"Varaždin","name":"Donje Ladanje","lat":"46.30000000","lon":"16.16667000"},
{"state":"Varaždin","name":"Gornje Vratno","lat":"46.35917000","lon":"16.15444000"},
{"state":"Varaždin","name":"Gornji Kneginec","lat":"46.25051000","lon":"16.37555000"},
{"state":"Varaždin","name":"Grad Ivanec","lat":"46.23333000","lon":"16.13333000"},
{"state":"Varaždin","name":"Grad Ludbreg","lat":"46.25000000","lon":"16.63333000"},
{"state":"Varaždin","name":"Grad Novi Marof","lat":"46.16667000","lon":"16.33333000"},
{"state":"Varaždin","name":"Grad Varaždin","lat":"46.30354000","lon":"16.33444000"},
{"state":"Varaždin","name":"Hrašćica","lat":"46.32494000","lon":"16.29427000"},
{"state":"Varaždin","name":"Ivanec","lat":"46.22306000","lon":"16.12000000"},
{"state":"Varaždin","name":"Jalkovec","lat":"46.28083000","lon":"16.31972000"},
{"state":"Varaždin","name":"Jalžabet","lat":"46.26083000","lon":"16.47500000"},
{"state":"Varaždin","name":"Klenovnik","lat":"46.27028000","lon":"16.07000000"},
{"state":"Varaždin","name":"Kućan Marof","lat":"46.28944000","lon":"16.37222000"},
{"state":"Varaždin","name":"Lepoglava","lat":"46.21056000","lon":"16.03556000"},
{"state":"Varaždin","name":"Ljubešćica","lat":"46.16667000","lon":"16.38333000"},
{"state":"Varaždin","name":"Ludbreg","lat":"46.25194000","lon":"16.61472000"},
{"state":"Varaždin","name":"Nedeljanec","lat":"46.28778000","lon":"16.28333000"},
{"state":"Varaždin","name":"Petrijanec","lat":"46.34917000","lon":"16.22500000"},
{"state":"Varaždin","name":"Remetinec","lat":"46.18528000","lon":"16.32778000"},
{"state":"Varaždin","name":"Sračinec","lat":"46.32944000","lon":"16.27889000"},
{"state":"Varaždin","name":"Sveti Đurđ","lat":"46.28331000","lon":"16.60438000"},
{"state":"Varaždin","name":"Tužno","lat":"46.25667000","lon":"16.23500000"},
{"state":"Varaždin","name":"Varaždin","lat":"46.30444000","lon":"16.33778000"},
{"state":"Varaždin","name":"Vidovec","lat":"46.28333000","lon":"16.24111000"},
{"state":"Varaždin","name":"Vinica","lat":"46.33611000","lon":"16.14944000"},
{"state":"Virovitica-Podravina","name":"Čačinci","lat":"45.60389000","lon":"17.87028000"},
{"state":"Virovitica-Podravina","name":"Čađavica","lat":"45.74417000","lon":"17.85472000"},
{"state":"Virovitica-Podravina","name":"Crnac","lat":"45.69611000","lon":"17.93722000"},
{"state":"Virovitica-Podravina","name":"Grad Orahovica","lat":"45.53333000","lon":"17.90000000"},
{"state":"Virovitica-Podravina","name":"Grad Slatina","lat":"45.70000000","lon":"17.70000000"},
{"state":"Virovitica-Podravina","name":"Grad Virovitica","lat":"45.83167000","lon":"17.38483000"},
{"state":"Virovitica-Podravina","name":"Gradina","lat":"45.85423000","lon":"17.51109000"},
{"state":"Virovitica-Podravina","name":"Mikleuš","lat":"45.61861000","lon":"17.80389000"},
{"state":"Virovitica-Podravina","name":"Nova Bukovica","lat":"45.66472000","lon":"17.76694000"},
{"state":"Virovitica-Podravina","name":"Orahovica","lat":"45.54000000","lon":"17.88472000"},
{"state":"Virovitica-Podravina","name":"Pitomača","lat":"45.95056000","lon":"17.22944000"},
{"state":"Virovitica-Podravina","name":"Rezovac","lat":"45.78333000","lon":"17.41667000"},
{"state":"Virovitica-Podravina","name":"Slatina","lat":"45.70333000","lon":"17.70278000"},
{"state":"Virovitica-Podravina","name":"Sopje","lat":"45.80111000","lon":"17.74250000"},
{"state":"Virovitica-Podravina","name":"Špišić Bukovica","lat":"45.85740000","lon":"17.30089000"},
{"state":"Virovitica-Podravina","name":"Suhopolje","lat":"45.79972000","lon":"17.49917000"},
{"state":"Virovitica-Podravina","name":"Virovitica","lat":"45.83194000","lon":"17.38389000"},
{"state":"Virovitica-Podravina","name":"Voćin","lat":"45.61778000","lon":"17.54778000"},
{"state":"Virovitica-Podravina","name":"Zdenci","lat":"45.58917000","lon":"17.95028000"},
{"state":"Vukovar-Syrmia","name":"Andrijaševci","lat":"45.22472000","lon":"18.73806000"},
{"state":"Vukovar-Syrmia","name":"Babina Greda","lat":"45.11722000","lon":"18.53694000"},
{"state":"Vukovar-Syrmia","name":"Bobota","lat":"45.42111000","lon":"18.85389000"},
{"state":"Vukovar-Syrmia","name":"Bogdanovci","lat":"45.34083000","lon":"18.93083000"},
{"state":"Vukovar-Syrmia","name":"Borovo","lat":"45.37639000","lon":"18.96694000"},
{"state":"Vukovar-Syrmia","name":"Borovo Selo","lat":"45.40528000","lon":"18.97583000"},
{"state":"Vukovar-Syrmia","name":"Bošnjaci","lat":"45.05028000","lon":"18.75556000"},
{"state":"Vukovar-Syrmia","name":"Bršadin","lat":"45.36278000","lon":"18.91111000"},
{"state":"Vukovar-Syrmia","name":"Cerić","lat":"45.31139000","lon":"18.85611000"},
{"state":"Vukovar-Syrmia","name":"Cerna","lat":"45.18194000","lon":"18.68944000"},
{"state":"Vukovar-Syrmia","name":"Drenovci","lat":"44.91944000","lon":"18.90284000"},
{"state":"Vukovar-Syrmia","name":"Grad Vinkovci","lat":"45.28044000","lon":"18.80482000"},
{"state":"Vukovar-Syrmia","name":"Grad Vukovar","lat":"45.33333000","lon":"19.00000000"},
{"state":"Vukovar-Syrmia","name":"Grad Županja","lat":"45.07231000","lon":"18.69513000"},
{"state":"Vukovar-Syrmia","name":"Gradište","lat":"45.14806000","lon":"18.70667000"},
{"state":"Vukovar-Syrmia","name":"Gunja","lat":"44.88000000","lon":"18.85333000"},
{"state":"Vukovar-Syrmia","name":"Ilok","lat":"45.22222000","lon":"19.37694000"},
{"state":"Vukovar-Syrmia","name":"Ivankovo","lat":"45.28861000","lon":"18.68389000"},
{"state":"Vukovar-Syrmia","name":"Jarmina","lat":"45.31806000","lon":"18.72917000"},
{"state":"Vukovar-Syrmia","name":"Komletinci","lat":"45.14972000","lon":"18.94917000"},
{"state":"Vukovar-Syrmia","name":"Lovas","lat":"45.22639000","lon":"19.17111000"},
{"state":"Vukovar-Syrmia","name":"Markušica","lat":"45.37389000","lon":"18.70583000"},
{"state":"Vukovar-Syrmia","name":"Mirkovci","lat":"45.26972000","lon":"18.85111000"},
{"state":"Vukovar-Syrmia","name":"Negoslavci","lat":"45.27944000","lon":"18.99667000"},
{"state":"Vukovar-Syrmia","name":"Nijemci","lat":"45.14028000","lon":"19.03556000"},
{"state":"Vukovar-Syrmia","name":"Nuštar","lat":"45.33250000","lon":"18.84139000"},
{"state":"Vukovar-Syrmia","name":"Otok","lat":"45.14667000","lon":"18.88389000"},
{"state":"Vukovar-Syrmia","name":"Privlaka","lat":"45.19472000","lon":"18.83750000"},
{"state":"Vukovar-Syrmia","name":"Retkovci","lat":"45.23333000","lon":"18.65306000"},
{"state":"Vukovar-Syrmia","name":"Rokovci","lat":"45.23111000","lon":"18.74389000"},
{"state":"Vukovar-Syrmia","name":"Soljani","lat":"44.95028000","lon":"18.97028000"},
{"state":"Vukovar-Syrmia","name":"Stari Jankovci","lat":"45.26194000","lon":"18.91444000"},
{"state":"Vukovar-Syrmia","name":"Štitar","lat":"45.09556000","lon":"18.64028000"},
{"state":"Vukovar-Syrmia","name":"Tordinci","lat":"45.37028000","lon":"18.79500000"},
{"state":"Vukovar-Syrmia","name":"Tovarnik","lat":"45.16500000","lon":"19.15194000"},
{"state":"Vukovar-Syrmia","name":"Trpinja","lat":"45.41917000","lon":"18.89917000"},
{"state":"Vukovar-Syrmia","name":"Vinkovci","lat":"45.28833000","lon":"18.80472000"},
{"state":"Vukovar-Syrmia","name":"Vođinci","lat":"45.27556000","lon":"18.60972000"},
{"state":"Vukovar-Syrmia","name":"Vrbanja","lat":"44.98079000","lon":"18.92717000"},
{"state":"Vukovar-Syrmia","name":"Vukovar","lat":"45.35161000","lon":"19.00225000"},
{"state":"Vukovar-Syrmia","name":"Županja","lat":"45.07750000","lon":"18.69750000"},
{"state":"Zadar","name":"Benkovac","lat":"44.03444000","lon":"15.61278000"},
{"state":"Zadar","name":"Bibinje","lat":"44.07324000","lon":"15.28288000"},
{"state":"Zadar","name":"Biograd na Moru","lat":"43.94333000","lon":"15.45194000"},
{"state":"Zadar","name":"Galovac","lat":"44.07139000","lon":"15.39333000"},
{"state":"Zadar","name":"Gornji Karin","lat":"44.13598000","lon":"15.63423000"},
{"state":"Zadar","name":"Gračac","lat":"44.29916000","lon":"15.84752000"},
{"state":"Zadar","name":"Grad Biograd na Moru","lat":"43.93333000","lon":"15.43333000"},
{"state":"Zadar","name":"Jasenice","lat":"44.22969000","lon":"15.57514000"},
{"state":"Zadar","name":"Kali","lat":"44.06278000","lon":"15.20556000"},
{"state":"Zadar","name":"Kruševo","lat":"44.18333000","lon":"15.65000000"},
{"state":"Zadar","name":"Nin","lat":"44.24139000","lon":"15.17833000"},
{"state":"Zadar","name":"Novigrad Općina","lat":"44.19417000","lon":"15.55667000"},
{"state":"Zadar","name":"Obrovac","lat":"44.20056000","lon":"15.68222000"},
{"state":"Zadar","name":"Osljak","lat":"44.07667000","lon":"15.20722000"},
{"state":"Zadar","name":"Pag","lat":"44.44500000","lon":"15.05750000"},
{"state":"Zadar","name":"Pakoštane","lat":"43.91222000","lon":"15.50889000"},
{"state":"Zadar","name":"Polača","lat":"44.01833000","lon":"15.51750000"},
{"state":"Zadar","name":"Poličnik","lat":"44.17806000","lon":"15.37556000"},
{"state":"Zadar","name":"Posedarje","lat":"44.21361000","lon":"15.47667000"},
{"state":"Zadar","name":"Preko","lat":"44.08111000","lon":"15.18750000"},
{"state":"Zadar","name":"Pridraga","lat":"44.16667000","lon":"15.56667000"},
{"state":"Zadar","name":"Privlaka","lat":"44.26667000","lon":"15.13333000"},
{"state":"Zadar","name":"Ražanac","lat":"44.28194000","lon":"15.34806000"},
{"state":"Zadar","name":"Sali","lat":"43.93972000","lon":"15.16333000"},
{"state":"Zadar","name":"Škabrnja","lat":"44.08949000","lon":"15.45146000"},
{"state":"Zadar","name":"Stari Grad","lat":"44.43000000","lon":"15.06222000"},
{"state":"Zadar","name":"Starigrad","lat":"44.29601000","lon":"15.43865000"},
{"state":"Zadar","name":"Sukošan","lat":"44.04696000","lon":"15.31391000"},
{"state":"Zadar","name":"Sveti Filip i Jakov","lat":"43.96472000","lon":"15.43000000"},
{"state":"Zadar","name":"Tkon","lat":"43.91996000","lon":"15.41639000"},
{"state":"Zadar","name":"Turanj","lat":"43.97111000","lon":"15.41139000"},
{"state":"Zadar","name":"Ugljan","lat":"44.13083000","lon":"15.10306000"},
{"state":"Zadar","name":"Vir","lat":"44.29995000","lon":"15.08663000"},
{"state":"Zadar","name":"Vrsi","lat":"44.26472000","lon":"15.23250000"},
{"state":"Zadar","name":"Zadar","lat":"44.11972000","lon":"15.24222000"},
{"state":"Zagreb","name":"Bestovje","lat":"45.80833000","lon":"15.81667000"},
{"state":"Zagreb","name":"Bistra","lat":"45.90657000","lon":"15.85087000"},
{"state":"Zagreb","name":"Brckovljani","lat":"45.83333000","lon":"16.30000000"},
{"state":"Zagreb","name":"Brdovec","lat":"45.86666000","lon":"15.77102000"},
{"state":"Zagreb","name":"Bregana","lat":"45.84013000","lon":"15.68792000"},
{"state":"Zagreb","name":"Donja Bistra","lat":"45.90778000","lon":"15.85444000"},
{"state":"Zagreb","name":"Donja Lomnica","lat":"45.71194000","lon":"16.02694000"},
{"state":"Zagreb","name":"Donja Zdenčina","lat":"45.66667000","lon":"15.76667000"},
{"state":"Zagreb","name":"Donji Stupnik","lat":"45.73971000","lon":"15.85975000"},
{"state":"Zagreb","name":"Farkaševac","lat":"45.87899000","lon":"16.63467000"},
{"state":"Zagreb","name":"Gornja Bistra","lat":"45.91667000","lon":"15.90000000"},
{"state":"Zagreb","name":"Gračec","lat":"45.83333000","lon":"16.31667000"},
{"state":"Zagreb","name":"Grad Dugo Selo","lat":"45.80900000","lon":"16.24123000"},
{"state":"Zagreb","name":"Grad Jastrebarsko","lat":"45.66667000","lon":"15.66667000"},
{"state":"Zagreb","name":"Grad Samobor","lat":"45.80000000","lon":"15.70000000"},
{"state":"Zagreb","name":"Grad Sveti Ivan Zelina","lat":"45.96667000","lon":"16.25000000"},
{"state":"Zagreb","name":"Grad Velika Gorica","lat":"45.70000000","lon":"16.08333000"},
{"state":"Zagreb","name":"Grad Vrbovec","lat":"45.86667000","lon":"16.43333000"},
{"state":"Zagreb","name":"Grad Zaprešić","lat":"45.86667000","lon":"15.80000000"},
{"state":"Zagreb","name":"Gradec","lat":"45.91111000","lon":"16.48278000"},
{"state":"Zagreb","name":"Gradići","lat":"45.70000000","lon":"16.05000000"},
{"state":"Zagreb","name":"Jablanovec","lat":"45.87583000","lon":"15.85361000"},
{"state":"Zagreb","name":"Jakovlje","lat":"45.93611000","lon":"15.85559000"},
{"state":"Zagreb","name":"Jastrebarsko","lat":"45.66833000","lon":"15.64861000"},
{"state":"Zagreb","name":"Kerestinec","lat":"45.77010000","lon":"15.80864000"},
{"state":"Zagreb","name":"Križ","lat":"45.66500000","lon":"16.52333000"},
{"state":"Zagreb","name":"Kuče","lat":"45.67694000","lon":"16.14500000"},
{"state":"Zagreb","name":"Lonjica","lat":"45.85500000","lon":"16.33000000"},
{"state":"Zagreb","name":"Luka","lat":"45.95795000","lon":"15.81954000"},
{"state":"Zagreb","name":"Lukavec","lat":"45.70444000","lon":"15.99000000"},
{"state":"Zagreb","name":"Lupoglav","lat":"45.79639000","lon":"16.34639000"},
{"state":"Zagreb","name":"Mičevec","lat":"45.75000000","lon":"16.06667000"},
{"state":"Zagreb","name":"Mraclin","lat":"45.66667000","lon":"16.09556000"},
{"state":"Zagreb","name":"Novo Čiče","lat":"45.70000000","lon":"16.11667000"},
{"state":"Zagreb","name":"Novoselec","lat":"45.65250000","lon":"16.53639000"},
{"state":"Zagreb","name":"Općina Dubrava","lat":"45.83759000","lon":"16.53683000"},
{"state":"Zagreb","name":"Orešje","lat":"45.81618000","lon":"15.80246000"},
{"state":"Zagreb","name":"Pojatno","lat":"45.90500000","lon":"15.80056000"},
{"state":"Zagreb","name":"Preseka","lat":"45.97456000","lon":"16.38697000"},
{"state":"Zagreb","name":"Prigorje Brdovečko","lat":"45.87944000","lon":"15.73806000"},
{"state":"Zagreb","name":"Pušća","lat":"45.91567000","lon":"15.78049000"},
{"state":"Zagreb","name":"Rakitje","lat":"45.79389000","lon":"15.82222000"},
{"state":"Zagreb","name":"Rakov Potok","lat":"45.73806000","lon":"15.79722000"},
{"state":"Zagreb","name":"Rude","lat":"45.76667000","lon":"15.66667000"},
{"state":"Zagreb","name":"Samobor","lat":"45.80306000","lon":"15.71806000"},
{"state":"Zagreb","name":"Stupnik","lat":"45.75314000","lon":"15.84078000"},
{"state":"Zagreb","name":"Sveta Nedelja","lat":"45.79617000","lon":"15.77971000"},
{"state":"Zagreb","name":"Sveta Nedjelja","lat":"45.79833000","lon":"15.78056000"},
{"state":"Zagreb","name":"Velika Gorica","lat":"45.71250000","lon":"16.07556000"},
{"state":"Zagreb","name":"Velika Mlaka","lat":"45.73639000","lon":"16.03111000"},
{"state":"Zagreb","name":"Velika Ostrna","lat":"45.78752000","lon":"16.28139000"},
{"state":"Zagreb","name":"Vrbovec","lat":"45.88333000","lon":"16.42167000"},
{"state":"Zagreb","name":"Zaprešić","lat":"45.85639000","lon":"15.80778000"},
{"state":"Zagreb","name":"Zdenci Brdovečki","lat":"45.86667000","lon":"15.75000000"},
{"state":"Zagreb","name":"Brezovica","lat":"45.72919000","lon":"15.91069000"},
{"state":"Zagreb","name":"Centar","lat":"45.81313000","lon":"15.97753000"},
{"state":"Zagreb","name":"Dubrava","lat":"45.83361000","lon":"16.06361000"},
{"state":"Zagreb","name":"Gradska četvrt Donji grad","lat":"45.80834000","lon":"15.96949000"},
{"state":"Zagreb","name":"Gradska četvrt Gornji Grad - Medvescak","lat":"45.82820000","lon":"15.97938000"},
{"state":"Zagreb","name":"Gradska četvrt Podsljeme","lat":"45.86097000","lon":"15.97996000"},
{"state":"Zagreb","name":"Horvati","lat":"45.70000000","lon":"15.81667000"},
{"state":"Zagreb","name":"Jankomir","lat":"45.79167000","lon":"15.90000000"},
{"state":"Zagreb","name":"Ježdovec","lat":"45.78333000","lon":"15.85000000"},
{"state":"Zagreb","name":"Kašina","lat":"45.91134000","lon":"16.12436000"},
{"state":"Zagreb","name":"Lučko","lat":"45.76111000","lon":"15.87028000"},
{"state":"Zagreb","name":"Novi Zagreb","lat":"45.78333000","lon":"15.98333000"},
{"state":"Zagreb","name":"Odra","lat":"45.72979000","lon":"15.99240000"},
{"state":"Zagreb","name":"Sesvete","lat":"45.83333000","lon":"16.13333000"},
{"state":"Zagreb","name":"Stenjevec","lat":"45.80846000","lon":"15.88245000"},
{"state":"Zagreb","name":"Strmec","lat":"45.70843000","lon":"15.91674000"},
{"state":"Zagreb","name":"Zadvorsko","lat":"45.71978000","lon":"15.90880000"},
{"state":"Zagreb","name":"Zagreb","lat":"45.81444000","lon":"15.97798000"}]