[{"state":"Artibonite","name":"Anse Rouge","lat":"19.63382000","lon":"-73.05530000"},
{"state":"Artibonite","name":"Arrondissement de Saint-Marc","lat":"19.00000000","lon":"-72.50000000"},
{"state":"Artibonite","name":"Désarmes","lat":"18.99345000","lon":"-72.39058000"},
{"state":"Artibonite","name":"Dessalines","lat":"19.26177000","lon":"-72.51611000"},
{"state":"Artibonite","name":"Ennery","lat":"19.48342000","lon":"-72.48537000"},
{"state":"Artibonite","name":"Gonaïves","lat":"19.44755000","lon":"-72.68928000"},
{"state":"Artibonite","name":"Grande Saline","lat":"19.26513000","lon":"-72.76897000"},
{"state":"Artibonite","name":"Gros Morne","lat":"19.67080000","lon":"-72.67808000"},
{"state":"Artibonite","name":"Marmelade","lat":"19.51736000","lon":"-72.36133000"},
{"state":"Artibonite","name":"Saint-Marc","lat":"19.10819000","lon":"-72.69379000"},
{"state":"Artibonite","name":"Verrettes","lat":"19.05050000","lon":"-72.46585000"},
{"state":"Centre","name":"Arrondissement de Cerca La Source","lat":"19.11667000","lon":"-71.75000000"},
{"state":"Centre","name":"Cerca la Source","lat":"19.16696000","lon":"-71.79015000"},
{"state":"Centre","name":"Hinche","lat":"19.15000000","lon":"-72.01667000"},
{"state":"Centre","name":"Lascahobas","lat":"18.83047000","lon":"-71.93563000"},
{"state":"Centre","name":"Mayisad","lat":"19.17607000","lon":"-72.13958000"},
{"state":"Centre","name":"Mirebalais","lat":"18.83455000","lon":"-72.10480000"},
{"state":"Centre","name":"Thomassique","lat":"19.08209000","lon":"-71.83855000"},
{"state":"Centre","name":"Thomonde","lat":"19.01730000","lon":"-71.96235000"},
{"state":"Grand'Anse","name":"Anse-à-Veau","lat":"18.50110000","lon":"-73.34490000"},
{"state":"Grand'Anse","name":"Chambellan","lat":"18.55037000","lon":"-74.31317000"},
{"state":"Grand'Anse","name":"Corail","lat":"18.56766000","lon":"-73.88942000"},
{"state":"Grand'Anse","name":"Dame-Marie","lat":"18.56107000","lon":"-74.42167000"},
{"state":"Grand'Anse","name":"Jeremi","lat":"18.58333000","lon":"-74.20000000"},
{"state":"Grand'Anse","name":"Jérémie","lat":"18.65000000","lon":"-74.11667000"},
{"state":"Grand'Anse","name":"Les Abricots","lat":"18.64901000","lon":"-74.30786000"},
{"state":"Grand'Anse","name":"Les Irois","lat":"18.40490000","lon":"-74.45280000"},
{"state":"Grand'Anse","name":"Moron","lat":"18.56039000","lon":"-74.25777000"},
{"state":"Grand'Anse","name":"Petite Rivière de Nippes","lat":"18.47611000","lon":"-73.23495000"},
{"state":"Nippes","name":"Ansavo","lat":"18.41667000","lon":"-73.50000000"},
{"state":"Nippes","name":"Baradères","lat":"18.48255000","lon":"-73.63884000"},
{"state":"Nippes","name":"Miragoâne","lat":"18.44599000","lon":"-73.08957000"},
{"state":"Nippes","name":"Petit Trou de Nippes","lat":"18.52535000","lon":"-73.50815000"},
{"state":"Nord","name":"Acul du Nord","lat":"19.66667000","lon":"-72.28333000"},
{"state":"Nord","name":"Arrondissement de la Grande Rivière du Nord","lat":"19.51667000","lon":"-72.16667000"},
{"state":"Nord","name":"Arrondissement de Plaisance","lat":"19.66756000","lon":"-72.54908000"},
{"state":"Nord","name":"Arrondissement du Borgne","lat":"19.75000000","lon":"-72.50000000"},
{"state":"Nord","name":"Bahon","lat":"19.46959000","lon":"-72.11466000"},
{"state":"Nord","name":"Borgne","lat":"19.84507000","lon":"-72.52349000"},
{"state":"Nord","name":"Dondon","lat":"19.52734000","lon":"-72.24337000"},
{"state":"Nord","name":"Grande Rivière du Nord","lat":"19.57744000","lon":"-72.16872000"},
{"state":"Nord","name":"Lenbe","lat":"19.70603000","lon":"-72.40336000"},
{"state":"Nord","name":"Limonade","lat":"19.67014000","lon":"-72.12430000"},
{"state":"Nord","name":"Milot","lat":"19.60837000","lon":"-72.21319000"},
{"state":"Nord","name":"Okap","lat":"19.75938000","lon":"-72.19815000"},
{"state":"Nord","name":"Pignon","lat":"19.33594000","lon":"-72.11662000"},
{"state":"Nord","name":"Pilate","lat":"19.66745000","lon":"-72.55229000"},
{"state":"Nord","name":"Plaine du Nord","lat":"19.67707000","lon":"-72.26969000"},
{"state":"Nord","name":"Plaisance","lat":"19.59795000","lon":"-72.46994000"},
{"state":"Nord","name":"Port-Margot","lat":"19.75180000","lon":"-72.43006000"},
{"state":"Nord","name":"Quartier Morin","lat":"19.69696000","lon":"-72.15712000"},
{"state":"Nord","name":"Ranquitte","lat":"19.41327000","lon":"-72.08077000"},
{"state":"Nord","name":"Saint-Raphaël","lat":"19.43877000","lon":"-72.19910000"},
{"state":"Nord-Est","name":"Arrondissement de Fort Liberté","lat":"19.56667000","lon":"-71.83333000"},
{"state":"Nord-Est","name":"Arrondissement du Trou du Nord","lat":"19.55000000","lon":"-71.98333000"},
{"state":"Nord-Est","name":"Caracol","lat":"19.69274000","lon":"-72.01733000"},
{"state":"Nord-Est","name":"Carice","lat":"19.37795000","lon":"-71.83030000"},
{"state":"Nord-Est","name":"Dérac","lat":"19.65476000","lon":"-71.81451000"},
{"state":"Nord-Est","name":"Ferrier","lat":"19.61549000","lon":"-71.77792000"},
{"state":"Nord-Est","name":"Fort Liberté","lat":"19.66273000","lon":"-71.83798000"},
{"state":"Nord-Est","name":"Montòrganize","lat":"19.40815000","lon":"-71.78132000"},
{"state":"Nord-Est","name":"Ouanaminthe","lat":"19.54934000","lon":"-71.72475000"},
{"state":"Nord-Est","name":"Perches","lat":"19.52201000","lon":"-71.92323000"},
{"state":"Nord-Est","name":"Phaëton","lat":"19.67525000","lon":"-71.89691000"},
{"state":"Nord-Est","name":"Trou du Nord","lat":"19.61668000","lon":"-72.02442000"},
{"state":"Nord-Est","name":"Wanament","lat":"19.48333000","lon":"-71.76667000"},
{"state":"Nord-Ouest","name":"Arcahaie","lat":"19.81667000","lon":"-72.91667000"},
{"state":"Nord-Ouest","name":"Arrondissement de Port-de-Paix","lat":"19.83333000","lon":"-72.88333000"},
{"state":"Nord-Ouest","name":"Arrondissement de Saint-Louis du Nord","lat":"19.85000000","lon":"-72.66667000"},
{"state":"Nord-Ouest","name":"Arrondissement du Môle Saint-Nicolas","lat":"19.75000000","lon":"-73.25000000"},
{"state":"Nord-Ouest","name":"Baie de Henne","lat":"19.66307000","lon":"-73.20943000"},
{"state":"Nord-Ouest","name":"Bombardopolis","lat":"19.69142000","lon":"-73.33769000"},
{"state":"Nord-Ouest","name":"Fond Bassin Bleu","lat":"19.79445000","lon":"-72.79949000"},
{"state":"Nord-Ouest","name":"Jean-Rabel","lat":"19.85379000","lon":"-73.19131000"},
{"state":"Nord-Ouest","name":"Môle Saint-Nicolas","lat":"19.80700000","lon":"-73.37605000"},
{"state":"Nord-Ouest","name":"Petite Anse","lat":"19.63011000","lon":"-73.15499000"},
{"state":"Nord-Ouest","name":"Port-de-Paix","lat":"19.93984000","lon":"-72.83037000"},
{"state":"Nord-Ouest","name":"Saint-Louis du Nord","lat":"19.93397000","lon":"-72.72138000"},
{"state":"Nord-Ouest","name":"Ti Port-de-Paix","lat":"19.93333000","lon":"-72.83333000"},
{"state":"Ouest","name":"Anse à Galets","lat":"18.83449000","lon":"-72.86644000"},
{"state":"Ouest","name":"Arcahaie","lat":"18.83333000","lon":"-72.41667000"},
{"state":"Ouest","name":"Arrondissement de Croix des Bouquets","lat":"18.48333000","lon":"-72.01667000"},
{"state":"Ouest","name":"Arrondissement de Léogâne","lat":"18.41667000","lon":"-72.75000000"},
{"state":"Ouest","name":"Arrondissement de Port-au-Prince","lat":"18.50000000","lon":"-72.36667000"},
{"state":"Ouest","name":"Cabaret","lat":"18.73582000","lon":"-72.41929000"},
{"state":"Ouest","name":"Carrefour","lat":"18.54114000","lon":"-72.39922000"},
{"state":"Ouest","name":"Cornillon","lat":"18.67546000","lon":"-71.95271000"},
{"state":"Ouest","name":"Croix-des-Bouquets","lat":"18.57677000","lon":"-72.22625000"},
{"state":"Ouest","name":"Delmas 73","lat":"18.54472000","lon":"-72.30278000"},
{"state":"Ouest","name":"Fond Parisien","lat":"18.50547000","lon":"-71.98122000"},
{"state":"Ouest","name":"Fonds Verrettes","lat":"18.39566000","lon":"-71.85634000"},
{"state":"Ouest","name":"Grangwav","lat":"18.42590000","lon":"-72.76995000"},
{"state":"Ouest","name":"Gressier","lat":"18.54091000","lon":"-72.52679000"},
{"state":"Ouest","name":"Kenscoff","lat":"18.44773000","lon":"-72.28398000"},
{"state":"Ouest","name":"Lagonav","lat":"18.85000000","lon":"-73.05000000"},
{"state":"Ouest","name":"Léogâne","lat":"18.51110000","lon":"-72.63343000"},
{"state":"Ouest","name":"Pétionville","lat":"18.51250000","lon":"-72.28528000"},
{"state":"Ouest","name":"Port-au-Prince","lat":"18.54349000","lon":"-72.33881000"},
{"state":"Ouest","name":"Thomazeau","lat":"18.65297000","lon":"-72.09391000"},
{"state":"Ouest","name":"Tigwav","lat":"18.43117000","lon":"-72.86521000"},
{"state":"Sud","name":"Aquin","lat":"18.27974000","lon":"-73.39433000"},
{"state":"Sud","name":"Arrondissement de Port-Salut","lat":"18.13333000","lon":"-73.90000000"},
{"state":"Sud","name":"Arrondissement des Cayes","lat":"18.30000000","lon":"-73.83333000"},
{"state":"Sud","name":"Cavaillon","lat":"18.29987000","lon":"-73.65455000"},
{"state":"Sud","name":"Chantal","lat":"18.20169000","lon":"-73.88957000"},
{"state":"Sud","name":"Chardonnière","lat":"18.27484000","lon":"-74.16613000"},
{"state":"Sud","name":"Fond des Blancs","lat":"18.27782000","lon":"-73.12733000"},
{"state":"Sud","name":"Koto","lat":"18.20601000","lon":"-74.04013000"},
{"state":"Sud","name":"Les Anglais","lat":"18.30540000","lon":"-74.21968000"},
{"state":"Sud","name":"Les Cayes","lat":"18.19331000","lon":"-73.74601000"},
{"state":"Sud","name":"Port-à-Piment","lat":"18.24963000","lon":"-74.09710000"},
{"state":"Sud","name":"Roche-à-Bateau","lat":"18.18182000","lon":"-74.00345000"},
{"state":"Sud","name":"Saint-Louis du Sud","lat":"18.26241000","lon":"-73.54603000"},
{"state":"Sud","name":"Tiburon","lat":"18.32589000","lon":"-74.39598000"},
{"state":"Sud","name":"Torbeck","lat":"18.16338000","lon":"-73.80949000"},
{"state":"Sud-Est","name":"Anse-à-Pitre","lat":"18.05000000","lon":"-71.75000000"},
{"state":"Sud-Est","name":"Arrondissement de Bainet","lat":"18.25000000","lon":"-72.85000000"},
{"state":"Sud-Est","name":"Arrondissement de Jacmel","lat":"18.33333000","lon":"-72.50000000"},
{"state":"Sud-Est","name":"Belle-Anse","lat":"18.23768000","lon":"-72.06638000"},
{"state":"Sud-Est","name":"Cayes-Jacmel","lat":"18.23110000","lon":"-72.39545000"},
{"state":"Sud-Est","name":"Jacmel","lat":"18.23427000","lon":"-72.53539000"},
{"state":"Sud-Est","name":"Kotdefè","lat":"18.18872000","lon":"-73.00287000"},
{"state":"Sud-Est","name":"Marigot","lat":"18.23167000","lon":"-72.32289000"},
{"state":"Sud-Est","name":"Thiotte","lat":"18.24384000","lon":"-71.84157000"}]