[{"state":"Bács-Kiskun","name":"Ágasegyháza","lat":"46.84025000","lon":"19.45208000"},
{"state":"Bács-Kiskun","name":"Akasztó","lat":"46.69167000","lon":"19.20423000"},
{"state":"Bács-Kiskun","name":"Apostag","lat":"46.88208000","lon":"18.96210000"},
{"state":"Bács-Kiskun","name":"Bácsalmás","lat":"46.12648000","lon":"19.33260000"},
{"state":"Bács-Kiskun","name":"Bácsalmási Járás","lat":"46.10167000","lon":"19.33063000"},
{"state":"Bács-Kiskun","name":"Bácsbokod","lat":"46.12500000","lon":"19.15621000"},
{"state":"Bács-Kiskun","name":"Baja","lat":"46.18299000","lon":"18.95307000"},
{"state":"Bács-Kiskun","name":"Bajai Járás","lat":"46.14507000","lon":"19.01359000"},
{"state":"Bács-Kiskun","name":"Ballószög","lat":"46.86216000","lon":"19.57092000"},
{"state":"Bács-Kiskun","name":"Bátya","lat":"46.48800000","lon":"18.95419000"},
{"state":"Bács-Kiskun","name":"Bugac","lat":"46.68704000","lon":"19.68074000"},
{"state":"Bács-Kiskun","name":"Császártöltés","lat":"46.42194000","lon":"19.18361000"},
{"state":"Bács-Kiskun","name":"Csávoly","lat":"46.18917000","lon":"19.14667000"},
{"state":"Bács-Kiskun","name":"Csengőd","lat":"46.71543000","lon":"19.26802000"},
{"state":"Bács-Kiskun","name":"Dávod","lat":"45.99500000","lon":"18.91722000"},
{"state":"Bács-Kiskun","name":"Dunapataj","lat":"46.64400000","lon":"18.99632000"},
{"state":"Bács-Kiskun","name":"Dunavecse","lat":"46.91478000","lon":"18.97127000"},
{"state":"Bács-Kiskun","name":"Dusnok","lat":"46.39085000","lon":"18.96296000"},
{"state":"Bács-Kiskun","name":"Érsekcsanád","lat":"46.25352000","lon":"18.98457000"},
{"state":"Bács-Kiskun","name":"Felsőszentiván","lat":"46.19713000","lon":"19.18686000"},
{"state":"Bács-Kiskun","name":"Fülöpjakab","lat":"46.74221000","lon":"19.72132000"},
{"state":"Bács-Kiskun","name":"Fülöpszállás","lat":"46.82075000","lon":"19.23748000"},
{"state":"Bács-Kiskun","name":"Gara","lat":"46.03194000","lon":"19.04278000"},
{"state":"Bács-Kiskun","name":"Hajós","lat":"46.39861000","lon":"19.12056000"},
{"state":"Bács-Kiskun","name":"Harta","lat":"46.69758000","lon":"19.03110000"},
{"state":"Bács-Kiskun","name":"Helvécia","lat":"46.83661000","lon":"19.62251000"},
{"state":"Bács-Kiskun","name":"Hercegszántó","lat":"45.95000000","lon":"18.93917000"},
{"state":"Bács-Kiskun","name":"Izsák","lat":"46.80454000","lon":"19.35172000"},
{"state":"Bács-Kiskun","name":"Jánoshalma","lat":"46.29861000","lon":"19.32583000"},
{"state":"Bács-Kiskun","name":"Jánoshalmai Járás","lat":"46.28283000","lon":"19.31742000"},
{"state":"Bács-Kiskun","name":"Jászszentlászló","lat":"46.56685000","lon":"19.76065000"},
{"state":"Bács-Kiskun","name":"Kalocsa","lat":"46.52981000","lon":"18.97283000"},
{"state":"Bács-Kiskun","name":"Kalocsai Járás","lat":"46.55646000","lon":"19.04211000"},
{"state":"Bács-Kiskun","name":"Katymár","lat":"46.03398000","lon":"19.20935000"},
{"state":"Bács-Kiskun","name":"Kecel","lat":"46.52528000","lon":"19.25194000"},
{"state":"Bács-Kiskun","name":"Kecskemét","lat":"46.90618000","lon":"19.69128000"},
{"state":"Bács-Kiskun","name":"Kecskeméti Járás","lat":"46.88283000","lon":"19.58701000"},
{"state":"Bács-Kiskun","name":"Kelebia","lat":"46.19680000","lon":"19.61659000"},
{"state":"Bács-Kiskun","name":"Kerekegyháza","lat":"46.93722000","lon":"19.47806000"},
{"state":"Bács-Kiskun","name":"Kiskőrös","lat":"46.62139000","lon":"19.28528000"},
{"state":"Bács-Kiskun","name":"Kiskőrösi Járás","lat":"46.63309000","lon":"19.33726000"},
{"state":"Bács-Kiskun","name":"Kiskunfélegyháza","lat":"46.71213000","lon":"19.84458000"},
{"state":"Bács-Kiskun","name":"Kiskunfélegyházi Járás","lat":"46.65721000","lon":"19.77006000"},
{"state":"Bács-Kiskun","name":"Kiskunhalas","lat":"46.43402000","lon":"19.48479000"},
{"state":"Bács-Kiskun","name":"Kiskunhalasi Járás","lat":"46.35832000","lon":"19.53067000"},
{"state":"Bács-Kiskun","name":"Kiskunmajsa","lat":"46.49028000","lon":"19.74000000"},
{"state":"Bács-Kiskun","name":"Kiskunmajsai Járás","lat":"46.49608000","lon":"19.72316000"},
{"state":"Bács-Kiskun","name":"Kisszállás","lat":"46.28009000","lon":"19.48954000"},
{"state":"Bács-Kiskun","name":"Kunfehértó","lat":"46.36091000","lon":"19.41454000"},
{"state":"Bács-Kiskun","name":"Kunszentmiklós","lat":"47.02699000","lon":"19.12575000"},
{"state":"Bács-Kiskun","name":"Kunszentmiklósi Járás","lat":"46.94810000","lon":"19.15563000"},
{"state":"Bács-Kiskun","name":"Lajosmizse","lat":"47.02133000","lon":"19.56171000"},
{"state":"Bács-Kiskun","name":"Lakitelek","lat":"46.87601000","lon":"19.99504000"},
{"state":"Bács-Kiskun","name":"Madaras","lat":"46.05870000","lon":"19.26121000"},
{"state":"Bács-Kiskun","name":"Mélykút","lat":"46.21509000","lon":"19.38102000"},
{"state":"Bács-Kiskun","name":"Nagybaracska","lat":"46.04248000","lon":"18.90590000"},
{"state":"Bács-Kiskun","name":"Nemesnádudvar","lat":"46.34051000","lon":"19.05115000"},
{"state":"Bács-Kiskun","name":"Nyárlőrinc","lat":"46.86017000","lon":"19.87836000"},
{"state":"Bács-Kiskun","name":"Orgovány","lat":"46.75087000","lon":"19.47259000"},
{"state":"Bács-Kiskun","name":"Pálmonostora","lat":"46.62417000","lon":"19.95156000"},
{"state":"Bács-Kiskun","name":"Solt","lat":"46.80101000","lon":"19.00098000"},
{"state":"Bács-Kiskun","name":"Soltvadkert","lat":"46.57889000","lon":"19.39389000"},
{"state":"Bács-Kiskun","name":"Sükösd","lat":"46.28181000","lon":"18.99524000"},
{"state":"Bács-Kiskun","name":"Szabadszállás","lat":"46.87575000","lon":"19.22324000"},
{"state":"Bács-Kiskun","name":"Szalkszentmárton","lat":"46.97565000","lon":"19.01178000"},
{"state":"Bács-Kiskun","name":"Szank","lat":"46.55713000","lon":"19.66103000"},
{"state":"Bács-Kiskun","name":"Szentkirály","lat":"46.91892000","lon":"19.91846000"},
{"state":"Bács-Kiskun","name":"Tass","lat":"47.02095000","lon":"19.02988000"},
{"state":"Bács-Kiskun","name":"Tázlár","lat":"46.54824000","lon":"19.51436000"},
{"state":"Bács-Kiskun","name":"Tiszaalpár","lat":"46.81279000","lon":"19.99841000"},
{"state":"Bács-Kiskun","name":"Tiszakécske","lat":"46.93261000","lon":"20.10349000"},
{"state":"Bács-Kiskun","name":"Tiszakécskei Járás","lat":"46.86013000","lon":"19.97298000"},
{"state":"Bács-Kiskun","name":"Tompa","lat":"46.20605000","lon":"19.53910000"},
{"state":"Bács-Kiskun","name":"Városföld","lat":"46.81674000","lon":"19.75668000"},
{"state":"Bács-Kiskun","name":"Vaskút","lat":"46.10782000","lon":"18.98514000"},
{"state":"Baranya","name":"Beremend","lat":"45.79108000","lon":"18.43263000"},
{"state":"Baranya","name":"Bóly","lat":"45.96722000","lon":"18.51833000"},
{"state":"Baranya","name":"Bólyi Járás","lat":"45.98075000","lon":"18.48449000"},
{"state":"Baranya","name":"Bükkösd","lat":"46.10751000","lon":"17.98820000"},
{"state":"Baranya","name":"Dunaszekcső","lat":"46.08740000","lon":"18.75870000"},
{"state":"Baranya","name":"Harkány","lat":"45.85002000","lon":"18.23668000"},
{"state":"Baranya","name":"Hegyháti Járás","lat":"46.27247000","lon":"18.13758000"},
{"state":"Baranya","name":"Hidas","lat":"46.25680000","lon":"18.49540000"},
{"state":"Baranya","name":"Hosszúhetény","lat":"46.16414000","lon":"18.35077000"},
{"state":"Baranya","name":"Komló","lat":"46.19278000","lon":"18.26494000"},
{"state":"Baranya","name":"Komlói Járás","lat":"46.22019000","lon":"18.28620000"},
{"state":"Baranya","name":"Kozármisleny","lat":"46.02967000","lon":"18.29210000"},
{"state":"Baranya","name":"Lánycsók","lat":"46.00543000","lon":"18.62526000"},
{"state":"Baranya","name":"Mágocs","lat":"46.34998000","lon":"18.23240000"},
{"state":"Baranya","name":"Mecseknádasd","lat":"46.22468000","lon":"18.47076000"},
{"state":"Baranya","name":"Mohács","lat":"45.99020000","lon":"18.68621000"},
{"state":"Baranya","name":"Mohácsi Járás","lat":"46.02004000","lon":"18.68000000"},
{"state":"Baranya","name":"Pécs","lat":"46.08333000","lon":"18.23333000"},
{"state":"Baranya","name":"Pécsi Járás","lat":"46.07990000","lon":"18.25253000"},
{"state":"Baranya","name":"Pécsvárad","lat":"46.16033000","lon":"18.42321000"},
{"state":"Baranya","name":"Pécsváradi Járás","lat":"46.16782000","lon":"18.45456000"},
{"state":"Baranya","name":"Pellérd","lat":"46.03438000","lon":"18.15403000"},
{"state":"Baranya","name":"Sásd","lat":"46.25520000","lon":"18.10776000"},
{"state":"Baranya","name":"Sellye","lat":"45.87247000","lon":"17.84711000"},
{"state":"Baranya","name":"Sellyei Járás","lat":"45.86955000","lon":"17.89827000"},
{"state":"Baranya","name":"Siklós","lat":"45.85499000","lon":"18.29752000"},
{"state":"Baranya","name":"Siklósi Járás","lat":"45.84981000","lon":"18.31052000"},
{"state":"Baranya","name":"Szászvár","lat":"46.27673000","lon":"18.37566000"},
{"state":"Baranya","name":"Szentlőrinc","lat":"46.04016000","lon":"17.98719000"},
{"state":"Baranya","name":"Szentlőrinci Járás","lat":"46.04694000","lon":"18.01528000"},
{"state":"Baranya","name":"Szigetvár","lat":"46.04865000","lon":"17.80554000"},
{"state":"Baranya","name":"Szigetvári Járás","lat":"46.07336000","lon":"17.80391000"},
{"state":"Baranya","name":"Vajszló","lat":"45.85957000","lon":"17.98406000"},
{"state":"Baranya","name":"Villány","lat":"45.86889000","lon":"18.45389000"},
{"state":"Békés","name":"Battonya","lat":"46.28333000","lon":"21.01667000"},
{"state":"Békés","name":"Békés","lat":"46.76667000","lon":"21.13333000"},
{"state":"Békés","name":"Békéscsaba","lat":"46.68333000","lon":"21.10000000"},
{"state":"Békés","name":"Békéscsabai Járás","lat":"46.68133000","lon":"21.07413000"},
{"state":"Békés","name":"Békési Járás","lat":"46.83317000","lon":"21.10000000"},
{"state":"Békés","name":"Békéssámson","lat":"46.41667000","lon":"20.63333000"},
{"state":"Békés","name":"Békésszentandrás","lat":"46.86667000","lon":"20.48333000"},
{"state":"Békés","name":"Bucsa","lat":"47.20000000","lon":"21.00000000"},
{"state":"Békés","name":"Csanádapáca","lat":"46.55000000","lon":"20.88333000"},
{"state":"Békés","name":"Csorvás","lat":"46.63333000","lon":"20.83333000"},
{"state":"Békés","name":"Dévaványa","lat":"47.03333000","lon":"20.96667000"},
{"state":"Békés","name":"Doboz","lat":"46.73333000","lon":"21.25000000"},
{"state":"Békés","name":"Dombegyház","lat":"46.33333000","lon":"21.13333000"},
{"state":"Békés","name":"Elek","lat":"46.53333000","lon":"21.25000000"},
{"state":"Békés","name":"Füzesgyarmat","lat":"47.10000000","lon":"21.21667000"},
{"state":"Békés","name":"Gádoros","lat":"46.66667000","lon":"20.60000000"},
{"state":"Békés","name":"Gyomaendrőd","lat":"46.93333000","lon":"20.83333000"},
{"state":"Békés","name":"Gyomaendrődi Járás","lat":"46.98216000","lon":"20.84851000"},
{"state":"Békés","name":"Gyula","lat":"46.65000000","lon":"21.28333000"},
{"state":"Békés","name":"Gyulai Járás","lat":"46.58626000","lon":"21.22454000"},
{"state":"Békés","name":"Kaszaper","lat":"46.46667000","lon":"20.83333000"},
{"state":"Békés","name":"Kétegyháza","lat":"46.53333000","lon":"21.18333000"},
{"state":"Békés","name":"Kevermes","lat":"46.41667000","lon":"21.18333000"},
{"state":"Békés","name":"Kondoros","lat":"46.76667000","lon":"20.80000000"},
{"state":"Békés","name":"Körösladány","lat":"46.96667000","lon":"21.08333000"},
{"state":"Békés","name":"Köröstarcsa","lat":"46.88333000","lon":"21.03333000"},
{"state":"Békés","name":"Kunágota","lat":"46.43333000","lon":"21.05000000"},
{"state":"Békés","name":"Lőkösháza","lat":"46.43333000","lon":"21.23333000"},
{"state":"Békés","name":"Magyarbánhegyes","lat":"46.45000000","lon":"20.96667000"},
{"state":"Békés","name":"Medgyesegyháza","lat":"46.50000000","lon":"21.03333000"},
{"state":"Békés","name":"Méhkerék","lat":"46.78333000","lon":"21.45000000"},
{"state":"Békés","name":"Mezőberény","lat":"46.81667000","lon":"21.03333000"},
{"state":"Békés","name":"Mezőhegyes","lat":"46.31667000","lon":"20.81667000"},
{"state":"Békés","name":"Mezőkovácsháza","lat":"46.40000000","lon":"20.91667000"},
{"state":"Békés","name":"Mezőkovácsházai Járás","lat":"46.40888000","lon":"21.00318000"},
{"state":"Békés","name":"Nagyszénás","lat":"46.68333000","lon":"20.66667000"},
{"state":"Békés","name":"Okány","lat":"46.90000000","lon":"21.35000000"},
{"state":"Békés","name":"Orosháza","lat":"46.56667000","lon":"20.66667000"},
{"state":"Békés","name":"Orosházi Járás","lat":"46.56355000","lon":"20.73357000"},
{"state":"Békés","name":"Pusztaföldvár","lat":"46.53333000","lon":"20.80000000"},
{"state":"Békés","name":"Sarkad","lat":"46.75000000","lon":"21.38333000"},
{"state":"Békés","name":"Sarkadi Járás","lat":"46.86154000","lon":"21.44875000"},
{"state":"Békés","name":"Szabadkígyós","lat":"46.61667000","lon":"21.10000000"},
{"state":"Békés","name":"Szarvas","lat":"46.86667000","lon":"20.55000000"},
{"state":"Békés","name":"Szarvasi Járás","lat":"46.82891000","lon":"20.63707000"},
{"state":"Békés","name":"Szeghalmi Járás","lat":"47.00000000","lon":"21.17000000"},
{"state":"Békés","name":"Szeghalom","lat":"47.03333000","lon":"21.16667000"},
{"state":"Békés","name":"Tótkomlós","lat":"46.41667000","lon":"20.73333000"},
{"state":"Békés","name":"Újkígyós","lat":"46.58333000","lon":"21.03333000"},
{"state":"Békés","name":"Vésztő","lat":"46.91667000","lon":"21.26667000"},
{"state":"Borsod-Abaúj-Zemplén","name":"Abaújszántó","lat":"48.28333000","lon":"21.20000000"},
{"state":"Borsod-Abaúj-Zemplén","name":"Alsózsolca","lat":"48.06982000","lon":"20.88046000"},
{"state":"Borsod-Abaúj-Zemplén","name":"Arló","lat":"48.18333000","lon":"20.26667000"},
{"state":"Borsod-Abaúj-Zemplén","name":"Arnót","lat":"48.13058000","lon":"20.85832000"},
{"state":"Borsod-Abaúj-Zemplén","name":"Aszaló","lat":"48.21667000","lon":"20.96667000"},
{"state":"Borsod-Abaúj-Zemplén","name":"Bekecs","lat":"48.15000000","lon":"21.18333000"},
{"state":"Borsod-Abaúj-Zemplén","name":"Bőcs","lat":"48.05000000","lon":"20.96667000"},
{"state":"Borsod-Abaúj-Zemplén","name":"Bogács","lat":"47.90000000","lon":"20.53333000"},
{"state":"Borsod-Abaúj-Zemplén","name":"Boldva","lat":"48.21667000","lon":"20.80000000"},
{"state":"Borsod-Abaúj-Zemplén","name":"Borsodnádasd","lat":"48.11667000","lon":"20.25000000"},
{"state":"Borsod-Abaúj-Zemplén","name":"Cigánd","lat":"48.25561000","lon":"21.89195000"},
{"state":"Borsod-Abaúj-Zemplén","name":"Cigándi Járás","lat":"48.30338000","lon":"21.87651000"},
{"state":"Borsod-Abaúj-Zemplén","name":"Edelény","lat":"48.30000000","lon":"20.73333000"},
{"state":"Borsod-Abaúj-Zemplén","name":"Edelényi Járás","lat":"48.40864000","lon":"20.77506000"},
{"state":"Borsod-Abaúj-Zemplén","name":"Emőd","lat":"47.93333000","lon":"20.81667000"},
{"state":"Borsod-Abaúj-Zemplén","name":"Encs","lat":"48.33333000","lon":"21.13333000"},
{"state":"Borsod-Abaúj-Zemplén","name":"Encsi Járás","lat":"48.39948000","lon":"21.08169000"},
{"state":"Borsod-Abaúj-Zemplén","name":"Farkaslyuk","lat":"48.18333000","lon":"20.31667000"},
{"state":"Borsod-Abaúj-Zemplén","name":"Felsőzsolca","lat":"48.10000000","lon":"20.86667000"},
{"state":"Borsod-Abaúj-Zemplén","name":"Gesztely","lat":"48.10000000","lon":"20.96667000"},
{"state":"Borsod-Abaúj-Zemplén","name":"Gönc","lat":"48.46667000","lon":"21.28333000"},
{"state":"Borsod-Abaúj-Zemplén","name":"Gönci Járás","lat":"48.39948000","lon":"21.28307000"},
{"state":"Borsod-Abaúj-Zemplén","name":"Halmaj","lat":"48.25000000","lon":"21.00000000"},
{"state":"Borsod-Abaúj-Zemplén","name":"Harsány","lat":"47.96667000","lon":"20.75000000"},
{"state":"Borsod-Abaúj-Zemplén","name":"Hejőbába","lat":"47.90000000","lon":"20.95000000"},
{"state":"Borsod-Abaúj-Zemplén","name":"Hernádnémeti","lat":"48.06667000","lon":"20.98333000"},
{"state":"Borsod-Abaúj-Zemplén","name":"Izsófalva","lat":"48.30000000","lon":"20.66667000"},
{"state":"Borsod-Abaúj-Zemplén","name":"Járdánháza","lat":"48.15000000","lon":"20.25000000"},
{"state":"Borsod-Abaúj-Zemplén","name":"Karcsa","lat":"48.31130000","lon":"21.80537000"},
{"state":"Borsod-Abaúj-Zemplén","name":"Kazincbarcika","lat":"48.25000000","lon":"20.63333000"},
{"state":"Borsod-Abaúj-Zemplén","name":"Kazincbarcikai Járás","lat":"48.26371000","lon":"20.57978000"},
{"state":"Borsod-Abaúj-Zemplén","name":"Mád","lat":"48.19442000","lon":"21.28208000"},
{"state":"Borsod-Abaúj-Zemplén","name":"Mályi","lat":"48.01667000","lon":"20.83333000"},
{"state":"Borsod-Abaúj-Zemplén","name":"Megyaszó","lat":"48.18333000","lon":"21.05000000"},
{"state":"Borsod-Abaúj-Zemplén","name":"Mezőcsát","lat":"47.81667000","lon":"20.91667000"},
{"state":"Borsod-Abaúj-Zemplén","name":"Mezőcsáti Járás","lat":"47.79841000","lon":"20.91693000"},
{"state":"Borsod-Abaúj-Zemplén","name":"Mezőkeresztes","lat":"47.83333000","lon":"20.70000000"},
{"state":"Borsod-Abaúj-Zemplén","name":"Mezőkövesd","lat":"47.81667000","lon":"20.58333000"},
{"state":"Borsod-Abaúj-Zemplén","name":"Mezőkövesdi Járás","lat":"47.84876000","lon":"20.63623000"},
{"state":"Borsod-Abaúj-Zemplén","name":"Mezőzombor","lat":"48.15000000","lon":"21.26667000"},
{"state":"Borsod-Abaúj-Zemplén","name":"Miskolc","lat":"48.10000000","lon":"20.78333000"},
{"state":"Borsod-Abaúj-Zemplén","name":"Miskolci Járás","lat":"48.08675000","lon":"20.77353000"},
{"state":"Borsod-Abaúj-Zemplén","name":"Monok","lat":"48.21102000","lon":"21.15052000"},
{"state":"Borsod-Abaúj-Zemplén","name":"Múcsony","lat":"48.26667000","lon":"20.68333000"},
{"state":"Borsod-Abaúj-Zemplén","name":"Nyékládháza","lat":"47.98333000","lon":"20.83333000"},
{"state":"Borsod-Abaúj-Zemplén","name":"Olaszliszka","lat":"48.25000000","lon":"21.43333000"},
{"state":"Borsod-Abaúj-Zemplén","name":"Onga","lat":"48.11667000","lon":"20.91667000"},
{"state":"Borsod-Abaúj-Zemplén","name":"Ónod","lat":"48.00000000","lon":"20.91667000"},
{"state":"Borsod-Abaúj-Zemplén","name":"Ózd","lat":"48.21667000","lon":"20.30000000"},
{"state":"Borsod-Abaúj-Zemplén","name":"Ózdi Járás","lat":"48.18133000","lon":"20.24874000"},
{"state":"Borsod-Abaúj-Zemplén","name":"Prügy","lat":"48.08333000","lon":"21.25000000"},
{"state":"Borsod-Abaúj-Zemplén","name":"Putnok","lat":"48.30000000","lon":"20.43333000"},
{"state":"Borsod-Abaúj-Zemplén","name":"Putnoki Járás","lat":"48.33694000","lon":"20.46384000"},
{"state":"Borsod-Abaúj-Zemplén","name":"Ricse","lat":"48.32565000","lon":"21.97069000"},
{"state":"Borsod-Abaúj-Zemplén","name":"Rudabánya","lat":"48.38333000","lon":"20.63333000"},
{"state":"Borsod-Abaúj-Zemplén","name":"Sajóbábony","lat":"48.16667000","lon":"20.73333000"},
{"state":"Borsod-Abaúj-Zemplén","name":"Sajókaza","lat":"48.28333000","lon":"20.58333000"},
{"state":"Borsod-Abaúj-Zemplén","name":"Sajólád","lat":"48.05000000","lon":"20.90000000"},
{"state":"Borsod-Abaúj-Zemplén","name":"Sajóörös","lat":"47.95000000","lon":"21.03333000"},
{"state":"Borsod-Abaúj-Zemplén","name":"Sajószentpéter","lat":"48.21667000","lon":"20.71667000"},
{"state":"Borsod-Abaúj-Zemplén","name":"Sajószöged","lat":"47.95000000","lon":"21.00000000"},
{"state":"Borsod-Abaúj-Zemplén","name":"Sajóvámos","lat":"48.18171000","lon":"20.83149000"},
{"state":"Borsod-Abaúj-Zemplén","name":"Sály","lat":"47.95000000","lon":"20.66667000"},
{"state":"Borsod-Abaúj-Zemplén","name":"Sárospatak","lat":"48.32450000","lon":"21.57383000"},
{"state":"Borsod-Abaúj-Zemplén","name":"Sárospataki Járás","lat":"48.29575000","lon":"21.52716000"},
{"state":"Borsod-Abaúj-Zemplén","name":"Sátoraljaújhely","lat":"48.39492000","lon":"21.65871000"},
{"state":"Borsod-Abaúj-Zemplén","name":"Sátoraljaújhelyi Járás","lat":"48.45898000","lon":"21.54394000"},
{"state":"Borsod-Abaúj-Zemplén","name":"Szendrő","lat":"48.40000000","lon":"20.73333000"},
{"state":"Borsod-Abaúj-Zemplén","name":"Szentistván","lat":"47.76667000","lon":"20.66667000"},
{"state":"Borsod-Abaúj-Zemplén","name":"Szerencs","lat":"48.15993000","lon":"21.20970000"},
{"state":"Borsod-Abaúj-Zemplén","name":"Szerencsi Járás","lat":"48.14929000","lon":"21.16865000"},
{"state":"Borsod-Abaúj-Zemplén","name":"Szikszó","lat":"48.20000000","lon":"20.93333000"},
{"state":"Borsod-Abaúj-Zemplén","name":"Szikszói Járás","lat":"48.30032000","lon":"20.95507000"},
{"state":"Borsod-Abaúj-Zemplén","name":"Szirmabesenyő","lat":"48.15000000","lon":"20.80000000"},
{"state":"Borsod-Abaúj-Zemplén","name":"Taktaharkány","lat":"48.08333000","lon":"21.13333000"},
{"state":"Borsod-Abaúj-Zemplén","name":"Taktaszada","lat":"48.11667000","lon":"21.18333000"},
{"state":"Borsod-Abaúj-Zemplén","name":"Tállya","lat":"48.23333000","lon":"21.23333000"},
{"state":"Borsod-Abaúj-Zemplén","name":"Tarcal","lat":"48.13333000","lon":"21.35000000"},
{"state":"Borsod-Abaúj-Zemplén","name":"Tiszakarád","lat":"48.20000000","lon":"21.71667000"},
{"state":"Borsod-Abaúj-Zemplén","name":"Tiszakeszi","lat":"47.78333000","lon":"21.00000000"},
{"state":"Borsod-Abaúj-Zemplén","name":"Tiszalúc","lat":"48.03774000","lon":"21.07261000"},
{"state":"Borsod-Abaúj-Zemplén","name":"Tiszaújváros","lat":"47.93333000","lon":"21.08333000"},
{"state":"Borsod-Abaúj-Zemplén","name":"Tiszaújvárosi Járás","lat":"47.92656000","lon":"20.99321000"},
{"state":"Borsod-Abaúj-Zemplén","name":"Tokaj","lat":"48.11667000","lon":"21.41667000"},
{"state":"Borsod-Abaúj-Zemplén","name":"Tokaji Járás","lat":"48.14014000","lon":"21.37002000"},
{"state":"Borsod-Abaúj-Zemplén","name":"Tolcsva","lat":"48.28333000","lon":"21.45000000"},
{"state":"Budapest","name":"Budapest","lat":"47.49835000","lon":"19.04045000"},
{"state":"Budapest","name":"Budapest I. kerület","lat":"47.49705000","lon":"19.03961000"},
{"state":"Budapest","name":"Budapest II. kerület","lat":"47.51984000","lon":"19.02218000"},
{"state":"Budapest","name":"Budapest III. kerület","lat":"47.54157000","lon":"19.04501000"},
{"state":"Budapest","name":"Budapest IV. kerület","lat":"47.56182000","lon":"19.08909000"},
{"state":"Budapest","name":"Budapest VI. kerület","lat":"47.50369000","lon":"19.06583000"},
{"state":"Budapest","name":"Budapest VIII. kerület","lat":"47.48919000","lon":"19.07012000"},
{"state":"Budapest","name":"Budapest X. kerület","lat":"47.47910000","lon":"19.15835000"},
{"state":"Budapest","name":"Budapest XI. kerület","lat":"47.47603000","lon":"19.03605000"},
{"state":"Budapest","name":"Budapest XII. kerület","lat":"47.49192000","lon":"19.01493000"},
{"state":"Budapest","name":"Budapest XIII. kerület","lat":"47.52978000","lon":"19.08068000"},
{"state":"Budapest","name":"Budapest XV. kerület","lat":"47.56263000","lon":"19.11681000"},
{"state":"Budapest","name":"Budapest XVI. kerület","lat":"47.51482000","lon":"19.17028000"},
{"state":"Budapest","name":"Budapest XVII. kerület","lat":"47.47997000","lon":"19.25388000"},
{"state":"Budapest","name":"Budapest XVIII. kerület","lat":"47.44417000","lon":"19.17595000"},
{"state":"Budapest","name":"Budapest XX. kerület","lat":"47.43674000","lon":"19.10093000"},
{"state":"Budapest","name":"Budapest XXI. kerület","lat":"47.43047000","lon":"19.07098000"},
{"state":"Budapest","name":"Budapest XXII. kerület","lat":"47.42698000","lon":"19.04016000"},
{"state":"Budapest","name":"Budapest XXIII. kerület","lat":"47.39788000","lon":"19.11492000"},
{"state":"Budapest","name":"Erzsébetváros","lat":"47.50207000","lon":"19.07218000"},
{"state":"Budapest","name":"Józsefváros","lat":"47.48938000","lon":"19.07292000"},
{"state":"Budapest","name":"Kispest","lat":"47.45150000","lon":"19.14017000"},
{"state":"Budapest","name":"Zugló","lat":"47.51758000","lon":"19.10549000"},
{"state":"Csongrád County","name":"Algyő","lat":"46.33472000","lon":"20.20849000"},
{"state":"Csongrád County","name":"Apátfalva","lat":"46.16667000","lon":"20.58333000"},
{"state":"Csongrád County","name":"Ásotthalom","lat":"46.19875000","lon":"19.78334000"},
{"state":"Csongrád County","name":"Baks","lat":"46.54297000","lon":"20.10213000"},
{"state":"Csongrád County","name":"Balástya","lat":"46.42277000","lon":"20.00816000"},
{"state":"Csongrád County","name":"Bordány","lat":"46.31843000","lon":"19.92306000"},
{"state":"Csongrád County","name":"Csanádpalota","lat":"46.25000000","lon":"20.73333000"},
{"state":"Csongrád County","name":"Csanytelek","lat":"46.59501000","lon":"20.12342000"},
{"state":"Csongrád County","name":"Csengele","lat":"46.54234000","lon":"19.86358000"},
{"state":"Csongrád County","name":"Csongrád","lat":"46.71332000","lon":"20.14241000"},
{"state":"Csongrád County","name":"Csongrádi Járás","lat":"46.66146000","lon":"20.08792000"},
{"state":"Csongrád County","name":"Deszk","lat":"46.21802000","lon":"20.24322000"},
{"state":"Csongrád County","name":"Domaszék","lat":"46.24917000","lon":"20.01111000"},
{"state":"Csongrád County","name":"Fábiánsebestyén","lat":"46.68333000","lon":"20.46667000"},
{"state":"Csongrád County","name":"Földeák","lat":"46.31667000","lon":"20.50000000"},
{"state":"Csongrád County","name":"Forráskút","lat":"46.36528000","lon":"19.90973000"},
{"state":"Csongrád County","name":"Hódmezővásárhely","lat":"46.41667000","lon":"20.33333000"},
{"state":"Csongrád County","name":"Hódmezővásárhelyi Járás","lat":"46.43301000","lon":"20.37598000"},
{"state":"Csongrád County","name":"Kistelek","lat":"46.47250000","lon":"19.97972000"},
{"state":"Csongrád County","name":"Kisteleki Járás","lat":"46.48835000","lon":"19.99568000"},
{"state":"Csongrád County","name":"Kiszombor","lat":"46.18333000","lon":"20.43333000"},
{"state":"Csongrád County","name":"Makó","lat":"46.21667000","lon":"20.48333000"},
{"state":"Csongrád County","name":"Makói Járás","lat":"46.26698000","lon":"20.54200000"},
{"state":"Csongrád County","name":"Maroslele","lat":"46.26667000","lon":"20.35000000"},
{"state":"Csongrád County","name":"Mindszent","lat":"46.52362000","lon":"20.19038000"},
{"state":"Csongrád County","name":"Mórahalmi Járás","lat":"46.26840000","lon":"19.82256000"},
{"state":"Csongrád County","name":"Mórahalom","lat":"46.21806000","lon":"19.88510000"},
{"state":"Csongrád County","name":"Ópusztaszer","lat":"46.48592000","lon":"20.08722000"},
{"state":"Csongrád County","name":"Pusztaszer","lat":"46.55083000","lon":"19.98823000"},
{"state":"Csongrád County","name":"Röszke","lat":"46.18796000","lon":"20.03372000"},
{"state":"Csongrád County","name":"Ruzsa","lat":"46.28806000","lon":"19.74714000"},
{"state":"Csongrád County","name":"Sándorfalva","lat":"46.36087000","lon":"20.09889000"},
{"state":"Csongrád County","name":"Szatymaz","lat":"46.34306000","lon":"20.04020000"},
{"state":"Csongrád County","name":"Szeged","lat":"46.25300000","lon":"20.14824000"},
{"state":"Csongrád County","name":"Szegedi Járás","lat":"46.29536000","lon":"20.13758000"},
{"state":"Csongrád County","name":"Szegvár","lat":"46.58740000","lon":"20.22408000"},
{"state":"Csongrád County","name":"Székkutas","lat":"46.50000000","lon":"20.53333000"},
{"state":"Csongrád County","name":"Szentes","lat":"46.65834000","lon":"20.26080000"},
{"state":"Csongrád County","name":"Szentesi Járás","lat":"46.66005000","lon":"20.37314000"},
{"state":"Csongrád County","name":"Tömörkény","lat":"46.61716000","lon":"20.04357000"},
{"state":"Csongrád County","name":"Üllés","lat":"46.33611000","lon":"19.84454000"},
{"state":"Csongrád County","name":"Zákányszék","lat":"46.27453000","lon":"19.88975000"},
{"state":"Csongrád County","name":"Zsombó","lat":"46.32566000","lon":"19.97464000"},
{"state":"Fejér County","name":"Aba","lat":"47.02907000","lon":"18.52172000"},
{"state":"Fejér County","name":"Adony","lat":"47.11940000","lon":"18.86493000"},
{"state":"Fejér County","name":"Alap","lat":"46.79915000","lon":"18.68938000"},
{"state":"Fejér County","name":"Bakonycsernye","lat":"47.32395000","lon":"18.07509000"},
{"state":"Fejér County","name":"Baracs","lat":"46.88202000","lon":"18.90658000"},
{"state":"Fejér County","name":"Baracska","lat":"47.28225000","lon":"18.75853000"},
{"state":"Fejér County","name":"Bicske","lat":"47.48419000","lon":"18.64404000"},
{"state":"Fejér County","name":"Bicskei Járás","lat":"47.43380000","lon":"18.56757000"},
{"state":"Fejér County","name":"Bodajk","lat":"47.32352000","lon":"18.23312000"},
{"state":"Fejér County","name":"Cece","lat":"46.77056000","lon":"18.62826000"},
{"state":"Fejér County","name":"Csákvár","lat":"47.39184000","lon":"18.46501000"},
{"state":"Fejér County","name":"Dég","lat":"46.86807000","lon":"18.45042000"},
{"state":"Fejér County","name":"dunaújváros","lat":"46.96737000","lon":"18.93288000"},
{"state":"Fejér County","name":"Dunaújvárosi Járás","lat":"47.02801000","lon":"18.82997000"},
{"state":"Fejér County","name":"Előszállás","lat":"46.83094000","lon":"18.83481000"},
{"state":"Fejér County","name":"Enying","lat":"46.93046000","lon":"18.24202000"},
{"state":"Fejér County","name":"Enyingi Járás","lat":"46.87240000","lon":"18.30975000"},
{"state":"Fejér County","name":"Ercsi","lat":"47.25194000","lon":"18.89623000"},
{"state":"Fejér County","name":"Etyek","lat":"47.44794000","lon":"18.75328000"},
{"state":"Fejér County","name":"Fehérvárcsurgó","lat":"47.29349000","lon":"18.26460000"},
{"state":"Fejér County","name":"Gárdony","lat":"47.20942000","lon":"18.63607000"},
{"state":"Fejér County","name":"Gárdonyi Járás","lat":"47.22785000","lon":"18.63622000"},
{"state":"Fejér County","name":"Iváncsa","lat":"47.15670000","lon":"18.82030000"},
{"state":"Fejér County","name":"Káloz","lat":"46.95464000","lon":"18.48259000"},
{"state":"Fejér County","name":"Kápolnásnyék","lat":"47.24004000","lon":"18.67564000"},
{"state":"Fejér County","name":"Kincsesbánya","lat":"47.26444000","lon":"18.27790000"},
{"state":"Fejér County","name":"Kisláng","lat":"46.95744000","lon":"18.38813000"},
{"state":"Fejér County","name":"Lajoskomárom","lat":"46.84201000","lon":"18.33763000"},
{"state":"Fejér County","name":"Lepsény","lat":"46.99036000","lon":"18.24357000"},
{"state":"Fejér County","name":"Lovasberény","lat":"47.30997000","lon":"18.55177000"},
{"state":"Fejér County","name":"Mány","lat":"47.53352000","lon":"18.65627000"},
{"state":"Fejér County","name":"Martonvásár","lat":"47.31601000","lon":"18.79045000"},
{"state":"Fejér County","name":"Martonvásári Járás","lat":"47.29040000","lon":"18.79945000"},
{"state":"Fejér County","name":"Mezőfalva","lat":"46.93184000","lon":"18.77177000"},
{"state":"Fejér County","name":"Mezőszilas","lat":"46.81109000","lon":"18.47789000"},
{"state":"Fejér County","name":"Mór","lat":"47.37787000","lon":"18.20353000"},
{"state":"Fejér County","name":"Móri Járás","lat":"47.34685000","lon":"18.19838000"},
{"state":"Fejér County","name":"Pákozd","lat":"47.21369000","lon":"18.53306000"},
{"state":"Fejér County","name":"Pázmánd","lat":"47.28755000","lon":"18.65356000"},
{"state":"Fejér County","name":"Perkáta","lat":"47.04701000","lon":"18.78734000"},
{"state":"Fejér County","name":"Polgárdi","lat":"47.06099000","lon":"18.30200000"},
{"state":"Fejér County","name":"Pusztaszabolcs","lat":"47.13718000","lon":"18.76704000"},
{"state":"Fejér County","name":"Pusztavám","lat":"47.42948000","lon":"18.22648000"},
{"state":"Fejér County","name":"Rácalmás","lat":"47.02263000","lon":"18.94056000"},
{"state":"Fejér County","name":"Ráckeresztúr","lat":"47.27360000","lon":"18.83343000"},
{"state":"Fejér County","name":"Sárbogárd","lat":"46.88692000","lon":"18.62041000"},
{"state":"Fejér County","name":"Sárbogárdi Járás","lat":"46.84036000","lon":"18.60723000"},
{"state":"Fejér County","name":"Sárkeresztúr","lat":"47.00540000","lon":"18.54391000"},
{"state":"Fejér County","name":"Sárosd","lat":"47.04273000","lon":"18.64357000"},
{"state":"Fejér County","name":"Sárszentmihály","lat":"47.15321000","lon":"18.33879000"},
{"state":"Fejér County","name":"Seregélyes","lat":"47.11050000","lon":"18.56500000"},
{"state":"Fejér County","name":"Soponya","lat":"47.01485000","lon":"18.45343000"},
{"state":"Fejér County","name":"Szabadbattyán","lat":"47.11902000","lon":"18.36823000"},
{"state":"Fejér County","name":"Szárliget","lat":"47.51581000","lon":"18.49480000"},
{"state":"Fejér County","name":"Székesfehérvár","lat":"47.18995000","lon":"18.41034000"},
{"state":"Fejér County","name":"Székesfehérvári Járás","lat":"47.16531000","lon":"18.41349000"},
{"state":"Fejér County","name":"Vál","lat":"47.36264000","lon":"18.67931000"},
{"state":"Fejér County","name":"Velence","lat":"47.23855000","lon":"18.65484000"},
{"state":"Fejér County","name":"Zámoly","lat":"47.31667000","lon":"18.40810000"},
{"state":"Győr-Moson-Sopron County","name":"Abda","lat":"47.69464000","lon":"17.54489000"},
{"state":"Győr-Moson-Sopron County","name":"Ágfalva","lat":"47.68991000","lon":"16.51658000"},
{"state":"Győr-Moson-Sopron County","name":"Ásványráró","lat":"47.82733000","lon":"17.49418000"},
{"state":"Győr-Moson-Sopron County","name":"Bakonyszentlászló","lat":"47.38901000","lon":"17.80321000"},
{"state":"Győr-Moson-Sopron County","name":"Beled","lat":"47.46594000","lon":"17.09294000"},
{"state":"Győr-Moson-Sopron County","name":"Bőny","lat":"47.65000000","lon":"17.86977000"},
{"state":"Győr-Moson-Sopron County","name":"Bősárkány","lat":"47.68821000","lon":"17.25000000"},
{"state":"Győr-Moson-Sopron County","name":"Csorna","lat":"47.61155000","lon":"17.25012000"},
{"state":"Győr-Moson-Sopron County","name":"Csornai Járás","lat":"47.58403000","lon":"17.26041000"},
{"state":"Győr-Moson-Sopron County","name":"Farád","lat":"47.60633000","lon":"17.20024000"},
{"state":"Győr-Moson-Sopron County","name":"Fertőd","lat":"47.62173000","lon":"16.87088000"},
{"state":"Győr-Moson-Sopron County","name":"Fertőrákos","lat":"47.72017000","lon":"16.65040000"},
{"state":"Győr-Moson-Sopron County","name":"Fertőszentmiklós","lat":"47.58996000","lon":"16.87517000"},
{"state":"Győr-Moson-Sopron County","name":"Győr","lat":"47.68333000","lon":"17.63512000"},
{"state":"Győr-Moson-Sopron County","name":"Győri Járás","lat":"47.67273000","lon":"17.67936000"},
{"state":"Győr-Moson-Sopron County","name":"Győrszemere","lat":"47.55256000","lon":"17.56356000"},
{"state":"Győr-Moson-Sopron County","name":"Győrújbarát","lat":"47.60643000","lon":"17.64875000"},
{"state":"Győr-Moson-Sopron County","name":"Halászi","lat":"47.88930000","lon":"17.32615000"},
{"state":"Győr-Moson-Sopron County","name":"Jánossomorja","lat":"47.78621000","lon":"17.13603000"},
{"state":"Győr-Moson-Sopron County","name":"Kapuvár","lat":"47.59224000","lon":"17.02886000"},
{"state":"Győr-Moson-Sopron County","name":"Kapuvári Járás","lat":"47.56705000","lon":"17.04056000"},
{"state":"Győr-Moson-Sopron County","name":"Kimle","lat":"47.81726000","lon":"17.36642000"},
{"state":"Győr-Moson-Sopron County","name":"Kóny","lat":"47.63053000","lon":"17.35717000"},
{"state":"Győr-Moson-Sopron County","name":"Lébény","lat":"47.73574000","lon":"17.39076000"},
{"state":"Győr-Moson-Sopron County","name":"Mihályi","lat":"47.51384000","lon":"17.09507000"},
{"state":"Győr-Moson-Sopron County","name":"Mosonmagyaróvár","lat":"47.86789000","lon":"17.26994000"},
{"state":"Győr-Moson-Sopron County","name":"Mosonmagyaróvári Járás","lat":"47.85767000","lon":"17.28212000"},
{"state":"Győr-Moson-Sopron County","name":"Mosonszentmiklós","lat":"47.72778000","lon":"17.42784000"},
{"state":"Győr-Moson-Sopron County","name":"Nagycenk","lat":"47.60435000","lon":"16.69732000"},
{"state":"Győr-Moson-Sopron County","name":"Nyúl","lat":"47.59047000","lon":"17.68904000"},
{"state":"Győr-Moson-Sopron County","name":"Öttevény","lat":"47.71946000","lon":"17.48474000"},
{"state":"Győr-Moson-Sopron County","name":"Pannonhalma","lat":"47.54946000","lon":"17.75535000"},
{"state":"Győr-Moson-Sopron County","name":"Pannonhalmi Járás","lat":"47.45571000","lon":"17.81335000"},
{"state":"Győr-Moson-Sopron County","name":"Pér","lat":"47.61153000","lon":"17.80632000"},
{"state":"Győr-Moson-Sopron County","name":"Rábapatona","lat":"47.63224000","lon":"17.48004000"},
{"state":"Győr-Moson-Sopron County","name":"Rajka","lat":"47.99643000","lon":"17.19821000"},
{"state":"Győr-Moson-Sopron County","name":"Sopron","lat":"47.68501000","lon":"16.59049000"},
{"state":"Győr-Moson-Sopron County","name":"Soproni Járás","lat":"47.60385000","lon":"16.75654000"},
{"state":"Győr-Moson-Sopron County","name":"Szany","lat":"47.46423000","lon":"17.30402000"},
{"state":"Győr-Moson-Sopron County","name":"Tét","lat":"47.51922000","lon":"17.50802000"},
{"state":"Győr-Moson-Sopron County","name":"Téti Járás","lat":"47.51515000","lon":"17.51612000"},
{"state":"Győr-Moson-Sopron County","name":"Töltéstava","lat":"47.62609000","lon":"17.73376000"},
{"state":"Hajdú-Bihar County","name":"Bagamér","lat":"47.44882000","lon":"21.98900000"},
{"state":"Hajdú-Bihar County","name":"Balmazújváros","lat":"47.61667000","lon":"21.35000000"},
{"state":"Hajdú-Bihar County","name":"Balmazújvárosi Járás","lat":"47.61840000","lon":"21.14882000"},
{"state":"Hajdú-Bihar County","name":"Báránd","lat":"47.30000000","lon":"21.23333000"},
{"state":"Hajdú-Bihar County","name":"Berettyóújfalu","lat":"47.21667000","lon":"21.55000000"},
{"state":"Hajdú-Bihar County","name":"Berettyóújfalui Járás","lat":"47.14109000","lon":"21.55233000"},
{"state":"Hajdú-Bihar County","name":"Biharkeresztes","lat":"47.13333000","lon":"21.71667000"},
{"state":"Hajdú-Bihar County","name":"Biharnagybajom","lat":"47.21667000","lon":"21.23333000"},
{"state":"Hajdú-Bihar County","name":"Csökmő","lat":"47.03333000","lon":"21.30000000"},
{"state":"Hajdú-Bihar County","name":"Debrecen","lat":"47.53333000","lon":"21.63333000"},
{"state":"Hajdú-Bihar County","name":"Debreceni Járás","lat":"47.52706000","lon":"21.66869000"},
{"state":"Hajdú-Bihar County","name":"Derecske","lat":"47.35000000","lon":"21.56667000"},
{"state":"Hajdú-Bihar County","name":"Derecskei Járás","lat":"47.38194000","lon":"21.74836000"},
{"state":"Hajdú-Bihar County","name":"Ebes","lat":"47.46667000","lon":"21.50000000"},
{"state":"Hajdú-Bihar County","name":"Egyek","lat":"47.63333000","lon":"20.90000000"},
{"state":"Hajdú-Bihar County","name":"Földes","lat":"47.30000000","lon":"21.36667000"},
{"state":"Hajdú-Bihar County","name":"Görbeháza","lat":"47.83333000","lon":"21.23333000"},
{"state":"Hajdú-Bihar County","name":"Hadjúszoboszlói Járás","lat":"47.48110000","lon":"21.31000000"},
{"state":"Hajdú-Bihar County","name":"Hajdúbagos","lat":"47.39295000","lon":"21.66551000"},
{"state":"Hajdú-Bihar County","name":"Hajdúböszörmény","lat":"47.66667000","lon":"21.51667000"},
{"state":"Hajdú-Bihar County","name":"Hajdúböszörményi Járás","lat":"47.74000000","lon":"21.50000000"},
{"state":"Hajdú-Bihar County","name":"Hajdúdorog","lat":"47.81667000","lon":"21.50000000"},
{"state":"Hajdú-Bihar County","name":"Hajdúhadház","lat":"47.68333000","lon":"21.66667000"},
{"state":"Hajdú-Bihar County","name":"Hajdúhadházi Járás","lat":"47.67000000","lon":"21.70000000"},
{"state":"Hajdú-Bihar County","name":"Hajdúnánás","lat":"47.85000000","lon":"21.43333000"},
{"state":"Hajdú-Bihar County","name":"Hajdúnánási Járás","lat":"47.83350000","lon":"21.25256000"},
{"state":"Hajdú-Bihar County","name":"Hajdúsámson","lat":"47.60000000","lon":"21.76667000"},
{"state":"Hajdú-Bihar County","name":"Hajdúszoboszló","lat":"47.45000000","lon":"21.40000000"},
{"state":"Hajdú-Bihar County","name":"Hajdúszovát","lat":"47.38333000","lon":"21.48333000"},
{"state":"Hajdú-Bihar County","name":"Hortobágy","lat":"47.58278000","lon":"21.15108000"},
{"state":"Hajdú-Bihar County","name":"Hosszúpályi","lat":"47.39303000","lon":"21.73280000"},
{"state":"Hajdú-Bihar County","name":"Kaba","lat":"47.35000000","lon":"21.28333000"},
{"state":"Hajdú-Bihar County","name":"Komádi","lat":"47.00000000","lon":"21.50000000"},
{"state":"Hajdú-Bihar County","name":"Konyár","lat":"47.31667000","lon":"21.66667000"},
{"state":"Hajdú-Bihar County","name":"Létavértes","lat":"47.38333000","lon":"21.90000000"},
{"state":"Hajdú-Bihar County","name":"Mikepércs","lat":"47.45000000","lon":"21.63333000"},
{"state":"Hajdú-Bihar County","name":"Monostorpályi","lat":"47.40000000","lon":"21.78333000"},
{"state":"Hajdú-Bihar County","name":"Nádudvar","lat":"47.41667000","lon":"21.16667000"},
{"state":"Hajdú-Bihar County","name":"Nagyrábé","lat":"47.20000000","lon":"21.33333000"},
{"state":"Hajdú-Bihar County","name":"Nyírábrány","lat":"47.55311000","lon":"22.02401000"},
{"state":"Hajdú-Bihar County","name":"Nyíracsád","lat":"47.60330000","lon":"21.97208000"},
{"state":"Hajdú-Bihar County","name":"Nyíradony","lat":"47.69746000","lon":"21.91878000"},
{"state":"Hajdú-Bihar County","name":"Nyíradonyi Járás","lat":"47.57873000","lon":"22.01381000"},
{"state":"Hajdú-Bihar County","name":"Nyírmártonfalva","lat":"47.58333000","lon":"21.90000000"},
{"state":"Hajdú-Bihar County","name":"Pocsaj","lat":"47.28333000","lon":"21.81667000"},
{"state":"Hajdú-Bihar County","name":"Polgár","lat":"47.86667000","lon":"21.11667000"},
{"state":"Hajdú-Bihar County","name":"Püspökladány","lat":"47.31667000","lon":"21.11667000"},
{"state":"Hajdú-Bihar County","name":"Püspökladányi Járás","lat":"47.31279000","lon":"21.21177000"},
{"state":"Hajdú-Bihar County","name":"Sáránd","lat":"47.40000000","lon":"21.63333000"},
{"state":"Hajdú-Bihar County","name":"Sárrétudvari","lat":"47.23333000","lon":"21.20000000"},
{"state":"Hajdú-Bihar County","name":"Téglás","lat":"47.71667000","lon":"21.68333000"},
{"state":"Hajdú-Bihar County","name":"Tiszacsege","lat":"47.70000000","lon":"21.00000000"},
{"state":"Hajdú-Bihar County","name":"Vámospércs","lat":"47.53333000","lon":"21.90000000"},
{"state":"Heves County","name":"Abasár","lat":"47.79705000","lon":"20.00324000"},
{"state":"Heves County","name":"Adács","lat":"47.69210000","lon":"19.97696000"},
{"state":"Heves County","name":"Andornaktálya","lat":"47.85000000","lon":"20.41667000"},
{"state":"Heves County","name":"Apc","lat":"47.79419000","lon":"19.69429000"},
{"state":"Heves County","name":"Bélapátfalva","lat":"48.05000000","lon":"20.36667000"},
{"state":"Heves County","name":"Bélapátfalvai Járás","lat":"48.06386000","lon":"20.36163000"},
{"state":"Heves County","name":"Besenyőtelek","lat":"47.70000000","lon":"20.43333000"},
{"state":"Heves County","name":"Boldog","lat":"47.60285000","lon":"19.68839000"},
{"state":"Heves County","name":"Csány","lat":"47.64829000","lon":"19.82972000"},
{"state":"Heves County","name":"Domoszló","lat":"47.83333000","lon":"20.11667000"},
{"state":"Heves County","name":"Ecséd","lat":"47.73267000","lon":"19.76696000"},
{"state":"Heves County","name":"Eger","lat":"47.90265000","lon":"20.37329000"},
{"state":"Heves County","name":"Egerszalók","lat":"47.86667000","lon":"20.33333000"},
{"state":"Heves County","name":"Egri Járás","lat":"47.92961000","lon":"20.37383000"},
{"state":"Heves County","name":"Erdőtelek","lat":"47.68333000","lon":"20.31667000"},
{"state":"Heves County","name":"Felsőtárkány","lat":"47.96667000","lon":"20.41667000"},
{"state":"Heves County","name":"Füzesabony","lat":"47.75000000","lon":"20.41667000"},
{"state":"Heves County","name":"Füzesabonyi Járás","lat":"47.72671000","lon":"20.42875000"},
{"state":"Heves County","name":"Gyöngyös","lat":"47.78257000","lon":"19.92800000"},
{"state":"Heves County","name":"Gyöngyöshalász","lat":"47.74161000","lon":"19.92876000"},
{"state":"Heves County","name":"Gyöngyösi Járás","lat":"47.79079000","lon":"19.95430000"},
{"state":"Heves County","name":"Gyöngyöspata","lat":"47.81505000","lon":"19.78925000"},
{"state":"Heves County","name":"Gyöngyössolymos","lat":"47.81724000","lon":"19.93619000"},
{"state":"Heves County","name":"Gyöngyöstarján","lat":"47.81369000","lon":"19.86724000"},
{"state":"Heves County","name":"Hatvan","lat":"47.66667000","lon":"19.68333000"},
{"state":"Heves County","name":"Hatvani Járás","lat":"47.69468000","lon":"19.72852000"},
{"state":"Heves County","name":"Heréd","lat":"47.70638000","lon":"19.63314000"},
{"state":"Heves County","name":"Heves","lat":"47.60000000","lon":"20.28333000"},
{"state":"Heves County","name":"Hevesi Járás","lat":"47.61535000","lon":"20.31739000"},
{"state":"Heves County","name":"Hort","lat":"47.69081000","lon":"19.78930000"},
{"state":"Heves County","name":"Kál","lat":"47.73333000","lon":"20.26667000"},
{"state":"Heves County","name":"Karácsond","lat":"47.72962000","lon":"20.03076000"},
{"state":"Heves County","name":"Kerecsend","lat":"47.80000000","lon":"20.35000000"},
{"state":"Heves County","name":"Kisköre","lat":"47.50000000","lon":"20.50000000"},
{"state":"Heves County","name":"Kompolt","lat":"47.73333000","lon":"20.25000000"},
{"state":"Heves County","name":"Lőrinci","lat":"47.73295000","lon":"19.67867000"},
{"state":"Heves County","name":"Maklár","lat":"47.80000000","lon":"20.41667000"},
{"state":"Heves County","name":"Mátraderecske","lat":"47.95000000","lon":"20.08333000"},
{"state":"Heves County","name":"Nagyréde","lat":"47.76543000","lon":"19.84819000"},
{"state":"Heves County","name":"Ostoros","lat":"47.86667000","lon":"20.43333000"},
{"state":"Heves County","name":"Parád","lat":"47.92323000","lon":"20.02972000"},
{"state":"Heves County","name":"Parádsasvár","lat":"47.91260000","lon":"19.97709000"},
{"state":"Heves County","name":"Pétervására","lat":"48.01667000","lon":"20.10000000"},
{"state":"Heves County","name":"Pétervásárai Járás","lat":"48.00589000","lon":"20.09466000"},
{"state":"Heves County","name":"Petőfibánya","lat":"47.76960000","lon":"19.69988000"},
{"state":"Heves County","name":"Poroszló","lat":"47.65000000","lon":"20.66667000"},
{"state":"Heves County","name":"Recsk","lat":"47.93333000","lon":"20.11667000"},
{"state":"Heves County","name":"Rózsaszentmárton","lat":"47.78200000","lon":"19.74210000"},
{"state":"Heves County","name":"Sirok","lat":"47.93333000","lon":"20.20000000"},
{"state":"Heves County","name":"Szihalom","lat":"47.76667000","lon":"20.48333000"},
{"state":"Heves County","name":"Szilvásvárad","lat":"48.10000000","lon":"20.40000000"},
{"state":"Heves County","name":"Tarnalelesz","lat":"48.05000000","lon":"20.18333000"},
{"state":"Heves County","name":"Tarnaörs","lat":"47.59499000","lon":"20.05254000"},
{"state":"Heves County","name":"Tiszanána","lat":"47.56667000","lon":"20.53333000"},
{"state":"Heves County","name":"Vámosgyörk","lat":"47.68429000","lon":"19.92924000"},
{"state":"Heves County","name":"Verpelét","lat":"47.85000000","lon":"20.23333000"},
{"state":"Heves County","name":"Zagyvaszántó","lat":"47.77703000","lon":"19.67092000"},
{"state":"Jász-Nagykun-Szolnok County","name":"Abádszalók","lat":"47.46667000","lon":"20.60000000"},
{"state":"Jász-Nagykun-Szolnok County","name":"Alattyán","lat":"47.42705000","lon":"20.04219000"},
{"state":"Jász-Nagykun-Szolnok County","name":"Besenyszög","lat":"47.30000000","lon":"20.26667000"},
{"state":"Jász-Nagykun-Szolnok County","name":"Cibakháza","lat":"46.95976000","lon":"20.19753000"},
{"state":"Jász-Nagykun-Szolnok County","name":"Cserkeszőlő","lat":"46.86320000","lon":"20.18701000"},
{"state":"Jász-Nagykun-Szolnok County","name":"Fegyvernek","lat":"47.26667000","lon":"20.53333000"},
{"state":"Jász-Nagykun-Szolnok County","name":"Jánoshida","lat":"47.38333000","lon":"20.06667000"},
{"state":"Jász-Nagykun-Szolnok County","name":"Jászalsószentgyörgy","lat":"47.36667000","lon":"20.10000000"},
{"state":"Jász-Nagykun-Szolnok County","name":"Jászapáti","lat":"47.51667000","lon":"20.15000000"},
{"state":"Jász-Nagykun-Szolnok County","name":"Jászapáti Járás","lat":"47.46126000","lon":"20.06567000"},
{"state":"Jász-Nagykun-Szolnok County","name":"Jászárokszállás","lat":"47.64238000","lon":"19.98038000"},
{"state":"Jász-Nagykun-Szolnok County","name":"Jászberény","lat":"47.50000000","lon":"19.91667000"},
{"state":"Jász-Nagykun-Szolnok County","name":"Jászberényi Járás","lat":"47.56500000","lon":"19.86887000"},
{"state":"Jász-Nagykun-Szolnok County","name":"Jászdózsa","lat":"47.56610000","lon":"20.01534000"},
{"state":"Jász-Nagykun-Szolnok County","name":"Jászjákóhalma","lat":"47.52038000","lon":"19.99086000"},
{"state":"Jász-Nagykun-Szolnok County","name":"Jászkisér","lat":"47.45000000","lon":"20.21667000"},
{"state":"Jász-Nagykun-Szolnok County","name":"Jászladány","lat":"47.36667000","lon":"20.16667000"},
{"state":"Jász-Nagykun-Szolnok County","name":"Jászszentandrás","lat":"47.58333000","lon":"20.18333000"},
{"state":"Jász-Nagykun-Szolnok County","name":"Karcag","lat":"47.31667000","lon":"20.93333000"},
{"state":"Jász-Nagykun-Szolnok County","name":"Karcagi Járás","lat":"47.28583000","lon":"20.84218000"},
{"state":"Jász-Nagykun-Szolnok County","name":"Kenderes","lat":"47.25000000","lon":"20.68333000"},
{"state":"Jász-Nagykun-Szolnok County","name":"Kengyel","lat":"47.08333000","lon":"20.33333000"},
{"state":"Jász-Nagykun-Szolnok County","name":"Kisújszállás","lat":"47.21667000","lon":"20.76667000"},
{"state":"Jász-Nagykun-Szolnok County","name":"Kunhegyes","lat":"47.36667000","lon":"20.63333000"},
{"state":"Jász-Nagykun-Szolnok County","name":"Kunhegyesi Járás","lat":"47.40329000","lon":"20.59199000"},
{"state":"Jász-Nagykun-Szolnok County","name":"Kunmadaras","lat":"47.43333000","lon":"20.80000000"},
{"state":"Jász-Nagykun-Szolnok County","name":"Kunszentmárton","lat":"46.83916000","lon":"20.28879000"},
{"state":"Jász-Nagykun-Szolnok County","name":"Kunszentmártoni Járás","lat":"46.87698000","lon":"20.25179000"},
{"state":"Jász-Nagykun-Szolnok County","name":"Mezőtúr","lat":"47.00000000","lon":"20.63333000"},
{"state":"Jász-Nagykun-Szolnok County","name":"Mezőtúri Járás","lat":"47.02495000","lon":"20.59046000"},
{"state":"Jász-Nagykun-Szolnok County","name":"Öcsöd","lat":"46.90000000","lon":"20.40000000"},
{"state":"Jász-Nagykun-Szolnok County","name":"Rákóczifalva","lat":"47.08333000","lon":"20.23333000"},
{"state":"Jász-Nagykun-Szolnok County","name":"Rákócziújfalu","lat":"47.06667000","lon":"20.26667000"},
{"state":"Jász-Nagykun-Szolnok County","name":"Szajol","lat":"47.18333000","lon":"20.30000000"},
{"state":"Jász-Nagykun-Szolnok County","name":"Szelevény","lat":"46.80259000","lon":"20.20283000"},
{"state":"Jász-Nagykun-Szolnok County","name":"Szolnok","lat":"47.18333000","lon":"20.20000000"},
{"state":"Jász-Nagykun-Szolnok County","name":"Szolnoki Járás","lat":"47.22480000","lon":"20.19839000"},
{"state":"Jász-Nagykun-Szolnok County","name":"Tiszabő","lat":"47.30000000","lon":"20.48333000"},
{"state":"Jász-Nagykun-Szolnok County","name":"Tiszabura","lat":"47.45000000","lon":"20.46667000"},
{"state":"Jász-Nagykun-Szolnok County","name":"Tiszaföldvár","lat":"46.98333000","lon":"20.25000000"},
{"state":"Jász-Nagykun-Szolnok County","name":"Tiszafüred","lat":"47.61667000","lon":"20.76667000"},
{"state":"Jász-Nagykun-Szolnok County","name":"Tiszafüredi Járás","lat":"47.53907000","lon":"20.78879000"},
{"state":"Jász-Nagykun-Szolnok County","name":"Tiszapüspöki","lat":"47.21667000","lon":"20.31667000"},
{"state":"Jász-Nagykun-Szolnok County","name":"Tiszaroff","lat":"47.40000000","lon":"20.45000000"},
{"state":"Jász-Nagykun-Szolnok County","name":"Tiszasüly","lat":"47.38333000","lon":"20.40000000"},
{"state":"Jász-Nagykun-Szolnok County","name":"Tiszaszentimre","lat":"47.48333000","lon":"20.73333000"},
{"state":"Jász-Nagykun-Szolnok County","name":"Tiszaszőlős","lat":"47.55707000","lon":"20.71949000"},
{"state":"Jász-Nagykun-Szolnok County","name":"Törökszentmiklós","lat":"47.18333000","lon":"20.41667000"},
{"state":"Jász-Nagykun-Szolnok County","name":"Törökszentmiklósi Járás","lat":"47.18209000","lon":"20.44859000"},
{"state":"Jász-Nagykun-Szolnok County","name":"Tószeg","lat":"47.10000000","lon":"20.15000000"},
{"state":"Jász-Nagykun-Szolnok County","name":"Túrkeve","lat":"47.10000000","lon":"20.75000000"},
{"state":"Jász-Nagykun-Szolnok County","name":"Újszász","lat":"47.30000000","lon":"20.08333000"},
{"state":"Jász-Nagykun-Szolnok County","name":"Zagyvarékas","lat":"47.26667000","lon":"20.13333000"},
{"state":"Komárom-Esztergom","name":"Ács","lat":"47.71000000","lon":"18.01555556"},
{"state":"Komárom-Esztergom","name":"Aka","lat":"47.40206944","lon":"18.07163056"},
{"state":"Komárom-Esztergom","name":"Almásfüzitő","lat":"47.72870000","lon":"18.25538889"},
{"state":"Komárom-Esztergom","name":"Ászár","lat":"47.50950000","lon":"18.00313889"},
{"state":"Komárom-Esztergom","name":"Bábolna","lat":"47.64166667","lon":"17.97861111"},
{"state":"Komárom-Esztergom","name":"Bajót","lat":"47.72722222","lon":"18.55583333"},
{"state":"Komárom-Esztergom","name":"Bakonybánk","lat":"47.46548056","lon":"17.90243056"},
{"state":"Komárom-Esztergom","name":"Bakonysárkány","lat":"47.44851944","lon":"18.09916111"},
{"state":"Komárom-Esztergom","name":"Bakonyszombathely","lat":"47.47208056","lon":"17.96018056"},
{"state":"Komárom-Esztergom","name":"Bana","lat":"47.64986111","lon":"17.92116944"},
{"state":"Komárom-Esztergom","name":"Bánhida","lat":"47.57111111","lon":"18.38611111"},
{"state":"Komárom-Esztergom","name":"Bársonyos","lat":"47.51140000","lon":"17.91896944"},
{"state":"Komárom-Esztergom","name":"Császár","lat":"47.50203056","lon":"18.14206111"},
{"state":"Komárom-Esztergom","name":"Csatka","lat":"47.38031944","lon":"17.97628889"},
{"state":"Komárom-Esztergom","name":"Csém","lat":"47.68118056","lon":"18.08686111"},
{"state":"Komárom-Esztergom","name":"Csép","lat":"47.57863056","lon":"18.06365000"},
{"state":"Komárom-Esztergom","name":"Csolnok","lat":"47.69346944","lon":"18.71303889"},
{"state":"Komárom-Esztergom","name":"Dad","lat":"47.51881111","lon":"18.22463056"},
{"state":"Komárom-Esztergom","name":"Dág","lat":"47.66250000","lon":"18.72000000"},
{"state":"Komárom-Esztergom","name":"Dömös","lat":"47.76480000","lon":"18.91436944"},
{"state":"Komárom-Esztergom","name":"Dorog","lat":"47.72095000","lon":"18.73641000"},
{"state":"Komárom-Esztergom","name":"Dunaalmás","lat":"47.72961111","lon":"18.32170000"},
{"state":"Komárom-Esztergom","name":"Dunaszentmiklós","lat":"47.70566944","lon":"18.37958056"},
{"state":"Komárom-Esztergom","name":"Epöl","lat":"47.64708056","lon":"18.63558056"},
{"state":"Komárom-Esztergom","name":"Esztergom","lat":"47.78555556","lon":"18.74027778"},
{"state":"Komárom-Esztergom","name":"Ete","lat":"47.53168889","lon":"18.07201111"},
{"state":"Komárom-Esztergom","name":"Gyermely","lat":"47.59186944","lon":"18.64178056"},
{"state":"Komárom-Esztergom","name":"Héreg","lat":"47.64703056","lon":"18.51063889"},
{"state":"Komárom-Esztergom","name":"Kecskéd","lat":"47.52311111","lon":"18.30683056"},
{"state":"Komárom-Esztergom","name":"Kerékteleki","lat":"47.51635000","lon":"17.93891944"},
{"state":"Komárom-Esztergom","name":"Kesztölc","lat":"47.71358056","lon":"18.79520000"},
{"state":"Komárom-Esztergom","name":"Kisbér","lat":"47.50166667","lon":"18.02666667"},
{"state":"Komárom-Esztergom","name":"Kisigmánd","lat":"47.65440000","lon":"18.09710000"},
{"state":"Komárom-Esztergom","name":"Kocs","lat":"47.60668056","lon":"18.21536111"},
{"state":"Komárom-Esztergom","name":"Komárom","lat":"47.74318000","lon":"18.11913000"},
{"state":"Komárom-Esztergom","name":"Kömlőd","lat":"47.54678056","lon":"18.26048056"},
{"state":"Komárom-Esztergom","name":"Környe","lat":"47.54533889","lon":"18.32696944"},
{"state":"Komárom-Esztergom","name":"Lábatlan","lat":"47.74694444","lon":"18.49611111"},
{"state":"Komárom-Esztergom","name":"Leányvár","lat":"47.68268056","lon":"18.77020000"},
{"state":"Komárom-Esztergom","name":"Máriahalom","lat":"47.62746944","lon":"18.70760000"},
{"state":"Komárom-Esztergom","name":"Mocsa","lat":"47.67120000","lon":"18.18465000"},
{"state":"Komárom-Esztergom","name":"Mogyorósbánya","lat":"47.72806000","lon":"18.60351000"},
{"state":"Komárom-Esztergom","name":"Nagyigmánd","lat":"47.63253056","lon":"18.05568889"},
{"state":"Komárom-Esztergom","name":"Nagysáp","lat":"47.68481111","lon":"18.60163056"},
{"state":"Komárom-Esztergom","name":"Naszály","lat":"47.69873056","lon":"18.26075000"},
{"state":"Komárom-Esztergom","name":"Neszmély","lat":"47.73290000","lon":"18.34510000"},
{"state":"Komárom-Esztergom","name":"Nyergesújfalu","lat":"47.76027778","lon":"18.55666667"},
{"state":"Komárom-Esztergom","name":"Oroszlány","lat":"47.48916667","lon":"18.31638889"},
{"state":"Komárom-Esztergom","name":"Piliscsév","lat":"47.67710000","lon":"18.81488889"},
{"state":"Komárom-Esztergom","name":"Pilismarót","lat":"47.78403889","lon":"18.87551944"},
{"state":"Komárom-Esztergom","name":"Réde","lat":"47.43058056","lon":"17.91865000"},
{"state":"Komárom-Esztergom","name":"Sárisáp","lat":"47.67465278","lon":"18.68096944"},
{"state":"Komárom-Esztergom","name":"Súr","lat":"47.37083889","lon":"18.02876111"},
{"state":"Komárom-Esztergom","name":"Süttő","lat":"47.75675000","lon":"18.44145000"},
{"state":"Komárom-Esztergom","name":"Szákszend","lat":"47.55713056","lon":"18.16313056"},
{"state":"Komárom-Esztergom","name":"Szomód","lat":"47.68253000","lon":"18.34180000"},
{"state":"Komárom-Esztergom","name":"Szomor","lat":"47.59305000","lon":"18.66328889"},
{"state":"Komárom-Esztergom","name":"Szőny","lat":"47.73333333","lon":"18.16666667"},
{"state":"Komárom-Esztergom","name":"Tardos","lat":"47.66180000","lon":"18.44358000"},
{"state":"Komárom-Esztergom","name":"Tarján","lat":"47.61055556","lon":"18.51083333"},
{"state":"Komárom-Esztergom","name":"Tárkány","lat":"47.59135000","lon":"18.00366111"},
{"state":"Komárom-Esztergom","name":"Tatabánya","lat":"47.58616000","lon":"18.39485000"},
{"state":"Komárom-Esztergom","name":"Tokodaltáró","lat":"47.73390000","lon":"18.68946000"},
{"state":"Komárom-Esztergom","name":"Úny","lat":"47.64246944","lon":"18.73786944"},
{"state":"Komárom-Esztergom","name":"Várgesztes","lat":"47.47526944","lon":"18.39731944"},
{"state":"Komárom-Esztergom","name":"Vérteskethely","lat":"47.48721111","lon":"18.08346944"},
{"state":"Komárom-Esztergom","name":"Vértessomló","lat":"47.50973889","lon":"18.36705000"},
{"state":"Komárom-Esztergom","name":"Vértesszőlős","lat":"47.61883889","lon":"18.38030000"},
{"state":"Komárom-Esztergom","name":"Vértestolna","lat":"47.62838889","lon":"18.45643889"},
{"state":"Nógrád County","name":"Balassagyarmat","lat":"48.07296000","lon":"19.29614000"},
{"state":"Nógrád County","name":"Balassagyarmati Járás","lat":"48.01657000","lon":"19.30594000"},
{"state":"Nógrád County","name":"Bátonyterenye","lat":"47.96962000","lon":"19.84076000"},
{"state":"Nógrád County","name":"Bátonyterenyei Járás","lat":"47.97691000","lon":"19.87345000"},
{"state":"Nógrád County","name":"Bercel","lat":"47.87057000","lon":"19.40715000"},
{"state":"Nógrád County","name":"Buják","lat":"47.88352000","lon":"19.54381000"},
{"state":"Nógrád County","name":"Diósjenő","lat":"47.93968000","lon":"19.04317000"},
{"state":"Nógrád County","name":"Érsekvadkert","lat":"47.99619000","lon":"19.20231000"},
{"state":"Nógrád County","name":"Héhalom","lat":"47.78017000","lon":"19.58519000"},
{"state":"Nógrád County","name":"Jobbágyi","lat":"47.83238000","lon":"19.67762000"},
{"state":"Nógrád County","name":"Karancskeszi","lat":"48.16353000","lon":"19.69686000"},
{"state":"Nógrád County","name":"Karancslapujtő","lat":"48.15000000","lon":"19.73333000"},
{"state":"Nógrád County","name":"Kazár","lat":"48.04952000","lon":"19.86143000"},
{"state":"Nógrád County","name":"Mátranovák","lat":"48.03809000","lon":"19.98257000"},
{"state":"Nógrád County","name":"Mátraterenye","lat":"48.03267000","lon":"19.94762000"},
{"state":"Nógrád County","name":"Mátraverebély","lat":"47.97421000","lon":"19.78049000"},
{"state":"Nógrád County","name":"Nagyoroszi","lat":"48.00503000","lon":"19.09050000"},
{"state":"Nógrád County","name":"Palotás","lat":"47.79528000","lon":"19.59618000"},
{"state":"Nógrád County","name":"Pásztó","lat":"47.92019000","lon":"19.69829000"},
{"state":"Nógrád County","name":"Pásztói Járás","lat":"47.87012000","lon":"19.60648000"},
{"state":"Nógrád County","name":"Rétság","lat":"47.92816000","lon":"19.13720000"},
{"state":"Nógrád County","name":"Rétsági Járás","lat":"47.91741000","lon":"19.16101000"},
{"state":"Nógrád County","name":"Rimóc","lat":"48.03695000","lon":"19.53010000"},
{"state":"Nógrád County","name":"Romhány","lat":"47.92618000","lon":"19.25723000"},
{"state":"Nógrád County","name":"Salgótarján","lat":"48.09872000","lon":"19.80303000"},
{"state":"Nógrád County","name":"Salgótarjáni Járás","lat":"48.10048000","lon":"19.81548000"},
{"state":"Nógrád County","name":"Somoskőújfalu","lat":"48.16374000","lon":"19.82303000"},
{"state":"Nógrád County","name":"Szécsény","lat":"48.08057000","lon":"19.52019000"},
{"state":"Nógrád County","name":"Szécsényi Járás","lat":"48.07301000","lon":"19.55156000"},
{"state":"Nógrád County","name":"Szurdokpüspöki","lat":"47.85923000","lon":"19.69218000"},
{"state":"Nógrád County","name":"Tar","lat":"47.95371000","lon":"19.74610000"},
{"state":"Pest County","name":"Abony","lat":"47.18990000","lon":"20.00476000"},
{"state":"Pest County","name":"Acsa","lat":"47.79425000","lon":"19.38795000"},
{"state":"Pest County","name":"Albertirsa","lat":"47.24315000","lon":"19.61686000"},
{"state":"Pest County","name":"Alsónémedi","lat":"47.31524000","lon":"19.15843000"},
{"state":"Pest County","name":"Aszód","lat":"47.65174000","lon":"19.47850000"},
{"state":"Pest County","name":"Aszódi Járás","lat":"47.64738000","lon":"19.54240000"},
{"state":"Pest County","name":"Bag","lat":"47.63333000","lon":"19.48333000"},
{"state":"Pest County","name":"Biatorbágy","lat":"47.47060000","lon":"18.81892000"},
{"state":"Pest County","name":"Budakalász","lat":"47.61667000","lon":"19.05000000"},
{"state":"Pest County","name":"Budakeszi","lat":"47.51083000","lon":"18.92717000"},
{"state":"Pest County","name":"Budakeszi Járás","lat":"47.49788000","lon":"18.84980000"},
{"state":"Pest County","name":"Budaörs","lat":"47.46181000","lon":"18.95845000"},
{"state":"Pest County","name":"Bugyi","lat":"47.22748000","lon":"19.14664000"},
{"state":"Pest County","name":"Cegléd","lat":"47.17266000","lon":"19.79952000"},
{"state":"Pest County","name":"Ceglédbercel","lat":"47.22370000","lon":"19.66828000"},
{"state":"Pest County","name":"Ceglédi Járás","lat":"47.20000000","lon":"19.82463000"},
{"state":"Pest County","name":"Csemő","lat":"47.11799000","lon":"19.69092000"},
{"state":"Pest County","name":"Csobánka","lat":"47.64637000","lon":"18.96189000"},
{"state":"Pest County","name":"Csömör","lat":"47.55000000","lon":"19.23333000"},
{"state":"Pest County","name":"Dabas","lat":"47.18594000","lon":"19.31091000"},
{"state":"Pest County","name":"Dabasi Járás","lat":"47.19000000","lon":"19.33000000"},
{"state":"Pest County","name":"Dánszentmiklós","lat":"47.21486000","lon":"19.54695000"},
{"state":"Pest County","name":"Dány","lat":"47.52000000","lon":"19.54400000"},
{"state":"Pest County","name":"Délegyháza","lat":"47.24135000","lon":"19.09019000"},
{"state":"Pest County","name":"Diósd","lat":"47.40950000","lon":"18.94898000"},
{"state":"Pest County","name":"Domony","lat":"47.65552000","lon":"19.43229000"},
{"state":"Pest County","name":"Dömsöd","lat":"47.09005000","lon":"19.01106000"},
{"state":"Pest County","name":"Dunabogdány","lat":"47.79052000","lon":"19.04125000"},
{"state":"Pest County","name":"Dunaharaszti","lat":"47.35450000","lon":"19.09822000"},
{"state":"Pest County","name":"Dunakeszi","lat":"47.63641000","lon":"19.13864000"},
{"state":"Pest County","name":"Dunakeszi Járás","lat":"47.63365000","lon":"19.16254000"},
{"state":"Pest County","name":"Dunavarsány","lat":"47.27859000","lon":"19.06617000"},
{"state":"Pest County","name":"Ecser","lat":"47.44389000","lon":"19.32450000"},
{"state":"Pest County","name":"Érd","lat":"47.39489000","lon":"18.91361000"},
{"state":"Pest County","name":"Érdi Járás","lat":"47.35600000","lon":"18.90167000"},
{"state":"Pest County","name":"Erdőkertes","lat":"47.67261000","lon":"19.30786000"},
{"state":"Pest County","name":"Farmos","lat":"47.36067000","lon":"19.84619000"},
{"state":"Pest County","name":"Felsőpakony","lat":"47.34329000","lon":"19.23698000"},
{"state":"Pest County","name":"Forrópuszta","lat":"47.45504000","lon":"19.66001000"},
{"state":"Pest County","name":"Fót","lat":"47.61770000","lon":"19.18870000"},
{"state":"Pest County","name":"Galgahévíz","lat":"47.61667000","lon":"19.56667000"},
{"state":"Pest County","name":"Galgamácsa","lat":"47.69562000","lon":"19.38724000"},
{"state":"Pest County","name":"Göd","lat":"47.68324000","lon":"19.13417000"},
{"state":"Pest County","name":"Gödöllő","lat":"47.59657000","lon":"19.35515000"},
{"state":"Pest County","name":"Gödöllői Járás","lat":"47.55127000","lon":"19.39595000"},
{"state":"Pest County","name":"Gomba","lat":"47.37095000","lon":"19.53057000"},
{"state":"Pest County","name":"Gyál","lat":"47.38449000","lon":"19.22140000"},
{"state":"Pest County","name":"Gyáli Járás","lat":"47.36821000","lon":"19.27543000"},
{"state":"Pest County","name":"Gyömrő","lat":"47.42733000","lon":"19.40133000"},
{"state":"Pest County","name":"Halásztelek","lat":"47.36173000","lon":"18.98119000"},
{"state":"Pest County","name":"Hernád","lat":"47.16238000","lon":"19.43295000"},
{"state":"Pest County","name":"Hévízgyörk","lat":"47.63333000","lon":"19.51667000"},
{"state":"Pest County","name":"Iklad","lat":"47.66533000","lon":"19.43610000"},
{"state":"Pest County","name":"Inárcs","lat":"47.26200000","lon":"19.32700000"},
{"state":"Pest County","name":"Isaszeg","lat":"47.53011000","lon":"19.40205000"},
{"state":"Pest County","name":"Jászkarajenő","lat":"47.05000000","lon":"20.06667000"},
{"state":"Pest County","name":"Kakucs","lat":"47.24200000","lon":"19.36467000"},
{"state":"Pest County","name":"Kartal","lat":"47.67133000","lon":"19.54200000"},
{"state":"Pest County","name":"Kerepes","lat":"47.56008000","lon":"19.28289000"},
{"state":"Pest County","name":"Kiskunlacháza","lat":"47.18839000","lon":"19.00930000"},
{"state":"Pest County","name":"Kismaros","lat":"47.83742000","lon":"19.00463000"},
{"state":"Pest County","name":"Kistarcsa","lat":"47.54757000","lon":"19.26247000"},
{"state":"Pest County","name":"Kocsér","lat":"47.00165000","lon":"19.92067000"},
{"state":"Pest County","name":"Kóka","lat":"47.48552000","lon":"19.57876000"},
{"state":"Pest County","name":"Kosd","lat":"47.80791000","lon":"19.17821000"},
{"state":"Pest County","name":"Leányfalu","lat":"47.71778000","lon":"19.08585000"},
{"state":"Pest County","name":"Maglód","lat":"47.44258000","lon":"19.36438000"},
{"state":"Pest County","name":"Mende","lat":"47.43133000","lon":"19.45628000"},
{"state":"Pest County","name":"Mogyoród","lat":"47.59748000","lon":"19.24070000"},
{"state":"Pest County","name":"Monor","lat":"47.35133000","lon":"19.44733000"},
{"state":"Pest County","name":"Monori Járás","lat":"47.34990000","lon":"19.47680000"},
{"state":"Pest County","name":"Nagykáta","lat":"47.41514000","lon":"19.74410000"},
{"state":"Pest County","name":"Nagykátai Járás","lat":"47.39109000","lon":"19.73920000"},
{"state":"Pest County","name":"Nagykőrös","lat":"47.03419000","lon":"19.77857000"},
{"state":"Pest County","name":"Nagykőrösi Járás","lat":"47.03563000","lon":"19.79259000"},
{"state":"Pest County","name":"Nagykovácsi","lat":"47.65000000","lon":"19.01667000"},
{"state":"Pest County","name":"Nagymaros","lat":"47.79280000","lon":"18.95984000"},
{"state":"Pest County","name":"Nagytarcsa","lat":"47.53128000","lon":"19.28343000"},
{"state":"Pest County","name":"Nyáregyháza","lat":"47.26175000","lon":"19.50146000"},
{"state":"Pest County","name":"Ócsa","lat":"47.29986000","lon":"19.23057000"},
{"state":"Pest County","name":"Őrbottyán","lat":"47.68711000","lon":"19.28239000"},
{"state":"Pest County","name":"Örkény","lat":"47.12991000","lon":"19.43324000"},
{"state":"Pest County","name":"Pánd","lat":"47.35333000","lon":"19.63571000"},
{"state":"Pest County","name":"Páty","lat":"47.51709000","lon":"18.82851000"},
{"state":"Pest County","name":"Pécel","lat":"47.48962000","lon":"19.34162000"},
{"state":"Pest County","name":"Perbál","lat":"47.58957000","lon":"18.76099000"},
{"state":"Pest County","name":"Péteri","lat":"47.39104000","lon":"19.40981000"},
{"state":"Pest County","name":"Pilis","lat":"47.28904000","lon":"19.54848000"},
{"state":"Pest County","name":"Pilisborosjenő","lat":"47.60744000","lon":"18.99322000"},
{"state":"Pest County","name":"Piliscsaba","lat":"47.63417000","lon":"18.82886000"},
{"state":"Pest County","name":"Pilisszántó","lat":"47.66909000","lon":"18.88762000"},
{"state":"Pest County","name":"Pilisszentiván","lat":"47.60964000","lon":"18.89940000"},
{"state":"Pest County","name":"Pilisszentkereszt","lat":"47.69143000","lon":"18.90503000"},
{"state":"Pest County","name":"Pilisvörösvár","lat":"47.61386000","lon":"18.90893000"},
{"state":"Pest County","name":"Pilisvörösvári Járás","lat":"47.60925000","lon":"18.86658000"},
{"state":"Pest County","name":"Pomáz","lat":"47.64227000","lon":"19.02784000"},
{"state":"Pest County","name":"Ráckeve","lat":"47.16095000","lon":"18.94478000"},
{"state":"Pest County","name":"Ráckevei Járás","lat":"47.15158000","lon":"19.01456000"},
{"state":"Pest County","name":"Solymár","lat":"47.59246000","lon":"18.93212000"},
{"state":"Pest County","name":"Sóskút","lat":"47.40665000","lon":"18.82247000"},
{"state":"Pest County","name":"Sülysáp","lat":"47.45206000","lon":"19.53369000"},
{"state":"Pest County","name":"Szada","lat":"47.63333000","lon":"19.31667000"},
{"state":"Pest County","name":"Százhalombatta","lat":"47.32949000","lon":"18.93878000"},
{"state":"Pest County","name":"Szentendre","lat":"47.66943000","lon":"19.07561000"},
{"state":"Pest County","name":"Szentendrei Járás","lat":"47.71146000","lon":"19.02524000"},
{"state":"Pest County","name":"Szentlőrinckáta","lat":"47.51947000","lon":"19.75286000"},
{"state":"Pest County","name":"Szentmártonkáta","lat":"47.45419000","lon":"19.70143000"},
{"state":"Pest County","name":"Szigetcsép","lat":"47.26492000","lon":"18.97048000"},
{"state":"Pest County","name":"Szigethalom","lat":"47.32228000","lon":"19.00262000"},
{"state":"Pest County","name":"Szigetszentmiklós","lat":"47.34382000","lon":"19.04335000"},
{"state":"Pest County","name":"Szigetszentmiklósi Járás","lat":"47.30566000","lon":"19.02829000"},
{"state":"Pest County","name":"Szigetújfalu","lat":"47.23417000","lon":"18.92746000"},
{"state":"Pest County","name":"Szob","lat":"47.81921000","lon":"18.87020000"},
{"state":"Pest County","name":"Szobi Járás","lat":"47.93419000","lon":"18.85438000"},
{"state":"Pest County","name":"Sződ","lat":"47.72439000","lon":"19.17046000"},
{"state":"Pest County","name":"Sződliget","lat":"47.73259000","lon":"19.14749000"},
{"state":"Pest County","name":"Táborfalva","lat":"47.09942000","lon":"19.47837000"},
{"state":"Pest County","name":"Tahitótfalu","lat":"47.75000000","lon":"19.10000000"},
{"state":"Pest County","name":"Taksony","lat":"47.32968000","lon":"19.06695000"},
{"state":"Pest County","name":"Tápióbicske","lat":"47.36096000","lon":"19.68609000"},
{"state":"Pest County","name":"Tápiógyörgye","lat":"47.33505000","lon":"19.95276000"},
{"state":"Pest County","name":"Tápióság","lat":"47.40200000","lon":"19.63047000"},
{"state":"Pest County","name":"Tápiószecső","lat":"47.45000000","lon":"19.60923000"},
{"state":"Pest County","name":"Tápiószele","lat":"47.33609000","lon":"19.87724000"},
{"state":"Pest County","name":"Tápiószentmárton","lat":"47.33990000","lon":"19.74648000"},
{"state":"Pest County","name":"Tápiószőlős","lat":"47.30248000","lon":"19.85133000"},
{"state":"Pest County","name":"Tárnok","lat":"47.37327000","lon":"18.84579000"},
{"state":"Pest County","name":"Telki","lat":"47.54791000","lon":"18.82816000"},
{"state":"Pest County","name":"Tóalmás","lat":"47.50782000","lon":"19.66657000"},
{"state":"Pest County","name":"Tököl","lat":"47.32178000","lon":"18.96249000"},
{"state":"Pest County","name":"Törökbálint","lat":"47.42931000","lon":"18.91356000"},
{"state":"Pest County","name":"Törtel","lat":"47.12209000","lon":"19.93714000"},
{"state":"Pest County","name":"Tura","lat":"47.60924000","lon":"19.60279000"},
{"state":"Pest County","name":"Újhartyán","lat":"47.21981000","lon":"19.38638000"},
{"state":"Pest County","name":"Újszilvás","lat":"47.27477000","lon":"19.92477000"},
{"state":"Pest County","name":"Üllő","lat":"47.38771000","lon":"19.35533000"},
{"state":"Pest County","name":"Úri","lat":"47.41429000","lon":"19.52762000"},
{"state":"Pest County","name":"Üröm","lat":"47.59674000","lon":"19.01583000"},
{"state":"Pest County","name":"Vác","lat":"47.77591000","lon":"19.13612000"},
{"state":"Pest County","name":"Váci Járás","lat":"47.78316000","lon":"19.23882000"},
{"state":"Pest County","name":"Vácszentlászló","lat":"47.57400000","lon":"19.53771000"},
{"state":"Pest County","name":"Valkó","lat":"47.56391000","lon":"19.51267000"},
{"state":"Pest County","name":"Vecsés","lat":"47.40705000","lon":"19.28648000"},
{"state":"Pest County","name":"Vecsési Járás","lat":"47.42923000","lon":"19.30136000"},
{"state":"Pest County","name":"Veresegyház","lat":"47.64590000","lon":"19.29536000"},
{"state":"Pest County","name":"Verőce","lat":"47.82468000","lon":"19.03484000"},
{"state":"Pest County","name":"Visegrád","lat":"47.78526000","lon":"18.97090000"},
{"state":"Pest County","name":"Zsámbék","lat":"47.54814000","lon":"18.72011000"},
{"state":"Pest County","name":"Zsámbok","lat":"47.54381000","lon":"19.61048000"},
{"state":"Somogy County","name":"Ádánd","lat":"46.85931000","lon":"18.16442000"},
{"state":"Somogy County","name":"Babócsa","lat":"46.04155000","lon":"17.34332000"},
{"state":"Somogy County","name":"Balatonberény","lat":"46.70701000","lon":"17.32013000"},
{"state":"Somogy County","name":"Balatonboglár","lat":"46.77525000","lon":"17.64415000"},
{"state":"Somogy County","name":"Balatonfenyves","lat":"46.71542000","lon":"17.49223000"},
{"state":"Somogy County","name":"Balatonföldvár","lat":"46.85255000","lon":"17.88123000"},
{"state":"Somogy County","name":"Balatonlelle","lat":"46.78318000","lon":"17.69498000"},
{"state":"Somogy County","name":"Balatonszabadi","lat":"46.89397000","lon":"18.13737000"},
{"state":"Somogy County","name":"Balatonszárszó","lat":"46.82946000","lon":"17.82426000"},
{"state":"Somogy County","name":"Barcs","lat":"45.96000000","lon":"17.45861000"},
{"state":"Somogy County","name":"Barcsi Járás","lat":"46.03687000","lon":"17.47434000"},
{"state":"Somogy County","name":"Berzence","lat":"46.20907000","lon":"17.14810000"},
{"state":"Somogy County","name":"Böhönye","lat":"46.41345000","lon":"17.38037000"},
{"state":"Somogy County","name":"Csurgó","lat":"46.25314000","lon":"17.10060000"},
{"state":"Somogy County","name":"Csurgói Járás","lat":"46.29502000","lon":"17.10021000"},
{"state":"Somogy County","name":"Fonyód","lat":"46.75552000","lon":"17.57945000"},
{"state":"Somogy County","name":"Fonyódi Járás","lat":"46.67289000","lon":"17.70000000"},
{"state":"Somogy County","name":"Kadarkút","lat":"46.23623000","lon":"17.62014000"},
{"state":"Somogy County","name":"Kaposmérő","lat":"46.36167000","lon":"17.70400000"},
{"state":"Somogy County","name":"Kaposvár","lat":"46.36667000","lon":"17.80000000"},
{"state":"Somogy County","name":"Kaposvári Járás","lat":"46.39791000","lon":"17.76990000"},
{"state":"Somogy County","name":"Karád","lat":"46.69076000","lon":"17.84136000"},
{"state":"Somogy County","name":"Kéthely","lat":"46.64605000","lon":"17.39362000"},
{"state":"Somogy County","name":"Lábod","lat":"46.20535000","lon":"17.45419000"},
{"state":"Somogy County","name":"Lengyeltóti","lat":"46.67013000","lon":"17.64398000"},
{"state":"Somogy County","name":"Marcali","lat":"46.58498000","lon":"17.41196000"},
{"state":"Somogy County","name":"Marcali Járás","lat":"46.54382000","lon":"17.39203000"},
{"state":"Somogy County","name":"Nagyatád","lat":"46.22961000","lon":"17.35788000"},
{"state":"Somogy County","name":"Nagyatádi Járás","lat":"46.25200000","lon":"17.37520000"},
{"state":"Somogy County","name":"Nagybajom","lat":"46.39232000","lon":"17.51147000"},
{"state":"Somogy County","name":"Segesd","lat":"46.34142000","lon":"17.35132000"},
{"state":"Somogy County","name":"Siófok","lat":"46.90413000","lon":"18.05800000"},
{"state":"Somogy County","name":"Siófoki Járás","lat":"46.85060000","lon":"17.99625000"},
{"state":"Somogy County","name":"Somogyvár","lat":"46.58140000","lon":"17.66289000"},
{"state":"Somogy County","name":"Tab","lat":"46.73135000","lon":"18.03201000"},
{"state":"Somogy County","name":"Tabi Járás","lat":"46.68037000","lon":"18.00560000"},
{"state":"Somogy County","name":"Taszár","lat":"46.37467000","lon":"17.90594000"},
{"state":"Somogy County","name":"Zamárdi","lat":"46.88488000","lon":"17.95366000"},
{"state":"Szabolcs-Szatmár-Bereg County","name":"Ajak","lat":"48.17664000","lon":"22.06273000"},
{"state":"Szabolcs-Szatmár-Bereg County","name":"Anarcs","lat":"48.17642000","lon":"22.11167000"},
{"state":"Szabolcs-Szatmár-Bereg County","name":"Apagy","lat":"47.96431000","lon":"21.93539000"},
{"state":"Szabolcs-Szatmár-Bereg County","name":"Aranyosapáti","lat":"48.20595000","lon":"22.25916000"},
{"state":"Szabolcs-Szatmár-Bereg County","name":"Baktalórántháza","lat":"48.00000000","lon":"22.08333000"},
{"state":"Szabolcs-Szatmár-Bereg County","name":"Baktalórántházai Járás","lat":"48.00436000","lon":"22.02449000"},
{"state":"Szabolcs-Szatmár-Bereg County","name":"Balkány","lat":"47.77066000","lon":"21.86314000"},
{"state":"Szabolcs-Szatmár-Bereg County","name":"Bököny","lat":"47.73333000","lon":"21.75000000"},
{"state":"Szabolcs-Szatmár-Bereg County","name":"Buj","lat":"48.10000000","lon":"21.65000000"},
{"state":"Szabolcs-Szatmár-Bereg County","name":"Csenger","lat":"47.83582000","lon":"22.68096000"},
{"state":"Szabolcs-Szatmár-Bereg County","name":"Csengeri Járás","lat":"47.83045000","lon":"22.59810000"},
{"state":"Szabolcs-Szatmár-Bereg County","name":"Demecser","lat":"48.11648000","lon":"21.92624000"},
{"state":"Szabolcs-Szatmár-Bereg County","name":"Döge","lat":"48.26246000","lon":"22.06339000"},
{"state":"Szabolcs-Szatmár-Bereg County","name":"Dombrád","lat":"48.23333000","lon":"21.93333000"},
{"state":"Szabolcs-Szatmár-Bereg County","name":"Encsencs","lat":"47.73333000","lon":"22.11667000"},
{"state":"Szabolcs-Szatmár-Bereg County","name":"Fehérgyarmat","lat":"47.98333000","lon":"22.51667000"},
{"state":"Szabolcs-Szatmár-Bereg County","name":"Fehérgyarmati Járás","lat":"48.00436000","lon":"22.63014000"},
{"state":"Szabolcs-Szatmár-Bereg County","name":"Fényeslitke","lat":"48.27133000","lon":"22.10009000"},
{"state":"Szabolcs-Szatmár-Bereg County","name":"Gégény","lat":"48.15000000","lon":"21.95000000"},
{"state":"Szabolcs-Szatmár-Bereg County","name":"Gyulaháza","lat":"48.13333000","lon":"22.11667000"},
{"state":"Szabolcs-Szatmár-Bereg County","name":"Hodász","lat":"47.91834000","lon":"22.20153000"},
{"state":"Szabolcs-Szatmár-Bereg County","name":"Ibrány","lat":"48.12329000","lon":"21.70953000"},
{"state":"Szabolcs-Szatmár-Bereg County","name":"Ibrányi Járás","lat":"48.12794000","lon":"21.69344000"},
{"state":"Szabolcs-Szatmár-Bereg County","name":"Kállósemjén","lat":"47.86081000","lon":"21.93929000"},
{"state":"Szabolcs-Szatmár-Bereg County","name":"Kálmánháza","lat":"47.88333000","lon":"21.58333000"},
{"state":"Szabolcs-Szatmár-Bereg County","name":"Kántorjánosi","lat":"47.93333000","lon":"22.15000000"},
{"state":"Szabolcs-Szatmár-Bereg County","name":"Kék","lat":"48.11667000","lon":"21.88333000"},
{"state":"Szabolcs-Szatmár-Bereg County","name":"Kemecse","lat":"48.07532000","lon":"21.80625000"},
{"state":"Szabolcs-Szatmár-Bereg County","name":"Kemecsei Járás","lat":"48.10048000","lon":"21.88414000"},
{"state":"Szabolcs-Szatmár-Bereg County","name":"Kisléta","lat":"47.84244000","lon":"22.00393000"},
{"state":"Szabolcs-Szatmár-Bereg County","name":"Kisvárda","lat":"48.21667000","lon":"22.08333000"},
{"state":"Szabolcs-Szatmár-Bereg County","name":"Kisvárdai Járás","lat":"48.22100000","lon":"22.06415000"},
{"state":"Szabolcs-Szatmár-Bereg County","name":"Kocsord","lat":"47.93912000","lon":"22.38333000"},
{"state":"Szabolcs-Szatmár-Bereg County","name":"Kótaj","lat":"48.05000000","lon":"21.71667000"},
{"state":"Szabolcs-Szatmár-Bereg County","name":"Levelek","lat":"47.96282000","lon":"21.98537000"},
{"state":"Szabolcs-Szatmár-Bereg County","name":"Mándok","lat":"48.32149000","lon":"22.19107000"},
{"state":"Szabolcs-Szatmár-Bereg County","name":"Máriapócs","lat":"47.88303000","lon":"22.02501000"},
{"state":"Szabolcs-Szatmár-Bereg County","name":"Mátészalka","lat":"47.95528000","lon":"22.32348000"},
{"state":"Szabolcs-Szatmár-Bereg County","name":"Mátészalkai Járás","lat":"47.92961000","lon":"22.31892000"},
{"state":"Szabolcs-Szatmár-Bereg County","name":"Mérk","lat":"47.78824000","lon":"22.38038000"},
{"state":"Szabolcs-Szatmár-Bereg County","name":"Nagycserkesz","lat":"47.96667000","lon":"21.53333000"},
{"state":"Szabolcs-Szatmár-Bereg County","name":"Nagydobos","lat":"48.05759000","lon":"22.30423000"},
{"state":"Szabolcs-Szatmár-Bereg County","name":"Nagyecsed","lat":"47.86547000","lon":"22.39159000"},
{"state":"Szabolcs-Szatmár-Bereg County","name":"Nagyhalász","lat":"48.13266000","lon":"21.76104000"},
{"state":"Szabolcs-Szatmár-Bereg County","name":"Nagykálló","lat":"47.87491000","lon":"21.84082000"},
{"state":"Szabolcs-Szatmár-Bereg County","name":"Nagykállói Járás","lat":"47.79994000","lon":"21.84753000"},
{"state":"Szabolcs-Szatmár-Bereg County","name":"Napkor","lat":"47.93797000","lon":"21.86763000"},
{"state":"Szabolcs-Szatmár-Bereg County","name":"Nyírbátor","lat":"47.83333000","lon":"22.13333000"},
{"state":"Szabolcs-Szatmár-Bereg County","name":"Nyírbátori Járás","lat":"47.77553000","lon":"22.11755000"},
{"state":"Szabolcs-Szatmár-Bereg County","name":"Nyírbéltek","lat":"47.70000000","lon":"22.13333000"},
{"state":"Szabolcs-Szatmár-Bereg County","name":"Nyírbogát","lat":"47.80340000","lon":"22.06561000"},
{"state":"Szabolcs-Szatmár-Bereg County","name":"Nyírbogdány","lat":"48.05723000","lon":"21.88242000"},
{"state":"Szabolcs-Szatmár-Bereg County","name":"Nyírcsaholy","lat":"47.90383000","lon":"22.33630000"},
{"state":"Szabolcs-Szatmár-Bereg County","name":"Nyíregyháza","lat":"47.95539000","lon":"21.71671000"},
{"state":"Szabolcs-Szatmár-Bereg County","name":"Nyíregyházi Járás","lat":"47.97691000","lon":"21.64463000"},
{"state":"Szabolcs-Szatmár-Bereg County","name":"Nyírgyulaj","lat":"47.88622000","lon":"22.09781000"},
{"state":"Szabolcs-Szatmár-Bereg County","name":"Nyírkarász","lat":"48.09477000","lon":"22.10463000"},
{"state":"Szabolcs-Szatmár-Bereg County","name":"Nyírlugos","lat":"47.69315000","lon":"22.04476000"},
{"state":"Szabolcs-Szatmár-Bereg County","name":"Nyírmada","lat":"48.06667000","lon":"22.20000000"},
{"state":"Szabolcs-Szatmár-Bereg County","name":"Nyírmeggyes","lat":"47.91667000","lon":"22.26667000"},
{"state":"Szabolcs-Szatmár-Bereg County","name":"Nyírmihálydi","lat":"47.73976000","lon":"21.96445000"},
{"state":"Szabolcs-Szatmár-Bereg County","name":"Nyírpazony","lat":"47.98333000","lon":"21.80000000"},
{"state":"Szabolcs-Szatmár-Bereg County","name":"Nyírtass","lat":"48.11667000","lon":"22.03333000"},
{"state":"Szabolcs-Szatmár-Bereg County","name":"Nyírtelek","lat":"48.01667000","lon":"21.63333000"},
{"state":"Szabolcs-Szatmár-Bereg County","name":"Nyírvasvári","lat":"47.81667000","lon":"22.18683000"},
{"state":"Szabolcs-Szatmár-Bereg County","name":"Ófehértó","lat":"47.93333000","lon":"22.05000000"},
{"state":"Szabolcs-Szatmár-Bereg County","name":"Ököritófülpös","lat":"47.91862000","lon":"22.50810000"},
{"state":"Szabolcs-Szatmár-Bereg County","name":"Ópályi","lat":"47.99771000","lon":"22.32617000"},
{"state":"Szabolcs-Szatmár-Bereg County","name":"Pátroha","lat":"48.16667000","lon":"22.00000000"},
{"state":"Szabolcs-Szatmár-Bereg County","name":"Petneháza","lat":"48.06084000","lon":"22.07485000"},
{"state":"Szabolcs-Szatmár-Bereg County","name":"Porcsalma","lat":"47.88333000","lon":"22.56667000"},
{"state":"Szabolcs-Szatmár-Bereg County","name":"Rakamaz","lat":"48.12372000","lon":"21.46429000"},
{"state":"Szabolcs-Szatmár-Bereg County","name":"Szakoly","lat":"47.76667000","lon":"21.91667000"},
{"state":"Szabolcs-Szatmár-Bereg County","name":"Szamosszeg","lat":"48.04561000","lon":"22.36582000"},
{"state":"Szabolcs-Szatmár-Bereg County","name":"Tarpa","lat":"48.10480000","lon":"22.53744000"},
{"state":"Szabolcs-Szatmár-Bereg County","name":"Tiszabercel","lat":"48.15000000","lon":"21.65000000"},
{"state":"Szabolcs-Szatmár-Bereg County","name":"Tiszabezdéd","lat":"48.36667000","lon":"22.15000000"},
{"state":"Szabolcs-Szatmár-Bereg County","name":"Tiszadada","lat":"48.03333000","lon":"21.25000000"},
{"state":"Szabolcs-Szatmár-Bereg County","name":"Tiszadob","lat":"48.01667000","lon":"21.16667000"},
{"state":"Szabolcs-Szatmár-Bereg County","name":"Tiszaeszlár","lat":"48.05000000","lon":"21.46667000"},
{"state":"Szabolcs-Szatmár-Bereg County","name":"Tiszalök","lat":"48.01667000","lon":"21.38333000"},
{"state":"Szabolcs-Szatmár-Bereg County","name":"Tiszanagyfalu","lat":"48.10000000","lon":"21.48333000"},
{"state":"Szabolcs-Szatmár-Bereg County","name":"Tiszavasvári","lat":"47.96667000","lon":"21.35000000"},
{"state":"Szabolcs-Szatmár-Bereg County","name":"Tiszavasvári Járás","lat":"47.98606000","lon":"21.36545000"},
{"state":"Szabolcs-Szatmár-Bereg County","name":"Tornyospálca","lat":"48.26667000","lon":"22.18333000"},
{"state":"Szabolcs-Szatmár-Bereg County","name":"Tunyogmatolcs","lat":"47.96667000","lon":"22.46667000"},
{"state":"Szabolcs-Szatmár-Bereg County","name":"Tuzsér","lat":"48.34407000","lon":"22.11762000"},
{"state":"Szabolcs-Szatmár-Bereg County","name":"Tyukod","lat":"47.85378000","lon":"22.56330000"},
{"state":"Szabolcs-Szatmár-Bereg County","name":"Újfehértó","lat":"47.80000000","lon":"21.68333000"},
{"state":"Szabolcs-Szatmár-Bereg County","name":"Vaja","lat":"48.00574000","lon":"22.16761000"},
{"state":"Szabolcs-Szatmár-Bereg County","name":"Vásárosnamény","lat":"48.12542000","lon":"22.31325000"},
{"state":"Szabolcs-Szatmár-Bereg County","name":"Vásárosnaményi Járás","lat":"48.17981000","lon":"22.35859000"},
{"state":"Szabolcs-Szatmár-Bereg County","name":"Záhony","lat":"48.40906000","lon":"22.17614000"},
{"state":"Szabolcs-Szatmár-Bereg County","name":"Záhonyi Járás","lat":"48.34914000","lon":"22.18925000"},
{"state":"Tolna County","name":"Báta","lat":"46.12864000","lon":"18.77027000"},
{"state":"Tolna County","name":"Bátaszék","lat":"46.19373000","lon":"18.72307000"},
{"state":"Tolna County","name":"Bogyiszló","lat":"46.38638000","lon":"18.82962000"},
{"state":"Tolna County","name":"Bölcske","lat":"46.74102000","lon":"18.96736000"},
{"state":"Tolna County","name":"Bonyhád","lat":"46.29921000","lon":"18.53024000"},
{"state":"Tolna County","name":"Bonyhádi Járás","lat":"46.33998000","lon":"18.49739000"},
{"state":"Tolna County","name":"Decs","lat":"46.28428000","lon":"18.76000000"},
{"state":"Tolna County","name":"Döbrököz","lat":"46.42178000","lon":"18.23953000"},
{"state":"Tolna County","name":"Dombóvár","lat":"46.37657000","lon":"18.13696000"},
{"state":"Tolna County","name":"Dombóvári Járás","lat":"46.45592000","lon":"18.19076000"},
{"state":"Tolna County","name":"Dunaföldvár","lat":"46.80713000","lon":"18.92763000"},
{"state":"Tolna County","name":"Dunaszentgyörgy","lat":"46.52852000","lon":"18.81771000"},
{"state":"Tolna County","name":"Fadd","lat":"46.46476000","lon":"18.81925000"},
{"state":"Tolna County","name":"Gyönk","lat":"46.55603000","lon":"18.47694000"},
{"state":"Tolna County","name":"Hőgyész","lat":"46.49697000","lon":"18.41841000"},
{"state":"Tolna County","name":"Iregszemcse","lat":"46.69286000","lon":"18.18581000"},
{"state":"Tolna County","name":"Madocsa","lat":"46.68790000","lon":"18.95791000"},
{"state":"Tolna County","name":"Nagydorog","lat":"46.62749000","lon":"18.65565000"},
{"state":"Tolna County","name":"Nagymányok","lat":"46.27911000","lon":"18.45489000"},
{"state":"Tolna County","name":"Németkér","lat":"46.71637000","lon":"18.76311000"},
{"state":"Tolna County","name":"Őcsény","lat":"46.31370000","lon":"18.75749000"},
{"state":"Tolna County","name":"Ozora","lat":"46.75133000","lon":"18.40010000"},
{"state":"Tolna County","name":"Paks","lat":"46.62210000","lon":"18.85569000"},
{"state":"Tolna County","name":"Paksi Járás","lat":"46.66035000","lon":"18.78572000"},
{"state":"Tolna County","name":"Pincehely","lat":"46.68095000","lon":"18.43935000"},
{"state":"Tolna County","name":"Simontornya","lat":"46.75462000","lon":"18.55490000"},
{"state":"Tolna County","name":"Szedres","lat":"46.47551000","lon":"18.68305000"},
{"state":"Tolna County","name":"Szekszárd","lat":"46.35014000","lon":"18.70905000"},
{"state":"Tolna County","name":"Szekszárdi Járás","lat":"46.33998000","lon":"18.67893000"},
{"state":"Tolna County","name":"Szentgálpuszta","lat":"46.37479000","lon":"18.62601000"},
{"state":"Tolna County","name":"Tamási","lat":"46.63333000","lon":"18.28333000"},
{"state":"Tolna County","name":"Tamási Járás","lat":"46.65424000","lon":"18.35857000"},
{"state":"Tolna County","name":"Tengelic","lat":"46.52878000","lon":"18.71117000"},
{"state":"Tolna County","name":"Tolna","lat":"46.42677000","lon":"18.78248000"},
{"state":"Tolna County","name":"Tolnai Járás","lat":"46.42541000","lon":"18.82691000"},
{"state":"Tolna County","name":"Zomba","lat":"46.41084000","lon":"18.56577000"},
{"state":"Vas County","name":"Bük","lat":"47.38486000","lon":"16.75065000"},
{"state":"Vas County","name":"Celldömölk","lat":"47.25713000","lon":"17.15027000"},
{"state":"Vas County","name":"Celldömölki Járás","lat":"47.25001000","lon":"17.13209000"},
{"state":"Vas County","name":"Csepreg","lat":"47.40098000","lon":"16.70881000"},
{"state":"Vas County","name":"Gencsapáti","lat":"47.28496000","lon":"16.59575000"},
{"state":"Vas County","name":"Ják","lat":"47.14249000","lon":"16.58148000"},
{"state":"Vas County","name":"Jánosháza","lat":"47.11937000","lon":"17.16503000"},
{"state":"Vas County","name":"Körmend","lat":"47.01096000","lon":"16.60596000"},
{"state":"Vas County","name":"Körmendi Járás","lat":"46.92164000","lon":"16.53291000"},
{"state":"Vas County","name":"Kőszeg","lat":"47.38922000","lon":"16.54100000"},
{"state":"Vas County","name":"Kőszegi Járás","lat":"47.37500000","lon":"16.65650000"},
{"state":"Vas County","name":"Répcelak","lat":"47.42105000","lon":"17.01795000"},
{"state":"Vas County","name":"Sárvár","lat":"47.25395000","lon":"16.93525000"},
{"state":"Vas County","name":"Sárvári Járás","lat":"47.23868000","lon":"16.93299000"},
{"state":"Vas County","name":"Szentgotthárd","lat":"46.95261000","lon":"16.27358000"},
{"state":"Vas County","name":"Szentgotthárdi Járás","lat":"46.93674000","lon":"16.30362000"},
{"state":"Vas County","name":"Szombathely","lat":"47.23088000","lon":"16.62155000"},
{"state":"Vas County","name":"Szombathelyi Járás","lat":"47.21037000","lon":"16.63954000"},
{"state":"Vas County","name":"Táplánszentkereszt","lat":"47.19496000","lon":"16.69613000"},
{"state":"Vas County","name":"Vasvár","lat":"47.04928000","lon":"16.79954000"},
{"state":"Vas County","name":"Vasvári Járás","lat":"47.03487000","lon":"16.85939000"},
{"state":"Vas County","name":"Vép","lat":"47.23041000","lon":"16.72248000"},
{"state":"Veszprém County","name":"Ajka","lat":"47.10196000","lon":"17.55892000"},
{"state":"Veszprém County","name":"Ajkai Járás","lat":"47.07988000","lon":"17.56375000"},
{"state":"Veszprém County","name":"Badacsonytomaj","lat":"46.80711000","lon":"17.51385000"},
{"state":"Veszprém County","name":"Balatonalmádi","lat":"47.03526000","lon":"18.02076000"},
{"state":"Veszprém County","name":"Balatonalmádi Járás","lat":"47.04174000","lon":"18.09617000"},
{"state":"Veszprém County","name":"Balatonfüred","lat":"46.96188000","lon":"17.87187000"},
{"state":"Veszprém County","name":"Balatonfüredi Járás","lat":"46.93952000","lon":"17.79411000"},
{"state":"Veszprém County","name":"Balatonkenese","lat":"47.04019000","lon":"18.10671000"},
{"state":"Veszprém County","name":"Berhida","lat":"47.11131000","lon":"18.12948000"},
{"state":"Veszprém County","name":"Csabrendek","lat":"47.01356000","lon":"17.29108000"},
{"state":"Veszprém County","name":"Csetény","lat":"47.31806000","lon":"17.99208000"},
{"state":"Veszprém County","name":"Csopak","lat":"46.97709000","lon":"17.91819000"},
{"state":"Veszprém County","name":"Devecser","lat":"47.10316000","lon":"17.43802000"},
{"state":"Veszprém County","name":"Devecseri Járás","lat":"47.16836000","lon":"17.32271000"},
{"state":"Veszprém County","name":"Hajmáskér","lat":"47.14513000","lon":"18.01964000"},
{"state":"Veszprém County","name":"Herend","lat":"47.13333000","lon":"17.75000000"},
{"state":"Veszprém County","name":"Litér","lat":"47.10104000","lon":"18.00454000"},
{"state":"Veszprém County","name":"Nemesvámos","lat":"47.05514000","lon":"17.87477000"},
{"state":"Veszprém County","name":"Ősi","lat":"47.14722000","lon":"18.18833000"},
{"state":"Veszprém County","name":"Pápa","lat":"47.33004000","lon":"17.46740000"},
{"state":"Veszprém County","name":"Pápai Járás","lat":"47.33769000","lon":"17.49663000"},
{"state":"Veszprém County","name":"Pétfürdő","lat":"47.16667000","lon":"18.11667000"},
{"state":"Veszprém County","name":"Révfülöp","lat":"46.82573000","lon":"17.61967000"},
{"state":"Veszprém County","name":"Sümeg","lat":"46.97703000","lon":"17.28209000"},
{"state":"Veszprém County","name":"Sümegi Járás","lat":"47.02648000","lon":"17.26779000"},
{"state":"Veszprém County","name":"Szentkirályszabadja","lat":"47.05760000","lon":"17.97052000"},
{"state":"Veszprém County","name":"Tapolca","lat":"46.88152000","lon":"17.44117000"},
{"state":"Veszprém County","name":"Tapolcai Járás","lat":"46.89833000","lon":"17.49510000"},
{"state":"Veszprém County","name":"Tihany","lat":"46.91369000","lon":"17.88918000"},
{"state":"Veszprém County","name":"Úrkút","lat":"47.08505000","lon":"17.64393000"},
{"state":"Veszprém County","name":"Várpalota","lat":"47.19936000","lon":"18.13954000"},
{"state":"Veszprém County","name":"Várpalotai Járás","lat":"47.18514000","lon":"18.12211000"},
{"state":"Veszprém County","name":"Veszprém","lat":"47.09327000","lon":"17.91149000"},
{"state":"Veszprém County","name":"Veszprémi Járás","lat":"47.09666000","lon":"17.82157000"},
{"state":"Veszprém County","name":"Zánka","lat":"46.87146000","lon":"17.68473000"},
{"state":"Veszprém County","name":"Zirc","lat":"47.26362000","lon":"17.87373000"},
{"state":"Veszprém County","name":"Zirci Járás","lat":"47.28583000","lon":"17.88412000"},
{"state":"Zala County","name":"Becsehely","lat":"46.44755000","lon":"16.77710000"},
{"state":"Zala County","name":"Cserszegtomaj","lat":"46.80165000","lon":"17.22096000"},
{"state":"Zala County","name":"Gyenesdiás","lat":"46.77058000","lon":"17.28660000"},
{"state":"Zala County","name":"Hévíz","lat":"46.79031000","lon":"17.18408000"},
{"state":"Zala County","name":"Keszthely","lat":"46.76812000","lon":"17.24317000"},
{"state":"Zala County","name":"Keszthelyi Járás","lat":"46.78356000","lon":"17.22381000"},
{"state":"Zala County","name":"Lenti","lat":"46.62403000","lon":"16.53863000"},
{"state":"Zala County","name":"Lenti Járás","lat":"46.65649000","lon":"16.57443000"},
{"state":"Zala County","name":"Letenye","lat":"46.43301000","lon":"16.72583000"},
{"state":"Zala County","name":"Letenyei Járás","lat":"46.50552000","lon":"16.76503000"},
{"state":"Zala County","name":"Murakeresztúr","lat":"46.36422000","lon":"16.88177000"},
{"state":"Zala County","name":"Nagykanizsa","lat":"46.45347000","lon":"16.99104000"},
{"state":"Zala County","name":"Nagykanizsai Járás","lat":"46.51873000","lon":"17.04433000"},
{"state":"Zala County","name":"Pacsa","lat":"46.71981000","lon":"17.01401000"},
{"state":"Zala County","name":"Sármellék","lat":"46.71221000","lon":"17.16865000"},
{"state":"Zala County","name":"Türje","lat":"46.98366000","lon":"17.10742000"},
{"state":"Zala County","name":"Vonyarcvashegy","lat":"46.75742000","lon":"17.31172000"},
{"state":"Zala County","name":"Zalaegerszeg","lat":"46.84000000","lon":"16.84389000"},
{"state":"Zala County","name":"Zalaegerszegi Járás","lat":"46.80000000","lon":"16.83000000"},
{"state":"Zala County","name":"Zalakomár","lat":"46.53795000","lon":"17.18094000"},
{"state":"Zala County","name":"Zalalövő","lat":"46.84802000","lon":"16.58750000"},
{"state":"Zala County","name":"Zalaszentgrót","lat":"46.94474000","lon":"17.07925000"},
{"state":"Zala County","name":"Zalaszentgróti Járás","lat":"46.92070000","lon":"17.10095000"}]