[{"name":"Aceh","native":null,"cities":[{"name":"Banda Aceh","native":null,"lat":"5.54167000","lon":"95.33333000"},{"name":"Bireun","native":null,"lat":"5.20300000","lon":"96.70090000"},{"name":"Kabupaten Aceh Barat","native":null,"lat":"4.45000000","lon":"96.16667000"},{"name":"Kabupaten Aceh Barat Daya","native":null,"lat":"3.83333000","lon":"96.88333000"},{"name":"Kabupaten Aceh Besar","native":null,"lat":"5.38333000","lon":"95.51667000"},{"name":"Kabupaten Aceh Jaya","native":null,"lat":"4.86000000","lon":"95.64000000"},{"name":"Kabupaten Aceh Selatan","native":null,"lat":"3.16667000","lon":"97.41667000"},{"name":"Kabupaten Aceh Singkil","native":null,"lat":"2.41667000","lon":"97.91667000"},{"name":"Kabupaten Aceh Tamiang","native":null,"lat":"4.25000000","lon":"97.96667000"},{"name":"Kabupaten Aceh Tengah","native":null,"lat":"4.51000000","lon":"96.85500000"},{"name":"Kabupaten Aceh Tenggara","native":null,"lat":"3.36667000","lon":"97.70000000"},{"name":"Kabupaten Aceh Timur","native":null,"lat":"4.63333000","lon":"97.63333000"},{"name":"Kabupaten Aceh Utara","native":null,"lat":"4.97000000","lon":"97.14000000"},{"name":"Kabupaten Bener Meriah","native":null,"lat":"4.73015000","lon":"96.86156000"},{"name":"Kabupaten Bireuen","native":null,"lat":"5.08333000","lon":"96.58333000"},{"name":"Kabupaten Gayo Lues","native":null,"lat":"3.95000000","lon":"97.39000000"},{"name":"Kabupaten Nagan Raya","native":null,"lat":"4.16667000","lon":"96.51667000"},{"name":"Kabupaten Pidie","native":null,"lat":"5.08000000","lon":"96.11000000"},{"name":"Kabupaten Simeulue","native":null,"lat":"2.61667000","lon":"96.08333000"},{"name":"Kota Banda Aceh","native":null,"lat":"5.54167000","lon":"95.33333000"},{"name":"Kota Langsa","native":null,"lat":"4.47000000","lon":"97.93000000"},{"name":"Kota Lhokseumawe","native":null,"lat":"5.13333000","lon":"97.06667000"},{"name":"Kota Sabang","native":null,"lat":"5.87944000","lon":"95.33223000"},{"name":"Kota Subulussalam","native":null,"lat":"2.75000000","lon":"97.93333000"},{"name":"Langsa","native":null,"lat":"4.46830000","lon":"97.96830000"},{"name":"Lhokseumawe","native":null,"lat":"5.18010000","lon":"97.15070000"},{"name":"Meulaboh","native":null,"lat":"4.14402000","lon":"96.12664000"},{"name":"Reuleuet","native":null,"lat":"5.21667000","lon":"96.28333000"},{"name":"Sabang","native":null,"lat":"5.88969000","lon":"95.31644000"},{"name":"Sigli","native":null,"lat":"5.38480000","lon":"95.96090000"},{"name":"Sinabang","native":null,"lat":"2.48030000","lon":"96.38010000"},{"name":"Singkil","native":null,"lat":"2.28740000","lon":"97.78840000"}]},{"name":"Bali","native":null,"cities":[{"name":"Amlapura","native":null,"lat":"-8.45000000","lon":"115.61667000"},{"name":"Amlapura city","native":null,"lat":"-8.44869000","lon":"115.60621000"},{"name":"Banjar","native":null,"lat":"-8.19000000","lon":"114.96750000"},{"name":"Banjar Wangsian","native":null,"lat":"-8.49497000","lon":"115.42342000"},{"name":"Bedugul","native":null,"lat":"-8.45040000","lon":"115.59250000"},{"name":"Denpasar","native":null,"lat":"-8.65000000","lon":"115.21667000"},{"name":"Jimbaran","native":null,"lat":"-8.79093000","lon":"115.16006000"},{"name":"Kabupaten Badung","native":null,"lat":"-8.51667000","lon":"115.20000000"},{"name":"Kabupaten Bangli","native":null,"lat":"-8.28333000","lon":"115.35000000"},{"name":"Kabupaten Buleleng","native":null,"lat":"-8.25000000","lon":"114.96667000"},{"name":"Kabupaten Gianyar","native":null,"lat":"-8.46667000","lon":"115.28333000"},{"name":"Kabupaten Jembrana","native":null,"lat":"-8.30000000","lon":"114.66667000"},{"name":"Kabupaten Karang Asem","native":null,"lat":"-8.38910000","lon":"115.53930000"},{"name":"Kabupaten Klungkung","native":null,"lat":"-8.55000000","lon":"115.40000000"},{"name":"Kabupaten Tabanan","native":null,"lat":"-8.43333000","lon":"115.06667000"},{"name":"Klungkung","native":null,"lat":"-8.53333000","lon":"115.40000000"},{"name":"Kota Denpasar","native":null,"lat":"-8.66667000","lon":"115.21663000"},{"name":"Kuta","native":null,"lat":"-8.72332000","lon":"115.17234000"},{"name":"Legian","native":null,"lat":"-8.70415000","lon":"115.17028000"},{"name":"Lovina","native":null,"lat":"-8.14927000","lon":"115.03999000"},{"name":"Munduk","native":null,"lat":"-8.26866000","lon":"115.07947000"},{"name":"Negara","native":null,"lat":"-8.35694000","lon":"114.61694000"},{"name":"Nusa Dua","native":null,"lat":"-8.80047000","lon":"115.23341000"},{"name":"Seririt","native":null,"lat":"-8.19280000","lon":"114.93880000"},{"name":"Singaraja","native":null,"lat":"-8.11200000","lon":"115.08818000"},{"name":"Tabanan","native":null,"lat":"-8.54130000","lon":"115.12522000"},{"name":"Ubud","native":null,"lat":"-8.50980000","lon":"115.26540000"}]},{"name":"Banten","native":null,"cities":[{"name":"Curug","native":null,"lat":"-6.26583000","lon":"106.55639000"},{"name":"Kabupaten Lebak","native":null,"lat":"-6.65000000","lon":"106.21667000"},{"name":"Kabupaten Pandeglang","native":null,"lat":"-6.63333000","lon":"105.75000000"},{"name":"Kabupaten Serang","native":null,"lat":"-6.15000000","lon":"106.00000000"},{"name":"Kabupaten Tangerang","native":null,"lat":"-6.20000000","lon":"106.46667000"},{"name":"Kota Cilegon","native":null,"lat":"-6.01667000","lon":"106.01667000"},{"name":"Kota Serang","native":null,"lat":"-6.12563000","lon":"106.14999000"},{"name":"Kota Tangerang","native":null,"lat":"-6.17944000","lon":"106.62991000"},{"name":"Kota Tangerang Selatan","native":null,"lat":"-6.29373000","lon":"106.71244000"},{"name":"Labuan","native":null,"lat":"-6.37840000","lon":"105.83000000"},{"name":"Pandeglang","native":null,"lat":"-6.30840000","lon":"106.10670000"},{"name":"Rangkasbitung","native":null,"lat":"-6.35910000","lon":"106.24940000"},{"name":"Serang","native":null,"lat":"-6.11528000","lon":"106.15417000"},{"name":"South Tangerang","native":null,"lat":"-6.28862000","lon":"106.71789000"},{"name":"Tangerang","native":null,"lat":"-6.17806000","lon":"106.63000000"}]},{"name":"Bengkulu","native":null,"cities":[{"name":"Bengkulu","native":null,"lat":"-3.80044000","lon":"102.26554000"},{"name":"Curup","native":null,"lat":"-3.47030000","lon":"102.52070000"},{"name":"Kabupaten Bengkulu Selatan","native":null,"lat":"-4.35000000","lon":"103.03333000"},{"name":"Kabupaten Bengkulu Tengah","native":null,"lat":"-3.20679000","lon":"102.12616000"},{"name":"Kabupaten Bengkulu Utara","native":null,"lat":"-3.33333000","lon":"102.05000000"},{"name":"Kabupaten Kaur","native":null,"lat":"-4.78179000","lon":"103.36109000"},{"name":"Kabupaten Kepahiang","native":null,"lat":"-3.60194000","lon":"102.56424000"},{"name":"Kabupaten Lebong","native":null,"lat":"-3.24278000","lon":"102.33490000"},{"name":"Kabupaten Mukomuko","native":null,"lat":"-3.07438000","lon":"101.54766000"},{"name":"Kabupaten Rejang Lebong","native":null,"lat":"-3.43333000","lon":"102.71667000"},{"name":"Kabupaten Seluma","native":null,"lat":"-3.96644000","lon":"102.47429000"},{"name":"Kota Bengkulu","native":null,"lat":"-3.81667000","lon":"102.31667000"}]},{"name":"DI Yogyakarta","native":null,"cities":[{"name":"Bambanglipuro","native":null,"lat":"-7.95000000","lon":"110.28333000"},{"name":"Bantul","native":null,"lat":"-7.88806000","lon":"110.32889000"},{"name":"Depok","native":null,"lat":"-7.76250000","lon":"110.43167000"},{"name":"Gamping Lor","native":null,"lat":"-7.79556000","lon":"110.32639000"},{"name":"Godean","native":null,"lat":"-7.76972000","lon":"110.29389000"},{"name":"Kabupaten Bantul","native":null,"lat":"-7.90000000","lon":"110.36667000"},{"name":"Kabupaten Gunung Kidul","native":null,"lat":"-7.98333000","lon":"110.61667000"},{"name":"Kabupaten Kulon Progo","native":null,"lat":"-7.64500000","lon":"110.02694000"},{"name":"Kabupaten Sleman","native":null,"lat":"-7.68167000","lon":"110.32333000"},{"name":"Kasihan","native":null,"lat":"-7.82694000","lon":"110.32917000"},{"name":"Kota Yogyakarta","native":null,"lat":"-7.80000000","lon":"110.37500000"},{"name":"Melati","native":null,"lat":"-7.73333000","lon":"110.36667000"},{"name":"Pandak","native":null,"lat":"-7.91306000","lon":"110.29361000"},{"name":"Pundong","native":null,"lat":"-7.95222000","lon":"110.34861000"},{"name":"Sewon","native":null,"lat":"-7.87639000","lon":"110.35889000"},{"name":"Sleman","native":null,"lat":"-7.71556000","lon":"110.35556000"},{"name":"Srandakan","native":null,"lat":"-7.93861000","lon":"110.25056000"},{"name":"Yogyakarta","native":null,"lat":"-7.80139000","lon":"110.36472000"}]},{"name":"DKI Jakarta","native":null,"cities":[{"name":"Jakarta","native":null,"lat":"-6.21462000","lon":"106.84513000"},{"name":"Kota Administrasi Jakarta Barat","native":null,"lat":"-6.16760000","lon":"106.76730000"},{"name":"Kota Administrasi Jakarta Pusat","native":null,"lat":"-6.17770000","lon":"106.84030000"},{"name":"Kota Administrasi Jakarta Selatan","native":null,"lat":"-6.26600000","lon":"106.81350000"},{"name":"Kota Administrasi Jakarta Timur","native":null,"lat":"-6.25210000","lon":"106.88400000"},{"name":"Kota Administrasi Jakarta Utara","native":null,"lat":"-6.13390000","lon":"106.88230000"}]},{"name":"Gorontalo","native":null,"cities":[{"name":"Gorontalo","native":null,"lat":"0.53750000","lon":"123.06250000"},{"name":"Kabupaten Boalemo","native":null,"lat":"0.62689000","lon":"122.35680000"},{"name":"Kabupaten Bone Bolango","native":null,"lat":"0.50296000","lon":"123.27501000"},{"name":"Kabupaten Gorontalo","native":null,"lat":"0.57280000","lon":"122.23370000"},{"name":"Kabupaten Gorontalo Utara","native":null,"lat":"0.77000000","lon":"122.31667000"},{"name":"Kabupaten Pohuwato","native":null,"lat":"0.70980000","lon":"121.59582000"},{"name":"Kota Gorontalo","native":null,"lat":"0.53333000","lon":"123.10000000"}]},{"name":"Jambi","native":null,"cities":[{"name":"Bejubang Dua","native":null,"lat":"-1.79230000","lon":"103.31670000"},{"name":"Jambi City","native":null,"lat":"-1.60000000","lon":"103.61667000"},{"name":"Kabupaten Batang Hari","native":null,"lat":"-1.75000000","lon":"103.11667000"},{"name":"Kabupaten Bungo","native":null,"lat":"-1.50222000","lon":"101.96000000"},{"name":"Kabupaten Kerinci","native":null,"lat":"-2.03333000","lon":"101.53333000"},{"name":"Kabupaten Merangin","native":null,"lat":"-2.06933000","lon":"102.13303000"},{"name":"Kabupaten Muaro Jambi","native":null,"lat":"-1.55214000","lon":"103.82163000"},{"name":"Kabupaten Sarolangun","native":null,"lat":"-2.30000000","lon":"102.65000000"},{"name":"Kabupaten Tanjung Jabung Barat","native":null,"lat":"-1.15440000","lon":"103.24402000"},{"name":"Kabupaten Tanjung Jabung Timur","native":null,"lat":"-1.13198000","lon":"103.61755000"},{"name":"Kabupaten Tebo","native":null,"lat":"-1.45576000","lon":"102.37473000"},{"name":"Kota Jambi","native":null,"lat":"-1.61667000","lon":"103.65000000"},{"name":"Kota Sungai Penuh","native":null,"lat":"-2.10896000","lon":"101.32175000"},{"name":"Kuala Tungkal","native":null,"lat":"-0.81623000","lon":"103.46111000"},{"name":"Mendaha","native":null,"lat":"-1.01630000","lon":"103.59331000"},{"name":"Simpang","native":null,"lat":"-1.26424000","lon":"104.09701000"},{"name":"Sungai Penuh","native":null,"lat":"-2.05610000","lon":"101.39130000"}]},{"name":"Jawa Barat","native":null,"cities":[{"name":"Arjawinangun","native":null,"lat":"-6.64528000","lon":"108.41028000"},{"name":"Astanajapura","native":null,"lat":"-6.80170000","lon":"108.63110000"},{"name":"Bandung","native":null,"lat":"-6.92222000","lon":"107.60694000"},{"name":"Banjar","native":null,"lat":"-7.19550000","lon":"107.43130000"},{"name":"Banjaran","native":null,"lat":"-7.04528000","lon":"107.58778000"},{"name":"Bekasi","native":null,"lat":"-6.23490000","lon":"106.98960000"},{"name":"Bogor","native":null,"lat":"-6.59444000","lon":"106.78917000"},{"name":"Caringin","native":null,"lat":"-6.70611000","lon":"106.82139000"},{"name":"Ciamis","native":null,"lat":"-7.32570000","lon":"108.35340000"},{"name":"Ciampea","native":null,"lat":"-6.55472000","lon":"106.70083000"},{"name":"Cibinong","native":null,"lat":"-6.48167000","lon":"106.85417000"},{"name":"Cicurug","native":null,"lat":"-6.78139000","lon":"106.78250000"},{"name":"Cikampek","native":null,"lat":"-6.41972000","lon":"107.45583000"},{"name":"Cikarang","native":null,"lat":"-6.26111000","lon":"107.15278000"},{"name":"Cikupa","native":null,"lat":"-6.23639000","lon":"106.50833000"},{"name":"Cileungsir","native":null,"lat":"-6.39472000","lon":"106.95917000"},{"name":"Cileunyi","native":null,"lat":"-6.93889000","lon":"107.75278000"},{"name":"Cimahi","native":null,"lat":"-6.87222000","lon":"107.54250000"},{"name":"Ciputat","native":null,"lat":"-6.23750000","lon":"106.69556000"},{"name":"Ciranjang-hilir","native":null,"lat":"-6.82000000","lon":"107.25722000"},{"name":"Cirebon","native":null,"lat":"-6.70630000","lon":"108.55700000"},{"name":"Citeureup","native":null,"lat":"-6.48556000","lon":"106.88194000"},{"name":"Depok","native":null,"lat":"-6.40000000","lon":"106.81861000"},{"name":"Indramayu","native":null,"lat":"-6.32639000","lon":"108.32000000"},{"name":"Jatibarang","native":null,"lat":"-6.47472000","lon":"108.31528000"},{"name":"Jatiwangi","native":null,"lat":"-6.73361000","lon":"108.26278000"},{"name":"Kabupaten Bandung","native":null,"lat":"-7.10000000","lon":"107.60000000"},{"name":"Kabupaten Bandung Barat","native":null,"lat":"-6.83333000","lon":"107.48333000"},{"name":"Kabupaten Bekasi","native":null,"lat":"-6.24667000","lon":"107.10833000"},{"name":"Kabupaten Bogor","native":null,"lat":"-6.58333000","lon":"106.71667000"},{"name":"Kabupaten Ciamis","native":null,"lat":"-7.28333000","lon":"108.41667000"},{"name":"Kabupaten Cianjur","native":null,"lat":"-6.77250000","lon":"107.08306000"},{"name":"Kabupaten Cirebon","native":null,"lat":"-6.80000000","lon":"108.56667000"},{"name":"Kabupaten Garut","native":null,"lat":"-7.38333000","lon":"107.76667000"},{"name":"Kabupaten Indramayu","native":null,"lat":"-6.45000000","lon":"108.16667000"},{"name":"Kabupaten Karawang","native":null,"lat":"-6.26667000","lon":"107.41667000"},{"name":"Kabupaten Kuningan","native":null,"lat":"-7.00000000","lon":"108.55000000"},{"name":"Kabupaten Majalengka","native":null,"lat":"-6.81667000","lon":"108.28333000"},{"name":"Kabupaten Pangandaran","native":null,"lat":"-7.66730000","lon":"108.64037000"},{"name":"Kabupaten Purwakarta","native":null,"lat":"-6.58333000","lon":"107.45000000"},{"name":"Kabupaten Subang","native":null,"lat":"-6.50833000","lon":"107.70250000"},{"name":"Kabupaten Sukabumi","native":null,"lat":"-7.06667000","lon":"106.70000000"},{"name":"Kabupaten Sumedang","native":null,"lat":"-6.81667000","lon":"107.98333000"},{"name":"Kabupaten Tasikmalaya","native":null,"lat":"-7.50000000","lon":"108.13333000"},{"name":"Karangampel","native":null,"lat":"-6.46222000","lon":"108.45194000"},{"name":"Karangsembung","native":null,"lat":"-6.84870000","lon":"108.64220000"},{"name":"Kawalu","native":null,"lat":"-7.38170000","lon":"108.20820000"},{"name":"Klangenan","native":null,"lat":"-6.70944000","lon":"108.44000000"},{"name":"Kota Bandung","native":null,"lat":"-6.91750000","lon":"107.62444000"},{"name":"Kota Banjar","native":null,"lat":"-7.36996000","lon":"108.53209000"},{"name":"Kota Bekasi","native":null,"lat":"-6.28333000","lon":"106.98333000"},{"name":"Kota Bogor","native":null,"lat":"-6.59167000","lon":"106.80000000"},{"name":"Kota Cimahi","native":null,"lat":"-6.89167000","lon":"107.55000000"},{"name":"Kota Cirebon","native":null,"lat":"-6.75000000","lon":"108.55000000"},{"name":"Kota Depok","native":null,"lat":"-6.40000000","lon":"106.81667000"},{"name":"Kota Sukabumi","native":null,"lat":"-6.95000000","lon":"106.93333000"},{"name":"Kota Tasikmalaya","native":null,"lat":"-7.35000000","lon":"108.21667000"},{"name":"Kresek","native":null,"lat":"-6.13139000","lon":"106.37972000"},{"name":"Kuningan","native":null,"lat":"-6.97583000","lon":"108.48306000"},{"name":"Lembang","native":null,"lat":"-6.81167000","lon":"107.61750000"},{"name":"Majalengka","native":null,"lat":"-6.83611000","lon":"108.22778000"},{"name":"Margahayukencana","native":null,"lat":"-6.97083000","lon":"107.56750000"},{"name":"Ngawi","native":null,"lat":"-7.40380000","lon":"111.44610000"},{"name":"Padalarang","native":null,"lat":"-6.83778000","lon":"107.47278000"},{"name":"Palimanan","native":null,"lat":"-6.70694000","lon":"108.42417000"},{"name":"Pamanukan","native":null,"lat":"-6.28417000","lon":"107.81056000"},{"name":"Pameungpeuk","native":null,"lat":"-7.01833000","lon":"107.60389000"},{"name":"Pamulang","native":null,"lat":"-6.34278000","lon":"106.73833000"},{"name":"Parung","native":null,"lat":"-6.42139000","lon":"106.73306000"},{"name":"Pasarkemis","native":null,"lat":"-6.17028000","lon":"106.53028000"},{"name":"Paseh","native":null,"lat":"-7.10260000","lon":"107.76410000"},{"name":"Pelabuhanratu","native":null,"lat":"-6.98750000","lon":"106.55139000"},{"name":"Plumbon","native":null,"lat":"-6.70500000","lon":"108.47278000"},{"name":"Purwakarta","native":null,"lat":"-6.55694000","lon":"107.44333000"},{"name":"Rajapolah","native":null,"lat":"-7.22100000","lon":"108.18960000"},{"name":"Rengasdengklok","native":null,"lat":"-6.15917000","lon":"107.29806000"},{"name":"Sawangan","native":null,"lat":"-6.40278000","lon":"106.77444000"},{"name":"Sepatan","native":null,"lat":"-6.11889000","lon":"106.57500000"},{"name":"Serpong","native":null,"lat":"-6.31694000","lon":"106.66417000"},{"name":"Singaparna","native":null,"lat":"-7.35150000","lon":"108.11100000"},{"name":"Soreang","native":null,"lat":"-7.03306000","lon":"107.51833000"},{"name":"Sukabumi","native":null,"lat":"-6.91806000","lon":"106.92667000"},{"name":"Sumber","native":null,"lat":"-6.76028000","lon":"108.48306000"},{"name":"Sumedang","native":null,"lat":"-6.85861000","lon":"107.91639000"},{"name":"Sumedang Utara","native":null,"lat":"-6.85000000","lon":"107.91667000"},{"name":"Tasikmalaya","native":null,"lat":"-7.32740000","lon":"108.22070000"},{"name":"Teluknaga","native":null,"lat":"-6.09889000","lon":"106.63806000"},{"name":"Wanaraja","native":null,"lat":"-7.17490000","lon":"107.98080000"},{"name":"Weru","native":null,"lat":"-6.71100000","lon":"108.50370000"}]},{"name":"Jawa Tengah","native":null,"cities":[{"name":"Adiwerna","native":null,"lat":"-6.93750000","lon":"109.13250000"},{"name":"Ambarawa","native":null,"lat":"-7.26333000","lon":"110.39750000"},{"name":"Baekrajan","native":null,"lat":"-6.76740000","lon":"110.85410000"},{"name":"Baki","native":null,"lat":"-7.61278000","lon":"110.78389000"},{"name":"Balapulang","native":null,"lat":"-7.04858000","lon":"109.10056000"},{"name":"Banyumas","native":null,"lat":"-7.51417000","lon":"109.29417000"},{"name":"Batang","native":null,"lat":"-6.48460000","lon":"110.70830000"},{"name":"Baturaden","native":null,"lat":"-7.30000000","lon":"109.21667000"},{"name":"Blora","native":null,"lat":"-6.96980000","lon":"111.41860000"},{"name":"Boyolali","native":null,"lat":"-7.53306000","lon":"110.59583000"},{"name":"Buaran","native":null,"lat":"-7.05000000","lon":"109.55000000"},{"name":"Bulakamba","native":null,"lat":"-6.87480000","lon":"108.95590000"},{"name":"Candi Prambanan","native":null,"lat":"-7.75000000","lon":"110.49417000"},{"name":"Ceper","native":null,"lat":"-7.67417000","lon":"110.67889000"},{"name":"Cepu","native":null,"lat":"-7.14750000","lon":"111.59060000"},{"name":"Colomadu","native":null,"lat":"-7.53333000","lon":"110.75000000"},{"name":"Comal","native":null,"lat":"-6.90530000","lon":"109.53470000"},{"name":"Delanggu","native":null,"lat":"-7.61667000","lon":"110.68333000"},{"name":"Demak","native":null,"lat":"-6.89090000","lon":"110.63960000"},{"name":"Dukuhturi","native":null,"lat":"-6.90000000","lon":"109.08333000"},{"name":"Gatak","native":null,"lat":"-7.59083000","lon":"110.70444000"},{"name":"Gebog","native":null,"lat":"-6.73500000","lon":"110.84440000"},{"name":"Gombong","native":null,"lat":"-7.60722000","lon":"109.51417000"},{"name":"Grogol","native":null,"lat":"-7.60111000","lon":"110.81861000"},{"name":"Gunung Kendil","native":null,"lat":"-7.33167000","lon":"110.40417000"},{"name":"Jaten","native":null,"lat":"-7.57722000","lon":"110.89750000"},{"name":"Jatiroto","native":null,"lat":"-7.88333000","lon":"111.11667000"},{"name":"Jekulo","native":null,"lat":"-6.80570000","lon":"110.92620000"},{"name":"Jogonalan","native":null,"lat":"-7.70361000","lon":"110.53611000"},{"name":"Juwana","native":null,"lat":"-6.71500000","lon":"111.15140000"},{"name":"Kabupaten Banjarnegara","native":null,"lat":"-7.35111000","lon":"109.58750000"},{"name":"Kabupaten Banyumas","native":null,"lat":"-7.45000000","lon":"109.16667000"},{"name":"Kabupaten Batang","native":null,"lat":"-7.03333000","lon":"109.88333000"},{"name":"Kabupaten Blora","native":null,"lat":"-7.06667000","lon":"111.38333000"},{"name":"Kabupaten Boyolali","native":null,"lat":"-7.50000000","lon":"110.70000000"},{"name":"Kabupaten Brebes","native":null,"lat":"-7.05000000","lon":"108.90000000"},{"name":"Kabupaten Cilacap","native":null,"lat":"-7.57417000","lon":"108.98861000"},{"name":"Kabupaten Demak","native":null,"lat":"-6.89930000","lon":"110.61220000"},{"name":"Kabupaten Grobogan","native":null,"lat":"-7.11667000","lon":"110.91667000"},{"name":"Kabupaten Jepara","native":null,"lat":"-6.58333000","lon":"110.76667000"},{"name":"Kabupaten Karanganyar","native":null,"lat":"-7.62806000","lon":"111.06250000"},{"name":"Kabupaten Kebumen","native":null,"lat":"-7.63917000","lon":"109.66056000"},{"name":"Kabupaten Kendal","native":null,"lat":"-7.02560000","lon":"110.16850000"},{"name":"Kabupaten Klaten","native":null,"lat":"-7.68333000","lon":"110.61667000"},{"name":"Kabupaten Kudus","native":null,"lat":"-6.80000000","lon":"110.86667000"},{"name":"Kabupaten Magelang","native":null,"lat":"-7.42750000","lon":"110.16194000"},{"name":"Kabupaten Pati","native":null,"lat":"-6.76667000","lon":"111.10000000"},{"name":"Kabupaten Pekalongan","native":null,"lat":"-7.03190000","lon":"109.62400000"},{"name":"Kabupaten Pemalang","native":null,"lat":"-7.03333000","lon":"109.40000000"},{"name":"Kabupaten Purbalingga","native":null,"lat":"-7.28417000","lon":"109.35028000"},{"name":"Kabupaten Purworejo","native":null,"lat":"-7.70000000","lon":"109.96667000"},{"name":"Kabupaten Rembang","native":null,"lat":"-6.78333000","lon":"111.46667000"},{"name":"Kabupaten Semarang","native":null,"lat":"-7.20667000","lon":"110.44139000"},{"name":"Kabupaten Sragen","native":null,"lat":"-7.41278000","lon":"110.93500000"},{"name":"Kabupaten Sukoharjo","native":null,"lat":"-7.68333000","lon":"110.83333000"},{"name":"Kabupaten Tegal","native":null,"lat":"-7.03333000","lon":"109.16667000"},{"name":"Kabupaten Temanggung","native":null,"lat":"-7.25000000","lon":"110.11667000"},{"name":"Kabupaten Wonogiri","native":null,"lat":"-7.91667000","lon":"111.00000000"},{"name":"Kabupaten Wonosobo","native":null,"lat":"-7.36139000","lon":"109.92667000"},{"name":"Karanganom","native":null,"lat":"-7.64889000","lon":"110.62500000"},{"name":"Kartasura","native":null,"lat":"-7.55194000","lon":"110.73778000"},{"name":"Kebonarun","native":null,"lat":"-7.70028000","lon":"110.56306000"},{"name":"Kedungwuni","native":null,"lat":"-6.97038000","lon":"109.64794000"},{"name":"Ketanggungan","native":null,"lat":"-6.93830000","lon":"108.89100000"},{"name":"Klaten","native":null,"lat":"-7.70583000","lon":"110.60639000"},{"name":"Kota Magelang","native":null,"lat":"-7.50000000","lon":"110.22500000"},{"name":"Kota Pekalongan","native":null,"lat":"-6.90000000","lon":"109.68333000"},{"name":"Kota Salatiga","native":null,"lat":"-7.33278000","lon":"110.48333000"},{"name":"Kota Semarang","native":null,"lat":"-7.03333000","lon":"110.38333000"},{"name":"Kota Surakarta","native":null,"lat":"-7.55000000","lon":"110.81667000"},{"name":"Kota Tegal","native":null,"lat":"-6.86860000","lon":"109.11290000"},{"name":"Kroya","native":null,"lat":"-7.63306000","lon":"109.24611000"},{"name":"Kudus","native":null,"lat":"-6.80480000","lon":"110.84050000"},{"name":"Kutoarjo","native":null,"lat":"-7.71694000","lon":"109.91278000"},{"name":"Lasem","native":null,"lat":"-6.69220000","lon":"111.45270000"},{"name":"Lebaksiu","native":null,"lat":"-7.04960000","lon":"109.14410000"},{"name":"Magelang","native":null,"lat":"-7.47056000","lon":"110.21778000"},{"name":"Majenang","native":null,"lat":"-7.29750000","lon":"108.76420000"},{"name":"Margasari","native":null,"lat":"-7.10000000","lon":"109.01667000"},{"name":"Mertoyudan","native":null,"lat":"-7.52000000","lon":"110.22639000"},{"name":"Mlonggo","native":null,"lat":"-6.53333000","lon":"110.70000000"},{"name":"Mranggen","native":null,"lat":"-7.02680000","lon":"110.51580000"},{"name":"Muntilan","native":null,"lat":"-7.58111000","lon":"110.29278000"},{"name":"Ngemplak","native":null,"lat":"-7.54972000","lon":"110.71639000"},{"name":"Pati","native":null,"lat":"-6.75590000","lon":"111.03800000"},{"name":"Pecangaan","native":null,"lat":"-6.69780000","lon":"110.71070000"},{"name":"Pekalongan","native":null,"lat":"-6.88860000","lon":"109.67530000"},{"name":"Pemalang","native":null,"lat":"-6.89193000","lon":"109.38263000"},{"name":"Purbalingga","native":null,"lat":"-7.38806000","lon":"109.36389000"},{"name":"Purwodadi","native":null,"lat":"-7.08680000","lon":"110.91580000"},{"name":"Purwokerto","native":null,"lat":"-7.42139000","lon":"109.23444000"},{"name":"Randudongkal","native":null,"lat":"-7.09810000","lon":"109.32430000"},{"name":"Rembangan","native":null,"lat":"-6.70360000","lon":"111.34160000"},{"name":"Salatiga","native":null,"lat":"-7.33194000","lon":"110.49278000"},{"name":"Selogiri","native":null,"lat":"-7.78333000","lon":"110.86667000"},{"name":"Semarang","native":null,"lat":"-6.99306000","lon":"110.42083000"},{"name":"Sidareja","native":null,"lat":"-7.48460000","lon":"108.79230000"},{"name":"Slawi","native":null,"lat":"-6.98160000","lon":"109.14070000"},{"name":"Sokaraja","native":null,"lat":"-7.45806000","lon":"109.28806000"},{"name":"Sragen","native":null,"lat":"-7.42639000","lon":"111.02222000"},{"name":"Surakarta","native":null,"lat":"-7.55611000","lon":"110.83167000"},{"name":"Tarub","native":null,"lat":"-6.93333000","lon":"109.16667000"},{"name":"Tayu","native":null,"lat":"-6.53970000","lon":"111.05180000"},{"name":"Tegal","native":null,"lat":"-6.86940000","lon":"109.14020000"},{"name":"Trucuk","native":null,"lat":"-7.71833000","lon":"110.65889000"},{"name":"Ungaran","native":null,"lat":"-7.13972000","lon":"110.40500000"},{"name":"Wangon","native":null,"lat":"-7.51611000","lon":"109.05389000"},{"name":"Wedi","native":null,"lat":"-7.74306000","lon":"110.57944000"},{"name":"Welahan","native":null,"lat":"-6.80000000","lon":"110.71667000"},{"name":"Weleri","native":null,"lat":"-6.97130000","lon":"110.06660000"},{"name":"Wiradesa","native":null,"lat":"-6.89220000","lon":"109.61900000"},{"name":"Wonopringgo","native":null,"lat":"-6.98333000","lon":"109.61667000"},{"name":"Wonosobo","native":null,"lat":"-7.35889000","lon":"109.90306000"}]},{"name":"Jawa Timur","native":null,"cities":[{"name":"Babat","native":null,"lat":"-7.11282000","lon":"112.16354000"},{"name":"Balung","native":null,"lat":"-7.73333000","lon":"113.91667000"},{"name":"Bangil","native":null,"lat":"-7.59939000","lon":"112.81860000"},{"name":"Bangkalan","native":null,"lat":"-7.04550000","lon":"112.73510000"},{"name":"Banyuwangi","native":null,"lat":"-8.23250000","lon":"114.35755000"},{"name":"Batu","native":null,"lat":"-7.87000000","lon":"112.52833000"},{"name":"Besuki","native":null,"lat":"-7.73379000","lon":"113.69785000"},{"name":"Blitar","native":null,"lat":"-8.09830000","lon":"112.16810000"},{"name":"Bojonegoro","native":null,"lat":"-7.15020000","lon":"111.88170000"},{"name":"Bondowoso","native":null,"lat":"-7.91346000","lon":"113.82145000"},{"name":"Boyolangu","native":null,"lat":"-8.11810000","lon":"111.89350000"},{"name":"Buduran","native":null,"lat":"-7.42810000","lon":"112.72340000"},{"name":"Dampit","native":null,"lat":"-8.21162000","lon":"112.74934000"},{"name":"Diwek","native":null,"lat":"-7.57897000","lon":"112.23109000"},{"name":"Driyorejo","native":null,"lat":"-7.36590000","lon":"112.62190000"},{"name":"Gambiran Satu","native":null,"lat":"-8.39390000","lon":"114.14640000"},{"name":"Gampengrejo","native":null,"lat":"-7.76667000","lon":"112.01667000"},{"name":"Gedangan","native":null,"lat":"-7.39083000","lon":"112.72667000"},{"name":"Genteng","native":null,"lat":"-8.36667000","lon":"114.15000000"},{"name":"Gongdanglegi Kulon","native":null,"lat":"-8.17529000","lon":"112.63594000"},{"name":"Gresik","native":null,"lat":"-7.15389000","lon":"112.65611000"},{"name":"Gresik Regency","native":null,"lat":"-7.19330000","lon":"112.55300000"},{"name":"Jember","native":null,"lat":"-8.17211000","lon":"113.69953000"},{"name":"Jombang","native":null,"lat":"-7.54595000","lon":"112.23307000"},{"name":"Kabupaten Bangkalan","native":null,"lat":"-7.05000000","lon":"112.93333000"},{"name":"Kabupaten Banyuwangi","native":null,"lat":"-8.33333000","lon":"114.20000000"},{"name":"Kabupaten Blitar","native":null,"lat":"-8.13333000","lon":"112.25000000"},{"name":"Kabupaten Bojonegoro","native":null,"lat":"-7.25000000","lon":"111.80000000"},{"name":"Kabupaten Bondowoso","native":null,"lat":"-7.94040000","lon":"113.98340000"},{"name":"Kabupaten Jember","native":null,"lat":"-8.25000000","lon":"113.65000000"},{"name":"Kabupaten Jombang","native":null,"lat":"-7.55000000","lon":"112.25000000"},{"name":"Kabupaten Kediri","native":null,"lat":"-7.83333000","lon":"112.16667000"},{"name":"Kabupaten Lamongan","native":null,"lat":"-7.13333000","lon":"112.31667000"},{"name":"Kabupaten Lumajang","native":null,"lat":"-8.11667000","lon":"113.15000000"},{"name":"Kabupaten Madiun","native":null,"lat":"-7.61667000","lon":"111.65000000"},{"name":"Kabupaten Magetan","native":null,"lat":"-7.64472000","lon":"111.35917000"},{"name":"Kabupaten Malang","native":null,"lat":"-8.16667000","lon":"112.66667000"},{"name":"Kabupaten Mojokerto","native":null,"lat":"-7.55000000","lon":"112.50000000"},{"name":"Kabupaten Nganjuk","native":null,"lat":"-7.60000000","lon":"111.93333000"},{"name":"Kabupaten Ngawi","native":null,"lat":"-7.47444000","lon":"111.33444000"},{"name":"Kabupaten Pacitan","native":null,"lat":"-8.13333000","lon":"111.16667000"},{"name":"Kabupaten Pamekasan","native":null,"lat":"-7.06667000","lon":"113.50000000"},{"name":"Kabupaten Pasuruan","native":null,"lat":"-7.73333000","lon":"112.83333000"},{"name":"Kabupaten Ponorogo","native":null,"lat":"-7.93333000","lon":"111.50000000"},{"name":"Kabupaten Probolinggo","native":null,"lat":"-7.86667000","lon":"113.31667000"},{"name":"Kabupaten Sampang","native":null,"lat":"-7.05000000","lon":"113.25000000"},{"name":"Kabupaten Sidoarjo","native":null,"lat":"-7.45000000","lon":"112.70000000"},{"name":"Kabupaten Situbondo","native":null,"lat":"-7.71667000","lon":"114.05000000"},{"name":"Kabupaten Sumenep","native":null,"lat":"-7.11667000","lon":"114.33333000"},{"name":"Kabupaten Trenggalek","native":null,"lat":"-8.16667000","lon":"111.61667000"},{"name":"Kabupaten Tuban","native":null,"lat":"-6.96667000","lon":"111.90000000"},{"name":"Kabupaten Tulungagung","native":null,"lat":"-8.11667000","lon":"111.91667000"},{"name":"Kalianget","native":null,"lat":"-7.05370000","lon":"113.94244000"},{"name":"Kamal","native":null,"lat":"-7.16778000","lon":"112.71917000"},{"name":"Kebomas","native":null,"lat":"-7.16667000","lon":"112.63330000"},{"name":"Kediri","native":null,"lat":"-7.81667000","lon":"112.01667000"},{"name":"Kedungwaru","native":null,"lat":"-8.06667000","lon":"111.91667000"},{"name":"Kencong","native":null,"lat":"-8.28333000","lon":"113.36667000"},{"name":"Kepanjen","native":null,"lat":"-8.13030000","lon":"112.57270000"},{"name":"Kertosono","native":null,"lat":"-7.58333000","lon":"112.10000000"},{"name":"Kota Batu","native":null,"lat":"-7.83272000","lon":"112.53751000"},{"name":"Kota Blitar","native":null,"lat":"-8.10000000","lon":"112.16667000"},{"name":"Kota Kediri","native":null,"lat":"-7.83333000","lon":"112.01667000"},{"name":"Kota Madiun","native":null,"lat":"-7.63333000","lon":"111.53333000"},{"name":"Kota Malang","native":null,"lat":"-7.97500000","lon":"112.63333000"},{"name":"Kota Mojokerto","native":null,"lat":"-7.46667000","lon":"112.43333000"},{"name":"Kota Pasuruan","native":null,"lat":"-7.65000000","lon":"112.90000000"},{"name":"Kota Probolinggo","native":null,"lat":"-7.78333000","lon":"113.21667000"},{"name":"Kota Surabaya","native":null,"lat":"-7.26667000","lon":"112.71667000"},{"name":"Kraksaan","native":null,"lat":"-7.75845000","lon":"113.39624000"},{"name":"Krian","native":null,"lat":"-7.41040000","lon":"112.57920000"},{"name":"Lamongan","native":null,"lat":"-7.11667000","lon":"112.41667000"},{"name":"Lawang","native":null,"lat":"-7.83530000","lon":"112.69470000"},{"name":"Lumajang","native":null,"lat":"-8.13350000","lon":"113.22480000"},{"name":"Madiun","native":null,"lat":"-7.62980000","lon":"111.52390000"},{"name":"Malang","native":null,"lat":"-7.97970000","lon":"112.63040000"},{"name":"Mojoagung","native":null,"lat":"-7.56667000","lon":"112.35000000"},{"name":"Mojokerto","native":null,"lat":"-7.46640000","lon":"112.43380000"},{"name":"Muncar","native":null,"lat":"-8.43333000","lon":"114.33333000"},{"name":"Nganjuk","native":null,"lat":"-7.60510000","lon":"111.90350000"},{"name":"Ngoro","native":null,"lat":"-7.68386000","lon":"112.25804000"},{"name":"Ngunut","native":null,"lat":"-8.10580000","lon":"112.01591000"},{"name":"Paciran","native":null,"lat":"-6.87666000","lon":"112.37606000"},{"name":"Pakisaji","native":null,"lat":"-8.06650000","lon":"112.59810000"},{"name":"Pamekasan","native":null,"lat":"-7.15680000","lon":"113.47460000"},{"name":"Panarukan","native":null,"lat":"-7.70181000","lon":"113.91844000"},{"name":"Pandaan","native":null,"lat":"-7.65268000","lon":"112.68750000"},{"name":"Panji","native":null,"lat":"-7.72528000","lon":"114.09954000"},{"name":"Pare","native":null,"lat":"-7.76790000","lon":"112.19800000"},{"name":"Pasuruan","native":null,"lat":"-7.64530000","lon":"112.90750000"},{"name":"Ponorogo","native":null,"lat":"-7.86850000","lon":"111.46200000"},{"name":"Prigen","native":null,"lat":"-7.68333000","lon":"112.61667000"},{"name":"Probolinggo","native":null,"lat":"-7.75430000","lon":"113.21590000"},{"name":"Sampang","native":null,"lat":"-7.18720000","lon":"113.23940000"},{"name":"Sidoarjo","native":null,"lat":"-7.44780000","lon":"112.71830000"},{"name":"Singojuruh","native":null,"lat":"-8.31667000","lon":"114.23333000"},{"name":"Singosari","native":null,"lat":"-7.89240000","lon":"112.66580000"},{"name":"Situbondo","native":null,"lat":"-7.70623000","lon":"114.00976000"},{"name":"Soko","native":null,"lat":"-7.48315000","lon":"112.42704000"},{"name":"Srono","native":null,"lat":"-8.40003000","lon":"114.26661000"},{"name":"Sumberpucung","native":null,"lat":"-8.15856000","lon":"112.48292000"},{"name":"Sumenep","native":null,"lat":"-7.01667000","lon":"113.86667000"},{"name":"Surabaya","native":null,"lat":"-7.24917000","lon":"112.75083000"},{"name":"Tanggul","native":null,"lat":"-8.16450000","lon":"113.45250000"},{"name":"Tanggulangin","native":null,"lat":"-7.49958000","lon":"112.69992000"},{"name":"Trenggalek","native":null,"lat":"-8.07640000","lon":"111.70641000"},{"name":"Tuban","native":null,"lat":"-6.89760000","lon":"112.06490000"},{"name":"Tulangan Utara","native":null,"lat":"-7.47370000","lon":"112.65050000"},{"name":"Tulungagung","native":null,"lat":"-8.06570000","lon":"111.90250000"},{"name":"Wongsorejo","native":null,"lat":"-7.99080000","lon":"114.40090000"}]},{"name":"Kalimantan Barat","native":null,"cities":[{"name":"Bengkayang","native":null,"lat":"1.06911000","lon":"109.66393000"},{"name":"Kapuas Hulu","native":null,"lat":"0.83333000","lon":"112.80000000"},{"name":"Kayong Utara","native":null,"lat":"-1.06023000","lon":"110.10402000"},{"name":"Ketapang","native":null,"lat":"-1.85000000","lon":"109.98333333"},{"name":"Kubu Raya","native":null,"lat":"-0.31924000","lon":"109.51865000"},{"name":"Landak","native":null,"lat":"0.42373000","lon":"109.75917000"},{"name":"Manismata","native":null,"lat":"-2.46666667","lon":"111.03333333"},{"name":"Melawi","native":null,"lat":"-0.33617000","lon":"111.69800000"},{"name":"Mempawah","native":null,"lat":"0.25000000","lon":"109.16667000"},{"name":"Pemangkat","native":null,"lat":"1.17680000","lon":"108.96240000"},{"name":"Pontianak","native":null,"lat":"-0.02055556","lon":"109.34138889"},{"name":"Sambas","native":null,"lat":"1.43333000","lon":"109.35000000"},{"name":"Sanggau","native":null,"lat":"0.11944444","lon":"110.58888889"},{"name":"Sekadau","native":null,"lat":"0.03485000","lon":"110.95066000"},{"name":"Singkawang","native":null,"lat":"0.90000000","lon":"108.98333333"},{"name":"Sintang","native":null,"lat":"0.06805556","lon":"111.49805556"}]},{"name":"Kalimantan Selatan","native":null,"cities":[{"name":"Amuntai","native":null,"lat":"-2.41773000","lon":"115.24941000"},{"name":"Banjarmasin","native":null,"lat":"-3.31987000","lon":"114.59075000"},{"name":"Barabai","native":null,"lat":"-2.58333000","lon":"115.38333000"},{"name":"Kabupaten Balangan","native":null,"lat":"-2.32314000","lon":"115.62922000"},{"name":"Kabupaten Banjar","native":null,"lat":"-3.31667000","lon":"115.08333000"},{"name":"Kabupaten Barito Kuala","native":null,"lat":"-3.08333000","lon":"114.61667000"},{"name":"Kabupaten Hulu Sungai Selatan","native":null,"lat":"-2.75000000","lon":"115.20000000"},{"name":"Kabupaten Hulu Sungai Tengah","native":null,"lat":"-2.61667000","lon":"115.41667000"},{"name":"Kabupaten Hulu Sungai Utara","native":null,"lat":"-2.45000000","lon":"115.13333000"},{"name":"Kabupaten Kota Baru","native":null,"lat":"-3.00000000","lon":"116.00000000"},{"name":"Kabupaten Tabalong","native":null,"lat":"-1.88333000","lon":"115.50000000"},{"name":"Kabupaten Tanah Bumbu","native":null,"lat":"-3.45413000","lon":"115.70372000"},{"name":"Kabupaten Tanah Laut","native":null,"lat":"-3.88333000","lon":"114.86667000"},{"name":"Kabupaten Tapin","native":null,"lat":"-2.91667000","lon":"115.03333000"},{"name":"Kota Banjar Baru","native":null,"lat":"-3.41667000","lon":"114.83333000"},{"name":"Kota Banjarmasin","native":null,"lat":"-3.32444000","lon":"114.59102000"},{"name":"Martapura","native":null,"lat":"-3.41090000","lon":"114.86420000"}]},{"name":"Kalimantan Tengah","native":null,"cities":[{"name":"Kabupaten Barito Selatan","native":null,"lat":"-1.86667000","lon":"114.73333000"},{"name":"Kabupaten Barito Timur","native":null,"lat":"-1.93333000","lon":"115.10000000"},{"name":"Kabupaten Barito Utara","native":null,"lat":"-0.98333000","lon":"115.10000000"},{"name":"Kabupaten Gunung Mas","native":null,"lat":"-0.95000000","lon":"113.50000000"},{"name":"Kabupaten Kapuas","native":null,"lat":"-2.01667000","lon":"114.38333000"},{"name":"Kabupaten Katingan","native":null,"lat":"-2.06667000","lon":"113.40000000"},{"name":"Kabupaten Kotawaringin Barat","native":null,"lat":"-2.40000000","lon":"111.73333000"},{"name":"Kabupaten Kotawaringin Timur","native":null,"lat":"-2.08333000","lon":"112.75000000"},{"name":"Kabupaten Lamandau","native":null,"lat":"-1.83828000","lon":"111.28690000"},{"name":"Kabupaten Murung Raya","native":null,"lat":"-0.01667000","lon":"114.26667000"},{"name":"Kabupaten Pulang Pisau","native":null,"lat":"-3.11858000","lon":"113.86230000"},{"name":"Kabupaten Seruyan","native":null,"lat":"-2.33333000","lon":"112.25000000"},{"name":"Kabupaten Sukamara","native":null,"lat":"-2.62675000","lon":"111.23681000"},{"name":"Kota Palangka Raya","native":null,"lat":"-1.76979000","lon":"113.73126000"},{"name":"Kualakapuas","native":null,"lat":"-3.00913000","lon":"114.38759000"},{"name":"Palangkaraya","native":null,"lat":"-2.20833000","lon":"113.91667000"},{"name":"Pangkalanbuun","native":null,"lat":"-2.68320000","lon":"111.62590000"},{"name":"Sampit","native":null,"lat":"-2.53150000","lon":"112.94960000"}]},{"name":"Kalimantan Timur","native":null,"cities":[{"name":"Balikpapan","native":null,"lat":"-1.26753000","lon":"116.82887000"},{"name":"Bontang","native":null,"lat":"0.13240000","lon":"117.48540000"},{"name":"City of Balikpapan","native":null,"lat":"-1.24204000","lon":"116.89419000"},{"name":"Kabupaten Berau","native":null,"lat":"2.00000000","lon":"117.30000000"},{"name":"Kabupaten Kutai Barat","native":null,"lat":"-0.59417000","lon":"115.51575000"},{"name":"Kabupaten Kutai Kartanegara","native":null,"lat":"-0.44019000","lon":"116.98139000"},{"name":"Kabupaten Kutai Timur","native":null,"lat":"1.03769000","lon":"117.83112000"},{"name":"Kabupaten Mahakam Hulu","native":null,"lat":"0.37822000","lon":"115.38048000"},{"name":"Kabupaten Paser","native":null,"lat":"-1.43517000","lon":"116.23535000"},{"name":"Kabupaten Penajam Paser Utara","native":null,"lat":"-1.25000000","lon":"116.83333000"},{"name":"Kota Balikpapan","native":null,"lat":"-1.16667000","lon":"116.88333000"},{"name":"Kota Bontang","native":null,"lat":"0.12526000","lon":"117.49603000"},{"name":"Kota Samarinda","native":null,"lat":"-0.43333000","lon":"117.18333000"},{"name":"Loa Janan","native":null,"lat":"-0.58295000","lon":"117.09503000"},{"name":"Samarinda","native":null,"lat":"-0.49167000","lon":"117.14583000"}]},{"name":"Kalimantan Utara","native":null,"cities":[{"name":"Kabupaten Bulungan","native":null,"lat":"3.00000000","lon":"117.16667000"},{"name":"Kabupaten Malinau","native":null,"lat":"2.45000000","lon":"115.68333000"},{"name":"Kabupaten Nunukan","native":null,"lat":"4.13333000","lon":"116.70000000"},{"name":"Kabupaten Tana Tidung","native":null,"lat":"3.55000000","lon":"117.25000000"},{"name":"Tanjung Selor","native":null,"lat":"2.83750000","lon":"117.36528000"},{"name":"Tarakan","native":null,"lat":"3.31332000","lon":"117.59152000"}]},{"name":"Kepulauan Bangka Belitung","native":null,"cities":[{"name":"Kabupaten Bangka","native":null,"lat":"-1.91667000","lon":"105.93333000"},{"name":"Kabupaten Bangka Barat","native":null,"lat":"-1.95839000","lon":"105.53741000"},{"name":"Kabupaten Bangka Selatan","native":null,"lat":"-2.66803000","lon":"106.01257000"},{"name":"Kabupaten Bangka Tengah","native":null,"lat":"-2.33989000","lon":"106.11420000"},{"name":"Kabupaten Belitung","native":null,"lat":"-2.86667000","lon":"107.70000000"},{"name":"Kabupaten Belitung Timur","native":null,"lat":"-2.96270000","lon":"108.15216000"},{"name":"Kota Pangkal Pinang","native":null,"lat":"-2.13333000","lon":"106.13333000"},{"name":"Manggar","native":null,"lat":"-2.88333000","lon":"108.26667000"},{"name":"Muntok","native":null,"lat":"-2.06719000","lon":"105.16228000"},{"name":"Pangkalpinang","native":null,"lat":"-2.12914000","lon":"106.11377000"},{"name":"Sungailiat","native":null,"lat":"-1.85442000","lon":"106.12215000"},{"name":"Tanjung Pandan","native":null,"lat":"-2.73353000","lon":"107.63477000"}]},{"name":"Kepulauan Riau","native":null,"cities":[{"name":"Kabupaten Bintan","native":null,"lat":"0.95000000","lon":"104.61944000"},{"name":"Kabupaten Karimun","native":null,"lat":"0.80764000","lon":"103.41911000"},{"name":"Kabupaten Kepulauan Anambas","native":null,"lat":"3.00000000","lon":"106.00000000"},{"name":"Kabupaten Lingga","native":null,"lat":"0.20000000","lon":"104.61667000"},{"name":"Kabupaten Natuna","native":null,"lat":"4.71417000","lon":"107.97639000"},{"name":"Kijang","native":null,"lat":"0.90000000","lon":"104.63333000"},{"name":"Kota Batam","native":null,"lat":"1.05211000","lon":"104.02851000"},{"name":"Kota Tanjung Pinang","native":null,"lat":"0.91683000","lon":"104.44329000"},{"name":"Tanjung Pinang","native":null,"lat":"0.91667000","lon":"104.45833000"}]},{"name":"Lampung","native":null,"cities":[{"name":"Bandar Lampung","native":null,"lat":"-5.42917000","lon":"105.26111000"},{"name":"Kabupaten Lampung Barat","native":null,"lat":"-5.14904000","lon":"104.19309000"},{"name":"Kabupaten Lampung Selatan","native":null,"lat":"-5.45310000","lon":"104.98770000"},{"name":"Kabupaten Lampung Tengah","native":null,"lat":"-4.86667000","lon":"105.26667000"},{"name":"Kabupaten Lampung Timur","native":null,"lat":"-5.10273000","lon":"105.68003000"},{"name":"Kabupaten Lampung Utara","native":null,"lat":"-4.81667000","lon":"104.80000000"},{"name":"Kabupaten Mesuji","native":null,"lat":"-4.04390000","lon":"105.40130000"},{"name":"Kabupaten Pesawaran","native":null,"lat":"-5.42980000","lon":"105.17899000"},{"name":"Kabupaten Pesisir Barat","native":null,"lat":"-5.19323000","lon":"103.93976000"},{"name":"Kabupaten Pringsewu","native":null,"lat":"-5.42211000","lon":"104.93454000"},{"name":"Kabupaten Tanggamus","native":null,"lat":"-5.38508000","lon":"104.62349000"},{"name":"Kabupaten Tulangbawang","native":null,"lat":"-4.20604000","lon":"105.57999000"},{"name":"Kabupaten Way Kanan","native":null,"lat":"-4.44705000","lon":"104.52753000"},{"name":"Kota Bandar Lampung","native":null,"lat":"-5.41667000","lon":"105.25000000"},{"name":"Kota Metro","native":null,"lat":"-5.11856000","lon":"105.29949000"},{"name":"Kotabumi","native":null,"lat":"-4.82505000","lon":"104.88170000"},{"name":"Metro","native":null,"lat":"-5.11306000","lon":"105.30667000"},{"name":"Terbanggi Besar","native":null,"lat":"-4.87898000","lon":"105.21818000"}]},{"name":"Maluku","native":null,"cities":[{"name":"Amahai","native":null,"lat":"-3.33984000","lon":"128.91975000"},{"name":"Ambon","native":null,"lat":"-3.69583000","lon":"128.18333000"},{"name":"Kabupaten Buru","native":null,"lat":"-3.32767000","lon":"126.68413000"},{"name":"Kabupaten Buru Selatan","native":null,"lat":"-3.52187000","lon":"126.59271000"},{"name":"Kabupaten Kepulauan Aru","native":null,"lat":"-6.17059000","lon":"134.46991000"},{"name":"Kabupaten Maluku Barat Daya","native":null,"lat":"-7.82960000","lon":"126.17386000"},{"name":"Kabupaten Maluku Tengah","native":null,"lat":"-3.29167000","lon":"128.96750000"},{"name":"Kabupaten Maluku Tenggara","native":null,"lat":"-5.75000000","lon":"132.73333000"},{"name":"Kabupaten Maluku Tenggara Barat","native":null,"lat":"-7.61186000","lon":"131.38000000"},{"name":"Kabupaten Seram Bagian Barat","native":null,"lat":"-3.10270000","lon":"128.42996000"},{"name":"Kabupaten Seram Bagian Timur","native":null,"lat":"-3.39851000","lon":"130.39167000"},{"name":"Kota Ambon","native":null,"lat":"-3.70000000","lon":"128.18333000"},{"name":"Kota Tual","native":null,"lat":"-5.64301000","lon":"132.74935000"},{"name":"Tual","native":null,"lat":"-5.62878000","lon":"132.75229000"}]},{"name":"Maluku Utara","native":null,"cities":[{"name":"East Halmahera Regency","native":null,"lat":"1.33517000","lon":"128.48627000"},{"name":"Kabupaten Halmahera Barat","native":null,"lat":"1.41709000","lon":"127.55264000"},{"name":"Kabupaten Halmahera Selatan","native":null,"lat":"-0.39550000","lon":"127.90833000"},{"name":"Kabupaten Halmahera Tengah","native":null,"lat":"0.48056000","lon":"128.25000000"},{"name":"Kabupaten Halmahera Utara","native":null,"lat":"1.73194000","lon":"128.00778000"},{"name":"Kabupaten Kepulauan Sula","native":null,"lat":"-1.86460000","lon":"125.69046000"},{"name":"Kabupaten Pulau Morotai","native":null,"lat":"2.19924000","lon":"128.40546000"},{"name":"Kabupaten Pulau Taliabu","native":null,"lat":"-1.84578000","lon":"124.78992000"},{"name":"Kota Ternate","native":null,"lat":"0.89618000","lon":"127.31016000"},{"name":"Kota Tidore Kepulauan","native":null,"lat":"0.60962000","lon":"127.56981000"},{"name":"Sofifi","native":null,"lat":"0.73729000","lon":"127.55880000"},{"name":"Ternate","native":null,"lat":"0.79065000","lon":"127.38424000"},{"name":"Tobelo","native":null,"lat":"1.72837000","lon":"128.00948000"}]},{"name":"Nusa Tenggara Barat","native":null,"cities":[{"name":"Bima","native":null,"lat":"-8.46006000","lon":"118.72667000"},{"name":"Dompu","native":null,"lat":"-8.53650000","lon":"118.46340000"},{"name":"Gili Air","native":null,"lat":"-8.35783000","lon":"116.08240000"},{"name":"Kabupaten Bima","native":null,"lat":"-8.60000000","lon":"118.61667000"},{"name":"Kabupaten Dompu","native":null,"lat":"-8.50940000","lon":"118.48160000"},{"name":"Kabupaten Lombok Barat","native":null,"lat":"-8.69583000","lon":"116.11667000"},{"name":"Kabupaten Lombok Tengah","native":null,"lat":"-8.70000000","lon":"116.30000000"},{"name":"Kabupaten Lombok Timur","native":null,"lat":"-8.53333000","lon":"116.53333000"},{"name":"Kabupaten Lombok Utara","native":null,"lat":"-8.35214000","lon":"116.40152000"},{"name":"Kabupaten Sumbawa","native":null,"lat":"-8.74390000","lon":"117.33240000"},{"name":"Kabupaten Sumbawa Barat","native":null,"lat":"-8.75159000","lon":"116.92132000"},{"name":"Kota Bima","native":null,"lat":"-8.46728000","lon":"118.75259000"},{"name":"Kota Mataram","native":null,"lat":"-8.58330000","lon":"116.11670000"},{"name":"Labuan Lombok","native":null,"lat":"-8.50000000","lon":"116.66667000"},{"name":"Lembar","native":null,"lat":"-8.72640000","lon":"116.07440000"},{"name":"Mataram","native":null,"lat":"-8.58333000","lon":"116.11667000"},{"name":"Pemenang","native":null,"lat":"-8.40401000","lon":"116.10255000"},{"name":"Pototano","native":null,"lat":"-8.41260000","lon":"117.48110000"},{"name":"Praya","native":null,"lat":"-8.70536000","lon":"116.27036000"},{"name":"Senggigi","native":null,"lat":"-8.49190000","lon":"116.04240000"},{"name":"Sumbawa Besar","native":null,"lat":"-8.49317000","lon":"117.42024000"}]},{"name":"Nusa Tenggara Timur","native":null,"cities":[{"name":"Atambua","native":null,"lat":"-9.10611000","lon":"124.89250000"},{"name":"Ende","native":null,"lat":"-8.84320000","lon":"121.66230000"},{"name":"Kabupaten Alor","native":null,"lat":"-8.30000000","lon":"124.56667000"},{"name":"Kabupaten Belu","native":null,"lat":"-9.41258000","lon":"124.95066000"},{"name":"Kabupaten Ende","native":null,"lat":"-8.84056000","lon":"121.66389000"},{"name":"Kabupaten Flores Timur","native":null,"lat":"-8.24224000","lon":"122.96817000"},{"name":"Kabupaten Kupang","native":null,"lat":"-9.91667000","lon":"123.83333000"},{"name":"Kabupaten Lembata","native":null,"lat":"-8.41396000","lon":"123.55225000"},{"name":"Kabupaten Malaka","native":null,"lat":"-9.56320000","lon":"124.89481000"},{"name":"Kabupaten Manggarai","native":null,"lat":"-8.56667000","lon":"120.41667000"},{"name":"Kabupaten Manggarai Barat","native":null,"lat":"-8.64484000","lon":"119.88281000"},{"name":"Kabupaten Manggarai Timur","native":null,"lat":"-8.55533000","lon":"120.59761000"},{"name":"Kabupaten Nagekeo","native":null,"lat":"-8.87210000","lon":"121.20963000"},{"name":"Kabupaten Ngada","native":null,"lat":"-8.66667000","lon":"121.00000000"},{"name":"Kabupaten Rote Ndao","native":null,"lat":"-10.73617000","lon":"123.12054000"},{"name":"Kabupaten Sabu Raijua","native":null,"lat":"-10.56286000","lon":"121.78894000"},{"name":"Kabupaten Sikka","native":null,"lat":"-8.66667000","lon":"122.36667000"},{"name":"Kabupaten Sumba Barat","native":null,"lat":"-9.56667000","lon":"119.45000000"},{"name":"Kabupaten Sumba Barat Daya","native":null,"lat":"-9.56216000","lon":"119.08905000"},{"name":"Kabupaten Sumba Tengah","native":null,"lat":"-9.62941000","lon":"119.61914000"},{"name":"Kabupaten Sumba Timur","native":null,"lat":"-9.88333000","lon":"120.25000000"},{"name":"Kabupaten Timor Tengah Selatan","native":null,"lat":"-9.83333000","lon":"124.40000000"},{"name":"Kabupaten Timor Tengah Utara","native":null,"lat":"-9.33136000","lon":"124.51904000"},{"name":"Kefamenanu","native":null,"lat":"-9.44667000","lon":"124.47806000"},{"name":"Komodo","native":null,"lat":"-8.58950000","lon":"119.49130000"},{"name":"Kota Kupang","native":null,"lat":"-10.21667000","lon":"123.60000000"},{"name":"Kupang","native":null,"lat":"-10.17083000","lon":"123.60694000"},{"name":"Labuan Bajo","native":null,"lat":"-8.49640000","lon":"119.88770000"},{"name":"Maumere","native":null,"lat":"-8.61990000","lon":"122.21110000"},{"name":"Naisano Dua","native":null,"lat":"-9.59806000","lon":"123.77028000"},{"name":"Ruteng","native":null,"lat":"-8.61139000","lon":"120.46444000"},{"name":"Soe","native":null,"lat":"-9.86071000","lon":"124.28395000"},{"name":"Waingapu","native":null,"lat":"-9.65670000","lon":"120.26410000"}]},{"name":"Papua","native":null,"cities":[{"name":"Abepura","native":null,"lat":"-2.59640000","lon":"140.63240000"},{"name":"Biak","native":null,"lat":"-1.17670000","lon":"136.08200000"},{"name":"Insrom","native":null,"lat":"-1.14473000","lon":"136.03134000"},{"name":"Jayapura","native":null,"lat":"-2.53371000","lon":"140.71813000"},{"name":"Kabupaten Asmat","native":null,"lat":"-5.37950000","lon":"138.46344000"},{"name":"Kabupaten Biak Numfor","native":null,"lat":"-1.03333000","lon":"136.00000000"},{"name":"Kabupaten Boven Digoel","native":null,"lat":"-5.70519000","lon":"140.36349000"},{"name":"Kabupaten Deiyai","native":null,"lat":"-3.94737000","lon":"135.95032000"},{"name":"Kabupaten Dogiyai","native":null,"lat":"-4.03186000","lon":"135.43945000"},{"name":"Kabupaten Intan Jaya","native":null,"lat":"-3.41016000","lon":"136.70837000"},{"name":"Kabupaten Jayapura","native":null,"lat":"-3.00000000","lon":"139.95000000"},{"name":"Kabupaten Jayawijaya","native":null,"lat":"-4.08333000","lon":"139.08333000"},{"name":"Kabupaten Keerom","native":null,"lat":"-3.30000000","lon":"140.61667000"},{"name":"Kabupaten Kepulauan Yapen","native":null,"lat":"-1.78773000","lon":"136.27716000"},{"name":"Kabupaten Lanny Jaya","native":null,"lat":"-3.91244000","lon":"138.28766000"},{"name":"Kabupaten Mamberamo Raya","native":null,"lat":"-2.23561000","lon":"137.78229000"},{"name":"Kabupaten Mamberamo Tengah","native":null,"lat":"-2.46064000","lon":"138.45245000"},{"name":"Kabupaten Mappi","native":null,"lat":"-6.49971000","lon":"139.34441000"},{"name":"Kabupaten Merauke","native":null,"lat":"-7.66667000","lon":"139.66667000"},{"name":"Kabupaten Mimika","native":null,"lat":"-4.54357000","lon":"136.56555000"},{"name":"Kabupaten Nabire","native":null,"lat":"-3.54016000","lon":"135.55511000"},{"name":"Kabupaten Nduga","native":null,"lat":"-4.45093000","lon":"138.10089000"},{"name":"Kabupaten Paniai","native":null,"lat":"-3.90000000","lon":"136.60000000"},{"name":"Kabupaten Pegunungan Bintang","native":null,"lat":"-4.52167000","lon":"140.29541000"},{"name":"Kabupaten Puncak Jaya","native":null,"lat":"-3.67241000","lon":"137.43896000"},{"name":"Kabupaten Sarmi","native":null,"lat":"-2.41667000","lon":"139.08333000"},{"name":"Kabupaten Supiori","native":null,"lat":"-0.73881000","lon":"135.61111000"},{"name":"Kabupaten Tolikara","native":null,"lat":"-3.42661000","lon":"137.41699000"},{"name":"Kabupaten Waropen","native":null,"lat":"-2.28600000","lon":"137.01837000"},{"name":"Kabupaten Yahukimo","native":null,"lat":"-4.60403000","lon":"139.58405000"},{"name":"Kabupaten Yalimo","native":null,"lat":"-3.86037000","lon":"138.47305000"},{"name":"Kota Jayapura","native":null,"lat":"-2.64647000","lon":"140.77779000"},{"name":"Nabire","native":null,"lat":"-3.35989000","lon":"135.50074000"}]},{"name":"Papua Barat","native":null,"cities":[{"name":"Kabupaten Fakfak","native":null,"lat":"-2.92641000","lon":"132.29608000"},{"name":"Kabupaten Kaimana","native":null,"lat":"-3.66093000","lon":"133.77451000"},{"name":"Kabupaten Manokwari","native":null,"lat":"-0.90000000","lon":"133.75000000"},{"name":"Kabupaten Manokwari Selatan","native":null,"lat":"-1.07980000","lon":"133.96729000"},{"name":"Kabupaten Maybrat","native":null,"lat":"-1.21550000","lon":"132.35092000"},{"name":"Kabupaten Raja Ampat","native":null,"lat":"-0.50000000","lon":"130.00000000"},{"name":"Kabupaten Sorong","native":null,"lat":"-1.16667000","lon":"131.50000000"},{"name":"Kabupaten Sorong Selatan","native":null,"lat":"-1.50495000","lon":"132.28638000"},{"name":"Kabupaten Tambrauw","native":null,"lat":"-0.60515000","lon":"132.48962000"},{"name":"Kabupaten Teluk Bintuni","native":null,"lat":"-1.88037000","lon":"133.33105000"},{"name":"Kabupaten Teluk Wondama","native":null,"lat":"-2.70000000","lon":"134.50000000"},{"name":"Kota Sorong","native":null,"lat":"-0.86507000","lon":"131.25152000"},{"name":"Manokwari","native":null,"lat":"-0.86291000","lon":"134.06402000"},{"name":"Sorong","native":null,"lat":"-0.87956000","lon":"131.26104000"}]},{"name":"Riau","native":null,"cities":[{"name":"Balaipungut","native":null,"lat":"1.05949000","lon":"101.29054000"},{"name":"Batam","native":null,"lat":"1.14937000","lon":"104.02491000"},{"name":"Dumai","native":null,"lat":"1.66711000","lon":"101.44316000"},{"name":"Kabupaten Bengkalis","native":null,"lat":"0.98380000","lon":"102.50960000"},{"name":"Kabupaten Indragiri Hilir","native":null,"lat":"-0.33333000","lon":"103.16667000"},{"name":"Kabupaten Indragiri Hulu","native":null,"lat":"-0.55000000","lon":"102.31667000"},{"name":"Kabupaten Kampar","native":null,"lat":"0.23440000","lon":"101.21310000"},{"name":"Kabupaten Kepulauan Meranti","native":null,"lat":"0.97488000","lon":"102.69539000"},{"name":"Kabupaten Kuantan Singingi","native":null,"lat":"-0.47532000","lon":"101.45857000"},{"name":"Kabupaten Pelalawan","native":null,"lat":"0.20822000","lon":"102.18607000"},{"name":"Kabupaten Rokan Hilir","native":null,"lat":"2.16599000","lon":"100.82514000"},{"name":"Kabupaten Rokan Hulu","native":null,"lat":"0.88333000","lon":"100.48333000"},{"name":"Kabupaten Siak","native":null,"lat":"0.97453000","lon":"102.01355000"},{"name":"Kota Dumai","native":null,"lat":"1.61592000","lon":"101.49170000"},{"name":"Kota Pekanbaru","native":null,"lat":"0.53333000","lon":"101.46667000"},{"name":"Pekanbaru","native":null,"lat":"0.51667000","lon":"101.44167000"}]},{"name":"Sulawesi Barat","native":null,"cities":[{"name":"Kabupaten Majene","native":null,"lat":"-3.15000000","lon":"118.86667000"},{"name":"Kabupaten Mamasa","native":null,"lat":"-2.96492000","lon":"119.30631000"},{"name":"Kabupaten Mamuju","native":null,"lat":"-2.50000000","lon":"119.41667000"},{"name":"Kabupaten Mamuju Tengah","native":null,"lat":"-2.82120000","lon":"119.26620000"},{"name":"Kabupaten Mamuju Utara","native":null,"lat":"-1.51639000","lon":"119.42139000"},{"name":"Kabupaten Polewali Mandar","native":null,"lat":"-3.30000000","lon":"119.16667000"},{"name":"Majene","native":null,"lat":"-3.54030000","lon":"118.97070000"},{"name":"Mamuju","native":null,"lat":"-2.68056000","lon":"118.88611000"},{"name":"Polewali","native":null,"lat":"-3.43240000","lon":"119.34350000"}]},{"name":"Sulawesi Selatan","native":null,"cities":[{"name":"Galesong","native":null,"lat":"-5.31660000","lon":"119.36610000"},{"name":"Kabupaten Bantaeng","native":null,"lat":"-5.48333000","lon":"119.98333000"},{"name":"Kabupaten Barru","native":null,"lat":"-4.43333000","lon":"119.68333000"},{"name":"Kabupaten Bone","native":null,"lat":"-4.70000000","lon":"120.13333000"},{"name":"Kabupaten Bulukumba","native":null,"lat":"-5.41667000","lon":"120.23333000"},{"name":"Kabupaten Enrekang","native":null,"lat":"-3.50000000","lon":"119.86667000"},{"name":"Kabupaten Gowa","native":null,"lat":"-5.31667000","lon":"119.75000000"},{"name":"Kabupaten Jeneponto","native":null,"lat":"-5.63333000","lon":"119.73333000"},{"name":"Kabupaten Luwu","native":null,"lat":"-2.55770000","lon":"121.32420000"},{"name":"Kabupaten Luwu Timur","native":null,"lat":"-2.50957000","lon":"120.39780000"},{"name":"Kabupaten Luwu Utara","native":null,"lat":"-2.60000000","lon":"120.25000000"},{"name":"Kabupaten Maros","native":null,"lat":"-5.05000000","lon":"119.71667000"},{"name":"Kabupaten Pangkajene Dan Kepulauan","native":null,"lat":"-4.78270000","lon":"119.55060000"},{"name":"Kabupaten Pinrang","native":null,"lat":"-3.61667000","lon":"119.60000000"},{"name":"Kabupaten Sidenreng Rappang","native":null,"lat":"-3.85000000","lon":"119.96667000"},{"name":"Kabupaten Sinjai","native":null,"lat":"-5.21667000","lon":"120.15000000"},{"name":"Kabupaten Soppeng","native":null,"lat":"-4.38420000","lon":"119.89000000"},{"name":"Kabupaten Takalar","native":null,"lat":"-5.41667000","lon":"119.51667000"},{"name":"Kabupaten Tana Toraja","native":null,"lat":"-3.00240000","lon":"119.79655000"},{"name":"Kabupaten Toraja Utara","native":null,"lat":"-2.92738000","lon":"119.79218000"},{"name":"Kabupaten Wajo","native":null,"lat":"-4.00000000","lon":"120.16667000"},{"name":"Kota Makassar","native":null,"lat":"-5.15000000","lon":"119.45000000"},{"name":"Kota Palopo","native":null,"lat":"-2.97841000","lon":"120.11078000"},{"name":"Kota Parepare","native":null,"lat":"-4.03333000","lon":"119.65000000"},{"name":"Makassar","native":null,"lat":"-5.14861000","lon":"119.43194000"},{"name":"Maros","native":null,"lat":"-5.00600000","lon":"119.57270000"},{"name":"Palopo","native":null,"lat":"-2.99250000","lon":"120.19694000"},{"name":"Parepare","native":null,"lat":"-4.01350000","lon":"119.62550000"},{"name":"Rantepao","native":null,"lat":"-2.97010000","lon":"119.89780000"},{"name":"Selayar Islands Regency","native":null,"lat":"-6.81667000","lon":"120.80000000"},{"name":"Sengkang","native":null,"lat":"-4.12790000","lon":"120.02970000"},{"name":"Sinjai","native":null,"lat":"-5.12410000","lon":"120.25300000"},{"name":"Watampone","native":null,"lat":"-4.53860000","lon":"120.32790000"}]},{"name":"Sulawesi Tengah","native":null,"cities":[{"name":"Kabupaten Banggai","native":null,"lat":"-0.91141000","lon":"122.71836000"},{"name":"Kabupaten Banggai Kepulauan","native":null,"lat":"-1.30236000","lon":"123.03726000"},{"name":"Kabupaten Banggai Laut","native":null,"lat":"-1.61841000","lon":"123.49388000"},{"name":"Kabupaten Buol","native":null,"lat":"1.04656000","lon":"121.36867000"},{"name":"Kabupaten Donggala","native":null,"lat":"-0.58333000","lon":"119.85000000"},{"name":"Kabupaten Morowali Utara","native":null,"lat":"-1.72070000","lon":"121.24649000"},{"name":"Kabupaten Parigi Moutong","native":null,"lat":"0.33680000","lon":"120.17841000"},{"name":"Kabupaten Poso","native":null,"lat":"-1.65000000","lon":"120.50000000"},{"name":"Kabupaten Sigi","native":null,"lat":"-1.38500000","lon":"119.96694000"},{"name":"Kabupaten Toli-Toli","native":null,"lat":"1.30862000","lon":"120.88643000"},{"name":"Kota Palu","native":null,"lat":"-0.86972000","lon":"119.90000000"},{"name":"Luwuk","native":null,"lat":"-0.95160000","lon":"122.78750000"},{"name":"Morowali Regency","native":null,"lat":"-2.76062000","lon":"121.95267000"},{"name":"Palu","native":null,"lat":"-0.90833000","lon":"119.87083000"},{"name":"Poso","native":null,"lat":"-1.39590000","lon":"120.75240000"},{"name":"Tojo Una-Una Regency","native":null,"lat":"-1.20360000","lon":"121.48201000"}]},{"name":"Sulawesi Tenggara","native":null,"cities":[{"name":"Kabupaten Bombana","native":null,"lat":"-4.62570000","lon":"121.81641000"},{"name":"Kabupaten Buton","native":null,"lat":"-5.31667000","lon":"122.91667000"},{"name":"Kabupaten Buton Selatan","native":null,"lat":"-5.56667000","lon":"122.70000000"},{"name":"Kabupaten Buton Tengah","native":null,"lat":"-5.31667000","lon":"122.33333000"},{"name":"Kabupaten Buton Utara","native":null,"lat":"-5.01457000","lon":"122.93015000"},{"name":"Kabupaten Kolaka","native":null,"lat":"-4.08333000","lon":"121.66667000"},{"name":"Kabupaten Kolaka Timur","native":null,"lat":"-4.01807000","lon":"121.86172000"},{"name":"Kabupaten Kolaka Utara","native":null,"lat":"-3.10452000","lon":"121.12427000"},{"name":"Kabupaten Konawe","native":null,"lat":"-3.91717000","lon":"122.08823000"},{"name":"Kabupaten Konawe Kepulauan","native":null,"lat":"-4.11656000","lon":"123.10181000"},{"name":"Kabupaten Konawe Selatan","native":null,"lat":"-4.19191000","lon":"122.44854000"},{"name":"Kabupaten Konawe Utara","native":null,"lat":"-3.41552000","lon":"121.99081000"},{"name":"Kabupaten Muna","native":null,"lat":"-4.96667000","lon":"122.66667000"},{"name":"Kabupaten Muna Barat","native":null,"lat":"-4.83333000","lon":"122.48333000"},{"name":"Katabu","native":null,"lat":"-4.93330000","lon":"122.51670000"},{"name":"Kendari","native":null,"lat":"-3.97780000","lon":"122.51507000"},{"name":"Kota Baubau","native":null,"lat":"-5.47700000","lon":"122.61660000"},{"name":"Kota Kendari","native":null,"lat":"-3.98333000","lon":"122.50000000"},{"name":"Wakatobi Regency","native":null,"lat":"-5.31934000","lon":"123.59480000"}]},{"name":"Sulawesi Utara","native":null,"cities":[{"name":"Kabupaten Bolaang Mongondow","native":null,"lat":"0.75000000","lon":"124.08333000"},{"name":"Kabupaten Bolaang Mongondow Selatan","native":null,"lat":"0.40912000","lon":"123.75961000"},{"name":"Kabupaten Bolaang Mongondow Timur","native":null,"lat":"0.72073000","lon":"124.50256000"},{"name":"Kabupaten Bolaang Mongondow Utara","native":null,"lat":"0.78527000","lon":"123.41766000"},{"name":"Kabupaten Kepulauan Sangihe","native":null,"lat":"3.50000000","lon":"125.55000000"},{"name":"Kabupaten Kepulauan Talaud","native":null,"lat":"4.31178000","lon":"126.78085000"},{"name":"Kabupaten Minahasa","native":null,"lat":"1.25370000","lon":"124.83000000"},{"name":"Kabupaten Minahasa Selatan","native":null,"lat":"1.21291000","lon":"124.59708000"},{"name":"Kabupaten Minahasa Tenggara","native":null,"lat":"1.05633000","lon":"124.79250000"},{"name":"Kabupaten Minahasa Utara","native":null,"lat":"1.40250000","lon":"124.96000000"},{"name":"Kabupaten Siau Tagulandang Biaro","native":null,"lat":"2.11728000","lon":"125.37512000"},{"name":"Kota Bitung","native":null,"lat":"1.48333000","lon":"125.15000000"},{"name":"Kota Kotamobagu","native":null,"lat":"0.68915000","lon":"124.32678000"},{"name":"Kota Manado","native":null,"lat":"1.51667000","lon":"124.88333000"},{"name":"Kota Tomohon","native":null,"lat":"1.31307000","lon":"124.83404000"},{"name":"Laikit Laikit II (Dimembe)","native":null,"lat":"1.48833000","lon":"124.97444000"},{"name":"Manado","native":null,"lat":"1.48218000","lon":"124.84892000"},{"name":"Tomohon","native":null,"lat":"1.31678000","lon":"124.80379000"},{"name":"Tondano","native":null,"lat":"1.30540000","lon":"124.91261000"}]},{"name":"Sumatera Barat","native":null,"cities":[{"name":"Bukittinggi","native":null,"lat":"-0.30907000","lon":"100.37055000"},{"name":"Kabupaten Agam","native":null,"lat":"-0.25000000","lon":"100.16667000"},{"name":"Kabupaten Dharmasraya","native":null,"lat":"-1.05000000","lon":"101.36700000"},{"name":"Kabupaten Kepulauan Mentawai","native":null,"lat":"1.98917000","lon":"99.51889000"},{"name":"Kabupaten Lima Puluh Kota","native":null,"lat":"-0.01680000","lon":"100.58720000"},{"name":"Kabupaten Padang Pariaman","native":null,"lat":"-0.60000000","lon":"100.28333000"},{"name":"Kabupaten Pasaman","native":null,"lat":"0.42503000","lon":"99.94606000"},{"name":"Kabupaten Pasaman Barat","native":null,"lat":"0.28152000","lon":"99.51965000"},{"name":"Kabupaten Pesisir Selatan","native":null,"lat":"-1.58333000","lon":"100.85000000"},{"name":"Kabupaten Sijunjung","native":null,"lat":"-1.18270000","lon":"101.60560000"},{"name":"Kabupaten Solok","native":null,"lat":"-0.96667000","lon":"100.81667000"},{"name":"Kabupaten Solok Selatan","native":null,"lat":"-1.23333000","lon":"101.41700000"},{"name":"Kabupaten Tanah Datar","native":null,"lat":"-0.45550000","lon":"100.57710000"},{"name":"Kota Bukittinggi","native":null,"lat":"-0.27500000","lon":"100.37500000"},{"name":"Kota Padang","native":null,"lat":"-0.98333000","lon":"100.45000000"},{"name":"Kota Padang Panjang","native":null,"lat":"-0.45000000","lon":"100.43333000"},{"name":"Kota Pariaman","native":null,"lat":"-0.62682000","lon":"100.12047000"},{"name":"Kota Payakumbuh","native":null,"lat":"-0.23333000","lon":"100.63333000"},{"name":"Kota Sawah Lunto","native":null,"lat":"-0.60000000","lon":"100.75000000"},{"name":"Kota Solok","native":null,"lat":"-0.76667000","lon":"100.61667000"},{"name":"Padang","native":null,"lat":"-0.94924000","lon":"100.35427000"},{"name":"Pariaman","native":null,"lat":"-0.61898000","lon":"100.11997000"},{"name":"Payakumbuh","native":null,"lat":"-0.21590000","lon":"100.63340000"},{"name":"Sijunjung","native":null,"lat":"-0.70050000","lon":"100.97740000"},{"name":"Solok","native":null,"lat":"-0.80060000","lon":"100.65710000"}]},{"name":"Sumatera Selatan","native":null,"cities":[{"name":"Baturaja","native":null,"lat":"-4.12891000","lon":"104.16695000"},{"name":"Kabupaten Empat Lawang","native":null,"lat":"3.22667000","lon":"99.09256000"},{"name":"Kabupaten Muara Enim","native":null,"lat":"-4.23270000","lon":"103.61410000"},{"name":"Kabupaten Musi Banyuasin","native":null,"lat":"-2.41667000","lon":"103.75000000"},{"name":"Kabupaten Musi Rawas","native":null,"lat":"-3.08333000","lon":"103.20000000"},{"name":"Kabupaten Musi Rawas Utara","native":null,"lat":"-2.48533000","lon":"103.29346000"},{"name":"Kabupaten Ogan Ilir","native":null,"lat":"-3.43186000","lon":"104.62727000"},{"name":"Kabupaten Ogan Komering Ilir","native":null,"lat":"-3.36667000","lon":"105.36667000"},{"name":"Kabupaten Ogan Komering Ulu","native":null,"lat":"-4.13333000","lon":"104.03333000"},{"name":"Kabupaten Ogan Komering Ulu Selatan","native":null,"lat":"-4.65728000","lon":"104.00659000"},{"name":"Kabupaten Ogan Komering Ulu Timur","native":null,"lat":"-3.85679000","lon":"104.75209000"},{"name":"Kabupaten Penukal Abab Lematang Ilir","native":null,"lat":"-3.21342000","lon":"104.08722000"},{"name":"Kota Lubuklinggau","native":null,"lat":"-3.29308000","lon":"102.85503000"},{"name":"Kota Pagar Alam","native":null,"lat":"-4.13055000","lon":"103.26822000"},{"name":"Kota Palembang","native":null,"lat":"-3.00000000","lon":"104.71667000"},{"name":"Kota Prabumulih","native":null,"lat":"-3.46202000","lon":"104.22290000"},{"name":"Lahat","native":null,"lat":"-3.78514000","lon":"103.54279000"},{"name":"Lahat Regency","native":null,"lat":"-3.78640000","lon":"103.54280000"},{"name":"Lubuklinggau","native":null,"lat":"-3.29450000","lon":"102.86140000"},{"name":"Pagar Alam","native":null,"lat":"-4.02506000","lon":"103.24694000"},{"name":"Palembang","native":null,"lat":"-2.91673000","lon":"104.74580000"},{"name":"Prabumulih","native":null,"lat":"-3.43447000","lon":"104.23056000"},{"name":"Tanjungagung","native":null,"lat":"-3.93728000","lon":"103.80465000"}]},{"name":"Sumatera Utara","native":null,"cities":[{"name":"Ambarita","native":null,"lat":"2.68140000","lon":"98.83110000"},{"name":"Bandar","native":null,"lat":"2.05000000","lon":"99.75000000"},{"name":"Belawan","native":null,"lat":"3.77550000","lon":"98.68320000"},{"name":"Berastagi","native":null,"lat":"3.19468000","lon":"98.50889000"},{"name":"Binjai","native":null,"lat":"3.60010000","lon":"98.48540000"},{"name":"Deli Tua","native":null,"lat":"3.50780000","lon":"98.68390000"},{"name":"Gunungsitoli","native":null,"lat":"1.28880000","lon":"97.61430000"},{"name":"Kabanjahe","native":null,"lat":"3.10010000","lon":"98.49080000"},{"name":"Kabupaten Asahan","native":null,"lat":"2.78333000","lon":"99.55000000"},{"name":"Kabupaten Batu Bara","native":null,"lat":"3.16166000","lon":"99.52652000"},{"name":"Kabupaten Dairi","native":null,"lat":"2.86667000","lon":"98.23333000"},{"name":"Kabupaten Deli Serdang","native":null,"lat":"3.41667000","lon":"98.66667000"},{"name":"Kabupaten Humbang Hasundutan","native":null,"lat":"2.26551000","lon":"98.50376000"},{"name":"Kabupaten Karo","native":null,"lat":"3.11667000","lon":"98.30000000"},{"name":"Kabupaten Labuhan Batu","native":null,"lat":"2.26667000","lon":"100.10000000"},{"name":"Kabupaten Labuhan Batu Selatan","native":null,"lat":"1.98300000","lon":"100.09760000"},{"name":"Kabupaten Labuhan Batu Utara","native":null,"lat":"2.33349000","lon":"99.63776000"},{"name":"Kabupaten Langkat","native":null,"lat":"3.71667000","lon":"98.21667000"},{"name":"Kabupaten Mandailing Natal","native":null,"lat":"0.78378000","lon":"99.25495000"},{"name":"Kabupaten Nias","native":null,"lat":"1.03333000","lon":"97.76667000"},{"name":"Kabupaten Nias Barat","native":null,"lat":"1.05966000","lon":"97.58606000"},{"name":"Kabupaten Nias Utara","native":null,"lat":"1.33037000","lon":"97.31964000"},{"name":"Kabupaten Padang Lawas","native":null,"lat":"1.44684000","lon":"99.99207000"},{"name":"Kabupaten Padang Lawas Utara","native":null,"lat":"1.46011000","lon":"99.67346000"},{"name":"Kabupaten Pakpak Bharat","native":null,"lat":"2.56667000","lon":"98.28333000"},{"name":"Kabupaten Samosir","native":null,"lat":"2.64025000","lon":"98.71525000"},{"name":"Kabupaten Serdang Bedagai","native":null,"lat":"3.36667000","lon":"99.03333000"},{"name":"Kabupaten Simalungun","native":null,"lat":"2.90000000","lon":"99.00000000"},{"name":"Kabupaten Tapanuli Selatan","native":null,"lat":"1.51667000","lon":"99.25000000"},{"name":"Kabupaten Tapanuli Tengah","native":null,"lat":"1.90000000","lon":"98.66667000"},{"name":"Kabupaten Tapanuli Utara","native":null,"lat":"2.00280000","lon":"99.07070000"},{"name":"Kisaran","native":null,"lat":"2.98450000","lon":"99.61580000"},{"name":"Kota Binjai","native":null,"lat":"3.80000000","lon":"108.23333000"},{"name":"Kota Gunungsitoli","native":null,"lat":"1.32731000","lon":"97.55018000"},{"name":"Kota Medan","native":null,"lat":"3.65000000","lon":"98.66667000"},{"name":"Kota Padangsidimpuan","native":null,"lat":"1.37375000","lon":"99.26843000"},{"name":"Kota Pematang Siantar","native":null,"lat":"2.96667000","lon":"99.05000000"},{"name":"Kota Sibolga","native":null,"lat":"1.73333000","lon":"98.80000000"},{"name":"Kota Tanjung Balai","native":null,"lat":"2.95833000","lon":"99.79167000"},{"name":"Kota Tebing Tinggi","native":null,"lat":"3.32500000","lon":"99.14167000"},{"name":"Labuhan Deli","native":null,"lat":"3.72780000","lon":"98.67380000"},{"name":"Medan","native":null,"lat":"3.58333000","lon":"98.66667000"},{"name":"Padangsidempuan","native":null,"lat":"1.37952000","lon":"99.27146000"},{"name":"Pangkalan Brandan","native":null,"lat":"4.02380000","lon":"98.27820000"},{"name":"Parapat","native":null,"lat":"2.66300000","lon":"98.93490000"},{"name":"Pekan Bahapal","native":null,"lat":"3.11313000","lon":"99.17352000"},{"name":"Pematangsiantar","native":null,"lat":"2.95950000","lon":"99.06870000"},{"name":"Perbaungan","native":null,"lat":"3.56790000","lon":"98.95600000"},{"name":"Percut","native":null,"lat":"3.62530000","lon":"98.86400000"},{"name":"Rantauprapat","native":null,"lat":"2.10000000","lon":"99.83333000"},{"name":"Sibolga","native":null,"lat":"1.74016000","lon":"98.78117000"},{"name":"Stabat","native":null,"lat":"3.73335000","lon":"98.45025000"},{"name":"Sunggal","native":null,"lat":"3.57650000","lon":"98.61510000"},{"name":"Tanjungbalai","native":null,"lat":"2.96667000","lon":"99.80000000"},{"name":"Tanjungtiram","native":null,"lat":"4.06130000","lon":"98.36990000"},{"name":"Tebingtinggi","native":null,"lat":"3.32850000","lon":"99.16250000"},{"name":"Teluk Nibung","native":null,"lat":"3.00100000","lon":"99.81640000"},{"name":"Tomok Bolon","native":null,"lat":"2.65210000","lon":"98.86080000"},{"name":"Tongging","native":null,"lat":"2.89850000","lon":"98.52310000"},{"name":"Tuktuk Sonak","native":null,"lat":"2.66890000","lon":"98.85760000"}]}]