[{"state":"Aceh","name":"Banda Aceh","lat":"5.54167000","lon":"95.33333000"},
{"state":"Aceh","name":"Bireun","lat":"5.20300000","lon":"96.70090000"},
{"state":"Aceh","name":"Kabupaten Aceh Barat","lat":"4.45000000","lon":"96.16667000"},
{"state":"Aceh","name":"Kabupaten Aceh Barat Daya","lat":"3.83333000","lon":"96.88333000"},
{"state":"Aceh","name":"Kabupaten Aceh Besar","lat":"5.38333000","lon":"95.51667000"},
{"state":"Aceh","name":"Kabupaten Aceh Jaya","lat":"4.86000000","lon":"95.64000000"},
{"state":"Aceh","name":"Kabupaten Aceh Selatan","lat":"3.16667000","lon":"97.41667000"},
{"state":"Aceh","name":"Kabupaten Aceh Singkil","lat":"2.41667000","lon":"97.91667000"},
{"state":"Aceh","name":"Kabupaten Aceh Tamiang","lat":"4.25000000","lon":"97.96667000"},
{"state":"Aceh","name":"Kabupaten Aceh Tengah","lat":"4.51000000","lon":"96.85500000"},
{"state":"Aceh","name":"Kabupaten Aceh Tenggara","lat":"3.36667000","lon":"97.70000000"},
{"state":"Aceh","name":"Kabupaten Aceh Timur","lat":"4.63333000","lon":"97.63333000"},
{"state":"Aceh","name":"Kabupaten Aceh Utara","lat":"4.97000000","lon":"97.14000000"},
{"state":"Aceh","name":"Kabupaten Bener Meriah","lat":"4.73015000","lon":"96.86156000"},
{"state":"Aceh","name":"Kabupaten Bireuen","lat":"5.08333000","lon":"96.58333000"},
{"state":"Aceh","name":"Kabupaten Gayo Lues","lat":"3.95000000","lon":"97.39000000"},
{"state":"Aceh","name":"Kabupaten Nagan Raya","lat":"4.16667000","lon":"96.51667000"},
{"state":"Aceh","name":"Kabupaten Pidie","lat":"5.08000000","lon":"96.11000000"},
{"state":"Aceh","name":"Kabupaten Simeulue","lat":"2.61667000","lon":"96.08333000"},
{"state":"Aceh","name":"Kota Banda Aceh","lat":"5.54167000","lon":"95.33333000"},
{"state":"Aceh","name":"Kota Langsa","lat":"4.47000000","lon":"97.93000000"},
{"state":"Aceh","name":"Kota Lhokseumawe","lat":"5.13333000","lon":"97.06667000"},
{"state":"Aceh","name":"Kota Sabang","lat":"5.87944000","lon":"95.33223000"},
{"state":"Aceh","name":"Kota Subulussalam","lat":"2.75000000","lon":"97.93333000"},
{"state":"Aceh","name":"Langsa","lat":"4.46830000","lon":"97.96830000"},
{"state":"Aceh","name":"Lhokseumawe","lat":"5.18010000","lon":"97.15070000"},
{"state":"Aceh","name":"Meulaboh","lat":"4.14402000","lon":"96.12664000"},
{"state":"Aceh","name":"Reuleuet","lat":"5.21667000","lon":"96.28333000"},
{"state":"Aceh","name":"Sabang","lat":"5.88969000","lon":"95.31644000"},
{"state":"Aceh","name":"Sigli","lat":"5.38480000","lon":"95.96090000"},
{"state":"Aceh","name":"Sinabang","lat":"2.48030000","lon":"96.38010000"},
{"state":"Aceh","name":"Singkil","lat":"2.28740000","lon":"97.78840000"},
{"state":"Bali","name":"Amlapura","lat":"-8.45000000","lon":"115.61667000"},
{"state":"Bali","name":"Amlapura city","lat":"-8.44869000","lon":"115.60621000"},
{"state":"Bali","name":"Banjar","lat":"-8.19000000","lon":"114.96750000"},
{"state":"Bali","name":"Banjar Wangsian","lat":"-8.49497000","lon":"115.42342000"},
{"state":"Bali","name":"Bedugul","lat":"-8.45040000","lon":"115.59250000"},
{"state":"Bali","name":"Denpasar","lat":"-8.65000000","lon":"115.21667000"},
{"state":"Bali","name":"Jimbaran","lat":"-8.79093000","lon":"115.16006000"},
{"state":"Bali","name":"Kabupaten Badung","lat":"-8.51667000","lon":"115.20000000"},
{"state":"Bali","name":"Kabupaten Bangli","lat":"-8.28333000","lon":"115.35000000"},
{"state":"Bali","name":"Kabupaten Buleleng","lat":"-8.25000000","lon":"114.96667000"},
{"state":"Bali","name":"Kabupaten Gianyar","lat":"-8.46667000","lon":"115.28333000"},
{"state":"Bali","name":"Kabupaten Jembrana","lat":"-8.30000000","lon":"114.66667000"},
{"state":"Bali","name":"Kabupaten Karang Asem","lat":"-8.38910000","lon":"115.53930000"},
{"state":"Bali","name":"Kabupaten Klungkung","lat":"-8.55000000","lon":"115.40000000"},
{"state":"Bali","name":"Kabupaten Tabanan","lat":"-8.43333000","lon":"115.06667000"},
{"state":"Bali","name":"Klungkung","lat":"-8.53333000","lon":"115.40000000"},
{"state":"Bali","name":"Kota Denpasar","lat":"-8.66667000","lon":"115.21663000"},
{"state":"Bali","name":"Kuta","lat":"-8.72332000","lon":"115.17234000"},
{"state":"Bali","name":"Legian","lat":"-8.70415000","lon":"115.17028000"},
{"state":"Bali","name":"Lovina","lat":"-8.14927000","lon":"115.03999000"},
{"state":"Bali","name":"Munduk","lat":"-8.26866000","lon":"115.07947000"},
{"state":"Bali","name":"Negara","lat":"-8.35694000","lon":"114.61694000"},
{"state":"Bali","name":"Nusa Dua","lat":"-8.80047000","lon":"115.23341000"},
{"state":"Bali","name":"Seririt","lat":"-8.19280000","lon":"114.93880000"},
{"state":"Bali","name":"Singaraja","lat":"-8.11200000","lon":"115.08818000"},
{"state":"Bali","name":"Tabanan","lat":"-8.54130000","lon":"115.12522000"},
{"state":"Bali","name":"Ubud","lat":"-8.50980000","lon":"115.26540000"},
{"state":"Banten","name":"Curug","lat":"-6.26583000","lon":"106.55639000"},
{"state":"Banten","name":"Kabupaten Lebak","lat":"-6.65000000","lon":"106.21667000"},
{"state":"Banten","name":"Kabupaten Pandeglang","lat":"-6.63333000","lon":"105.75000000"},
{"state":"Banten","name":"Kabupaten Serang","lat":"-6.15000000","lon":"106.00000000"},
{"state":"Banten","name":"Kabupaten Tangerang","lat":"-6.20000000","lon":"106.46667000"},
{"state":"Banten","name":"Kota Cilegon","lat":"-6.01667000","lon":"106.01667000"},
{"state":"Banten","name":"Kota Serang","lat":"-6.12563000","lon":"106.14999000"},
{"state":"Banten","name":"Kota Tangerang","lat":"-6.17944000","lon":"106.62991000"},
{"state":"Banten","name":"Kota Tangerang Selatan","lat":"-6.29373000","lon":"106.71244000"},
{"state":"Banten","name":"Labuan","lat":"-6.37840000","lon":"105.83000000"},
{"state":"Banten","name":"Pandeglang","lat":"-6.30840000","lon":"106.10670000"},
{"state":"Banten","name":"Rangkasbitung","lat":"-6.35910000","lon":"106.24940000"},
{"state":"Banten","name":"Serang","lat":"-6.11528000","lon":"106.15417000"},
{"state":"Banten","name":"South Tangerang","lat":"-6.28862000","lon":"106.71789000"},
{"state":"Banten","name":"Tangerang","lat":"-6.17806000","lon":"106.63000000"},
{"state":"Bengkulu","name":"Bengkulu","lat":"-3.80044000","lon":"102.26554000"},
{"state":"Bengkulu","name":"Curup","lat":"-3.47030000","lon":"102.52070000"},
{"state":"Bengkulu","name":"Kabupaten Bengkulu Selatan","lat":"-4.35000000","lon":"103.03333000"},
{"state":"Bengkulu","name":"Kabupaten Bengkulu Tengah","lat":"-3.20679000","lon":"102.12616000"},
{"state":"Bengkulu","name":"Kabupaten Bengkulu Utara","lat":"-3.33333000","lon":"102.05000000"},
{"state":"Bengkulu","name":"Kabupaten Kaur","lat":"-4.78179000","lon":"103.36109000"},
{"state":"Bengkulu","name":"Kabupaten Kepahiang","lat":"-3.60194000","lon":"102.56424000"},
{"state":"Bengkulu","name":"Kabupaten Lebong","lat":"-3.24278000","lon":"102.33490000"},
{"state":"Bengkulu","name":"Kabupaten Mukomuko","lat":"-3.07438000","lon":"101.54766000"},
{"state":"Bengkulu","name":"Kabupaten Rejang Lebong","lat":"-3.43333000","lon":"102.71667000"},
{"state":"Bengkulu","name":"Kabupaten Seluma","lat":"-3.96644000","lon":"102.47429000"},
{"state":"Bengkulu","name":"Kota Bengkulu","lat":"-3.81667000","lon":"102.31667000"},
{"state":"DI Yogyakarta","name":"Bambanglipuro","lat":"-7.95000000","lon":"110.28333000"},
{"state":"DI Yogyakarta","name":"Bantul","lat":"-7.88806000","lon":"110.32889000"},
{"state":"DI Yogyakarta","name":"Depok","lat":"-7.76250000","lon":"110.43167000"},
{"state":"DI Yogyakarta","name":"Gamping Lor","lat":"-7.79556000","lon":"110.32639000"},
{"state":"DI Yogyakarta","name":"Godean","lat":"-7.76972000","lon":"110.29389000"},
{"state":"DI Yogyakarta","name":"Kabupaten Bantul","lat":"-7.90000000","lon":"110.36667000"},
{"state":"DI Yogyakarta","name":"Kabupaten Gunung Kidul","lat":"-7.98333000","lon":"110.61667000"},
{"state":"DI Yogyakarta","name":"Kabupaten Kulon Progo","lat":"-7.64500000","lon":"110.02694000"},
{"state":"DI Yogyakarta","name":"Kabupaten Sleman","lat":"-7.68167000","lon":"110.32333000"},
{"state":"DI Yogyakarta","name":"Kasihan","lat":"-7.82694000","lon":"110.32917000"},
{"state":"DI Yogyakarta","name":"Kota Yogyakarta","lat":"-7.80000000","lon":"110.37500000"},
{"state":"DI Yogyakarta","name":"Melati","lat":"-7.73333000","lon":"110.36667000"},
{"state":"DI Yogyakarta","name":"Pandak","lat":"-7.91306000","lon":"110.29361000"},
{"state":"DI Yogyakarta","name":"Pundong","lat":"-7.95222000","lon":"110.34861000"},
{"state":"DI Yogyakarta","name":"Sewon","lat":"-7.87639000","lon":"110.35889000"},
{"state":"DI Yogyakarta","name":"Sleman","lat":"-7.71556000","lon":"110.35556000"},
{"state":"DI Yogyakarta","name":"Srandakan","lat":"-7.93861000","lon":"110.25056000"},
{"state":"DI Yogyakarta","name":"Yogyakarta","lat":"-7.80139000","lon":"110.36472000"},
{"state":"DKI Jakarta","name":"Jakarta","lat":"-6.21462000","lon":"106.84513000"},
{"state":"DKI Jakarta","name":"Kota Administrasi Jakarta Barat","lat":"-6.16760000","lon":"106.76730000"},
{"state":"DKI Jakarta","name":"Kota Administrasi Jakarta Pusat","lat":"-6.17770000","lon":"106.84030000"},
{"state":"DKI Jakarta","name":"Kota Administrasi Jakarta Selatan","lat":"-6.26600000","lon":"106.81350000"},
{"state":"DKI Jakarta","name":"Kota Administrasi Jakarta Timur","lat":"-6.25210000","lon":"106.88400000"},
{"state":"DKI Jakarta","name":"Kota Administrasi Jakarta Utara","lat":"-6.13390000","lon":"106.88230000"},
{"state":"Gorontalo","name":"Gorontalo","lat":"0.53750000","lon":"123.06250000"},
{"state":"Gorontalo","name":"Kabupaten Boalemo","lat":"0.62689000","lon":"122.35680000"},
{"state":"Gorontalo","name":"Kabupaten Bone Bolango","lat":"0.50296000","lon":"123.27501000"},
{"state":"Gorontalo","name":"Kabupaten Gorontalo","lat":"0.57280000","lon":"122.23370000"},
{"state":"Gorontalo","name":"Kabupaten Gorontalo Utara","lat":"0.77000000","lon":"122.31667000"},
{"state":"Gorontalo","name":"Kabupaten Pohuwato","lat":"0.70980000","lon":"121.59582000"},
{"state":"Gorontalo","name":"Kota Gorontalo","lat":"0.53333000","lon":"123.10000000"},
{"state":"Jambi","name":"Bejubang Dua","lat":"-1.79230000","lon":"103.31670000"},
{"state":"Jambi","name":"Jambi City","lat":"-1.60000000","lon":"103.61667000"},
{"state":"Jambi","name":"Kabupaten Batang Hari","lat":"-1.75000000","lon":"103.11667000"},
{"state":"Jambi","name":"Kabupaten Bungo","lat":"-1.50222000","lon":"101.96000000"},
{"state":"Jambi","name":"Kabupaten Kerinci","lat":"-2.03333000","lon":"101.53333000"},
{"state":"Jambi","name":"Kabupaten Merangin","lat":"-2.06933000","lon":"102.13303000"},
{"state":"Jambi","name":"Kabupaten Muaro Jambi","lat":"-1.55214000","lon":"103.82163000"},
{"state":"Jambi","name":"Kabupaten Sarolangun","lat":"-2.30000000","lon":"102.65000000"},
{"state":"Jambi","name":"Kabupaten Tanjung Jabung Barat","lat":"-1.15440000","lon":"103.24402000"},
{"state":"Jambi","name":"Kabupaten Tanjung Jabung Timur","lat":"-1.13198000","lon":"103.61755000"},
{"state":"Jambi","name":"Kabupaten Tebo","lat":"-1.45576000","lon":"102.37473000"},
{"state":"Jambi","name":"Kota Jambi","lat":"-1.61667000","lon":"103.65000000"},
{"state":"Jambi","name":"Kota Sungai Penuh","lat":"-2.10896000","lon":"101.32175000"},
{"state":"Jambi","name":"Kuala Tungkal","lat":"-0.81623000","lon":"103.46111000"},
{"state":"Jambi","name":"Mendaha","lat":"-1.01630000","lon":"103.59331000"},
{"state":"Jambi","name":"Simpang","lat":"-1.26424000","lon":"104.09701000"},
{"state":"Jambi","name":"Sungai Penuh","lat":"-2.05610000","lon":"101.39130000"},
{"state":"Jawa Barat","name":"Arjawinangun","lat":"-6.64528000","lon":"108.41028000"},
{"state":"Jawa Barat","name":"Astanajapura","lat":"-6.80170000","lon":"108.63110000"},
{"state":"Jawa Barat","name":"Bandung","lat":"-6.92222000","lon":"107.60694000"},
{"state":"Jawa Barat","name":"Banjar","lat":"-7.19550000","lon":"107.43130000"},
{"state":"Jawa Barat","name":"Banjaran","lat":"-7.04528000","lon":"107.58778000"},
{"state":"Jawa Barat","name":"Bekasi","lat":"-6.23490000","lon":"106.98960000"},
{"state":"Jawa Barat","name":"Bogor","lat":"-6.59444000","lon":"106.78917000"},
{"state":"Jawa Barat","name":"Caringin","lat":"-6.70611000","lon":"106.82139000"},
{"state":"Jawa Barat","name":"Ciamis","lat":"-7.32570000","lon":"108.35340000"},
{"state":"Jawa Barat","name":"Ciampea","lat":"-6.55472000","lon":"106.70083000"},
{"state":"Jawa Barat","name":"Cibinong","lat":"-6.48167000","lon":"106.85417000"},
{"state":"Jawa Barat","name":"Cicurug","lat":"-6.78139000","lon":"106.78250000"},
{"state":"Jawa Barat","name":"Cikampek","lat":"-6.41972000","lon":"107.45583000"},
{"state":"Jawa Barat","name":"Cikarang","lat":"-6.26111000","lon":"107.15278000"},
{"state":"Jawa Barat","name":"Cikupa","lat":"-6.23639000","lon":"106.50833000"},
{"state":"Jawa Barat","name":"Cileungsir","lat":"-6.39472000","lon":"106.95917000"},
{"state":"Jawa Barat","name":"Cileunyi","lat":"-6.93889000","lon":"107.75278000"},
{"state":"Jawa Barat","name":"Cimahi","lat":"-6.87222000","lon":"107.54250000"},
{"state":"Jawa Barat","name":"Ciputat","lat":"-6.23750000","lon":"106.69556000"},
{"state":"Jawa Barat","name":"Ciranjang-hilir","lat":"-6.82000000","lon":"107.25722000"},
{"state":"Jawa Barat","name":"Cirebon","lat":"-6.70630000","lon":"108.55700000"},
{"state":"Jawa Barat","name":"Citeureup","lat":"-6.48556000","lon":"106.88194000"},
{"state":"Jawa Barat","name":"Depok","lat":"-6.40000000","lon":"106.81861000"},
{"state":"Jawa Barat","name":"Indramayu","lat":"-6.32639000","lon":"108.32000000"},
{"state":"Jawa Barat","name":"Jatibarang","lat":"-6.47472000","lon":"108.31528000"},
{"state":"Jawa Barat","name":"Jatiwangi","lat":"-6.73361000","lon":"108.26278000"},
{"state":"Jawa Barat","name":"Kabupaten Bandung","lat":"-7.10000000","lon":"107.60000000"},
{"state":"Jawa Barat","name":"Kabupaten Bandung Barat","lat":"-6.83333000","lon":"107.48333000"},
{"state":"Jawa Barat","name":"Kabupaten Bekasi","lat":"-6.24667000","lon":"107.10833000"},
{"state":"Jawa Barat","name":"Kabupaten Bogor","lat":"-6.58333000","lon":"106.71667000"},
{"state":"Jawa Barat","name":"Kabupaten Ciamis","lat":"-7.28333000","lon":"108.41667000"},
{"state":"Jawa Barat","name":"Kabupaten Cianjur","lat":"-6.77250000","lon":"107.08306000"},
{"state":"Jawa Barat","name":"Kabupaten Cirebon","lat":"-6.80000000","lon":"108.56667000"},
{"state":"Jawa Barat","name":"Kabupaten Garut","lat":"-7.38333000","lon":"107.76667000"},
{"state":"Jawa Barat","name":"Kabupaten Indramayu","lat":"-6.45000000","lon":"108.16667000"},
{"state":"Jawa Barat","name":"Kabupaten Karawang","lat":"-6.26667000","lon":"107.41667000"},
{"state":"Jawa Barat","name":"Kabupaten Kuningan","lat":"-7.00000000","lon":"108.55000000"},
{"state":"Jawa Barat","name":"Kabupaten Majalengka","lat":"-6.81667000","lon":"108.28333000"},
{"state":"Jawa Barat","name":"Kabupaten Pangandaran","lat":"-7.66730000","lon":"108.64037000"},
{"state":"Jawa Barat","name":"Kabupaten Purwakarta","lat":"-6.58333000","lon":"107.45000000"},
{"state":"Jawa Barat","name":"Kabupaten Subang","lat":"-6.50833000","lon":"107.70250000"},
{"state":"Jawa Barat","name":"Kabupaten Sukabumi","lat":"-7.06667000","lon":"106.70000000"},
{"state":"Jawa Barat","name":"Kabupaten Sumedang","lat":"-6.81667000","lon":"107.98333000"},
{"state":"Jawa Barat","name":"Kabupaten Tasikmalaya","lat":"-7.50000000","lon":"108.13333000"},
{"state":"Jawa Barat","name":"Karangampel","lat":"-6.46222000","lon":"108.45194000"},
{"state":"Jawa Barat","name":"Karangsembung","lat":"-6.84870000","lon":"108.64220000"},
{"state":"Jawa Barat","name":"Kawalu","lat":"-7.38170000","lon":"108.20820000"},
{"state":"Jawa Barat","name":"Klangenan","lat":"-6.70944000","lon":"108.44000000"},
{"state":"Jawa Barat","name":"Kota Bandung","lat":"-6.91750000","lon":"107.62444000"},
{"state":"Jawa Barat","name":"Kota Banjar","lat":"-7.36996000","lon":"108.53209000"},
{"state":"Jawa Barat","name":"Kota Bekasi","lat":"-6.28333000","lon":"106.98333000"},
{"state":"Jawa Barat","name":"Kota Bogor","lat":"-6.59167000","lon":"106.80000000"},
{"state":"Jawa Barat","name":"Kota Cimahi","lat":"-6.89167000","lon":"107.55000000"},
{"state":"Jawa Barat","name":"Kota Cirebon","lat":"-6.75000000","lon":"108.55000000"},
{"state":"Jawa Barat","name":"Kota Depok","lat":"-6.40000000","lon":"106.81667000"},
{"state":"Jawa Barat","name":"Kota Sukabumi","lat":"-6.95000000","lon":"106.93333000"},
{"state":"Jawa Barat","name":"Kota Tasikmalaya","lat":"-7.35000000","lon":"108.21667000"},
{"state":"Jawa Barat","name":"Kresek","lat":"-6.13139000","lon":"106.37972000"},
{"state":"Jawa Barat","name":"Kuningan","lat":"-6.97583000","lon":"108.48306000"},
{"state":"Jawa Barat","name":"Lembang","lat":"-6.81167000","lon":"107.61750000"},
{"state":"Jawa Barat","name":"Majalengka","lat":"-6.83611000","lon":"108.22778000"},
{"state":"Jawa Barat","name":"Margahayukencana","lat":"-6.97083000","lon":"107.56750000"},
{"state":"Jawa Barat","name":"Ngawi","lat":"-7.40380000","lon":"111.44610000"},
{"state":"Jawa Barat","name":"Padalarang","lat":"-6.83778000","lon":"107.47278000"},
{"state":"Jawa Barat","name":"Palimanan","lat":"-6.70694000","lon":"108.42417000"},
{"state":"Jawa Barat","name":"Pamanukan","lat":"-6.28417000","lon":"107.81056000"},
{"state":"Jawa Barat","name":"Pameungpeuk","lat":"-7.01833000","lon":"107.60389000"},
{"state":"Jawa Barat","name":"Pamulang","lat":"-6.34278000","lon":"106.73833000"},
{"state":"Jawa Barat","name":"Parung","lat":"-6.42139000","lon":"106.73306000"},
{"state":"Jawa Barat","name":"Pasarkemis","lat":"-6.17028000","lon":"106.53028000"},
{"state":"Jawa Barat","name":"Paseh","lat":"-7.10260000","lon":"107.76410000"},
{"state":"Jawa Barat","name":"Pelabuhanratu","lat":"-6.98750000","lon":"106.55139000"},
{"state":"Jawa Barat","name":"Plumbon","lat":"-6.70500000","lon":"108.47278000"},
{"state":"Jawa Barat","name":"Purwakarta","lat":"-6.55694000","lon":"107.44333000"},
{"state":"Jawa Barat","name":"Rajapolah","lat":"-7.22100000","lon":"108.18960000"},
{"state":"Jawa Barat","name":"Rengasdengklok","lat":"-6.15917000","lon":"107.29806000"},
{"state":"Jawa Barat","name":"Sawangan","lat":"-6.40278000","lon":"106.77444000"},
{"state":"Jawa Barat","name":"Sepatan","lat":"-6.11889000","lon":"106.57500000"},
{"state":"Jawa Barat","name":"Serpong","lat":"-6.31694000","lon":"106.66417000"},
{"state":"Jawa Barat","name":"Singaparna","lat":"-7.35150000","lon":"108.11100000"},
{"state":"Jawa Barat","name":"Soreang","lat":"-7.03306000","lon":"107.51833000"},
{"state":"Jawa Barat","name":"Sukabumi","lat":"-6.91806000","lon":"106.92667000"},
{"state":"Jawa Barat","name":"Sumber","lat":"-6.76028000","lon":"108.48306000"},
{"state":"Jawa Barat","name":"Sumedang","lat":"-6.85861000","lon":"107.91639000"},
{"state":"Jawa Barat","name":"Sumedang Utara","lat":"-6.85000000","lon":"107.91667000"},
{"state":"Jawa Barat","name":"Tasikmalaya","lat":"-7.32740000","lon":"108.22070000"},
{"state":"Jawa Barat","name":"Teluknaga","lat":"-6.09889000","lon":"106.63806000"},
{"state":"Jawa Barat","name":"Wanaraja","lat":"-7.17490000","lon":"107.98080000"},
{"state":"Jawa Barat","name":"Weru","lat":"-6.71100000","lon":"108.50370000"},
{"state":"Jawa Tengah","name":"Adiwerna","lat":"-6.93750000","lon":"109.13250000"},
{"state":"Jawa Tengah","name":"Ambarawa","lat":"-7.26333000","lon":"110.39750000"},
{"state":"Jawa Tengah","name":"Baekrajan","lat":"-6.76740000","lon":"110.85410000"},
{"state":"Jawa Tengah","name":"Baki","lat":"-7.61278000","lon":"110.78389000"},
{"state":"Jawa Tengah","name":"Balapulang","lat":"-7.04858000","lon":"109.10056000"},
{"state":"Jawa Tengah","name":"Banyumas","lat":"-7.51417000","lon":"109.29417000"},
{"state":"Jawa Tengah","name":"Batang","lat":"-6.48460000","lon":"110.70830000"},
{"state":"Jawa Tengah","name":"Baturaden","lat":"-7.30000000","lon":"109.21667000"},
{"state":"Jawa Tengah","name":"Blora","lat":"-6.96980000","lon":"111.41860000"},
{"state":"Jawa Tengah","name":"Boyolali","lat":"-7.53306000","lon":"110.59583000"},
{"state":"Jawa Tengah","name":"Buaran","lat":"-7.05000000","lon":"109.55000000"},
{"state":"Jawa Tengah","name":"Bulakamba","lat":"-6.87480000","lon":"108.95590000"},
{"state":"Jawa Tengah","name":"Candi Prambanan","lat":"-7.75000000","lon":"110.49417000"},
{"state":"Jawa Tengah","name":"Ceper","lat":"-7.67417000","lon":"110.67889000"},
{"state":"Jawa Tengah","name":"Cepu","lat":"-7.14750000","lon":"111.59060000"},
{"state":"Jawa Tengah","name":"Colomadu","lat":"-7.53333000","lon":"110.75000000"},
{"state":"Jawa Tengah","name":"Comal","lat":"-6.90530000","lon":"109.53470000"},
{"state":"Jawa Tengah","name":"Delanggu","lat":"-7.61667000","lon":"110.68333000"},
{"state":"Jawa Tengah","name":"Demak","lat":"-6.89090000","lon":"110.63960000"},
{"state":"Jawa Tengah","name":"Dukuhturi","lat":"-6.90000000","lon":"109.08333000"},
{"state":"Jawa Tengah","name":"Gatak","lat":"-7.59083000","lon":"110.70444000"},
{"state":"Jawa Tengah","name":"Gebog","lat":"-6.73500000","lon":"110.84440000"},
{"state":"Jawa Tengah","name":"Gombong","lat":"-7.60722000","lon":"109.51417000"},
{"state":"Jawa Tengah","name":"Grogol","lat":"-7.60111000","lon":"110.81861000"},
{"state":"Jawa Tengah","name":"Gunung Kendil","lat":"-7.33167000","lon":"110.40417000"},
{"state":"Jawa Tengah","name":"Jaten","lat":"-7.57722000","lon":"110.89750000"},
{"state":"Jawa Tengah","name":"Jatiroto","lat":"-7.88333000","lon":"111.11667000"},
{"state":"Jawa Tengah","name":"Jekulo","lat":"-6.80570000","lon":"110.92620000"},
{"state":"Jawa Tengah","name":"Jogonalan","lat":"-7.70361000","lon":"110.53611000"},
{"state":"Jawa Tengah","name":"Juwana","lat":"-6.71500000","lon":"111.15140000"},
{"state":"Jawa Tengah","name":"Kabupaten Banjarnegara","lat":"-7.35111000","lon":"109.58750000"},
{"state":"Jawa Tengah","name":"Kabupaten Banyumas","lat":"-7.45000000","lon":"109.16667000"},
{"state":"Jawa Tengah","name":"Kabupaten Batang","lat":"-7.03333000","lon":"109.88333000"},
{"state":"Jawa Tengah","name":"Kabupaten Blora","lat":"-7.06667000","lon":"111.38333000"},
{"state":"Jawa Tengah","name":"Kabupaten Boyolali","lat":"-7.50000000","lon":"110.70000000"},
{"state":"Jawa Tengah","name":"Kabupaten Brebes","lat":"-7.05000000","lon":"108.90000000"},
{"state":"Jawa Tengah","name":"Kabupaten Cilacap","lat":"-7.57417000","lon":"108.98861000"},
{"state":"Jawa Tengah","name":"Kabupaten Demak","lat":"-6.89930000","lon":"110.61220000"},
{"state":"Jawa Tengah","name":"Kabupaten Grobogan","lat":"-7.11667000","lon":"110.91667000"},
{"state":"Jawa Tengah","name":"Kabupaten Jepara","lat":"-6.58333000","lon":"110.76667000"},
{"state":"Jawa Tengah","name":"Kabupaten Karanganyar","lat":"-7.62806000","lon":"111.06250000"},
{"state":"Jawa Tengah","name":"Kabupaten Kebumen","lat":"-7.63917000","lon":"109.66056000"},
{"state":"Jawa Tengah","name":"Kabupaten Kendal","lat":"-7.02560000","lon":"110.16850000"},
{"state":"Jawa Tengah","name":"Kabupaten Klaten","lat":"-7.68333000","lon":"110.61667000"},
{"state":"Jawa Tengah","name":"Kabupaten Kudus","lat":"-6.80000000","lon":"110.86667000"},
{"state":"Jawa Tengah","name":"Kabupaten Magelang","lat":"-7.42750000","lon":"110.16194000"},
{"state":"Jawa Tengah","name":"Kabupaten Pati","lat":"-6.76667000","lon":"111.10000000"},
{"state":"Jawa Tengah","name":"Kabupaten Pekalongan","lat":"-7.03190000","lon":"109.62400000"},
{"state":"Jawa Tengah","name":"Kabupaten Pemalang","lat":"-7.03333000","lon":"109.40000000"},
{"state":"Jawa Tengah","name":"Kabupaten Purbalingga","lat":"-7.28417000","lon":"109.35028000"},
{"state":"Jawa Tengah","name":"Kabupaten Purworejo","lat":"-7.70000000","lon":"109.96667000"},
{"state":"Jawa Tengah","name":"Kabupaten Rembang","lat":"-6.78333000","lon":"111.46667000"},
{"state":"Jawa Tengah","name":"Kabupaten Semarang","lat":"-7.20667000","lon":"110.44139000"},
{"state":"Jawa Tengah","name":"Kabupaten Sragen","lat":"-7.41278000","lon":"110.93500000"},
{"state":"Jawa Tengah","name":"Kabupaten Sukoharjo","lat":"-7.68333000","lon":"110.83333000"},
{"state":"Jawa Tengah","name":"Kabupaten Tegal","lat":"-7.03333000","lon":"109.16667000"},
{"state":"Jawa Tengah","name":"Kabupaten Temanggung","lat":"-7.25000000","lon":"110.11667000"},
{"state":"Jawa Tengah","name":"Kabupaten Wonogiri","lat":"-7.91667000","lon":"111.00000000"},
{"state":"Jawa Tengah","name":"Kabupaten Wonosobo","lat":"-7.36139000","lon":"109.92667000"},
{"state":"Jawa Tengah","name":"Karanganom","lat":"-7.64889000","lon":"110.62500000"},
{"state":"Jawa Tengah","name":"Kartasura","lat":"-7.55194000","lon":"110.73778000"},
{"state":"Jawa Tengah","name":"Kebonarun","lat":"-7.70028000","lon":"110.56306000"},
{"state":"Jawa Tengah","name":"Kedungwuni","lat":"-6.97038000","lon":"109.64794000"},
{"state":"Jawa Tengah","name":"Ketanggungan","lat":"-6.93830000","lon":"108.89100000"},
{"state":"Jawa Tengah","name":"Klaten","lat":"-7.70583000","lon":"110.60639000"},
{"state":"Jawa Tengah","name":"Kota Magelang","lat":"-7.50000000","lon":"110.22500000"},
{"state":"Jawa Tengah","name":"Kota Pekalongan","lat":"-6.90000000","lon":"109.68333000"},
{"state":"Jawa Tengah","name":"Kota Salatiga","lat":"-7.33278000","lon":"110.48333000"},
{"state":"Jawa Tengah","name":"Kota Semarang","lat":"-7.03333000","lon":"110.38333000"},
{"state":"Jawa Tengah","name":"Kota Surakarta","lat":"-7.55000000","lon":"110.81667000"},
{"state":"Jawa Tengah","name":"Kota Tegal","lat":"-6.86860000","lon":"109.11290000"},
{"state":"Jawa Tengah","name":"Kroya","lat":"-7.63306000","lon":"109.24611000"},
{"state":"Jawa Tengah","name":"Kudus","lat":"-6.80480000","lon":"110.84050000"},
{"state":"Jawa Tengah","name":"Kutoarjo","lat":"-7.71694000","lon":"109.91278000"},
{"state":"Jawa Tengah","name":"Lasem","lat":"-6.69220000","lon":"111.45270000"},
{"state":"Jawa Tengah","name":"Lebaksiu","lat":"-7.04960000","lon":"109.14410000"},
{"state":"Jawa Tengah","name":"Magelang","lat":"-7.47056000","lon":"110.21778000"},
{"state":"Jawa Tengah","name":"Majenang","lat":"-7.29750000","lon":"108.76420000"},
{"state":"Jawa Tengah","name":"Margasari","lat":"-7.10000000","lon":"109.01667000"},
{"state":"Jawa Tengah","name":"Mertoyudan","lat":"-7.52000000","lon":"110.22639000"},
{"state":"Jawa Tengah","name":"Mlonggo","lat":"-6.53333000","lon":"110.70000000"},
{"state":"Jawa Tengah","name":"Mranggen","lat":"-7.02680000","lon":"110.51580000"},
{"state":"Jawa Tengah","name":"Muntilan","lat":"-7.58111000","lon":"110.29278000"},
{"state":"Jawa Tengah","name":"Ngemplak","lat":"-7.54972000","lon":"110.71639000"},
{"state":"Jawa Tengah","name":"Pati","lat":"-6.75590000","lon":"111.03800000"},
{"state":"Jawa Tengah","name":"Pecangaan","lat":"-6.69780000","lon":"110.71070000"},
{"state":"Jawa Tengah","name":"Pekalongan","lat":"-6.88860000","lon":"109.67530000"},
{"state":"Jawa Tengah","name":"Pemalang","lat":"-6.89193000","lon":"109.38263000"},
{"state":"Jawa Tengah","name":"Purbalingga","lat":"-7.38806000","lon":"109.36389000"},
{"state":"Jawa Tengah","name":"Purwodadi","lat":"-7.08680000","lon":"110.91580000"},
{"state":"Jawa Tengah","name":"Purwokerto","lat":"-7.42139000","lon":"109.23444000"},
{"state":"Jawa Tengah","name":"Randudongkal","lat":"-7.09810000","lon":"109.32430000"},
{"state":"Jawa Tengah","name":"Rembangan","lat":"-6.70360000","lon":"111.34160000"},
{"state":"Jawa Tengah","name":"Salatiga","lat":"-7.33194000","lon":"110.49278000"},
{"state":"Jawa Tengah","name":"Selogiri","lat":"-7.78333000","lon":"110.86667000"},
{"state":"Jawa Tengah","name":"Semarang","lat":"-6.99306000","lon":"110.42083000"},
{"state":"Jawa Tengah","name":"Sidareja","lat":"-7.48460000","lon":"108.79230000"},
{"state":"Jawa Tengah","name":"Slawi","lat":"-6.98160000","lon":"109.14070000"},
{"state":"Jawa Tengah","name":"Sokaraja","lat":"-7.45806000","lon":"109.28806000"},
{"state":"Jawa Tengah","name":"Sragen","lat":"-7.42639000","lon":"111.02222000"},
{"state":"Jawa Tengah","name":"Surakarta","lat":"-7.55611000","lon":"110.83167000"},
{"state":"Jawa Tengah","name":"Tarub","lat":"-6.93333000","lon":"109.16667000"},
{"state":"Jawa Tengah","name":"Tayu","lat":"-6.53970000","lon":"111.05180000"},
{"state":"Jawa Tengah","name":"Tegal","lat":"-6.86940000","lon":"109.14020000"},
{"state":"Jawa Tengah","name":"Trucuk","lat":"-7.71833000","lon":"110.65889000"},
{"state":"Jawa Tengah","name":"Ungaran","lat":"-7.13972000","lon":"110.40500000"},
{"state":"Jawa Tengah","name":"Wangon","lat":"-7.51611000","lon":"109.05389000"},
{"state":"Jawa Tengah","name":"Wedi","lat":"-7.74306000","lon":"110.57944000"},
{"state":"Jawa Tengah","name":"Welahan","lat":"-6.80000000","lon":"110.71667000"},
{"state":"Jawa Tengah","name":"Weleri","lat":"-6.97130000","lon":"110.06660000"},
{"state":"Jawa Tengah","name":"Wiradesa","lat":"-6.89220000","lon":"109.61900000"},
{"state":"Jawa Tengah","name":"Wonopringgo","lat":"-6.98333000","lon":"109.61667000"},
{"state":"Jawa Tengah","name":"Wonosobo","lat":"-7.35889000","lon":"109.90306000"},
{"state":"Jawa Timur","name":"Babat","lat":"-7.11282000","lon":"112.16354000"},
{"state":"Jawa Timur","name":"Balung","lat":"-7.73333000","lon":"113.91667000"},
{"state":"Jawa Timur","name":"Bangil","lat":"-7.59939000","lon":"112.81860000"},
{"state":"Jawa Timur","name":"Bangkalan","lat":"-7.04550000","lon":"112.73510000"},
{"state":"Jawa Timur","name":"Banyuwangi","lat":"-8.23250000","lon":"114.35755000"},
{"state":"Jawa Timur","name":"Batu","lat":"-7.87000000","lon":"112.52833000"},
{"state":"Jawa Timur","name":"Besuki","lat":"-7.73379000","lon":"113.69785000"},
{"state":"Jawa Timur","name":"Blitar","lat":"-8.09830000","lon":"112.16810000"},
{"state":"Jawa Timur","name":"Bojonegoro","lat":"-7.15020000","lon":"111.88170000"},
{"state":"Jawa Timur","name":"Bondowoso","lat":"-7.91346000","lon":"113.82145000"},
{"state":"Jawa Timur","name":"Boyolangu","lat":"-8.11810000","lon":"111.89350000"},
{"state":"Jawa Timur","name":"Buduran","lat":"-7.42810000","lon":"112.72340000"},
{"state":"Jawa Timur","name":"Dampit","lat":"-8.21162000","lon":"112.74934000"},
{"state":"Jawa Timur","name":"Diwek","lat":"-7.57897000","lon":"112.23109000"},
{"state":"Jawa Timur","name":"Driyorejo","lat":"-7.36590000","lon":"112.62190000"},
{"state":"Jawa Timur","name":"Gambiran Satu","lat":"-8.39390000","lon":"114.14640000"},
{"state":"Jawa Timur","name":"Gampengrejo","lat":"-7.76667000","lon":"112.01667000"},
{"state":"Jawa Timur","name":"Gedangan","lat":"-7.39083000","lon":"112.72667000"},
{"state":"Jawa Timur","name":"Genteng","lat":"-8.36667000","lon":"114.15000000"},
{"state":"Jawa Timur","name":"Gongdanglegi Kulon","lat":"-8.17529000","lon":"112.63594000"},
{"state":"Jawa Timur","name":"Gresik","lat":"-7.15389000","lon":"112.65611000"},
{"state":"Jawa Timur","name":"Gresik Regency","lat":"-7.19330000","lon":"112.55300000"},
{"state":"Jawa Timur","name":"Jember","lat":"-8.17211000","lon":"113.69953000"},
{"state":"Jawa Timur","name":"Jombang","lat":"-7.54595000","lon":"112.23307000"},
{"state":"Jawa Timur","name":"Kabupaten Bangkalan","lat":"-7.05000000","lon":"112.93333000"},
{"state":"Jawa Timur","name":"Kabupaten Banyuwangi","lat":"-8.33333000","lon":"114.20000000"},
{"state":"Jawa Timur","name":"Kabupaten Blitar","lat":"-8.13333000","lon":"112.25000000"},
{"state":"Jawa Timur","name":"Kabupaten Bojonegoro","lat":"-7.25000000","lon":"111.80000000"},
{"state":"Jawa Timur","name":"Kabupaten Bondowoso","lat":"-7.94040000","lon":"113.98340000"},
{"state":"Jawa Timur","name":"Kabupaten Jember","lat":"-8.25000000","lon":"113.65000000"},
{"state":"Jawa Timur","name":"Kabupaten Jombang","lat":"-7.55000000","lon":"112.25000000"},
{"state":"Jawa Timur","name":"Kabupaten Kediri","lat":"-7.83333000","lon":"112.16667000"},
{"state":"Jawa Timur","name":"Kabupaten Lamongan","lat":"-7.13333000","lon":"112.31667000"},
{"state":"Jawa Timur","name":"Kabupaten Lumajang","lat":"-8.11667000","lon":"113.15000000"},
{"state":"Jawa Timur","name":"Kabupaten Madiun","lat":"-7.61667000","lon":"111.65000000"},
{"state":"Jawa Timur","name":"Kabupaten Magetan","lat":"-7.64472000","lon":"111.35917000"},
{"state":"Jawa Timur","name":"Kabupaten Malang","lat":"-8.16667000","lon":"112.66667000"},
{"state":"Jawa Timur","name":"Kabupaten Mojokerto","lat":"-7.55000000","lon":"112.50000000"},
{"state":"Jawa Timur","name":"Kabupaten Nganjuk","lat":"-7.60000000","lon":"111.93333000"},
{"state":"Jawa Timur","name":"Kabupaten Ngawi","lat":"-7.47444000","lon":"111.33444000"},
{"state":"Jawa Timur","name":"Kabupaten Pacitan","lat":"-8.13333000","lon":"111.16667000"},
{"state":"Jawa Timur","name":"Kabupaten Pamekasan","lat":"-7.06667000","lon":"113.50000000"},
{"state":"Jawa Timur","name":"Kabupaten Pasuruan","lat":"-7.73333000","lon":"112.83333000"},
{"state":"Jawa Timur","name":"Kabupaten Ponorogo","lat":"-7.93333000","lon":"111.50000000"},
{"state":"Jawa Timur","name":"Kabupaten Probolinggo","lat":"-7.86667000","lon":"113.31667000"},
{"state":"Jawa Timur","name":"Kabupaten Sampang","lat":"-7.05000000","lon":"113.25000000"},
{"state":"Jawa Timur","name":"Kabupaten Sidoarjo","lat":"-7.45000000","lon":"112.70000000"},
{"state":"Jawa Timur","name":"Kabupaten Situbondo","lat":"-7.71667000","lon":"114.05000000"},
{"state":"Jawa Timur","name":"Kabupaten Sumenep","lat":"-7.11667000","lon":"114.33333000"},
{"state":"Jawa Timur","name":"Kabupaten Trenggalek","lat":"-8.16667000","lon":"111.61667000"},
{"state":"Jawa Timur","name":"Kabupaten Tuban","lat":"-6.96667000","lon":"111.90000000"},
{"state":"Jawa Timur","name":"Kabupaten Tulungagung","lat":"-8.11667000","lon":"111.91667000"},
{"state":"Jawa Timur","name":"Kalianget","lat":"-7.05370000","lon":"113.94244000"},
{"state":"Jawa Timur","name":"Kamal","lat":"-7.16778000","lon":"112.71917000"},
{"state":"Jawa Timur","name":"Kebomas","lat":"-7.16667000","lon":"112.63330000"},
{"state":"Jawa Timur","name":"Kediri","lat":"-7.81667000","lon":"112.01667000"},
{"state":"Jawa Timur","name":"Kedungwaru","lat":"-8.06667000","lon":"111.91667000"},
{"state":"Jawa Timur","name":"Kencong","lat":"-8.28333000","lon":"113.36667000"},
{"state":"Jawa Timur","name":"Kepanjen","lat":"-8.13030000","lon":"112.57270000"},
{"state":"Jawa Timur","name":"Kertosono","lat":"-7.58333000","lon":"112.10000000"},
{"state":"Jawa Timur","name":"Kota Batu","lat":"-7.83272000","lon":"112.53751000"},
{"state":"Jawa Timur","name":"Kota Blitar","lat":"-8.10000000","lon":"112.16667000"},
{"state":"Jawa Timur","name":"Kota Kediri","lat":"-7.83333000","lon":"112.01667000"},
{"state":"Jawa Timur","name":"Kota Madiun","lat":"-7.63333000","lon":"111.53333000"},
{"state":"Jawa Timur","name":"Kota Malang","lat":"-7.97500000","lon":"112.63333000"},
{"state":"Jawa Timur","name":"Kota Mojokerto","lat":"-7.46667000","lon":"112.43333000"},
{"state":"Jawa Timur","name":"Kota Pasuruan","lat":"-7.65000000","lon":"112.90000000"},
{"state":"Jawa Timur","name":"Kota Probolinggo","lat":"-7.78333000","lon":"113.21667000"},
{"state":"Jawa Timur","name":"Kota Surabaya","lat":"-7.26667000","lon":"112.71667000"},
{"state":"Jawa Timur","name":"Kraksaan","lat":"-7.75845000","lon":"113.39624000"},
{"state":"Jawa Timur","name":"Krian","lat":"-7.41040000","lon":"112.57920000"},
{"state":"Jawa Timur","name":"Lamongan","lat":"-7.11667000","lon":"112.41667000"},
{"state":"Jawa Timur","name":"Lawang","lat":"-7.83530000","lon":"112.69470000"},
{"state":"Jawa Timur","name":"Lumajang","lat":"-8.13350000","lon":"113.22480000"},
{"state":"Jawa Timur","name":"Madiun","lat":"-7.62980000","lon":"111.52390000"},
{"state":"Jawa Timur","name":"Malang","lat":"-7.97970000","lon":"112.63040000"},
{"state":"Jawa Timur","name":"Mojoagung","lat":"-7.56667000","lon":"112.35000000"},
{"state":"Jawa Timur","name":"Mojokerto","lat":"-7.46640000","lon":"112.43380000"},
{"state":"Jawa Timur","name":"Muncar","lat":"-8.43333000","lon":"114.33333000"},
{"state":"Jawa Timur","name":"Nganjuk","lat":"-7.60510000","lon":"111.90350000"},
{"state":"Jawa Timur","name":"Ngoro","lat":"-7.68386000","lon":"112.25804000"},
{"state":"Jawa Timur","name":"Ngunut","lat":"-8.10580000","lon":"112.01591000"},
{"state":"Jawa Timur","name":"Paciran","lat":"-6.87666000","lon":"112.37606000"},
{"state":"Jawa Timur","name":"Pakisaji","lat":"-8.06650000","lon":"112.59810000"},
{"state":"Jawa Timur","name":"Pamekasan","lat":"-7.15680000","lon":"113.47460000"},
{"state":"Jawa Timur","name":"Panarukan","lat":"-7.70181000","lon":"113.91844000"},
{"state":"Jawa Timur","name":"Pandaan","lat":"-7.65268000","lon":"112.68750000"},
{"state":"Jawa Timur","name":"Panji","lat":"-7.72528000","lon":"114.09954000"},
{"state":"Jawa Timur","name":"Pare","lat":"-7.76790000","lon":"112.19800000"},
{"state":"Jawa Timur","name":"Pasuruan","lat":"-7.64530000","lon":"112.90750000"},
{"state":"Jawa Timur","name":"Ponorogo","lat":"-7.86850000","lon":"111.46200000"},
{"state":"Jawa Timur","name":"Prigen","lat":"-7.68333000","lon":"112.61667000"},
{"state":"Jawa Timur","name":"Probolinggo","lat":"-7.75430000","lon":"113.21590000"},
{"state":"Jawa Timur","name":"Sampang","lat":"-7.18720000","lon":"113.23940000"},
{"state":"Jawa Timur","name":"Sidoarjo","lat":"-7.44780000","lon":"112.71830000"},
{"state":"Jawa Timur","name":"Singojuruh","lat":"-8.31667000","lon":"114.23333000"},
{"state":"Jawa Timur","name":"Singosari","lat":"-7.89240000","lon":"112.66580000"},
{"state":"Jawa Timur","name":"Situbondo","lat":"-7.70623000","lon":"114.00976000"},
{"state":"Jawa Timur","name":"Soko","lat":"-7.48315000","lon":"112.42704000"},
{"state":"Jawa Timur","name":"Srono","lat":"-8.40003000","lon":"114.26661000"},
{"state":"Jawa Timur","name":"Sumberpucung","lat":"-8.15856000","lon":"112.48292000"},
{"state":"Jawa Timur","name":"Sumenep","lat":"-7.01667000","lon":"113.86667000"},
{"state":"Jawa Timur","name":"Surabaya","lat":"-7.24917000","lon":"112.75083000"},
{"state":"Jawa Timur","name":"Tanggul","lat":"-8.16450000","lon":"113.45250000"},
{"state":"Jawa Timur","name":"Tanggulangin","lat":"-7.49958000","lon":"112.69992000"},
{"state":"Jawa Timur","name":"Trenggalek","lat":"-8.07640000","lon":"111.70641000"},
{"state":"Jawa Timur","name":"Tuban","lat":"-6.89760000","lon":"112.06490000"},
{"state":"Jawa Timur","name":"Tulangan Utara","lat":"-7.47370000","lon":"112.65050000"},
{"state":"Jawa Timur","name":"Tulungagung","lat":"-8.06570000","lon":"111.90250000"},
{"state":"Jawa Timur","name":"Wongsorejo","lat":"-7.99080000","lon":"114.40090000"},
{"state":"Kalimantan Barat","name":"Bengkayang","lat":"1.06911000","lon":"109.66393000"},
{"state":"Kalimantan Barat","name":"Kapuas Hulu","lat":"0.83333000","lon":"112.80000000"},
{"state":"Kalimantan Barat","name":"Kayong Utara","lat":"-1.06023000","lon":"110.10402000"},
{"state":"Kalimantan Barat","name":"Ketapang","lat":"-1.85000000","lon":"109.98333333"},
{"state":"Kalimantan Barat","name":"Kubu Raya","lat":"-0.31924000","lon":"109.51865000"},
{"state":"Kalimantan Barat","name":"Landak","lat":"0.42373000","lon":"109.75917000"},
{"state":"Kalimantan Barat","name":"Manismata","lat":"-2.46666667","lon":"111.03333333"},
{"state":"Kalimantan Barat","name":"Melawi","lat":"-0.33617000","lon":"111.69800000"},
{"state":"Kalimantan Barat","name":"Mempawah","lat":"0.25000000","lon":"109.16667000"},
{"state":"Kalimantan Barat","name":"Pemangkat","lat":"1.17680000","lon":"108.96240000"},
{"state":"Kalimantan Barat","name":"Pontianak","lat":"-0.02055556","lon":"109.34138889"},
{"state":"Kalimantan Barat","name":"Sambas","lat":"1.43333000","lon":"109.35000000"},
{"state":"Kalimantan Barat","name":"Sanggau","lat":"0.11944444","lon":"110.58888889"},
{"state":"Kalimantan Barat","name":"Sekadau","lat":"0.03485000","lon":"110.95066000"},
{"state":"Kalimantan Barat","name":"Singkawang","lat":"0.90000000","lon":"108.98333333"},
{"state":"Kalimantan Barat","name":"Sintang","lat":"0.06805556","lon":"111.49805556"},
{"state":"Kalimantan Selatan","name":"Amuntai","lat":"-2.41773000","lon":"115.24941000"},
{"state":"Kalimantan Selatan","name":"Banjarmasin","lat":"-3.31987000","lon":"114.59075000"},
{"state":"Kalimantan Selatan","name":"Barabai","lat":"-2.58333000","lon":"115.38333000"},
{"state":"Kalimantan Selatan","name":"Kabupaten Balangan","lat":"-2.32314000","lon":"115.62922000"},
{"state":"Kalimantan Selatan","name":"Kabupaten Banjar","lat":"-3.31667000","lon":"115.08333000"},
{"state":"Kalimantan Selatan","name":"Kabupaten Barito Kuala","lat":"-3.08333000","lon":"114.61667000"},
{"state":"Kalimantan Selatan","name":"Kabupaten Hulu Sungai Selatan","lat":"-2.75000000","lon":"115.20000000"},
{"state":"Kalimantan Selatan","name":"Kabupaten Hulu Sungai Tengah","lat":"-2.61667000","lon":"115.41667000"},
{"state":"Kalimantan Selatan","name":"Kabupaten Hulu Sungai Utara","lat":"-2.45000000","lon":"115.13333000"},
{"state":"Kalimantan Selatan","name":"Kabupaten Kota Baru","lat":"-3.00000000","lon":"116.00000000"},
{"state":"Kalimantan Selatan","name":"Kabupaten Tabalong","lat":"-1.88333000","lon":"115.50000000"},
{"state":"Kalimantan Selatan","name":"Kabupaten Tanah Bumbu","lat":"-3.45413000","lon":"115.70372000"},
{"state":"Kalimantan Selatan","name":"Kabupaten Tanah Laut","lat":"-3.88333000","lon":"114.86667000"},
{"state":"Kalimantan Selatan","name":"Kabupaten Tapin","lat":"-2.91667000","lon":"115.03333000"},
{"state":"Kalimantan Selatan","name":"Kota Banjar Baru","lat":"-3.41667000","lon":"114.83333000"},
{"state":"Kalimantan Selatan","name":"Kota Banjarmasin","lat":"-3.32444000","lon":"114.59102000"},
{"state":"Kalimantan Selatan","name":"Martapura","lat":"-3.41090000","lon":"114.86420000"},
{"state":"Kalimantan Tengah","name":"Kabupaten Barito Selatan","lat":"-1.86667000","lon":"114.73333000"},
{"state":"Kalimantan Tengah","name":"Kabupaten Barito Timur","lat":"-1.93333000","lon":"115.10000000"},
{"state":"Kalimantan Tengah","name":"Kabupaten Barito Utara","lat":"-0.98333000","lon":"115.10000000"},
{"state":"Kalimantan Tengah","name":"Kabupaten Gunung Mas","lat":"-0.95000000","lon":"113.50000000"},
{"state":"Kalimantan Tengah","name":"Kabupaten Kapuas","lat":"-2.01667000","lon":"114.38333000"},
{"state":"Kalimantan Tengah","name":"Kabupaten Katingan","lat":"-2.06667000","lon":"113.40000000"},
{"state":"Kalimantan Tengah","name":"Kabupaten Kotawaringin Barat","lat":"-2.40000000","lon":"111.73333000"},
{"state":"Kalimantan Tengah","name":"Kabupaten Kotawaringin Timur","lat":"-2.08333000","lon":"112.75000000"},
{"state":"Kalimantan Tengah","name":"Kabupaten Lamandau","lat":"-1.83828000","lon":"111.28690000"},
{"state":"Kalimantan Tengah","name":"Kabupaten Murung Raya","lat":"-0.01667000","lon":"114.26667000"},
{"state":"Kalimantan Tengah","name":"Kabupaten Pulang Pisau","lat":"-3.11858000","lon":"113.86230000"},
{"state":"Kalimantan Tengah","name":"Kabupaten Seruyan","lat":"-2.33333000","lon":"112.25000000"},
{"state":"Kalimantan Tengah","name":"Kabupaten Sukamara","lat":"-2.62675000","lon":"111.23681000"},
{"state":"Kalimantan Tengah","name":"Kota Palangka Raya","lat":"-1.76979000","lon":"113.73126000"},
{"state":"Kalimantan Tengah","name":"Kualakapuas","lat":"-3.00913000","lon":"114.38759000"},
{"state":"Kalimantan Tengah","name":"Palangkaraya","lat":"-2.20833000","lon":"113.91667000"},
{"state":"Kalimantan Tengah","name":"Pangkalanbuun","lat":"-2.68320000","lon":"111.62590000"},
{"state":"Kalimantan Tengah","name":"Sampit","lat":"-2.53150000","lon":"112.94960000"},
{"state":"Kalimantan Timur","name":"Balikpapan","lat":"-1.26753000","lon":"116.82887000"},
{"state":"Kalimantan Timur","name":"Bontang","lat":"0.13240000","lon":"117.48540000"},
{"state":"Kalimantan Timur","name":"City of Balikpapan","lat":"-1.24204000","lon":"116.89419000"},
{"state":"Kalimantan Timur","name":"Kabupaten Berau","lat":"2.00000000","lon":"117.30000000"},
{"state":"Kalimantan Timur","name":"Kabupaten Kutai Barat","lat":"-0.59417000","lon":"115.51575000"},
{"state":"Kalimantan Timur","name":"Kabupaten Kutai Kartanegara","lat":"-0.44019000","lon":"116.98139000"},
{"state":"Kalimantan Timur","name":"Kabupaten Kutai Timur","lat":"1.03769000","lon":"117.83112000"},
{"state":"Kalimantan Timur","name":"Kabupaten Mahakam Hulu","lat":"0.37822000","lon":"115.38048000"},
{"state":"Kalimantan Timur","name":"Kabupaten Paser","lat":"-1.43517000","lon":"116.23535000"},
{"state":"Kalimantan Timur","name":"Kabupaten Penajam Paser Utara","lat":"-1.25000000","lon":"116.83333000"},
{"state":"Kalimantan Timur","name":"Kota Balikpapan","lat":"-1.16667000","lon":"116.88333000"},
{"state":"Kalimantan Timur","name":"Kota Bontang","lat":"0.12526000","lon":"117.49603000"},
{"state":"Kalimantan Timur","name":"Kota Samarinda","lat":"-0.43333000","lon":"117.18333000"},
{"state":"Kalimantan Timur","name":"Loa Janan","lat":"-0.58295000","lon":"117.09503000"},
{"state":"Kalimantan Timur","name":"Samarinda","lat":"-0.49167000","lon":"117.14583000"},
{"state":"Kalimantan Utara","name":"Kabupaten Bulungan","lat":"3.00000000","lon":"117.16667000"},
{"state":"Kalimantan Utara","name":"Kabupaten Malinau","lat":"2.45000000","lon":"115.68333000"},
{"state":"Kalimantan Utara","name":"Kabupaten Nunukan","lat":"4.13333000","lon":"116.70000000"},
{"state":"Kalimantan Utara","name":"Kabupaten Tana Tidung","lat":"3.55000000","lon":"117.25000000"},
{"state":"Kalimantan Utara","name":"Tanjung Selor","lat":"2.83750000","lon":"117.36528000"},
{"state":"Kalimantan Utara","name":"Tarakan","lat":"3.31332000","lon":"117.59152000"},
{"state":"Kepulauan Bangka Belitung","name":"Kabupaten Bangka","lat":"-1.91667000","lon":"105.93333000"},
{"state":"Kepulauan Bangka Belitung","name":"Kabupaten Bangka Barat","lat":"-1.95839000","lon":"105.53741000"},
{"state":"Kepulauan Bangka Belitung","name":"Kabupaten Bangka Selatan","lat":"-2.66803000","lon":"106.01257000"},
{"state":"Kepulauan Bangka Belitung","name":"Kabupaten Bangka Tengah","lat":"-2.33989000","lon":"106.11420000"},
{"state":"Kepulauan Bangka Belitung","name":"Kabupaten Belitung","lat":"-2.86667000","lon":"107.70000000"},
{"state":"Kepulauan Bangka Belitung","name":"Kabupaten Belitung Timur","lat":"-2.96270000","lon":"108.15216000"},
{"state":"Kepulauan Bangka Belitung","name":"Kota Pangkal Pinang","lat":"-2.13333000","lon":"106.13333000"},
{"state":"Kepulauan Bangka Belitung","name":"Manggar","lat":"-2.88333000","lon":"108.26667000"},
{"state":"Kepulauan Bangka Belitung","name":"Muntok","lat":"-2.06719000","lon":"105.16228000"},
{"state":"Kepulauan Bangka Belitung","name":"Pangkalpinang","lat":"-2.12914000","lon":"106.11377000"},
{"state":"Kepulauan Bangka Belitung","name":"Sungailiat","lat":"-1.85442000","lon":"106.12215000"},
{"state":"Kepulauan Bangka Belitung","name":"Tanjung Pandan","lat":"-2.73353000","lon":"107.63477000"},
{"state":"Kepulauan Riau","name":"Kabupaten Bintan","lat":"0.95000000","lon":"104.61944000"},
{"state":"Kepulauan Riau","name":"Kabupaten Karimun","lat":"0.80764000","lon":"103.41911000"},
{"state":"Kepulauan Riau","name":"Kabupaten Kepulauan Anambas","lat":"3.00000000","lon":"106.00000000"},
{"state":"Kepulauan Riau","name":"Kabupaten Lingga","lat":"0.20000000","lon":"104.61667000"},
{"state":"Kepulauan Riau","name":"Kabupaten Natuna","lat":"4.71417000","lon":"107.97639000"},
{"state":"Kepulauan Riau","name":"Kijang","lat":"0.90000000","lon":"104.63333000"},
{"state":"Kepulauan Riau","name":"Kota Batam","lat":"1.05211000","lon":"104.02851000"},
{"state":"Kepulauan Riau","name":"Kota Tanjung Pinang","lat":"0.91683000","lon":"104.44329000"},
{"state":"Kepulauan Riau","name":"Tanjung Pinang","lat":"0.91667000","lon":"104.45833000"},
{"state":"Lampung","name":"Bandar Lampung","lat":"-5.42917000","lon":"105.26111000"},
{"state":"Lampung","name":"Kabupaten Lampung Barat","lat":"-5.14904000","lon":"104.19309000"},
{"state":"Lampung","name":"Kabupaten Lampung Selatan","lat":"-5.45310000","lon":"104.98770000"},
{"state":"Lampung","name":"Kabupaten Lampung Tengah","lat":"-4.86667000","lon":"105.26667000"},
{"state":"Lampung","name":"Kabupaten Lampung Timur","lat":"-5.10273000","lon":"105.68003000"},
{"state":"Lampung","name":"Kabupaten Lampung Utara","lat":"-4.81667000","lon":"104.80000000"},
{"state":"Lampung","name":"Kabupaten Mesuji","lat":"-4.04390000","lon":"105.40130000"},
{"state":"Lampung","name":"Kabupaten Pesawaran","lat":"-5.42980000","lon":"105.17899000"},
{"state":"Lampung","name":"Kabupaten Pesisir Barat","lat":"-5.19323000","lon":"103.93976000"},
{"state":"Lampung","name":"Kabupaten Pringsewu","lat":"-5.42211000","lon":"104.93454000"},
{"state":"Lampung","name":"Kabupaten Tanggamus","lat":"-5.38508000","lon":"104.62349000"},
{"state":"Lampung","name":"Kabupaten Tulangbawang","lat":"-4.20604000","lon":"105.57999000"},
{"state":"Lampung","name":"Kabupaten Way Kanan","lat":"-4.44705000","lon":"104.52753000"},
{"state":"Lampung","name":"Kota Bandar Lampung","lat":"-5.41667000","lon":"105.25000000"},
{"state":"Lampung","name":"Kota Metro","lat":"-5.11856000","lon":"105.29949000"},
{"state":"Lampung","name":"Kotabumi","lat":"-4.82505000","lon":"104.88170000"},
{"state":"Lampung","name":"Metro","lat":"-5.11306000","lon":"105.30667000"},
{"state":"Lampung","name":"Terbanggi Besar","lat":"-4.87898000","lon":"105.21818000"},
{"state":"Maluku","name":"Amahai","lat":"-3.33984000","lon":"128.91975000"},
{"state":"Maluku","name":"Ambon","lat":"-3.69583000","lon":"128.18333000"},
{"state":"Maluku","name":"Kabupaten Buru","lat":"-3.32767000","lon":"126.68413000"},
{"state":"Maluku","name":"Kabupaten Buru Selatan","lat":"-3.52187000","lon":"126.59271000"},
{"state":"Maluku","name":"Kabupaten Kepulauan Aru","lat":"-6.17059000","lon":"134.46991000"},
{"state":"Maluku","name":"Kabupaten Maluku Barat Daya","lat":"-7.82960000","lon":"126.17386000"},
{"state":"Maluku","name":"Kabupaten Maluku Tengah","lat":"-3.29167000","lon":"128.96750000"},
{"state":"Maluku","name":"Kabupaten Maluku Tenggara","lat":"-5.75000000","lon":"132.73333000"},
{"state":"Maluku","name":"Kabupaten Maluku Tenggara Barat","lat":"-7.61186000","lon":"131.38000000"},
{"state":"Maluku","name":"Kabupaten Seram Bagian Barat","lat":"-3.10270000","lon":"128.42996000"},
{"state":"Maluku","name":"Kabupaten Seram Bagian Timur","lat":"-3.39851000","lon":"130.39167000"},
{"state":"Maluku","name":"Kota Ambon","lat":"-3.70000000","lon":"128.18333000"},
{"state":"Maluku","name":"Kota Tual","lat":"-5.64301000","lon":"132.74935000"},
{"state":"Maluku","name":"Tual","lat":"-5.62878000","lon":"132.75229000"},
{"state":"Maluku Utara","name":"East Halmahera Regency","lat":"1.33517000","lon":"128.48627000"},
{"state":"Maluku Utara","name":"Kabupaten Halmahera Barat","lat":"1.41709000","lon":"127.55264000"},
{"state":"Maluku Utara","name":"Kabupaten Halmahera Selatan","lat":"-0.39550000","lon":"127.90833000"},
{"state":"Maluku Utara","name":"Kabupaten Halmahera Tengah","lat":"0.48056000","lon":"128.25000000"},
{"state":"Maluku Utara","name":"Kabupaten Halmahera Utara","lat":"1.73194000","lon":"128.00778000"},
{"state":"Maluku Utara","name":"Kabupaten Kepulauan Sula","lat":"-1.86460000","lon":"125.69046000"},
{"state":"Maluku Utara","name":"Kabupaten Pulau Morotai","lat":"2.19924000","lon":"128.40546000"},
{"state":"Maluku Utara","name":"Kabupaten Pulau Taliabu","lat":"-1.84578000","lon":"124.78992000"},
{"state":"Maluku Utara","name":"Kota Ternate","lat":"0.89618000","lon":"127.31016000"},
{"state":"Maluku Utara","name":"Kota Tidore Kepulauan","lat":"0.60962000","lon":"127.56981000"},
{"state":"Maluku Utara","name":"Sofifi","lat":"0.73729000","lon":"127.55880000"},
{"state":"Maluku Utara","name":"Ternate","lat":"0.79065000","lon":"127.38424000"},
{"state":"Maluku Utara","name":"Tobelo","lat":"1.72837000","lon":"128.00948000"},
{"state":"Nusa Tenggara Barat","name":"Bima","lat":"-8.46006000","lon":"118.72667000"},
{"state":"Nusa Tenggara Barat","name":"Dompu","lat":"-8.53650000","lon":"118.46340000"},
{"state":"Nusa Tenggara Barat","name":"Gili Air","lat":"-8.35783000","lon":"116.08240000"},
{"state":"Nusa Tenggara Barat","name":"Kabupaten Bima","lat":"-8.60000000","lon":"118.61667000"},
{"state":"Nusa Tenggara Barat","name":"Kabupaten Dompu","lat":"-8.50940000","lon":"118.48160000"},
{"state":"Nusa Tenggara Barat","name":"Kabupaten Lombok Barat","lat":"-8.69583000","lon":"116.11667000"},
{"state":"Nusa Tenggara Barat","name":"Kabupaten Lombok Tengah","lat":"-8.70000000","lon":"116.30000000"},
{"state":"Nusa Tenggara Barat","name":"Kabupaten Lombok Timur","lat":"-8.53333000","lon":"116.53333000"},
{"state":"Nusa Tenggara Barat","name":"Kabupaten Lombok Utara","lat":"-8.35214000","lon":"116.40152000"},
{"state":"Nusa Tenggara Barat","name":"Kabupaten Sumbawa","lat":"-8.74390000","lon":"117.33240000"},
{"state":"Nusa Tenggara Barat","name":"Kabupaten Sumbawa Barat","lat":"-8.75159000","lon":"116.92132000"},
{"state":"Nusa Tenggara Barat","name":"Kota Bima","lat":"-8.46728000","lon":"118.75259000"},
{"state":"Nusa Tenggara Barat","name":"Kota Mataram","lat":"-8.58330000","lon":"116.11670000"},
{"state":"Nusa Tenggara Barat","name":"Labuan Lombok","lat":"-8.50000000","lon":"116.66667000"},
{"state":"Nusa Tenggara Barat","name":"Lembar","lat":"-8.72640000","lon":"116.07440000"},
{"state":"Nusa Tenggara Barat","name":"Mataram","lat":"-8.58333000","lon":"116.11667000"},
{"state":"Nusa Tenggara Barat","name":"Pemenang","lat":"-8.40401000","lon":"116.10255000"},
{"state":"Nusa Tenggara Barat","name":"Pototano","lat":"-8.41260000","lon":"117.48110000"},
{"state":"Nusa Tenggara Barat","name":"Praya","lat":"-8.70536000","lon":"116.27036000"},
{"state":"Nusa Tenggara Barat","name":"Senggigi","lat":"-8.49190000","lon":"116.04240000"},
{"state":"Nusa Tenggara Barat","name":"Sumbawa Besar","lat":"-8.49317000","lon":"117.42024000"},
{"state":"Nusa Tenggara Timur","name":"Atambua","lat":"-9.10611000","lon":"124.89250000"},
{"state":"Nusa Tenggara Timur","name":"Ende","lat":"-8.84320000","lon":"121.66230000"},
{"state":"Nusa Tenggara Timur","name":"Kabupaten Alor","lat":"-8.30000000","lon":"124.56667000"},
{"state":"Nusa Tenggara Timur","name":"Kabupaten Belu","lat":"-9.41258000","lon":"124.95066000"},
{"state":"Nusa Tenggara Timur","name":"Kabupaten Ende","lat":"-8.84056000","lon":"121.66389000"},
{"state":"Nusa Tenggara Timur","name":"Kabupaten Flores Timur","lat":"-8.24224000","lon":"122.96817000"},
{"state":"Nusa Tenggara Timur","name":"Kabupaten Kupang","lat":"-9.91667000","lon":"123.83333000"},
{"state":"Nusa Tenggara Timur","name":"Kabupaten Lembata","lat":"-8.41396000","lon":"123.55225000"},
{"state":"Nusa Tenggara Timur","name":"Kabupaten Malaka","lat":"-9.56320000","lon":"124.89481000"},
{"state":"Nusa Tenggara Timur","name":"Kabupaten Manggarai","lat":"-8.56667000","lon":"120.41667000"},
{"state":"Nusa Tenggara Timur","name":"Kabupaten Manggarai Barat","lat":"-8.64484000","lon":"119.88281000"},
{"state":"Nusa Tenggara Timur","name":"Kabupaten Manggarai Timur","lat":"-8.55533000","lon":"120.59761000"},
{"state":"Nusa Tenggara Timur","name":"Kabupaten Nagekeo","lat":"-8.87210000","lon":"121.20963000"},
{"state":"Nusa Tenggara Timur","name":"Kabupaten Ngada","lat":"-8.66667000","lon":"121.00000000"},
{"state":"Nusa Tenggara Timur","name":"Kabupaten Rote Ndao","lat":"-10.73617000","lon":"123.12054000"},
{"state":"Nusa Tenggara Timur","name":"Kabupaten Sabu Raijua","lat":"-10.56286000","lon":"121.78894000"},
{"state":"Nusa Tenggara Timur","name":"Kabupaten Sikka","lat":"-8.66667000","lon":"122.36667000"},
{"state":"Nusa Tenggara Timur","name":"Kabupaten Sumba Barat","lat":"-9.56667000","lon":"119.45000000"},
{"state":"Nusa Tenggara Timur","name":"Kabupaten Sumba Barat Daya","lat":"-9.56216000","lon":"119.08905000"},
{"state":"Nusa Tenggara Timur","name":"Kabupaten Sumba Tengah","lat":"-9.62941000","lon":"119.61914000"},
{"state":"Nusa Tenggara Timur","name":"Kabupaten Sumba Timur","lat":"-9.88333000","lon":"120.25000000"},
{"state":"Nusa Tenggara Timur","name":"Kabupaten Timor Tengah Selatan","lat":"-9.83333000","lon":"124.40000000"},
{"state":"Nusa Tenggara Timur","name":"Kabupaten Timor Tengah Utara","lat":"-9.33136000","lon":"124.51904000"},
{"state":"Nusa Tenggara Timur","name":"Kefamenanu","lat":"-9.44667000","lon":"124.47806000"},
{"state":"Nusa Tenggara Timur","name":"Komodo","lat":"-8.58950000","lon":"119.49130000"},
{"state":"Nusa Tenggara Timur","name":"Kota Kupang","lat":"-10.21667000","lon":"123.60000000"},
{"state":"Nusa Tenggara Timur","name":"Kupang","lat":"-10.17083000","lon":"123.60694000"},
{"state":"Nusa Tenggara Timur","name":"Labuan Bajo","lat":"-8.49640000","lon":"119.88770000"},
{"state":"Nusa Tenggara Timur","name":"Maumere","lat":"-8.61990000","lon":"122.21110000"},
{"state":"Nusa Tenggara Timur","name":"Naisano Dua","lat":"-9.59806000","lon":"123.77028000"},
{"state":"Nusa Tenggara Timur","name":"Ruteng","lat":"-8.61139000","lon":"120.46444000"},
{"state":"Nusa Tenggara Timur","name":"Soe","lat":"-9.86071000","lon":"124.28395000"},
{"state":"Nusa Tenggara Timur","name":"Waingapu","lat":"-9.65670000","lon":"120.26410000"},
{"state":"Papua","name":"Abepura","lat":"-2.59640000","lon":"140.63240000"},
{"state":"Papua","name":"Biak","lat":"-1.17670000","lon":"136.08200000"},
{"state":"Papua","name":"Insrom","lat":"-1.14473000","lon":"136.03134000"},
{"state":"Papua","name":"Jayapura","lat":"-2.53371000","lon":"140.71813000"},
{"state":"Papua","name":"Kabupaten Asmat","lat":"-5.37950000","lon":"138.46344000"},
{"state":"Papua","name":"Kabupaten Biak Numfor","lat":"-1.03333000","lon":"136.00000000"},
{"state":"Papua","name":"Kabupaten Boven Digoel","lat":"-5.70519000","lon":"140.36349000"},
{"state":"Papua","name":"Kabupaten Deiyai","lat":"-3.94737000","lon":"135.95032000"},
{"state":"Papua","name":"Kabupaten Dogiyai","lat":"-4.03186000","lon":"135.43945000"},
{"state":"Papua","name":"Kabupaten Intan Jaya","lat":"-3.41016000","lon":"136.70837000"},
{"state":"Papua","name":"Kabupaten Jayapura","lat":"-3.00000000","lon":"139.95000000"},
{"state":"Papua","name":"Kabupaten Jayawijaya","lat":"-4.08333000","lon":"139.08333000"},
{"state":"Papua","name":"Kabupaten Keerom","lat":"-3.30000000","lon":"140.61667000"},
{"state":"Papua","name":"Kabupaten Kepulauan Yapen","lat":"-1.78773000","lon":"136.27716000"},
{"state":"Papua","name":"Kabupaten Lanny Jaya","lat":"-3.91244000","lon":"138.28766000"},
{"state":"Papua","name":"Kabupaten Mamberamo Raya","lat":"-2.23561000","lon":"137.78229000"},
{"state":"Papua","name":"Kabupaten Mamberamo Tengah","lat":"-2.46064000","lon":"138.45245000"},
{"state":"Papua","name":"Kabupaten Mappi","lat":"-6.49971000","lon":"139.34441000"},
{"state":"Papua","name":"Kabupaten Merauke","lat":"-7.66667000","lon":"139.66667000"},
{"state":"Papua","name":"Kabupaten Mimika","lat":"-4.54357000","lon":"136.56555000"},
{"state":"Papua","name":"Kabupaten Nabire","lat":"-3.54016000","lon":"135.55511000"},
{"state":"Papua","name":"Kabupaten Nduga","lat":"-4.45093000","lon":"138.10089000"},
{"state":"Papua","name":"Kabupaten Paniai","lat":"-3.90000000","lon":"136.60000000"},
{"state":"Papua","name":"Kabupaten Pegunungan Bintang","lat":"-4.52167000","lon":"140.29541000"},
{"state":"Papua","name":"Kabupaten Puncak Jaya","lat":"-3.67241000","lon":"137.43896000"},
{"state":"Papua","name":"Kabupaten Sarmi","lat":"-2.41667000","lon":"139.08333000"},
{"state":"Papua","name":"Kabupaten Supiori","lat":"-0.73881000","lon":"135.61111000"},
{"state":"Papua","name":"Kabupaten Tolikara","lat":"-3.42661000","lon":"137.41699000"},
{"state":"Papua","name":"Kabupaten Waropen","lat":"-2.28600000","lon":"137.01837000"},
{"state":"Papua","name":"Kabupaten Yahukimo","lat":"-4.60403000","lon":"139.58405000"},
{"state":"Papua","name":"Kabupaten Yalimo","lat":"-3.86037000","lon":"138.47305000"},
{"state":"Papua","name":"Kota Jayapura","lat":"-2.64647000","lon":"140.77779000"},
{"state":"Papua","name":"Nabire","lat":"-3.35989000","lon":"135.50074000"},
{"state":"Papua Barat","name":"Kabupaten Fakfak","lat":"-2.92641000","lon":"132.29608000"},
{"state":"Papua Barat","name":"Kabupaten Kaimana","lat":"-3.66093000","lon":"133.77451000"},
{"state":"Papua Barat","name":"Kabupaten Manokwari","lat":"-0.90000000","lon":"133.75000000"},
{"state":"Papua Barat","name":"Kabupaten Manokwari Selatan","lat":"-1.07980000","lon":"133.96729000"},
{"state":"Papua Barat","name":"Kabupaten Maybrat","lat":"-1.21550000","lon":"132.35092000"},
{"state":"Papua Barat","name":"Kabupaten Raja Ampat","lat":"-0.50000000","lon":"130.00000000"},
{"state":"Papua Barat","name":"Kabupaten Sorong","lat":"-1.16667000","lon":"131.50000000"},
{"state":"Papua Barat","name":"Kabupaten Sorong Selatan","lat":"-1.50495000","lon":"132.28638000"},
{"state":"Papua Barat","name":"Kabupaten Tambrauw","lat":"-0.60515000","lon":"132.48962000"},
{"state":"Papua Barat","name":"Kabupaten Teluk Bintuni","lat":"-1.88037000","lon":"133.33105000"},
{"state":"Papua Barat","name":"Kabupaten Teluk Wondama","lat":"-2.70000000","lon":"134.50000000"},
{"state":"Papua Barat","name":"Kota Sorong","lat":"-0.86507000","lon":"131.25152000"},
{"state":"Papua Barat","name":"Manokwari","lat":"-0.86291000","lon":"134.06402000"},
{"state":"Papua Barat","name":"Sorong","lat":"-0.87956000","lon":"131.26104000"},
{"state":"Riau","name":"Balaipungut","lat":"1.05949000","lon":"101.29054000"},
{"state":"Riau","name":"Batam","lat":"1.14937000","lon":"104.02491000"},
{"state":"Riau","name":"Dumai","lat":"1.66711000","lon":"101.44316000"},
{"state":"Riau","name":"Kabupaten Bengkalis","lat":"0.98380000","lon":"102.50960000"},
{"state":"Riau","name":"Kabupaten Indragiri Hilir","lat":"-0.33333000","lon":"103.16667000"},
{"state":"Riau","name":"Kabupaten Indragiri Hulu","lat":"-0.55000000","lon":"102.31667000"},
{"state":"Riau","name":"Kabupaten Kampar","lat":"0.23440000","lon":"101.21310000"},
{"state":"Riau","name":"Kabupaten Kepulauan Meranti","lat":"0.97488000","lon":"102.69539000"},
{"state":"Riau","name":"Kabupaten Kuantan Singingi","lat":"-0.47532000","lon":"101.45857000"},
{"state":"Riau","name":"Kabupaten Pelalawan","lat":"0.20822000","lon":"102.18607000"},
{"state":"Riau","name":"Kabupaten Rokan Hilir","lat":"2.16599000","lon":"100.82514000"},
{"state":"Riau","name":"Kabupaten Rokan Hulu","lat":"0.88333000","lon":"100.48333000"},
{"state":"Riau","name":"Kabupaten Siak","lat":"0.97453000","lon":"102.01355000"},
{"state":"Riau","name":"Kota Dumai","lat":"1.61592000","lon":"101.49170000"},
{"state":"Riau","name":"Kota Pekanbaru","lat":"0.53333000","lon":"101.46667000"},
{"state":"Riau","name":"Pekanbaru","lat":"0.51667000","lon":"101.44167000"},
{"state":"Sulawesi Barat","name":"Kabupaten Majene","lat":"-3.15000000","lon":"118.86667000"},
{"state":"Sulawesi Barat","name":"Kabupaten Mamasa","lat":"-2.96492000","lon":"119.30631000"},
{"state":"Sulawesi Barat","name":"Kabupaten Mamuju","lat":"-2.50000000","lon":"119.41667000"},
{"state":"Sulawesi Barat","name":"Kabupaten Mamuju Tengah","lat":"-2.82120000","lon":"119.26620000"},
{"state":"Sulawesi Barat","name":"Kabupaten Mamuju Utara","lat":"-1.51639000","lon":"119.42139000"},
{"state":"Sulawesi Barat","name":"Kabupaten Polewali Mandar","lat":"-3.30000000","lon":"119.16667000"},
{"state":"Sulawesi Barat","name":"Majene","lat":"-3.54030000","lon":"118.97070000"},
{"state":"Sulawesi Barat","name":"Mamuju","lat":"-2.68056000","lon":"118.88611000"},
{"state":"Sulawesi Barat","name":"Polewali","lat":"-3.43240000","lon":"119.34350000"},
{"state":"Sulawesi Selatan","name":"Galesong","lat":"-5.31660000","lon":"119.36610000"},
{"state":"Sulawesi Selatan","name":"Kabupaten Bantaeng","lat":"-5.48333000","lon":"119.98333000"},
{"state":"Sulawesi Selatan","name":"Kabupaten Barru","lat":"-4.43333000","lon":"119.68333000"},
{"state":"Sulawesi Selatan","name":"Kabupaten Bone","lat":"-4.70000000","lon":"120.13333000"},
{"state":"Sulawesi Selatan","name":"Kabupaten Bulukumba","lat":"-5.41667000","lon":"120.23333000"},
{"state":"Sulawesi Selatan","name":"Kabupaten Enrekang","lat":"-3.50000000","lon":"119.86667000"},
{"state":"Sulawesi Selatan","name":"Kabupaten Gowa","lat":"-5.31667000","lon":"119.75000000"},
{"state":"Sulawesi Selatan","name":"Kabupaten Jeneponto","lat":"-5.63333000","lon":"119.73333000"},
{"state":"Sulawesi Selatan","name":"Kabupaten Luwu","lat":"-2.55770000","lon":"121.32420000"},
{"state":"Sulawesi Selatan","name":"Kabupaten Luwu Timur","lat":"-2.50957000","lon":"120.39780000"},
{"state":"Sulawesi Selatan","name":"Kabupaten Luwu Utara","lat":"-2.60000000","lon":"120.25000000"},
{"state":"Sulawesi Selatan","name":"Kabupaten Maros","lat":"-5.05000000","lon":"119.71667000"},
{"state":"Sulawesi Selatan","name":"Kabupaten Pangkajene Dan Kepulauan","lat":"-4.78270000","lon":"119.55060000"},
{"state":"Sulawesi Selatan","name":"Kabupaten Pinrang","lat":"-3.61667000","lon":"119.60000000"},
{"state":"Sulawesi Selatan","name":"Kabupaten Sidenreng Rappang","lat":"-3.85000000","lon":"119.96667000"},
{"state":"Sulawesi Selatan","name":"Kabupaten Sinjai","lat":"-5.21667000","lon":"120.15000000"},
{"state":"Sulawesi Selatan","name":"Kabupaten Soppeng","lat":"-4.38420000","lon":"119.89000000"},
{"state":"Sulawesi Selatan","name":"Kabupaten Takalar","lat":"-5.41667000","lon":"119.51667000"},
{"state":"Sulawesi Selatan","name":"Kabupaten Tana Toraja","lat":"-3.00240000","lon":"119.79655000"},
{"state":"Sulawesi Selatan","name":"Kabupaten Toraja Utara","lat":"-2.92738000","lon":"119.79218000"},
{"state":"Sulawesi Selatan","name":"Kabupaten Wajo","lat":"-4.00000000","lon":"120.16667000"},
{"state":"Sulawesi Selatan","name":"Kota Makassar","lat":"-5.15000000","lon":"119.45000000"},
{"state":"Sulawesi Selatan","name":"Kota Palopo","lat":"-2.97841000","lon":"120.11078000"},
{"state":"Sulawesi Selatan","name":"Kota Parepare","lat":"-4.03333000","lon":"119.65000000"},
{"state":"Sulawesi Selatan","name":"Makassar","lat":"-5.14861000","lon":"119.43194000"},
{"state":"Sulawesi Selatan","name":"Maros","lat":"-5.00600000","lon":"119.57270000"},
{"state":"Sulawesi Selatan","name":"Palopo","lat":"-2.99250000","lon":"120.19694000"},
{"state":"Sulawesi Selatan","name":"Parepare","lat":"-4.01350000","lon":"119.62550000"},
{"state":"Sulawesi Selatan","name":"Rantepao","lat":"-2.97010000","lon":"119.89780000"},
{"state":"Sulawesi Selatan","name":"Selayar Islands Regency","lat":"-6.81667000","lon":"120.80000000"},
{"state":"Sulawesi Selatan","name":"Sengkang","lat":"-4.12790000","lon":"120.02970000"},
{"state":"Sulawesi Selatan","name":"Sinjai","lat":"-5.12410000","lon":"120.25300000"},
{"state":"Sulawesi Selatan","name":"Watampone","lat":"-4.53860000","lon":"120.32790000"},
{"state":"Sulawesi Tengah","name":"Kabupaten Banggai","lat":"-0.91141000","lon":"122.71836000"},
{"state":"Sulawesi Tengah","name":"Kabupaten Banggai Kepulauan","lat":"-1.30236000","lon":"123.03726000"},
{"state":"Sulawesi Tengah","name":"Kabupaten Banggai Laut","lat":"-1.61841000","lon":"123.49388000"},
{"state":"Sulawesi Tengah","name":"Kabupaten Buol","lat":"1.04656000","lon":"121.36867000"},
{"state":"Sulawesi Tengah","name":"Kabupaten Donggala","lat":"-0.58333000","lon":"119.85000000"},
{"state":"Sulawesi Tengah","name":"Kabupaten Morowali Utara","lat":"-1.72070000","lon":"121.24649000"},
{"state":"Sulawesi Tengah","name":"Kabupaten Parigi Moutong","lat":"0.33680000","lon":"120.17841000"},
{"state":"Sulawesi Tengah","name":"Kabupaten Poso","lat":"-1.65000000","lon":"120.50000000"},
{"state":"Sulawesi Tengah","name":"Kabupaten Sigi","lat":"-1.38500000","lon":"119.96694000"},
{"state":"Sulawesi Tengah","name":"Kabupaten Toli-Toli","lat":"1.30862000","lon":"120.88643000"},
{"state":"Sulawesi Tengah","name":"Kota Palu","lat":"-0.86972000","lon":"119.90000000"},
{"state":"Sulawesi Tengah","name":"Luwuk","lat":"-0.95160000","lon":"122.78750000"},
{"state":"Sulawesi Tengah","name":"Morowali Regency","lat":"-2.76062000","lon":"121.95267000"},
{"state":"Sulawesi Tengah","name":"Palu","lat":"-0.90833000","lon":"119.87083000"},
{"state":"Sulawesi Tengah","name":"Poso","lat":"-1.39590000","lon":"120.75240000"},
{"state":"Sulawesi Tengah","name":"Tojo Una-Una Regency","lat":"-1.20360000","lon":"121.48201000"},
{"state":"Sulawesi Tenggara","name":"Kabupaten Bombana","lat":"-4.62570000","lon":"121.81641000"},
{"state":"Sulawesi Tenggara","name":"Kabupaten Buton","lat":"-5.31667000","lon":"122.91667000"},
{"state":"Sulawesi Tenggara","name":"Kabupaten Buton Selatan","lat":"-5.56667000","lon":"122.70000000"},
{"state":"Sulawesi Tenggara","name":"Kabupaten Buton Tengah","lat":"-5.31667000","lon":"122.33333000"},
{"state":"Sulawesi Tenggara","name":"Kabupaten Buton Utara","lat":"-5.01457000","lon":"122.93015000"},
{"state":"Sulawesi Tenggara","name":"Kabupaten Kolaka","lat":"-4.08333000","lon":"121.66667000"},
{"state":"Sulawesi Tenggara","name":"Kabupaten Kolaka Timur","lat":"-4.01807000","lon":"121.86172000"},
{"state":"Sulawesi Tenggara","name":"Kabupaten Kolaka Utara","lat":"-3.10452000","lon":"121.12427000"},
{"state":"Sulawesi Tenggara","name":"Kabupaten Konawe","lat":"-3.91717000","lon":"122.08823000"},
{"state":"Sulawesi Tenggara","name":"Kabupaten Konawe Kepulauan","lat":"-4.11656000","lon":"123.10181000"},
{"state":"Sulawesi Tenggara","name":"Kabupaten Konawe Selatan","lat":"-4.19191000","lon":"122.44854000"},
{"state":"Sulawesi Tenggara","name":"Kabupaten Konawe Utara","lat":"-3.41552000","lon":"121.99081000"},
{"state":"Sulawesi Tenggara","name":"Kabupaten Muna","lat":"-4.96667000","lon":"122.66667000"},
{"state":"Sulawesi Tenggara","name":"Kabupaten Muna Barat","lat":"-4.83333000","lon":"122.48333000"},
{"state":"Sulawesi Tenggara","name":"Katabu","lat":"-4.93330000","lon":"122.51670000"},
{"state":"Sulawesi Tenggara","name":"Kendari","lat":"-3.97780000","lon":"122.51507000"},
{"state":"Sulawesi Tenggara","name":"Kota Baubau","lat":"-5.47700000","lon":"122.61660000"},
{"state":"Sulawesi Tenggara","name":"Kota Kendari","lat":"-3.98333000","lon":"122.50000000"},
{"state":"Sulawesi Tenggara","name":"Wakatobi Regency","lat":"-5.31934000","lon":"123.59480000"},
{"state":"Sulawesi Utara","name":"Kabupaten Bolaang Mongondow","lat":"0.75000000","lon":"124.08333000"},
{"state":"Sulawesi Utara","name":"Kabupaten Bolaang Mongondow Selatan","lat":"0.40912000","lon":"123.75961000"},
{"state":"Sulawesi Utara","name":"Kabupaten Bolaang Mongondow Timur","lat":"0.72073000","lon":"124.50256000"},
{"state":"Sulawesi Utara","name":"Kabupaten Bolaang Mongondow Utara","lat":"0.78527000","lon":"123.41766000"},
{"state":"Sulawesi Utara","name":"Kabupaten Kepulauan Sangihe","lat":"3.50000000","lon":"125.55000000"},
{"state":"Sulawesi Utara","name":"Kabupaten Kepulauan Talaud","lat":"4.31178000","lon":"126.78085000"},
{"state":"Sulawesi Utara","name":"Kabupaten Minahasa","lat":"1.25370000","lon":"124.83000000"},
{"state":"Sulawesi Utara","name":"Kabupaten Minahasa Selatan","lat":"1.21291000","lon":"124.59708000"},
{"state":"Sulawesi Utara","name":"Kabupaten Minahasa Tenggara","lat":"1.05633000","lon":"124.79250000"},
{"state":"Sulawesi Utara","name":"Kabupaten Minahasa Utara","lat":"1.40250000","lon":"124.96000000"},
{"state":"Sulawesi Utara","name":"Kabupaten Siau Tagulandang Biaro","lat":"2.11728000","lon":"125.37512000"},
{"state":"Sulawesi Utara","name":"Kota Bitung","lat":"1.48333000","lon":"125.15000000"},
{"state":"Sulawesi Utara","name":"Kota Kotamobagu","lat":"0.68915000","lon":"124.32678000"},
{"state":"Sulawesi Utara","name":"Kota Manado","lat":"1.51667000","lon":"124.88333000"},
{"state":"Sulawesi Utara","name":"Kota Tomohon","lat":"1.31307000","lon":"124.83404000"},
{"state":"Sulawesi Utara","name":"Laikit Laikit II (Dimembe)","lat":"1.48833000","lon":"124.97444000"},
{"state":"Sulawesi Utara","name":"Manado","lat":"1.48218000","lon":"124.84892000"},
{"state":"Sulawesi Utara","name":"Tomohon","lat":"1.31678000","lon":"124.80379000"},
{"state":"Sulawesi Utara","name":"Tondano","lat":"1.30540000","lon":"124.91261000"},
{"state":"Sumatera Barat","name":"Bukittinggi","lat":"-0.30907000","lon":"100.37055000"},
{"state":"Sumatera Barat","name":"Kabupaten Agam","lat":"-0.25000000","lon":"100.16667000"},
{"state":"Sumatera Barat","name":"Kabupaten Dharmasraya","lat":"-1.05000000","lon":"101.36700000"},
{"state":"Sumatera Barat","name":"Kabupaten Kepulauan Mentawai","lat":"1.98917000","lon":"99.51889000"},
{"state":"Sumatera Barat","name":"Kabupaten Lima Puluh Kota","lat":"-0.01680000","lon":"100.58720000"},
{"state":"Sumatera Barat","name":"Kabupaten Padang Pariaman","lat":"-0.60000000","lon":"100.28333000"},
{"state":"Sumatera Barat","name":"Kabupaten Pasaman","lat":"0.42503000","lon":"99.94606000"},
{"state":"Sumatera Barat","name":"Kabupaten Pasaman Barat","lat":"0.28152000","lon":"99.51965000"},
{"state":"Sumatera Barat","name":"Kabupaten Pesisir Selatan","lat":"-1.58333000","lon":"100.85000000"},
{"state":"Sumatera Barat","name":"Kabupaten Sijunjung","lat":"-1.18270000","lon":"101.60560000"},
{"state":"Sumatera Barat","name":"Kabupaten Solok","lat":"-0.96667000","lon":"100.81667000"},
{"state":"Sumatera Barat","name":"Kabupaten Solok Selatan","lat":"-1.23333000","lon":"101.41700000"},
{"state":"Sumatera Barat","name":"Kabupaten Tanah Datar","lat":"-0.45550000","lon":"100.57710000"},
{"state":"Sumatera Barat","name":"Kota Bukittinggi","lat":"-0.27500000","lon":"100.37500000"},
{"state":"Sumatera Barat","name":"Kota Padang","lat":"-0.98333000","lon":"100.45000000"},
{"state":"Sumatera Barat","name":"Kota Padang Panjang","lat":"-0.45000000","lon":"100.43333000"},
{"state":"Sumatera Barat","name":"Kota Pariaman","lat":"-0.62682000","lon":"100.12047000"},
{"state":"Sumatera Barat","name":"Kota Payakumbuh","lat":"-0.23333000","lon":"100.63333000"},
{"state":"Sumatera Barat","name":"Kota Sawah Lunto","lat":"-0.60000000","lon":"100.75000000"},
{"state":"Sumatera Barat","name":"Kota Solok","lat":"-0.76667000","lon":"100.61667000"},
{"state":"Sumatera Barat","name":"Padang","lat":"-0.94924000","lon":"100.35427000"},
{"state":"Sumatera Barat","name":"Pariaman","lat":"-0.61898000","lon":"100.11997000"},
{"state":"Sumatera Barat","name":"Payakumbuh","lat":"-0.21590000","lon":"100.63340000"},
{"state":"Sumatera Barat","name":"Sijunjung","lat":"-0.70050000","lon":"100.97740000"},
{"state":"Sumatera Barat","name":"Solok","lat":"-0.80060000","lon":"100.65710000"},
{"state":"Sumatera Selatan","name":"Baturaja","lat":"-4.12891000","lon":"104.16695000"},
{"state":"Sumatera Selatan","name":"Kabupaten Empat Lawang","lat":"3.22667000","lon":"99.09256000"},
{"state":"Sumatera Selatan","name":"Kabupaten Muara Enim","lat":"-4.23270000","lon":"103.61410000"},
{"state":"Sumatera Selatan","name":"Kabupaten Musi Banyuasin","lat":"-2.41667000","lon":"103.75000000"},
{"state":"Sumatera Selatan","name":"Kabupaten Musi Rawas","lat":"-3.08333000","lon":"103.20000000"},
{"state":"Sumatera Selatan","name":"Kabupaten Musi Rawas Utara","lat":"-2.48533000","lon":"103.29346000"},
{"state":"Sumatera Selatan","name":"Kabupaten Ogan Ilir","lat":"-3.43186000","lon":"104.62727000"},
{"state":"Sumatera Selatan","name":"Kabupaten Ogan Komering Ilir","lat":"-3.36667000","lon":"105.36667000"},
{"state":"Sumatera Selatan","name":"Kabupaten Ogan Komering Ulu","lat":"-4.13333000","lon":"104.03333000"},
{"state":"Sumatera Selatan","name":"Kabupaten Ogan Komering Ulu Selatan","lat":"-4.65728000","lon":"104.00659000"},
{"state":"Sumatera Selatan","name":"Kabupaten Ogan Komering Ulu Timur","lat":"-3.85679000","lon":"104.75209000"},
{"state":"Sumatera Selatan","name":"Kabupaten Penukal Abab Lematang Ilir","lat":"-3.21342000","lon":"104.08722000"},
{"state":"Sumatera Selatan","name":"Kota Lubuklinggau","lat":"-3.29308000","lon":"102.85503000"},
{"state":"Sumatera Selatan","name":"Kota Pagar Alam","lat":"-4.13055000","lon":"103.26822000"},
{"state":"Sumatera Selatan","name":"Kota Palembang","lat":"-3.00000000","lon":"104.71667000"},
{"state":"Sumatera Selatan","name":"Kota Prabumulih","lat":"-3.46202000","lon":"104.22290000"},
{"state":"Sumatera Selatan","name":"Lahat","lat":"-3.78514000","lon":"103.54279000"},
{"state":"Sumatera Selatan","name":"Lahat Regency","lat":"-3.78640000","lon":"103.54280000"},
{"state":"Sumatera Selatan","name":"Lubuklinggau","lat":"-3.29450000","lon":"102.86140000"},
{"state":"Sumatera Selatan","name":"Pagar Alam","lat":"-4.02506000","lon":"103.24694000"},
{"state":"Sumatera Selatan","name":"Palembang","lat":"-2.91673000","lon":"104.74580000"},
{"state":"Sumatera Selatan","name":"Prabumulih","lat":"-3.43447000","lon":"104.23056000"},
{"state":"Sumatera Selatan","name":"Tanjungagung","lat":"-3.93728000","lon":"103.80465000"},
{"state":"Sumatera Utara","name":"Ambarita","lat":"2.68140000","lon":"98.83110000"},
{"state":"Sumatera Utara","name":"Bandar","lat":"2.05000000","lon":"99.75000000"},
{"state":"Sumatera Utara","name":"Belawan","lat":"3.77550000","lon":"98.68320000"},
{"state":"Sumatera Utara","name":"Berastagi","lat":"3.19468000","lon":"98.50889000"},
{"state":"Sumatera Utara","name":"Binjai","lat":"3.60010000","lon":"98.48540000"},
{"state":"Sumatera Utara","name":"Deli Tua","lat":"3.50780000","lon":"98.68390000"},
{"state":"Sumatera Utara","name":"Gunungsitoli","lat":"1.28880000","lon":"97.61430000"},
{"state":"Sumatera Utara","name":"Kabanjahe","lat":"3.10010000","lon":"98.49080000"},
{"state":"Sumatera Utara","name":"Kabupaten Asahan","lat":"2.78333000","lon":"99.55000000"},
{"state":"Sumatera Utara","name":"Kabupaten Batu Bara","lat":"3.16166000","lon":"99.52652000"},
{"state":"Sumatera Utara","name":"Kabupaten Dairi","lat":"2.86667000","lon":"98.23333000"},
{"state":"Sumatera Utara","name":"Kabupaten Deli Serdang","lat":"3.41667000","lon":"98.66667000"},
{"state":"Sumatera Utara","name":"Kabupaten Humbang Hasundutan","lat":"2.26551000","lon":"98.50376000"},
{"state":"Sumatera Utara","name":"Kabupaten Karo","lat":"3.11667000","lon":"98.30000000"},
{"state":"Sumatera Utara","name":"Kabupaten Labuhan Batu","lat":"2.26667000","lon":"100.10000000"},
{"state":"Sumatera Utara","name":"Kabupaten Labuhan Batu Selatan","lat":"1.98300000","lon":"100.09760000"},
{"state":"Sumatera Utara","name":"Kabupaten Labuhan Batu Utara","lat":"2.33349000","lon":"99.63776000"},
{"state":"Sumatera Utara","name":"Kabupaten Langkat","lat":"3.71667000","lon":"98.21667000"},
{"state":"Sumatera Utara","name":"Kabupaten Mandailing Natal","lat":"0.78378000","lon":"99.25495000"},
{"state":"Sumatera Utara","name":"Kabupaten Nias","lat":"1.03333000","lon":"97.76667000"},
{"state":"Sumatera Utara","name":"Kabupaten Nias Barat","lat":"1.05966000","lon":"97.58606000"},
{"state":"Sumatera Utara","name":"Kabupaten Nias Utara","lat":"1.33037000","lon":"97.31964000"},
{"state":"Sumatera Utara","name":"Kabupaten Padang Lawas","lat":"1.44684000","lon":"99.99207000"},
{"state":"Sumatera Utara","name":"Kabupaten Padang Lawas Utara","lat":"1.46011000","lon":"99.67346000"},
{"state":"Sumatera Utara","name":"Kabupaten Pakpak Bharat","lat":"2.56667000","lon":"98.28333000"},
{"state":"Sumatera Utara","name":"Kabupaten Samosir","lat":"2.64025000","lon":"98.71525000"},
{"state":"Sumatera Utara","name":"Kabupaten Serdang Bedagai","lat":"3.36667000","lon":"99.03333000"},
{"state":"Sumatera Utara","name":"Kabupaten Simalungun","lat":"2.90000000","lon":"99.00000000"},
{"state":"Sumatera Utara","name":"Kabupaten Tapanuli Selatan","lat":"1.51667000","lon":"99.25000000"},
{"state":"Sumatera Utara","name":"Kabupaten Tapanuli Tengah","lat":"1.90000000","lon":"98.66667000"},
{"state":"Sumatera Utara","name":"Kabupaten Tapanuli Utara","lat":"2.00280000","lon":"99.07070000"},
{"state":"Sumatera Utara","name":"Kisaran","lat":"2.98450000","lon":"99.61580000"},
{"state":"Sumatera Utara","name":"Kota Binjai","lat":"3.80000000","lon":"108.23333000"},
{"state":"Sumatera Utara","name":"Kota Gunungsitoli","lat":"1.32731000","lon":"97.55018000"},
{"state":"Sumatera Utara","name":"Kota Medan","lat":"3.65000000","lon":"98.66667000"},
{"state":"Sumatera Utara","name":"Kota Padangsidimpuan","lat":"1.37375000","lon":"99.26843000"},
{"state":"Sumatera Utara","name":"Kota Pematang Siantar","lat":"2.96667000","lon":"99.05000000"},
{"state":"Sumatera Utara","name":"Kota Sibolga","lat":"1.73333000","lon":"98.80000000"},
{"state":"Sumatera Utara","name":"Kota Tanjung Balai","lat":"2.95833000","lon":"99.79167000"},
{"state":"Sumatera Utara","name":"Kota Tebing Tinggi","lat":"3.32500000","lon":"99.14167000"},
{"state":"Sumatera Utara","name":"Labuhan Deli","lat":"3.72780000","lon":"98.67380000"},
{"state":"Sumatera Utara","name":"Medan","lat":"3.58333000","lon":"98.66667000"},
{"state":"Sumatera Utara","name":"Padangsidempuan","lat":"1.37952000","lon":"99.27146000"},
{"state":"Sumatera Utara","name":"Pangkalan Brandan","lat":"4.02380000","lon":"98.27820000"},
{"state":"Sumatera Utara","name":"Parapat","lat":"2.66300000","lon":"98.93490000"},
{"state":"Sumatera Utara","name":"Pekan Bahapal","lat":"3.11313000","lon":"99.17352000"},
{"state":"Sumatera Utara","name":"Pematangsiantar","lat":"2.95950000","lon":"99.06870000"},
{"state":"Sumatera Utara","name":"Perbaungan","lat":"3.56790000","lon":"98.95600000"},
{"state":"Sumatera Utara","name":"Percut","lat":"3.62530000","lon":"98.86400000"},
{"state":"Sumatera Utara","name":"Rantauprapat","lat":"2.10000000","lon":"99.83333000"},
{"state":"Sumatera Utara","name":"Sibolga","lat":"1.74016000","lon":"98.78117000"},
{"state":"Sumatera Utara","name":"Stabat","lat":"3.73335000","lon":"98.45025000"},
{"state":"Sumatera Utara","name":"Sunggal","lat":"3.57650000","lon":"98.61510000"},
{"state":"Sumatera Utara","name":"Tanjungbalai","lat":"2.96667000","lon":"99.80000000"},
{"state":"Sumatera Utara","name":"Tanjungtiram","lat":"4.06130000","lon":"98.36990000"},
{"state":"Sumatera Utara","name":"Tebingtinggi","lat":"3.32850000","lon":"99.16250000"},
{"state":"Sumatera Utara","name":"Teluk Nibung","lat":"3.00100000","lon":"99.81640000"},
{"state":"Sumatera Utara","name":"Tomok Bolon","lat":"2.65210000","lon":"98.86080000"},
{"state":"Sumatera Utara","name":"Tongging","lat":"2.89850000","lon":"98.52310000"},
{"state":"Sumatera Utara","name":"Tuktuk Sonak","lat":"2.66890000","lon":"98.85760000"}]