[{"state":"Connacht","name":"Athenry","lat":"53.29639000","lon":"-8.74306000"},
{"state":"Connacht","name":"Ballaghaderreen","lat":"53.90000000","lon":"-8.58333000"},
{"state":"Connacht","name":"Ballina","lat":"54.11667000","lon":"-9.16667000"},
{"state":"Connacht","name":"Ballinasloe","lat":"53.32750000","lon":"-8.21944000"},
{"state":"Connacht","name":"Ballinrobe","lat":"53.63333000","lon":"-9.23333000"},
{"state":"Connacht","name":"Ballisodare","lat":"54.21110000","lon":"-8.50865000"},
{"state":"Connacht","name":"Ballyhaunis","lat":"53.76667000","lon":"-8.76667000"},
{"state":"Connacht","name":"Ballymote","lat":"54.08333000","lon":"-8.51667000"},
{"state":"Connacht","name":"Bearna","lat":"53.25194000","lon":"-9.14972000"},
{"state":"Connacht","name":"Belmullet","lat":"54.22500000","lon":"-9.99083000"},
{"state":"Connacht","name":"Boyle","lat":"53.96667000","lon":"-8.30000000"},
{"state":"Connacht","name":"Carrick-on-Shannon","lat":"53.94694000","lon":"-8.09000000"},
{"state":"Connacht","name":"Castlebar","lat":"53.85000000","lon":"-9.30000000"},
{"state":"Connacht","name":"Castlerea","lat":"53.76667000","lon":"-8.50000000"},
{"state":"Connacht","name":"Claregalway","lat":"53.33861000","lon":"-8.94500000"},
{"state":"Connacht","name":"Claremorris","lat":"53.71667000","lon":"-9.00000000"},
{"state":"Connacht","name":"Clifden","lat":"53.48907000","lon":"-10.01910000"},
{"state":"Connacht","name":"Collooney","lat":"54.18333000","lon":"-8.50000000"},
{"state":"Connacht","name":"County Galway","lat":"53.33333000","lon":"-9.00000000"},
{"state":"Connacht","name":"County Leitrim","lat":"54.11667000","lon":"-8.00000000"},
{"state":"Connacht","name":"Crossmolina","lat":"54.10000000","lon":"-9.31667000"},
{"state":"Connacht","name":"Foxford","lat":"53.98070000","lon":"-9.11551000"},
{"state":"Connacht","name":"Gaillimh","lat":"53.27194000","lon":"-9.04889000"},
{"state":"Connacht","name":"Galway City","lat":"53.28770000","lon":"-9.05004000"},
{"state":"Connacht","name":"Gort","lat":"53.06639000","lon":"-8.81667000"},
{"state":"Connacht","name":"Inishcrone","lat":"54.21591000","lon":"-9.09197000"},
{"state":"Connacht","name":"Kiltamagh","lat":"53.85000000","lon":"-9.00000000"},
{"state":"Connacht","name":"Kinlough","lat":"54.45000000","lon":"-8.28333000"},
{"state":"Connacht","name":"Loughrea","lat":"53.19694000","lon":"-8.56694000"},
{"state":"Connacht","name":"Manorhamilton","lat":"54.30639000","lon":"-8.17611000"},
{"state":"Connacht","name":"Mayo County","lat":"53.90000000","lon":"-9.25000000"},
{"state":"Connacht","name":"Moycullen","lat":"53.33783000","lon":"-9.18002000"},
{"state":"Connacht","name":"Oranmore","lat":"53.26833000","lon":"-8.92000000"},
{"state":"Connacht","name":"Oughterard","lat":"53.41667000","lon":"-9.33333000"},
{"state":"Connacht","name":"Portumna","lat":"53.08917000","lon":"-8.21889000"},
{"state":"Connacht","name":"Roscommon","lat":"53.75000000","lon":"-8.25000000"},
{"state":"Connacht","name":"Sligo","lat":"54.25000000","lon":"-8.66667000"},
{"state":"Connacht","name":"Strandhill","lat":"54.27194000","lon":"-8.59333000"},
{"state":"Connacht","name":"Swinford","lat":"53.95000000","lon":"-8.95000000"},
{"state":"Connacht","name":"Tobercurry","lat":"54.05000000","lon":"-8.73333000"},
{"state":"Connacht","name":"Tuam","lat":"53.51667000","lon":"-8.85000000"},
{"state":"Connacht","name":"Westport","lat":"53.80000000","lon":"-9.51667000"},
{"state":"Leinster","name":"Abbeyleix","lat":"52.91331000","lon":"-7.34456000"},
{"state":"Leinster","name":"An Iarmhí","lat":"53.50000000","lon":"-7.50000000"},
{"state":"Leinster","name":"An Longfort","lat":"53.66667000","lon":"-7.75000000"},
{"state":"Leinster","name":"An Mhí","lat":"53.66667000","lon":"-6.66667000"},
{"state":"Leinster","name":"An Muileann gCearr","lat":"53.53333000","lon":"-7.35000000"},
{"state":"Leinster","name":"An Ros","lat":"53.52424000","lon":"-6.10497000"},
{"state":"Leinster","name":"Ardee","lat":"53.85972000","lon":"-6.54056000"},
{"state":"Leinster","name":"Arklow","lat":"52.79306000","lon":"-6.14139000"},
{"state":"Leinster","name":"Artane","lat":"53.38712000","lon":"-6.21380000"},
{"state":"Leinster","name":"Ashbourne","lat":"53.51163000","lon":"-6.39821000"},
{"state":"Leinster","name":"Ashford","lat":"53.00833000","lon":"-6.11139000"},
{"state":"Leinster","name":"Athboy","lat":"53.62327000","lon":"-6.91434000"},
{"state":"Leinster","name":"Athgarvan","lat":"53.15229000","lon":"-6.78173000"},
{"state":"Leinster","name":"Athlone","lat":"53.43333000","lon":"-7.95000000"},
{"state":"Leinster","name":"Athy","lat":"52.99139000","lon":"-6.98028000"},
{"state":"Leinster","name":"Aughrim","lat":"52.85333000","lon":"-6.32750000"},
{"state":"Leinster","name":"Bagenalstown","lat":"52.70031000","lon":"-6.96181000"},
{"state":"Leinster","name":"Balally","lat":"53.27504000","lon":"-6.23594000"},
{"state":"Leinster","name":"Balbriggan","lat":"53.60846000","lon":"-6.18310000"},
{"state":"Leinster","name":"Baldoyle","lat":"53.39972000","lon":"-6.12583000"},
{"state":"Leinster","name":"Ballinroad","lat":"52.51789000","lon":"-6.40619000"},
{"state":"Leinster","name":"Ballinteer","lat":"53.27409000","lon":"-6.25397000"},
{"state":"Leinster","name":"Ballivor","lat":"53.53167000","lon":"-6.96111000"},
{"state":"Leinster","name":"Ballyboden","lat":"53.28056000","lon":"-6.31639000"},
{"state":"Leinster","name":"Ballyfermot","lat":"53.34283000","lon":"-6.35480000"},
{"state":"Leinster","name":"Ballygerry","lat":"52.24917000","lon":"-6.35739000"},
{"state":"Leinster","name":"Ballylinan","lat":"52.94497000","lon":"-7.04073000"},
{"state":"Leinster","name":"Ballymahon","lat":"53.56667000","lon":"-7.76667000"},
{"state":"Leinster","name":"Ballymun","lat":"53.39807000","lon":"-6.26693000"},
{"state":"Leinster","name":"Ballyragget","lat":"52.78889000","lon":"-7.33028000"},
{"state":"Leinster","name":"Balrothery","lat":"53.58828000","lon":"-6.18728000"},
{"state":"Leinster","name":"Baltinglass","lat":"52.93722000","lon":"-6.70917000"},
{"state":"Leinster","name":"Banagher","lat":"53.18861000","lon":"-7.98667000"},
{"state":"Leinster","name":"Bayside","lat":"53.38895000","lon":"-6.14041000"},
{"state":"Leinster","name":"Beaumont","lat":"53.38721000","lon":"-6.22713000"},
{"state":"Leinster","name":"Birr","lat":"53.09139000","lon":"-7.91333000"},
{"state":"Leinster","name":"Blackrock","lat":"53.30150000","lon":"-6.17780000"},
{"state":"Leinster","name":"Blanchardstown","lat":"53.38806000","lon":"-6.37556000"},
{"state":"Leinster","name":"Blessington","lat":"53.17000000","lon":"-6.53250000"},
{"state":"Leinster","name":"Bonnybrook","lat":"53.39835000","lon":"-6.20749000"},
{"state":"Leinster","name":"Booterstown","lat":"53.30447000","lon":"-6.19985000"},
{"state":"Leinster","name":"Bray","lat":"53.20278000","lon":"-6.09833000"},
{"state":"Leinster","name":"Bunclody","lat":"52.65530000","lon":"-6.65359000"},
{"state":"Leinster","name":"Cabinteely","lat":"53.26973000","lon":"-6.16058000"},
{"state":"Leinster","name":"Cabra","lat":"53.36694000","lon":"-6.29444000"},
{"state":"Leinster","name":"Callan","lat":"52.54500000","lon":"-7.39111000"},
{"state":"Leinster","name":"Carlingford","lat":"54.04000000","lon":"-6.18833000"},
{"state":"Leinster","name":"Carlow","lat":"52.84083000","lon":"-6.92611000"},
{"state":"Leinster","name":"Carnew","lat":"52.70806000","lon":"-6.49444000"},
{"state":"Leinster","name":"Castlebellingham","lat":"53.90083000","lon":"-6.39028000"},
{"state":"Leinster","name":"Castlebridge","lat":"52.38639000","lon":"-6.44944000"},
{"state":"Leinster","name":"Castlecomer","lat":"52.80611000","lon":"-7.21056000"},
{"state":"Leinster","name":"Castledermot","lat":"52.90889000","lon":"-6.84222000"},
{"state":"Leinster","name":"Castleknock","lat":"53.37483000","lon":"-6.36336000"},
{"state":"Leinster","name":"Castlepollard","lat":"53.67935000","lon":"-7.29736000"},
{"state":"Leinster","name":"Castletown","lat":"52.72306000","lon":"-6.18944000"},
{"state":"Leinster","name":"Celbridge","lat":"53.34165000","lon":"-6.54419000"},
{"state":"Leinster","name":"Chapelizod","lat":"53.34846000","lon":"-6.34301000"},
{"state":"Leinster","name":"Charlesland","lat":"53.12771000","lon":"-6.06347000"},
{"state":"Leinster","name":"Cherry Orchard","lat":"53.33605000","lon":"-6.37799000"},
{"state":"Leinster","name":"Cherryville","lat":"53.15694000","lon":"-6.96667000"},
{"state":"Leinster","name":"Clane","lat":"53.29139000","lon":"-6.68917000"},
{"state":"Leinster","name":"Clara","lat":"53.34250000","lon":"-7.61389000"},
{"state":"Leinster","name":"Clogherhead","lat":"53.79361000","lon":"-6.23750000"},
{"state":"Leinster","name":"Clondalkin","lat":"53.32444000","lon":"-6.39722000"},
{"state":"Leinster","name":"Clonskeagh","lat":"53.31467000","lon":"-6.23148000"},
{"state":"Leinster","name":"Confey","lat":"53.37923000","lon":"-6.49052000"},
{"state":"Leinster","name":"Coolock","lat":"53.38870000","lon":"-6.19998000"},
{"state":"Leinster","name":"County Carlow","lat":"52.66667000","lon":"-6.83333000"},
{"state":"Leinster","name":"Courtown","lat":"52.64424000","lon":"-6.22899000"},
{"state":"Leinster","name":"Crumlin","lat":"53.32154000","lon":"-6.31439000"},
{"state":"Leinster","name":"Daingean","lat":"53.29611000","lon":"-7.28944000"},
{"state":"Leinster","name":"Dalkey","lat":"53.27833000","lon":"-6.10028000"},
{"state":"Leinster","name":"Darndale","lat":"53.39948000","lon":"-6.18886000"},
{"state":"Leinster","name":"Derrinturn","lat":"53.34167000","lon":"-6.94111000"},
{"state":"Leinster","name":"Dollymount","lat":"53.36489000","lon":"-6.18032000"},
{"state":"Leinster","name":"Donabate","lat":"53.48722000","lon":"-6.15194000"},
{"state":"Leinster","name":"Donaghmede","lat":"53.39845000","lon":"-6.16179000"},
{"state":"Leinster","name":"Donnybrook","lat":"53.31375000","lon":"-6.22274000"},
{"state":"Leinster","name":"Donnycarney","lat":"53.37350000","lon":"-6.20976000"},
{"state":"Leinster","name":"Drogheda","lat":"53.71889000","lon":"-6.34778000"},
{"state":"Leinster","name":"Droichead Nua","lat":"53.18194000","lon":"-6.79667000"},
{"state":"Leinster","name":"Dromiskin","lat":"53.92538000","lon":"-6.40292000"},
{"state":"Leinster","name":"Drumcondra","lat":"53.37058000","lon":"-6.25298000"},
{"state":"Leinster","name":"Dublin","lat":"53.33306000","lon":"-6.24889000"},
{"state":"Leinster","name":"Dublin City","lat":"53.35512000","lon":"-6.24922000"},
{"state":"Leinster","name":"Duleek","lat":"53.65667000","lon":"-6.41917000"},
{"state":"Leinster","name":"Dún Laoghaire","lat":"53.29395000","lon":"-6.13586000"},
{"state":"Leinster","name":"Dún Laoghaire-Rathdown","lat":"53.29436000","lon":"-6.13489000"},
{"state":"Leinster","name":"Dunboyne","lat":"53.41901000","lon":"-6.47375000"},
{"state":"Leinster","name":"Dundalk","lat":"54.00000000","lon":"-6.41667000"},
{"state":"Leinster","name":"Dundrum","lat":"53.29067000","lon":"-6.25714000"},
{"state":"Leinster","name":"Dunleer","lat":"53.83500000","lon":"-6.39611000"},
{"state":"Leinster","name":"Dunshaughlin","lat":"53.51250000","lon":"-6.54000000"},
{"state":"Leinster","name":"Eadestown","lat":"53.20278000","lon":"-6.57806000"},
{"state":"Leinster","name":"Edenderry","lat":"53.33948000","lon":"-7.04752000"},
{"state":"Leinster","name":"Edgeworthstown","lat":"53.70000000","lon":"-7.61667000"},
{"state":"Leinster","name":"Enfield","lat":"53.41419000","lon":"-6.83229000"},
{"state":"Leinster","name":"Enniscorthy","lat":"52.50083000","lon":"-6.55778000"},
{"state":"Leinster","name":"Enniskerry","lat":"53.19250000","lon":"-6.16917000"},
{"state":"Leinster","name":"Fairview","lat":"53.36597000","lon":"-6.23985000"},
{"state":"Leinster","name":"Ferbane","lat":"53.26944000","lon":"-7.82694000"},
{"state":"Leinster","name":"Ferns","lat":"52.58833000","lon":"-6.49972000"},
{"state":"Leinster","name":"Fingal County","lat":"53.45909000","lon":"-6.21942000"},
{"state":"Leinster","name":"Finglas","lat":"53.38917000","lon":"-6.29694000"},
{"state":"Leinster","name":"Firhouse","lat":"53.28167000","lon":"-6.33917000"},
{"state":"Leinster","name":"Foxrock","lat":"53.26667000","lon":"-6.17417000"},
{"state":"Leinster","name":"Glasnevin","lat":"53.37851000","lon":"-6.28028000"},
{"state":"Leinster","name":"Gorey","lat":"52.67472000","lon":"-6.29250000"},
{"state":"Leinster","name":"Graiguenamanagh","lat":"52.54028000","lon":"-6.95472000"},
{"state":"Leinster","name":"Granard","lat":"53.77928000","lon":"-7.49429000"},
{"state":"Leinster","name":"Greenhills","lat":"53.33467000","lon":"-6.30302000"},
{"state":"Leinster","name":"Greystones","lat":"53.14083000","lon":"-6.06306000"},
{"state":"Leinster","name":"Hartstown","lat":"53.39306000","lon":"-6.42694000"},
{"state":"Leinster","name":"Howth","lat":"53.38778000","lon":"-6.06528000"},
{"state":"Leinster","name":"Jobstown","lat":"53.27866000","lon":"-6.40803000"},
{"state":"Leinster","name":"Johnstown","lat":"53.23833000","lon":"-6.62222000"},
{"state":"Leinster","name":"Kells","lat":"53.72639000","lon":"-6.87917000"},
{"state":"Leinster","name":"Kentstown","lat":"53.62754000","lon":"-6.52674000"},
{"state":"Leinster","name":"Kilbeggan","lat":"53.36944000","lon":"-7.50333000"},
{"state":"Leinster","name":"Kilcock","lat":"53.40222000","lon":"-6.67083000"},
{"state":"Leinster","name":"Kilcoole","lat":"53.10278000","lon":"-6.06500000"},
{"state":"Leinster","name":"Kilcullen","lat":"53.13028000","lon":"-6.74444000"},
{"state":"Leinster","name":"Kildare","lat":"53.16667000","lon":"-6.75000000"},
{"state":"Leinster","name":"Kilkenny","lat":"52.58333000","lon":"-7.25000000"},
{"state":"Leinster","name":"Kill","lat":"53.25139000","lon":"-6.59167000"},
{"state":"Leinster","name":"Killester","lat":"53.37322000","lon":"-6.20431000"},
{"state":"Leinster","name":"Kilmacanoge","lat":"53.16722000","lon":"-6.13361000"},
{"state":"Leinster","name":"Kilpedder","lat":"53.10917000","lon":"-6.10667000"},
{"state":"Leinster","name":"Kilquade","lat":"53.09743000","lon":"-6.08411000"},
{"state":"Leinster","name":"Kinnegad","lat":"53.45222000","lon":"-7.09972000"},
{"state":"Leinster","name":"Kinsealy-Drinan","lat":"53.44395000","lon":"-6.20334000"},
{"state":"Leinster","name":"Knocklyon","lat":"53.28030000","lon":"-6.33130000"},
{"state":"Leinster","name":"Lanesborough","lat":"53.66667000","lon":"-7.98333000"},
{"state":"Leinster","name":"Laois","lat":"53.00000000","lon":"-7.40000000"},
{"state":"Leinster","name":"Laytown","lat":"53.68194000","lon":"-6.23917000"},
{"state":"Leinster","name":"Leixlip","lat":"53.36583000","lon":"-6.49556000"},
{"state":"Leinster","name":"Little Bray","lat":"53.20444000","lon":"-6.12083000"},
{"state":"Leinster","name":"Loch Garman","lat":"52.50000000","lon":"-6.66667000"},
{"state":"Leinster","name":"Longford","lat":"53.72536000","lon":"-7.79823000"},
{"state":"Leinster","name":"Longwood","lat":"53.45389000","lon":"-6.92194000"},
{"state":"Leinster","name":"Loughlinstown","lat":"53.24389000","lon":"-6.13306000"},
{"state":"Leinster","name":"Lú","lat":"53.83333000","lon":"-6.50000000"},
{"state":"Leinster","name":"Lucan","lat":"53.35736000","lon":"-6.44859000"},
{"state":"Leinster","name":"Lusk","lat":"53.52743000","lon":"-6.16423000"},
{"state":"Leinster","name":"Malahide","lat":"53.45083000","lon":"-6.15444000"},
{"state":"Leinster","name":"Marino","lat":"53.37022000","lon":"-6.23646000"},
{"state":"Leinster","name":"Maynooth","lat":"53.38500000","lon":"-6.59361000"},
{"state":"Leinster","name":"Milltown","lat":"53.31301000","lon":"-6.24530000"},
{"state":"Leinster","name":"Moate","lat":"53.39389000","lon":"-7.71722000"},
{"state":"Leinster","name":"Monasterevin","lat":"53.14056000","lon":"-7.06639000"},
{"state":"Leinster","name":"Monkstown","lat":"53.29308000","lon":"-6.15312000"},
{"state":"Leinster","name":"Mooncoin","lat":"52.28944000","lon":"-7.24833000"},
{"state":"Leinster","name":"Moone","lat":"52.97556000","lon":"-6.81500000"},
{"state":"Leinster","name":"Mount Merrion","lat":"53.30008000","lon":"-6.21504000"},
{"state":"Leinster","name":"Mountmellick","lat":"53.11361000","lon":"-7.32000000"},
{"state":"Leinster","name":"Mountrath","lat":"52.99889000","lon":"-7.47278000"},
{"state":"Leinster","name":"Naas","lat":"53.21583000","lon":"-6.66694000"},
{"state":"Leinster","name":"Navan","lat":"53.65278000","lon":"-6.68139000"},
{"state":"Leinster","name":"New Ross","lat":"52.39667000","lon":"-6.93667000"},
{"state":"Leinster","name":"Newcastle","lat":"53.30111000","lon":"-6.50222000"},
{"state":"Leinster","name":"Newtown Trim","lat":"53.55611000","lon":"-6.77000000"},
{"state":"Leinster","name":"Newtownmountkennedy","lat":"53.09052000","lon":"-6.11149000"},
{"state":"Leinster","name":"Old Kilcullen","lat":"53.10639000","lon":"-6.76528000"},
{"state":"Leinster","name":"Oldbawn","lat":"53.27556000","lon":"-6.36750000"},
{"state":"Leinster","name":"Oldcastle","lat":"53.76648000","lon":"-7.16284000"},
{"state":"Leinster","name":"Palmerstown","lat":"53.35019000","lon":"-6.37778000"},
{"state":"Leinster","name":"Piltown","lat":"52.35333000","lon":"-7.34028000"},
{"state":"Leinster","name":"Portarlington","lat":"53.16222000","lon":"-7.19111000"},
{"state":"Leinster","name":"Portlaoise","lat":"53.03441000","lon":"-7.29979000"},
{"state":"Leinster","name":"Portmarnock","lat":"53.42306000","lon":"-6.13750000"},
{"state":"Leinster","name":"Portraine","lat":"53.49667000","lon":"-6.11111000"},
{"state":"Leinster","name":"Prosperous","lat":"53.29028000","lon":"-6.75389000"},
{"state":"Leinster","name":"Raheny","lat":"53.38681000","lon":"-6.18067000"},
{"state":"Leinster","name":"Rathangan","lat":"53.22139000","lon":"-6.99500000"},
{"state":"Leinster","name":"Rathcoole","lat":"53.28278000","lon":"-6.47278000"},
{"state":"Leinster","name":"Rathdowney","lat":"52.85472000","lon":"-7.58028000"},
{"state":"Leinster","name":"Rathdrum","lat":"52.92639000","lon":"-6.23556000"},
{"state":"Leinster","name":"Rathgar","lat":"53.31457000","lon":"-6.27500000"},
{"state":"Leinster","name":"Rathmines","lat":"53.32028000","lon":"-6.26333000"},
{"state":"Leinster","name":"Rathnew","lat":"52.99056000","lon":"-6.08528000"},
{"state":"Leinster","name":"Rathwire","lat":"53.50767000","lon":"-7.13510000"},
{"state":"Leinster","name":"Ratoath","lat":"53.50806000","lon":"-6.46250000"},
{"state":"Leinster","name":"Rialto","lat":"53.33625000","lon":"-6.29718000"},
{"state":"Leinster","name":"Ringsend","lat":"53.34194000","lon":"-6.22639000"},
{"state":"Leinster","name":"Rochfortbridge","lat":"53.41417000","lon":"-7.29611000"},
{"state":"Leinster","name":"Rosslare","lat":"52.27583000","lon":"-6.38444000"},
{"state":"Leinster","name":"Saggart","lat":"53.28028000","lon":"-6.44444000"},
{"state":"Leinster","name":"Sallins","lat":"53.24889000","lon":"-6.66611000"},
{"state":"Leinster","name":"Sallynoggin","lat":"53.27917000","lon":"-6.14058000"},
{"state":"Leinster","name":"Sandyford","lat":"53.27470000","lon":"-6.22530000"},
{"state":"Leinster","name":"Sandymount","lat":"53.32815000","lon":"-6.22224000"},
{"state":"Leinster","name":"Shankill","lat":"53.22611000","lon":"-6.12444000"},
{"state":"Leinster","name":"Skerries","lat":"53.58278000","lon":"-6.10833000"},
{"state":"Leinster","name":"Slane","lat":"53.71000000","lon":"-6.54333000"},
{"state":"Leinster","name":"South Dublin","lat":"53.28595000","lon":"-6.37739000"},
{"state":"Leinster","name":"Stamullin","lat":"53.62889000","lon":"-6.26833000"},
{"state":"Leinster","name":"Stradbally","lat":"53.01556000","lon":"-7.15278000"},
{"state":"Leinster","name":"Sutton","lat":"53.38947000","lon":"-6.11059000"},
{"state":"Leinster","name":"Swords","lat":"53.45972000","lon":"-6.21806000"},
{"state":"Leinster","name":"Tallaght","lat":"53.28590000","lon":"-6.37344000"},
{"state":"Leinster","name":"Templeogue","lat":"53.29528000","lon":"-6.30889000"},
{"state":"Leinster","name":"Terenure","lat":"53.30972000","lon":"-6.28528000"},
{"state":"Leinster","name":"Termonfeckin","lat":"53.76333000","lon":"-6.26778000"},
{"state":"Leinster","name":"Thomastown","lat":"52.52667000","lon":"-7.13722000"},
{"state":"Leinster","name":"Trim","lat":"53.55500000","lon":"-6.79167000"},
{"state":"Leinster","name":"Tullamore","lat":"53.27389000","lon":"-7.48889000"},
{"state":"Leinster","name":"Tullow","lat":"52.80028000","lon":"-6.73694000"},
{"state":"Leinster","name":"Tullyallen","lat":"53.73611000","lon":"-6.42278000"},
{"state":"Leinster","name":"Uíbh Fhailí","lat":"53.25000000","lon":"-7.50000000"},
{"state":"Leinster","name":"Valleymount","lat":"53.10389000","lon":"-6.55361000"},
{"state":"Leinster","name":"Wicklow","lat":"53.00000000","lon":"-6.41667000"},
{"state":"Munster","name":"Abbeyfeale","lat":"52.38139000","lon":"-9.30250000"},
{"state":"Munster","name":"Adare","lat":"52.56194000","lon":"-8.79556000"},
{"state":"Munster","name":"Aghada","lat":"51.83917000","lon":"-8.21222000"},
{"state":"Munster","name":"An Clár","lat":"52.83333000","lon":"-9.00000000"},
{"state":"Munster","name":"Annacotty","lat":"52.66768000","lon":"-8.53121000"},
{"state":"Munster","name":"Ardnacrusha","lat":"52.70908000","lon":"-8.61431000"},
{"state":"Munster","name":"Askeaton","lat":"52.59972000","lon":"-8.97556000"},
{"state":"Munster","name":"Ballina","lat":"52.80778000","lon":"-8.43556000"},
{"state":"Munster","name":"Ballybunnion","lat":"52.51108000","lon":"-9.67097000"},
{"state":"Munster","name":"Bandon","lat":"51.74694000","lon":"-8.74250000"},
{"state":"Munster","name":"Bantry","lat":"51.68333000","lon":"-9.45000000"},
{"state":"Munster","name":"Blarney","lat":"51.93333000","lon":"-8.56667000"},
{"state":"Munster","name":"Caherconlish","lat":"52.59361000","lon":"-8.47028000"},
{"state":"Munster","name":"Cahersiveen","lat":"51.94861000","lon":"-10.22222000"},
{"state":"Munster","name":"Cahir","lat":"52.37694000","lon":"-7.92167000"},
{"state":"Munster","name":"Carrick-on-Suir","lat":"52.34917000","lon":"-7.41306000"},
{"state":"Munster","name":"Carrigaline","lat":"51.81167000","lon":"-8.39861000"},
{"state":"Munster","name":"Carrigtwohill","lat":"51.90833000","lon":"-8.26333000"},
{"state":"Munster","name":"Cashel","lat":"52.51583000","lon":"-7.88556000"},
{"state":"Munster","name":"Castleconnell","lat":"52.71389000","lon":"-8.49944000"},
{"state":"Munster","name":"Castleisland","lat":"52.23333000","lon":"-9.46667000"},
{"state":"Munster","name":"Castlemartyr","lat":"51.91028000","lon":"-8.05389000"},
{"state":"Munster","name":"Ciarraí","lat":"52.16667000","lon":"-9.75000000"},
{"state":"Munster","name":"Cill Airne","lat":"52.05980000","lon":"-9.50858000"},
{"state":"Munster","name":"Clonakilty","lat":"51.62306000","lon":"-8.87056000"},
{"state":"Munster","name":"Cloyne","lat":"51.86278000","lon":"-8.12444000"},
{"state":"Munster","name":"Cluain Meala","lat":"52.35500000","lon":"-7.70389000"},
{"state":"Munster","name":"Cobh","lat":"51.85046000","lon":"-8.29480000"},
{"state":"Munster","name":"Cork","lat":"51.89797000","lon":"-8.47061000"},
{"state":"Munster","name":"Cork City","lat":"51.89755000","lon":"-8.46773000"},
{"state":"Munster","name":"County Cork","lat":"51.96667000","lon":"-8.58333000"},
{"state":"Munster","name":"County Tipperary","lat":"52.66667000","lon":"-7.83333000"},
{"state":"Munster","name":"Croom","lat":"52.51944000","lon":"-8.71778000"},
{"state":"Munster","name":"Crosshaven","lat":"51.79833000","lon":"-8.30083000"},
{"state":"Munster","name":"Derry","lat":"51.58666000","lon":"-9.05026000"},
{"state":"Munster","name":"Dingle","lat":"52.14083000","lon":"-10.26889000"},
{"state":"Munster","name":"Dungarvan","lat":"52.08806000","lon":"-7.62528000"},
{"state":"Munster","name":"Dunmanway","lat":"51.71667000","lon":"-9.11667000"},
{"state":"Munster","name":"Dunmore East","lat":"52.15108000","lon":"-6.99872000"},
{"state":"Munster","name":"Ennis","lat":"52.84361000","lon":"-8.98639000"},
{"state":"Munster","name":"Fermoy","lat":"52.13583000","lon":"-8.27583000"},
{"state":"Munster","name":"Fethard","lat":"52.46722000","lon":"-7.69111000"},
{"state":"Munster","name":"Kanturk","lat":"52.16667000","lon":"-8.90000000"},
{"state":"Munster","name":"Kenmare","lat":"51.88333000","lon":"-9.58333000"},
{"state":"Munster","name":"Killaloe","lat":"52.80667000","lon":"-8.44361000"},
{"state":"Munster","name":"Killorglin","lat":"52.10000000","lon":"-9.78333000"},
{"state":"Munster","name":"Killumney","lat":"51.87243000","lon":"-8.64781000"},
{"state":"Munster","name":"Kilmallock","lat":"52.40000000","lon":"-8.57722000"},
{"state":"Munster","name":"Kilrush","lat":"52.63972000","lon":"-9.48333000"},
{"state":"Munster","name":"Kinsale","lat":"51.70750000","lon":"-8.53056000"},
{"state":"Munster","name":"Listowel","lat":"52.44639000","lon":"-9.48500000"},
{"state":"Munster","name":"Luimneach","lat":"52.66472000","lon":"-8.62306000"},
{"state":"Munster","name":"Macroom","lat":"51.90663000","lon":"-8.96968000"},
{"state":"Munster","name":"Mallow","lat":"52.13333000","lon":"-8.63333000"},
{"state":"Munster","name":"Midleton","lat":"51.91526000","lon":"-8.18052000"},
{"state":"Munster","name":"Millstreet","lat":"52.05935000","lon":"-9.06031000"},
{"state":"Munster","name":"Mitchelstown","lat":"52.26583000","lon":"-8.26806000"},
{"state":"Munster","name":"Moroe","lat":"52.65111000","lon":"-8.39611000"},
{"state":"Munster","name":"Moyross","lat":"52.68198000","lon":"-8.63955000"},
{"state":"Munster","name":"Nenagh","lat":"52.86194000","lon":"-8.19667000"},
{"state":"Munster","name":"Nenagh Bridge","lat":"52.88167000","lon":"-8.19583000"},
{"state":"Munster","name":"Newcastle West","lat":"52.44917000","lon":"-9.06111000"},
{"state":"Munster","name":"Newmarket on Fergus","lat":"52.76000000","lon":"-8.89556000"},
{"state":"Munster","name":"Newport","lat":"52.71111000","lon":"-8.40972000"},
{"state":"Munster","name":"Passage West","lat":"51.87389000","lon":"-8.34444000"},
{"state":"Munster","name":"Portlaw","lat":"52.28833000","lon":"-7.32056000"},
{"state":"Munster","name":"Ráth Luirc","lat":"52.35000000","lon":"-8.68333000"},
{"state":"Munster","name":"Rathcormac","lat":"52.07694000","lon":"-8.28194000"},
{"state":"Munster","name":"Rathkeale","lat":"52.52444000","lon":"-8.93806000"},
{"state":"Munster","name":"Roscrea","lat":"52.95111000","lon":"-7.80167000"},
{"state":"Munster","name":"Shannon","lat":"52.70389000","lon":"-8.86417000"},
{"state":"Munster","name":"Sixmilebridge","lat":"52.74139000","lon":"-8.77417000"},
{"state":"Munster","name":"Skibbereen","lat":"51.55000000","lon":"-9.26667000"},
{"state":"Munster","name":"Templemore","lat":"52.79472000","lon":"-7.83389000"},
{"state":"Munster","name":"Thurles","lat":"52.68194000","lon":"-7.80222000"},
{"state":"Munster","name":"Tipperary","lat":"52.47333000","lon":"-8.15583000"},
{"state":"Munster","name":"Tower","lat":"51.92599000","lon":"-8.60747000"},
{"state":"Munster","name":"Trá Mhór","lat":"52.16235000","lon":"-7.15244000"},
{"state":"Munster","name":"Tralee","lat":"52.27042000","lon":"-9.70264000"},
{"state":"Munster","name":"Waterford","lat":"52.25833000","lon":"-7.11194000"},
{"state":"Munster","name":"Watergrasshill","lat":"52.01139000","lon":"-8.34417000"},
{"state":"Munster","name":"Whitegate","lat":"51.83056000","lon":"-8.22972000"},
{"state":"Munster","name":"Youghal","lat":"51.95000000","lon":"-7.85056000"},
{"state":"Ulster","name":"An Cabhán","lat":"53.91667000","lon":"-7.25000000"},
{"state":"Ulster","name":"Bailieborough","lat":"53.91667000","lon":"-6.96667000"},
{"state":"Ulster","name":"Ballybofey","lat":"54.80000000","lon":"-7.78333000"},
{"state":"Ulster","name":"Ballyconnell","lat":"54.11667000","lon":"-7.58333000"},
{"state":"Ulster","name":"Ballyjamesduff","lat":"53.86528000","lon":"-7.20278000"},
{"state":"Ulster","name":"Ballyshannon","lat":"54.50000000","lon":"-8.18333000"},
{"state":"Ulster","name":"Belturbet","lat":"54.10000000","lon":"-7.45000000"},
{"state":"Ulster","name":"Buncrana","lat":"55.13333000","lon":"-7.45000000"},
{"state":"Ulster","name":"Bundoran","lat":"54.47782000","lon":"-8.28094000"},
{"state":"Ulster","name":"Carndonagh","lat":"55.25000000","lon":"-7.26667000"},
{"state":"Ulster","name":"Carrickmacross","lat":"53.97278000","lon":"-6.71889000"},
{"state":"Ulster","name":"Castleblayney","lat":"54.11667000","lon":"-6.73333000"},
{"state":"Ulster","name":"Cavan","lat":"53.99083000","lon":"-7.36056000"},
{"state":"Ulster","name":"Clones","lat":"54.18333000","lon":"-7.23333000"},
{"state":"Ulster","name":"Convoy","lat":"54.86083000","lon":"-7.66556000"},
{"state":"Ulster","name":"Cootehill","lat":"54.07250000","lon":"-7.08194000"},
{"state":"Ulster","name":"County Donegal","lat":"54.91667000","lon":"-8.00000000"},
{"state":"Ulster","name":"County Monaghan","lat":"54.25000000","lon":"-7.00000000"},
{"state":"Ulster","name":"Derrybeg","lat":"55.08333000","lon":"-8.28944000"},
{"state":"Ulster","name":"Donegal","lat":"54.65378000","lon":"-8.11134000"},
{"state":"Ulster","name":"Dungloe","lat":"54.95111000","lon":"-8.35917000"},
{"state":"Ulster","name":"Dunlewy","lat":"55.01667000","lon":"-8.10000000"},
{"state":"Ulster","name":"Gweedore","lat":"55.05028000","lon":"-8.23194000"},
{"state":"Ulster","name":"Killybegs","lat":"54.63333000","lon":"-8.45000000"},
{"state":"Ulster","name":"Kingscourt","lat":"53.90806000","lon":"-6.80556000"},
{"state":"Ulster","name":"Leifear","lat":"54.83194000","lon":"-7.48361000"},
{"state":"Ulster","name":"Letterkenny","lat":"54.95000000","lon":"-7.73333000"},
{"state":"Ulster","name":"Monaghan","lat":"54.25000000","lon":"-6.96667000"},
{"state":"Ulster","name":"Moville","lat":"55.19153000","lon":"-7.03873000"},
{"state":"Ulster","name":"Muff","lat":"55.06667000","lon":"-7.26667000"},
{"state":"Ulster","name":"Mullagh","lat":"53.81306000","lon":"-6.95139000"},
{"state":"Ulster","name":"Newtown Cunningham","lat":"54.99639000","lon":"-7.51917000"},
{"state":"Ulster","name":"Ramelton","lat":"55.03673000","lon":"-7.64923000"},
{"state":"Ulster","name":"Raphoe","lat":"54.87472000","lon":"-7.59833000"},
{"state":"Ulster","name":"Virginia","lat":"53.83389000","lon":"-7.07556000"}]