[{"state":"Central District","name":"Bet Dagan","lat":"32.00191000","lon":"34.82977000"},
{"state":"Central District","name":"Bet Yiẕẖaq","lat":"32.32751000","lon":"34.88878000"},
{"state":"Central District","name":"Bnei Ayish","lat":"31.78333000","lon":"34.75000000"},
{"state":"Central District","name":"Elyakhin","lat":"32.40793000","lon":"34.92433000"},
{"state":"Central District","name":"Eṭ Ṭaiyiba","lat":"32.26616000","lon":"35.00893000"},
{"state":"Central District","name":"Even Yehuda","lat":"32.26959000","lon":"34.88759000"},
{"state":"Central District","name":"Gan Yavne","lat":"31.78737000","lon":"34.70659000"},
{"state":"Central District","name":"Ganei Tikva","lat":"32.05971000","lon":"34.87320000"},
{"state":"Central District","name":"Gedera","lat":"31.81456000","lon":"34.77998000"},
{"state":"Central District","name":"Hod HaSharon","lat":"32.15934000","lon":"34.89320000"},
{"state":"Central District","name":"Jaljūlya","lat":"32.15470000","lon":"34.95372000"},
{"state":"Central District","name":"Kafr Qāsim","lat":"32.11406000","lon":"34.97624000"},
{"state":"Central District","name":"Kefar H̱abad","lat":"31.98793000","lon":"34.85160000"},
{"state":"Central District","name":"Kefar Yona","lat":"32.31669000","lon":"34.93507000"},
{"state":"Central District","name":"Kfar Saba","lat":"32.17500000","lon":"34.90694000"},
{"state":"Central District","name":"Lapid","lat":"31.91764000","lon":"35.03222000"},
{"state":"Central District","name":"Lod","lat":"31.94670000","lon":"34.89030000"},
{"state":"Central District","name":"Mazkeret Batya","lat":"31.85357000","lon":"34.84646000"},
{"state":"Central District","name":"Modi‘in Makkabbim Re‘ut","lat":"31.89385000","lon":"35.01504000"},
{"state":"Central District","name":"Neẖalim","lat":"32.06012000","lon":"34.91069000"},
{"state":"Central District","name":"Ness Ziona","lat":"31.92933000","lon":"34.79868000"},
{"state":"Central District","name":"Netanya","lat":"32.33291000","lon":"34.85992000"},
{"state":"Central District","name":"Nirit","lat":"32.14677000","lon":"34.98622000"},
{"state":"Central District","name":"Nof Ayalon","lat":"31.87111000","lon":"34.99081000"},
{"state":"Central District","name":"Nordiyya","lat":"32.31470000","lon":"34.89617000"},
{"state":"Central District","name":"Pardesiyya","lat":"32.30577000","lon":"34.90911000"},
{"state":"Central District","name":"Petaẖ Tiqwa","lat":"32.08707000","lon":"34.88747000"},
{"state":"Central District","name":"Qalansuwa","lat":"32.28493000","lon":"34.98106000"},
{"state":"Central District","name":"Ra'anana","lat":"32.18360000","lon":"34.87386000"},
{"state":"Central District","name":"Ramla","lat":"31.92923000","lon":"34.86563000"},
{"state":"Central District","name":"Reẖovot","lat":"31.89421000","lon":"34.81199000"},
{"state":"Central District","name":"Rishon LeẔiyyon","lat":"31.97102000","lon":"34.78939000"},
{"state":"Central District","name":"Rosh Ha‘Ayin","lat":"32.09556000","lon":"34.95664000"},
{"state":"Central District","name":"Savyon","lat":"32.04966000","lon":"34.87770000"},
{"state":"Central District","name":"Shoham","lat":"31.99866000","lon":"34.94559000"},
{"state":"Central District","name":"Tel Mond","lat":"32.24995000","lon":"34.91737000"},
{"state":"Central District","name":"Tirah","lat":"32.23410000","lon":"34.95023000"},
{"state":"Central District","name":"Yavné","lat":"31.87808000","lon":"34.73983000"},
{"state":"Central District","name":"Yehud","lat":"32.03317000","lon":"34.89091000"},
{"state":"Central District","name":"Ẕur Moshe","lat":"32.29819000","lon":"34.91313000"},
{"state":"Haifa District","name":"Atlit","lat":"32.68889000","lon":"34.94236000"},
{"state":"Haifa District","name":"Caesarea","lat":"32.51888000","lon":"34.90459000"},
{"state":"Haifa District","name":"Daliyat al Karmel","lat":"32.69383000","lon":"35.04686000"},
{"state":"Haifa District","name":"El Fureidīs","lat":"32.59812000","lon":"34.95153000"},
{"state":"Haifa District","name":"Hadera","lat":"32.44192000","lon":"34.90390000"},
{"state":"Haifa District","name":"Haifa","lat":"32.81841000","lon":"34.98850000"},
{"state":"Haifa District","name":"Ibṭīn","lat":"32.76150000","lon":"35.11402000"},
{"state":"Haifa District","name":"Nesher","lat":"32.76622000","lon":"35.04425000"},
{"state":"Haifa District","name":"Qiryat Ata","lat":"32.81149000","lon":"35.11323000"},
{"state":"Haifa District","name":"Qiryat Bialik","lat":"32.82750000","lon":"35.08583000"},
{"state":"Haifa District","name":"Qiryat Moẕqin","lat":"32.83706000","lon":"35.07760000"},
{"state":"Haifa District","name":"Qiryat Yam","lat":"32.84966000","lon":"35.06973000"},
{"state":"Haifa District","name":"Rekhasim","lat":"32.74907000","lon":"35.09901000"},
{"state":"Haifa District","name":"Tirat Karmel","lat":"32.76021000","lon":"34.97183000"},
{"state":"Haifa District","name":"Umm el Faḥm","lat":"32.51725000","lon":"35.15349000"},
{"state":"Jerusalem District","name":"Abū Ghaush","lat":"31.80592000","lon":"35.10930000"},
{"state":"Jerusalem District","name":"Bet Shemesh","lat":"31.73072000","lon":"34.99293000"},
{"state":"Jerusalem District","name":"Har Adar","lat":"31.82754000","lon":"35.13093000"},
{"state":"Jerusalem District","name":"Jerusalem","lat":"31.76904000","lon":"35.21633000"},
{"state":"Jerusalem District","name":"Mevasseret Ẕiyyon","lat":"31.80186000","lon":"35.15072000"},
{"state":"Jerusalem District","name":"Modiin Ilit","lat":"31.93221000","lon":"35.04416000"},
{"state":"Jerusalem District","name":"West Jerusalem","lat":"31.78199000","lon":"35.21961000"},
{"state":"Jerusalem District","name":"Ẕur Hadassa","lat":"31.71912000","lon":"35.09708000"},
{"state":"Northern District","name":"‘Eilabun","lat":"32.83693000","lon":"35.40029000"},
{"state":"Northern District","name":"‘Uzeir","lat":"32.79212000","lon":"35.32984000"},
{"state":"Northern District","name":"Acre","lat":"32.92814000","lon":"35.07647000"},
{"state":"Northern District","name":"Afula","lat":"32.60907000","lon":"35.28920000"},
{"state":"Northern District","name":"Basmat Ṭab‘ūn","lat":"32.73898000","lon":"35.15716000"},
{"state":"Northern District","name":"Beit Jann","lat":"32.96464000","lon":"35.38152000"},
{"state":"Northern District","name":"Bet She’an","lat":"32.49728000","lon":"35.49632000"},
{"state":"Northern District","name":"Bīr el Maksūr","lat":"32.77732000","lon":"35.22069000"},
{"state":"Northern District","name":"Bu‘eina","lat":"32.80636000","lon":"35.36486000"},
{"state":"Northern District","name":"Buqei‘a","lat":"32.97747000","lon":"35.33345000"},
{"state":"Northern District","name":"Dabbūrīya","lat":"32.69256000","lon":"35.37123000"},
{"state":"Northern District","name":"Deir Ḥannā","lat":"32.86196000","lon":"35.36365000"},
{"state":"Northern District","name":"El Mazra‘a","lat":"32.98338000","lon":"35.09837000"},
{"state":"Northern District","name":"Er Reina","lat":"32.72339000","lon":"35.31622000"},
{"state":"Northern District","name":"Esh Sheikh Dannūn","lat":"32.99410000","lon":"35.14805000"},
{"state":"Northern District","name":"Ḥurfeish","lat":"33.01711000","lon":"35.34835000"},
{"state":"Northern District","name":"Iksāl","lat":"32.68164000","lon":"35.32365000"},
{"state":"Northern District","name":"Jīsh","lat":"33.02216000","lon":"35.44694000"},
{"state":"Northern District","name":"Judeida Makr","lat":"32.92820000","lon":"35.15705000"},
{"state":"Northern District","name":"Kābūl","lat":"32.86856000","lon":"35.21171000"},
{"state":"Northern District","name":"Kafr Kammā","lat":"32.72129000","lon":"35.44122000"},
{"state":"Northern District","name":"Kafr Kannā","lat":"32.74660000","lon":"35.34242000"},
{"state":"Northern District","name":"Kafr Mandā","lat":"32.81034000","lon":"35.26009000"},
{"state":"Northern District","name":"Kafr Miṣr","lat":"32.64521000","lon":"35.42147000"},
{"state":"Northern District","name":"Karmi’el","lat":"32.91708000","lon":"35.30501000"},
{"state":"Northern District","name":"Kaukab Abū el Hījā","lat":"32.83155000","lon":"35.24848000"},
{"state":"Northern District","name":"Kefar Rosh HaNiqra","lat":"33.08607000","lon":"35.11348000"},
{"state":"Northern District","name":"Kefar Tavor","lat":"32.68655000","lon":"35.42118000"},
{"state":"Northern District","name":"Kefar Weradim","lat":"32.99385000","lon":"35.27793000"},
{"state":"Northern District","name":"Kfar Yasif","lat":"32.95451000","lon":"35.16230000"},
{"state":"Northern District","name":"maalot Tarshīhā","lat":"33.01667000","lon":"35.26667000"},
{"state":"Northern District","name":"Maghār","lat":"32.88984000","lon":"35.40703000"},
{"state":"Northern District","name":"Metulla","lat":"33.27918000","lon":"35.57950000"},
{"state":"Northern District","name":"Mi‘ilyā","lat":"33.02781000","lon":"35.25658000"},
{"state":"Northern District","name":"Migdal Ha‘Emeq","lat":"32.67597000","lon":"35.23986000"},
{"state":"Northern District","name":"Nahariyya","lat":"33.00892000","lon":"35.09814000"},
{"state":"Northern District","name":"Naḥf","lat":"32.93444000","lon":"35.31679000"},
{"state":"Northern District","name":"Nazareth","lat":"32.70056000","lon":"35.29722000"},
{"state":"Northern District","name":"Nefat ‘Akko","lat":"32.95000000","lon":"35.23333000"},
{"state":"Northern District","name":"Nein","lat":"32.63063000","lon":"35.34885000"},
{"state":"Northern District","name":"Pasuta","lat":"33.04895000","lon":"35.30893000"},
{"state":"Northern District","name":"Qiryat Shemona","lat":"33.20733000","lon":"35.57212000"},
{"state":"Northern District","name":"Ramat Yishay","lat":"32.70444000","lon":"35.17070000"},
{"state":"Northern District","name":"Rosh Pinna","lat":"32.96894000","lon":"35.54258000"},
{"state":"Northern District","name":"Rumat Heib","lat":"32.77802000","lon":"35.30571000"},
{"state":"Northern District","name":"Safed","lat":"32.96465000","lon":"35.49600000"},
{"state":"Northern District","name":"Sājūr","lat":"32.94266000","lon":"35.34136000"},
{"state":"Northern District","name":"Sakhnīn","lat":"32.86422000","lon":"35.29707000"},
{"state":"Northern District","name":"Sallama","lat":"32.89443000","lon":"35.36931000"},
{"state":"Northern District","name":"Shelomi","lat":"33.07216000","lon":"35.14452000"},
{"state":"Northern District","name":"Shibli","lat":"32.69464000","lon":"35.39252000"},
{"state":"Northern District","name":"Sūlam","lat":"32.60606000","lon":"35.33408000"},
{"state":"Northern District","name":"Tamra","lat":"32.85301000","lon":"35.19870000"},
{"state":"Northern District","name":"Tiberias","lat":"32.79221000","lon":"35.53124000"},
{"state":"Northern District","name":"Timrat","lat":"32.70302000","lon":"35.22359000"},
{"state":"Northern District","name":"Yavne’el","lat":"32.70619000","lon":"35.50435000"},
{"state":"Southern District","name":"‘En Boqeq","lat":"31.19941000","lon":"35.36253000"},
{"state":"Southern District","name":"Arad","lat":"31.25882000","lon":"35.21282000"},
{"state":"Southern District","name":"Ashdod","lat":"31.79213000","lon":"34.64966000"},
{"state":"Southern District","name":"Ashkelon","lat":"31.66926000","lon":"34.57149000"},
{"state":"Southern District","name":"Beersheba","lat":"31.25181000","lon":"34.79130000"},
{"state":"Southern District","name":"Dimona","lat":"31.07079000","lon":"35.03269000"},
{"state":"Southern District","name":"Eilat","lat":"29.55805000","lon":"34.94821000"},
{"state":"Southern District","name":"Lehavim","lat":"31.37284000","lon":"34.81619000"},
{"state":"Southern District","name":"Midreshet Ben-Gurion","lat":"30.85154000","lon":"34.78340000"},
{"state":"Southern District","name":"Mitzpe Ramon","lat":"30.60944000","lon":"34.80111000"},
{"state":"Southern District","name":"Netivot","lat":"31.42305000","lon":"34.58911000"},
{"state":"Southern District","name":"Ofaqim","lat":"31.31410000","lon":"34.62025000"},
{"state":"Southern District","name":"Qiryat Gat","lat":"31.60998000","lon":"34.76422000"},
{"state":"Southern District","name":"Rahat","lat":"31.39547000","lon":"34.75699000"},
{"state":"Southern District","name":"Sederot","lat":"31.52500000","lon":"34.59693000"},
{"state":"Southern District","name":"Yeroẖam","lat":"30.98822000","lon":"34.93176000"},
{"state":"Tel Aviv District","name":"Azor","lat":"32.02430000","lon":"34.80632000"},
{"state":"Tel Aviv District","name":"Bat Yam","lat":"32.02379000","lon":"34.75185000"},
{"state":"Tel Aviv District","name":"Bnei Brak","lat":"32.08074000","lon":"34.83380000"},
{"state":"Tel Aviv District","name":"Giv'at Shmuel","lat":"32.07817000","lon":"34.84858000"},
{"state":"Tel Aviv District","name":"Givatayim","lat":"32.07225000","lon":"34.81253000"},
{"state":"Tel Aviv District","name":"Herzliya","lat":"32.16627000","lon":"34.82536000"},
{"state":"Tel Aviv District","name":"Herzliya Pituah","lat":"32.17409000","lon":"34.80280000"},
{"state":"Tel Aviv District","name":"H̱olon","lat":"32.01034000","lon":"34.77918000"},
{"state":"Tel Aviv District","name":"Jaffa","lat":"32.05043000","lon":"34.75224000"},
{"state":"Tel Aviv District","name":"Kefar Shemaryahu","lat":"32.18529000","lon":"34.82082000"},
{"state":"Tel Aviv District","name":"Or Yehuda","lat":"32.02923000","lon":"34.85788000"},
{"state":"Tel Aviv District","name":"Ramat Gan","lat":"32.08227000","lon":"34.81065000"},
{"state":"Tel Aviv District","name":"Ramat HaSharon","lat":"32.14613000","lon":"34.83940000"},
{"state":"Tel Aviv District","name":"Tel Aviv","lat":"32.08088000","lon":"34.78057000"},
{"state":"Tel Aviv District","name":"Yehud-Monosson","lat":"32.02840000","lon":"34.87960000"}]