[{"state":"Andaman and Nicobar Islands","name":"Bamboo Flat","lat":"11.70000000","lon":"92.71667000"},
{"state":"Andaman and Nicobar Islands","name":"Nicobar","lat":"7.03002000","lon":"93.79028000"},
{"state":"Andaman and Nicobar Islands","name":"Port Blair","lat":"11.66613000","lon":"92.74635000"},
{"state":"Andaman and Nicobar Islands","name":"South Andaman","lat":"10.75776000","lon":"92.52136000"},
{"state":"Andhra Pradesh","name":"Addanki","lat":"15.81061000","lon":"79.97338000"},
{"state":"Andhra Pradesh","name":"Adoni","lat":"15.62788000","lon":"77.27495000"},
{"state":"Andhra Pradesh","name":"Akasahebpet","lat":"17.50455000","lon":"82.56597000"},
{"state":"Andhra Pradesh","name":"Akividu","lat":"16.58225000","lon":"81.38112000"},
{"state":"Andhra Pradesh","name":"Akkarampalle","lat":"13.65000000","lon":"79.42000000"},
{"state":"Andhra Pradesh","name":"Amalapuram","lat":"16.57868000","lon":"82.00609000"},
{"state":"Andhra Pradesh","name":"Amudalavalasa","lat":"18.41025000","lon":"83.90295000"},
{"state":"Andhra Pradesh","name":"Anakapalle","lat":"17.69134000","lon":"83.00395000"},
{"state":"Andhra Pradesh","name":"Anantapur","lat":"14.55000000","lon":"77.41667000"},
{"state":"Andhra Pradesh","name":"Atmakur","lat":"15.88109000","lon":"78.58704000"},
{"state":"Andhra Pradesh","name":"Attili","lat":"16.70000000","lon":"81.60000000"},
{"state":"Andhra Pradesh","name":"Avanigadda","lat":"16.02148000","lon":"80.91808000"},
{"state":"Andhra Pradesh","name":"Badvel","lat":"14.74510000","lon":"79.06288000"},
{"state":"Andhra Pradesh","name":"Banganapalle","lat":"15.31771000","lon":"78.22669000"},
{"state":"Andhra Pradesh","name":"Bapatla","lat":"15.90422000","lon":"80.46743000"},
{"state":"Andhra Pradesh","name":"Betamcherla","lat":"15.45144000","lon":"78.14797000"},
{"state":"Andhra Pradesh","name":"Bhattiprolu","lat":"16.10260000","lon":"80.78074000"},
{"state":"Andhra Pradesh","name":"Bhimavaram","lat":"16.54078000","lon":"81.52322000"},
{"state":"Andhra Pradesh","name":"Bhimunipatnam","lat":"17.89017000","lon":"83.45203000"},
{"state":"Andhra Pradesh","name":"Bobbili","lat":"18.57366000","lon":"83.35925000"},
{"state":"Andhra Pradesh","name":"Challapalle","lat":"16.11756000","lon":"80.93139000"},
{"state":"Andhra Pradesh","name":"Chemmumiahpet","lat":"15.89794000","lon":"79.32129000"},
{"state":"Andhra Pradesh","name":"Chilakalurupet","lat":"16.08987000","lon":"80.16705000"},
{"state":"Andhra Pradesh","name":"Chinnachowk","lat":"14.47516000","lon":"78.83540000"},
{"state":"Andhra Pradesh","name":"Chipurupalle","lat":"18.31142000","lon":"83.56846000"},
{"state":"Andhra Pradesh","name":"Chirala","lat":"15.82385000","lon":"80.35219000"},
{"state":"Andhra Pradesh","name":"Chittoor","lat":"13.41667000","lon":"79.00000000"},
{"state":"Andhra Pradesh","name":"Chodavaram","lat":"17.82884000","lon":"82.93526000"},
{"state":"Andhra Pradesh","name":"Cuddapah","lat":"14.41667000","lon":"78.75000000"},
{"state":"Andhra Pradesh","name":"Cumbum","lat":"15.58171000","lon":"79.11059000"},
{"state":"Andhra Pradesh","name":"Darsi","lat":"15.76978000","lon":"79.67939000"},
{"state":"Andhra Pradesh","name":"Dharmavaram","lat":"14.41435000","lon":"77.72035000"},
{"state":"Andhra Pradesh","name":"Dhone","lat":"15.39520000","lon":"77.87150000"},
{"state":"Andhra Pradesh","name":"Diguvametta","lat":"15.39507000","lon":"78.82930000"},
{"state":"Andhra Pradesh","name":"East Godavari","lat":"17.83333000","lon":"81.83333000"},
{"state":"Andhra Pradesh","name":"Elamanchili","lat":"17.54907000","lon":"82.85749000"},
{"state":"Andhra Pradesh","name":"Ellore","lat":"16.71311000","lon":"81.10437000"},
{"state":"Andhra Pradesh","name":"Emmiganur","lat":"15.77203000","lon":"77.48345000"},
{"state":"Andhra Pradesh","name":"Erraguntla","lat":"14.63853000","lon":"78.53974000"},
{"state":"Andhra Pradesh","name":"Etikoppaka","lat":"17.50000000","lon":"82.73333000"},
{"state":"Andhra Pradesh","name":"Gajuwaka","lat":"17.70000000","lon":"83.21667000"},
{"state":"Andhra Pradesh","name":"Ganguvada","lat":"18.66667000","lon":"84.11667000"},
{"state":"Andhra Pradesh","name":"Gannavaram","lat":"16.54092000","lon":"80.80213000"},
{"state":"Andhra Pradesh","name":"Giddalur","lat":"15.37439000","lon":"78.92609000"},
{"state":"Andhra Pradesh","name":"Gokavaram","lat":"17.25823000","lon":"81.84985000"},
{"state":"Andhra Pradesh","name":"Gorantla","lat":"13.98411000","lon":"77.77224000"},
{"state":"Andhra Pradesh","name":"GovindapuramChilakaluripetGuntur","lat":"16.15477000","lon":"80.10279000"},
{"state":"Andhra Pradesh","name":"Gudivada","lat":"16.43547000","lon":"80.99555000"},
{"state":"Andhra Pradesh","name":"Gudlavalleru","lat":"16.35000000","lon":"81.05000000"},
{"state":"Andhra Pradesh","name":"Gudur","lat":"14.15093000","lon":"79.85210000"},
{"state":"Andhra Pradesh","name":"Guntakal Junction","lat":"15.17112000","lon":"77.36244000"},
{"state":"Andhra Pradesh","name":"Guntur","lat":"16.29974000","lon":"80.45729000"},
{"state":"Andhra Pradesh","name":"Hindupur","lat":"13.82807000","lon":"77.49143000"},
{"state":"Andhra Pradesh","name":"Ichchapuram","lat":"19.11393000","lon":"84.68721000"},
{"state":"Andhra Pradesh","name":"Jaggayyapeta","lat":"16.89380000","lon":"80.09807000"},
{"state":"Andhra Pradesh","name":"Jammalamadugu","lat":"14.84677000","lon":"78.38314000"},
{"state":"Andhra Pradesh","name":"Kadiri","lat":"14.11168000","lon":"78.15982000"},
{"state":"Andhra Pradesh","name":"Kaikalur","lat":"16.55154000","lon":"81.21400000"},
{"state":"Andhra Pradesh","name":"Kakinada","lat":"16.96036000","lon":"82.23809000"},
{"state":"Andhra Pradesh","name":"Kalyandurg","lat":"14.54519000","lon":"77.10552000"},
{"state":"Andhra Pradesh","name":"Kamalapuram","lat":"14.59830000","lon":"78.66948000"},
{"state":"Andhra Pradesh","name":"Kandukur","lat":"15.21542000","lon":"79.90390000"},
{"state":"Andhra Pradesh","name":"Kanigiri","lat":"15.40555000","lon":"79.50694000"},
{"state":"Andhra Pradesh","name":"Kankipadu","lat":"16.43530000","lon":"80.76715000"},
{"state":"Andhra Pradesh","name":"Kanuru","lat":"16.28584000","lon":"81.25464000"},
{"state":"Andhra Pradesh","name":"Kavali","lat":"14.91630000","lon":"79.99449000"},
{"state":"Andhra Pradesh","name":"Kolanukonda","lat":"16.45392000","lon":"80.61046000"},
{"state":"Andhra Pradesh","name":"Kondapalle","lat":"16.61989000","lon":"80.54244000"},
{"state":"Andhra Pradesh","name":"Korukollu","lat":"16.50000000","lon":"81.25000000"},
{"state":"Andhra Pradesh","name":"Kosigi","lat":"15.85510000","lon":"77.24463000"},
{"state":"Andhra Pradesh","name":"Kovvur","lat":"17.01620000","lon":"81.72934000"},
{"state":"Andhra Pradesh","name":"Krishna","lat":"16.66667000","lon":"81.00000000"},
{"state":"Andhra Pradesh","name":"Kuppam","lat":"12.74931000","lon":"78.34189000"},
{"state":"Andhra Pradesh","name":"Kurnool","lat":"15.58333000","lon":"78.33333000"},
{"state":"Andhra Pradesh","name":"Macherla","lat":"16.47635000","lon":"79.43533000"},
{"state":"Andhra Pradesh","name":"Machilipatnam","lat":"16.18747000","lon":"81.13888000"},
{"state":"Andhra Pradesh","name":"Madanapalle","lat":"13.55030000","lon":"78.50288000"},
{"state":"Andhra Pradesh","name":"Madugula","lat":"17.91589000","lon":"82.81578000"},
{"state":"Andhra Pradesh","name":"Mandapeta","lat":"16.86254000","lon":"81.92921000"},
{"state":"Andhra Pradesh","name":"Mandasa","lat":"18.86830000","lon":"84.46296000"},
{"state":"Andhra Pradesh","name":"Mangalagiri","lat":"16.43083000","lon":"80.56815000"},
{"state":"Andhra Pradesh","name":"Markapur","lat":"15.73534000","lon":"79.26848000"},
{"state":"Andhra Pradesh","name":"Nagari","lat":"13.32139000","lon":"79.58557000"},
{"state":"Andhra Pradesh","name":"Nagireddipalli","lat":"14.27005000","lon":"79.10131000"},
{"state":"Andhra Pradesh","name":"Nandigama","lat":"16.77170000","lon":"80.28596000"},
{"state":"Andhra Pradesh","name":"Nandikotkur","lat":"15.85668000","lon":"78.26569000"},
{"state":"Andhra Pradesh","name":"Nandyal","lat":"15.47799000","lon":"78.48360000"},
{"state":"Andhra Pradesh","name":"Narasannapeta","lat":"18.41428000","lon":"84.04463000"},
{"state":"Andhra Pradesh","name":"Narasapur","lat":"16.43425000","lon":"81.69845000"},
{"state":"Andhra Pradesh","name":"Narasaraopet","lat":"16.23488000","lon":"80.04927000"},
{"state":"Andhra Pradesh","name":"Narasingapuram","lat":"13.60759000","lon":"79.31652000"},
{"state":"Andhra Pradesh","name":"Narayanavanam","lat":"13.42565000","lon":"79.58881000"},
{"state":"Andhra Pradesh","name":"Narsipatnam","lat":"17.66709000","lon":"82.61245000"},
{"state":"Andhra Pradesh","name":"Nayudupet","lat":"13.90742000","lon":"79.89465000"},
{"state":"Andhra Pradesh","name":"Nellore","lat":"14.08333000","lon":"79.58333000"},
{"state":"Andhra Pradesh","name":"Nidadavole","lat":"16.90572000","lon":"81.67222000"},
{"state":"Andhra Pradesh","name":"Nuzvid","lat":"16.78854000","lon":"80.84593000"},
{"state":"Andhra Pradesh","name":"Ongole","lat":"15.50357000","lon":"80.04454000"},
{"state":"Andhra Pradesh","name":"Pakala","lat":"13.44903000","lon":"79.11493000"},
{"state":"Andhra Pradesh","name":"Palakollu","lat":"16.51670000","lon":"81.73000000"},
{"state":"Andhra Pradesh","name":"Palasa","lat":"18.77257000","lon":"84.41012000"},
{"state":"Andhra Pradesh","name":"Palkonda","lat":"18.60374000","lon":"83.75568000"},
{"state":"Andhra Pradesh","name":"Pallevada","lat":"16.57790000","lon":"81.29463000"},
{"state":"Andhra Pradesh","name":"Palmaner","lat":"13.20000000","lon":"78.74725000"},
{"state":"Andhra Pradesh","name":"Parlakimidi","lat":"18.78113000","lon":"84.08836000"},
{"state":"Andhra Pradesh","name":"Parvatipuram","lat":"18.78392000","lon":"83.42569000"},
{"state":"Andhra Pradesh","name":"Pavuluru","lat":"15.85292000","lon":"80.16468000"},
{"state":"Andhra Pradesh","name":"Pedana","lat":"16.25582000","lon":"81.14378000"},
{"state":"Andhra Pradesh","name":"pedda nakkalapalem","lat":"15.86680000","lon":"80.16202000"},
{"state":"Andhra Pradesh","name":"Peddapuram","lat":"17.07701000","lon":"82.13836000"},
{"state":"Andhra Pradesh","name":"Penugonda","lat":"16.65363000","lon":"81.74550000"},
{"state":"Andhra Pradesh","name":"Penukonda","lat":"14.08286000","lon":"77.59473000"},
{"state":"Andhra Pradesh","name":"Phirangipuram","lat":"16.29078000","lon":"80.26233000"},
{"state":"Andhra Pradesh","name":"Pippara","lat":"16.71667000","lon":"81.55000000"},
{"state":"Andhra Pradesh","name":"Pithapuram","lat":"17.11680000","lon":"82.25284000"},
{"state":"Andhra Pradesh","name":"Polavaram","lat":"17.24754000","lon":"81.64372000"},
{"state":"Andhra Pradesh","name":"Ponnur","lat":"16.07114000","lon":"80.54944000"},
{"state":"Andhra Pradesh","name":"Ponnuru","lat":"16.06547000","lon":"80.55203000"},
{"state":"Andhra Pradesh","name":"Prakasam","lat":"15.50000000","lon":"79.50000000"},
{"state":"Andhra Pradesh","name":"Proddatur","lat":"14.75020000","lon":"78.54813000"},
{"state":"Andhra Pradesh","name":"Pulivendla","lat":"14.42139000","lon":"78.22502000"},
{"state":"Andhra Pradesh","name":"Punganuru","lat":"13.36672000","lon":"78.57186000"},
{"state":"Andhra Pradesh","name":"Puttaparthi","lat":"14.16520000","lon":"77.81170000"},
{"state":"Andhra Pradesh","name":"Puttur","lat":"13.44189000","lon":"79.55314000"},
{"state":"Andhra Pradesh","name":"Rajahmundry","lat":"17.00517000","lon":"81.77784000"},
{"state":"Andhra Pradesh","name":"Ramachandrapuram","lat":"16.83636000","lon":"82.02871000"},
{"state":"Andhra Pradesh","name":"Ramanayyapeta","lat":"16.94516000","lon":"82.23850000"},
{"state":"Andhra Pradesh","name":"Ramapuram","lat":"15.28749000","lon":"77.86722000"},
{"state":"Andhra Pradesh","name":"Rampachodavaram","lat":"17.44088000","lon":"81.77558000"},
{"state":"Andhra Pradesh","name":"Rayachoti","lat":"14.05723000","lon":"78.75056000"},
{"state":"Andhra Pradesh","name":"Rayadrug","lat":"14.69971000","lon":"76.85241000"},
{"state":"Andhra Pradesh","name":"Razam","lat":"18.44909000","lon":"83.65957000"},
{"state":"Andhra Pradesh","name":"Razampeta","lat":"14.19544000","lon":"79.15896000"},
{"state":"Andhra Pradesh","name":"Razole","lat":"16.47608000","lon":"81.83912000"},
{"state":"Andhra Pradesh","name":"Renigunta","lat":"13.65143000","lon":"79.51256000"},
{"state":"Andhra Pradesh","name":"Repalle","lat":"16.01840000","lon":"80.82958000"},
{"state":"Andhra Pradesh","name":"Salur","lat":"18.51716000","lon":"83.20548000"},
{"state":"Andhra Pradesh","name":"Samalkot","lat":"17.05675000","lon":"82.17639000"},
{"state":"Andhra Pradesh","name":"Sattenapalle","lat":"16.39381000","lon":"80.15221000"},
{"state":"Andhra Pradesh","name":"Singarayakonda","lat":"15.23046000","lon":"80.02794000"},
{"state":"Andhra Pradesh","name":"Sompeta","lat":"18.94419000","lon":"84.58449000"},
{"state":"Andhra Pradesh","name":"Srikakulam","lat":"18.29890000","lon":"83.89751000"},
{"state":"Andhra Pradesh","name":"Srisailain","lat":"16.07217000","lon":"78.86816000"},
{"state":"Andhra Pradesh","name":"Suluru","lat":"13.70000000","lon":"80.01667000"},
{"state":"Andhra Pradesh","name":"Tadepalle","lat":"16.48333000","lon":"80.60000000"},
{"state":"Andhra Pradesh","name":"Tadepallegudem","lat":"16.81467000","lon":"81.52717000"},
{"state":"Andhra Pradesh","name":"Tadpatri","lat":"14.90832000","lon":"78.01031000"},
{"state":"Andhra Pradesh","name":"Tanuku","lat":"16.75438000","lon":"81.68143000"},
{"state":"Andhra Pradesh","name":"Tekkali","lat":"18.60570000","lon":"84.23546000"},
{"state":"Andhra Pradesh","name":"Tirumala","lat":"13.68333000","lon":"79.35000000"},
{"state":"Andhra Pradesh","name":"Tirupati","lat":"13.63551000","lon":"79.41989000"},
{"state":"Andhra Pradesh","name":"Tuni","lat":"17.35905000","lon":"82.54607000"},
{"state":"Andhra Pradesh","name":"Uravakonda","lat":"14.94348000","lon":"77.25494000"},
{"state":"Andhra Pradesh","name":"vadlamuru","lat":"17.09545000","lon":"82.16565000"},
{"state":"Andhra Pradesh","name":"Vadlapudi","lat":"14.31119000","lon":"79.80430000"},
{"state":"Andhra Pradesh","name":"Venkatagiri","lat":"13.96005000","lon":"79.58032000"},
{"state":"Andhra Pradesh","name":"Vepagunta","lat":"17.77844000","lon":"83.21577000"},
{"state":"Andhra Pradesh","name":"Vetapalem","lat":"15.78502000","lon":"80.30663000"},
{"state":"Andhra Pradesh","name":"Vijayawada","lat":"16.50745000","lon":"80.64660000"},
{"state":"Andhra Pradesh","name":"Vinukonda","lat":"16.05310000","lon":"79.73964000"},
{"state":"Andhra Pradesh","name":"Visakhapatnam","lat":"17.68009000","lon":"83.20161000"},
{"state":"Andhra Pradesh","name":"Vizianagaram","lat":"18.11692000","lon":"83.41148000"},
{"state":"Andhra Pradesh","name":"Vizianagaram District","lat":"18.41102000","lon":"83.37677000"},
{"state":"Andhra Pradesh","name":"Vuyyuru","lat":"16.36307000","lon":"80.84406000"},
{"state":"Andhra Pradesh","name":"West Godavari","lat":"17.00000000","lon":"81.16667000"},
{"state":"Andhra Pradesh","name":"Yanam","lat":"16.73308000","lon":"82.21364000"},
{"state":"Andhra Pradesh","name":"Yanamalakuduru","lat":"16.48531000","lon":"80.66746000"},
{"state":"Andhra Pradesh","name":"Yarada","lat":"17.65872000","lon":"83.27419000"},
{"state":"Arunachal Pradesh","name":"Along","lat":"28.16951000","lon":"94.80060000"},
{"state":"Arunachal Pradesh","name":"Anjaw","lat":"28.06549000","lon":"96.82878000"},
{"state":"Arunachal Pradesh","name":"Basar","lat":"27.99008000","lon":"94.69451000"},
{"state":"Arunachal Pradesh","name":"Bomdila","lat":"27.26475000","lon":"92.42472000"},
{"state":"Arunachal Pradesh","name":"Changlang","lat":"27.36265000","lon":"96.34518000"},
{"state":"Arunachal Pradesh","name":"Dibang Valley","lat":"28.70000000","lon":"95.70000000"},
{"state":"Arunachal Pradesh","name":"East Kameng","lat":"27.30000000","lon":"93.05000000"},
{"state":"Arunachal Pradesh","name":"East Siang","lat":"28.12379000","lon":"95.16339000"},
{"state":"Arunachal Pradesh","name":"Hayuliang","lat":"28.07301000","lon":"96.54305000"},
{"state":"Arunachal Pradesh","name":"Itanagar","lat":"27.08694000","lon":"93.60987000"},
{"state":"Arunachal Pradesh","name":"Khonsa","lat":"27.01667000","lon":"95.56667000"},
{"state":"Arunachal Pradesh","name":"Kurung Kumey","lat":"27.99983000","lon":"93.39240000"},
{"state":"Arunachal Pradesh","name":"Lohit District","lat":"27.84012000","lon":"96.19521000"},
{"state":"Arunachal Pradesh","name":"Lower Dibang Valley","lat":"28.37258000","lon":"95.88040000"},
{"state":"Arunachal Pradesh","name":"Lower Subansiri","lat":"27.62554000","lon":"93.93908000"},
{"state":"Arunachal Pradesh","name":"Margherita","lat":"27.28482000","lon":"95.66796000"},
{"state":"Arunachal Pradesh","name":"Naharlagun","lat":"27.10467000","lon":"93.69518000"},
{"state":"Arunachal Pradesh","name":"Pasighat","lat":"28.06631000","lon":"95.32678000"},
{"state":"Arunachal Pradesh","name":"Tawang","lat":"27.57417000","lon":"91.92437000"},
{"state":"Arunachal Pradesh","name":"Tezu","lat":"27.91256000","lon":"96.12882000"},
{"state":"Arunachal Pradesh","name":"Tirap","lat":"27.01917000","lon":"95.51788000"},
{"state":"Arunachal Pradesh","name":"Upper Siang","lat":"28.83355000","lon":"94.91806000"},
{"state":"Arunachal Pradesh","name":"Upper Subansiri","lat":"28.30000000","lon":"94.00000000"},
{"state":"Arunachal Pradesh","name":"West Kameng","lat":"27.40000000","lon":"92.35000000"},
{"state":"Arunachal Pradesh","name":"West Siang","lat":"28.40000000","lon":"94.55000000"},
{"state":"Arunachal Pradesh","name":"Ziro","lat":"27.59497000","lon":"93.83854000"},
{"state":"Assam","name":"Abhayapuri","lat":"26.32255000","lon":"90.68526000"},
{"state":"Assam","name":"Amguri","lat":"26.81482000","lon":"94.52614000"},
{"state":"Assam","name":"Badarpur","lat":"24.86852000","lon":"92.59606000"},
{"state":"Assam","name":"Baksa","lat":"26.69804000","lon":"91.15142000"},
{"state":"Assam","name":"Barpathar","lat":"26.28709000","lon":"93.88844000"},
{"state":"Assam","name":"Barpeta","lat":"26.47104000","lon":"91.03080000"},
{"state":"Assam","name":"Barpeta Road","lat":"26.50284000","lon":"90.96937000"},
{"state":"Assam","name":"Basugaon","lat":"26.46742000","lon":"90.41951000"},
{"state":"Assam","name":"Bihpuriagaon","lat":"27.01718000","lon":"93.91673000"},
{"state":"Assam","name":"Bijni","lat":"26.49588000","lon":"90.70298000"},
{"state":"Assam","name":"Bilasipara","lat":"26.23285000","lon":"90.23410000"},
{"state":"Assam","name":"Bokajan","lat":"26.02131000","lon":"93.77945000"},
{"state":"Assam","name":"Bokakhat","lat":"26.64018000","lon":"93.60052000"},
{"state":"Assam","name":"Bongaigaon","lat":"26.46030000","lon":"90.64640000"},
{"state":"Assam","name":"Cachar","lat":"24.78213000","lon":"92.85771000"},
{"state":"Assam","name":"Chabua","lat":"27.48253000","lon":"95.17451000"},
{"state":"Assam","name":"Chapar","lat":"26.27266000","lon":"90.44556000"},
{"state":"Assam","name":"Chirang","lat":"26.52527000","lon":"90.49066000"},
{"state":"Assam","name":"Darrang","lat":"26.51195000","lon":"92.16843000"},
{"state":"Assam","name":"Dergaon","lat":"26.70000000","lon":"93.96667000"},
{"state":"Assam","name":"Dhekiajuli","lat":"26.70367000","lon":"92.47808000"},
{"state":"Assam","name":"Dhemaji","lat":"27.60910000","lon":"94.79420000"},
{"state":"Assam","name":"Dhing","lat":"26.46793000","lon":"92.47336000"},
{"state":"Assam","name":"Dhubri","lat":"26.06749000","lon":"90.02238000"},
{"state":"Assam","name":"Dibrugarh","lat":"27.50000000","lon":"95.00000000"},
{"state":"Assam","name":"Digboi","lat":"27.39321000","lon":"95.61839000"},
{"state":"Assam","name":"Dima Hasao District","lat":"25.50000000","lon":"93.00000000"},
{"state":"Assam","name":"Diphu","lat":"25.84341000","lon":"93.43116000"},
{"state":"Assam","name":"Dispur","lat":"26.13564000","lon":"91.80069000"},
{"state":"Assam","name":"Duliagaon","lat":"27.37227000","lon":"95.30754000"},
{"state":"Assam","name":"Dum Duma","lat":"27.56884000","lon":"95.55664000"},
{"state":"Assam","name":"Gauripur","lat":"26.08334000","lon":"89.96118000"},
{"state":"Assam","name":"Goalpara","lat":"26.12791000","lon":"90.60974000"},
{"state":"Assam","name":"Gohpur","lat":"26.88184000","lon":"93.61560000"},
{"state":"Assam","name":"Golaghat","lat":"26.40920000","lon":"93.91193000"},
{"state":"Assam","name":"Golakganj","lat":"26.10216000","lon":"89.82275000"},
{"state":"Assam","name":"Goshaingaon","lat":"26.43946000","lon":"89.96307000"},
{"state":"Assam","name":"Guwahati","lat":"26.18440000","lon":"91.74580000"},
{"state":"Assam","name":"Haflong","lat":"25.16478000","lon":"93.01744000"},
{"state":"Assam","name":"Hailakandi","lat":"24.50170000","lon":"92.60069000"},
{"state":"Assam","name":"Hajo","lat":"26.24520000","lon":"91.52525000"},
{"state":"Assam","name":"Hojai","lat":"26.00281000","lon":"92.85605000"},
{"state":"Assam","name":"Howli","lat":"26.42237000","lon":"90.98004000"},
{"state":"Assam","name":"Jogighopa","lat":"26.22646000","lon":"90.57247000"},
{"state":"Assam","name":"Jorhat","lat":"26.80000000","lon":"94.26000000"},
{"state":"Assam","name":"Kamrup","lat":"26.22322000","lon":"91.65344000"},
{"state":"Assam","name":"Kamrup Metropolitan","lat":"26.05375000","lon":"92.00763000"},
{"state":"Assam","name":"Karbi Anglong","lat":"26.00000000","lon":"93.50000000"},
{"state":"Assam","name":"Karimganj","lat":"24.60000000","lon":"92.40000000"},
{"state":"Assam","name":"Kharupatia","lat":"26.51839000","lon":"92.14722000"},
{"state":"Assam","name":"Kokrajhar","lat":"26.60000000","lon":"90.20000000"},
{"state":"Assam","name":"Lakhimpur","lat":"27.35000000","lon":"94.25000000"},
{"state":"Assam","name":"Lakhipur","lat":"24.79281000","lon":"93.00910000"},
{"state":"Assam","name":"Lala","lat":"24.55418000","lon":"92.61592000"},
{"state":"Assam","name":"Lumding Railway Colony","lat":"25.74903000","lon":"93.16998000"},
{"state":"Assam","name":"Mahur","lat":"25.18305000","lon":"93.11342000"},
{"state":"Assam","name":"Maibong","lat":"25.30125000","lon":"93.13811000"},
{"state":"Assam","name":"Makum","lat":"27.48652000","lon":"95.43646000"},
{"state":"Assam","name":"Mangaldai","lat":"26.44212000","lon":"92.03047000"},
{"state":"Assam","name":"Mariani","lat":"26.65725000","lon":"94.31529000"},
{"state":"Assam","name":"Moranha","lat":"27.18735000","lon":"94.91557000"},
{"state":"Assam","name":"Morigaon","lat":"26.25213000","lon":"92.34238000"},
{"state":"Assam","name":"Nagaon","lat":"26.35037000","lon":"92.69225000"},
{"state":"Assam","name":"Nahorkatiya","lat":"27.28912000","lon":"95.34180000"},
{"state":"Assam","name":"Nalbari","lat":"26.50000000","lon":"91.40000000"},
{"state":"Assam","name":"Namrup","lat":"27.19395000","lon":"95.31929000"},
{"state":"Assam","name":"Nazira","lat":"26.91649000","lon":"94.73611000"},
{"state":"Assam","name":"North Guwahati","lat":"26.19749000","lon":"91.72020000"},
{"state":"Assam","name":"North Lakhimpur","lat":"27.23517000","lon":"94.10357000"},
{"state":"Assam","name":"Numaligarh","lat":"26.62249000","lon":"93.72225000"},
{"state":"Assam","name":"Palasbari","lat":"26.12388000","lon":"91.53974000"},
{"state":"Assam","name":"Raha","lat":"26.23333000","lon":"92.51667000"},
{"state":"Assam","name":"Rangapara","lat":"26.83772000","lon":"92.66876000"},
{"state":"Assam","name":"Rangia","lat":"26.44931000","lon":"91.61356000"},
{"state":"Assam","name":"Sapatgram","lat":"26.33732000","lon":"90.12360000"},
{"state":"Assam","name":"Sarupathar","lat":"26.20600000","lon":"96.81000000"},
{"state":"Assam","name":"Sibsagar","lat":"26.98427000","lon":"94.63784000"},
{"state":"Assam","name":"Silapathar","lat":"27.59441000","lon":"94.72402000"},
{"state":"Assam","name":"Silchar","lat":"24.82733000","lon":"92.79787000"},
{"state":"Assam","name":"Soalkuchi","lat":"26.16806000","lon":"91.57111000"},
{"state":"Assam","name":"Sonari","lat":"27.02462000","lon":"95.01629000"},
{"state":"Assam","name":"Sonitpur","lat":"26.76748000","lon":"92.96425000"},
{"state":"Assam","name":"Sorbhog","lat":"26.48612000","lon":"90.88590000"},
{"state":"Assam","name":"Tezpur","lat":"26.63333000","lon":"92.80000000"},
{"state":"Assam","name":"Tinsukia","lat":"27.60000000","lon":"95.60000000"},
{"state":"Assam","name":"Titabar","lat":"26.60140000","lon":"94.20386000"},
{"state":"Assam","name":"Udalguri","lat":"26.75367000","lon":"92.10215000"},
{"state":"Bihar","name":"Amarpur","lat":"25.03967000","lon":"86.90247000"},
{"state":"Bihar","name":"Araria","lat":"26.20000000","lon":"87.40000000"},
{"state":"Bihar","name":"Arrah","lat":"25.55629000","lon":"84.66335000"},
{"state":"Bihar","name":"Arwal","lat":"25.16158000","lon":"84.69040000"},
{"state":"Bihar","name":"Asarganj","lat":"25.15046000","lon":"86.68639000"},
{"state":"Bihar","name":"Aurangabad","lat":"24.75204000","lon":"84.37420000"},
{"state":"Bihar","name":"Bagaha","lat":"27.09918000","lon":"84.09003000"},
{"state":"Bihar","name":"Bahadurganj","lat":"26.26172000","lon":"87.82443000"},
{"state":"Bihar","name":"Bairagnia","lat":"26.74063000","lon":"85.27323000"},
{"state":"Bihar","name":"Baisi","lat":"25.86302000","lon":"87.74487000"},
{"state":"Bihar","name":"Bakhtiyarpur","lat":"25.46179000","lon":"85.53179000"},
{"state":"Bihar","name":"Bangaon","lat":"25.86728000","lon":"86.51152000"},
{"state":"Bihar","name":"Banka","lat":"24.89214000","lon":"86.98425000"},
{"state":"Bihar","name":"Banmankhi","lat":"25.88857000","lon":"87.19421000"},
{"state":"Bihar","name":"Bar Bigha","lat":"25.21855000","lon":"85.73320000"},
{"state":"Bihar","name":"Barauli","lat":"26.38109000","lon":"84.58648000"},
{"state":"Bihar","name":"Barh","lat":"25.48339000","lon":"85.70928000"},
{"state":"Bihar","name":"Barhiya","lat":"25.28814000","lon":"86.02055000"},
{"state":"Bihar","name":"Bariarpur","lat":"25.28791000","lon":"86.57643000"},
{"state":"Bihar","name":"Baruni","lat":"25.47509000","lon":"85.96813000"},
{"state":"Bihar","name":"Begusarai","lat":"25.41853000","lon":"86.13389000"},
{"state":"Bihar","name":"Belsand","lat":"26.44365000","lon":"85.40076000"},
{"state":"Bihar","name":"Bettiah","lat":"26.80229000","lon":"84.50311000"},
{"state":"Bihar","name":"Bhabhua","lat":"25.04049000","lon":"83.60749000"},
{"state":"Bihar","name":"Bhagalpur","lat":"25.29023000","lon":"87.06665000"},
{"state":"Bihar","name":"Bhagirathpur","lat":"26.26950000","lon":"86.06346000"},
{"state":"Bihar","name":"Bhawanipur","lat":"26.45352000","lon":"87.02744000"},
{"state":"Bihar","name":"Bhojpur","lat":"25.30886000","lon":"84.44504000"},
{"state":"Bihar","name":"Bihar Sharif","lat":"25.20084000","lon":"85.52389000"},
{"state":"Bihar","name":"Bihariganj","lat":"25.73415000","lon":"86.98837000"},
{"state":"Bihar","name":"Bikramganj","lat":"25.21073000","lon":"84.25508000"},
{"state":"Bihar","name":"Birpur","lat":"26.50823000","lon":"87.01194000"},
{"state":"Bihar","name":"Buddh Gaya","lat":"24.69808000","lon":"84.98690000"},
{"state":"Bihar","name":"Buxar","lat":"25.50000000","lon":"84.10000000"},
{"state":"Bihar","name":"Chakia","lat":"26.41598000","lon":"85.04665000"},
{"state":"Bihar","name":"Chapra","lat":"25.78031000","lon":"84.74709000"},
{"state":"Bihar","name":"Chhatapur","lat":"26.21965000","lon":"87.00479000"},
{"state":"Bihar","name":"Colgong","lat":"25.26328000","lon":"87.23264000"},
{"state":"Bihar","name":"Dalsingh Sarai","lat":"25.66795000","lon":"85.83636000"},
{"state":"Bihar","name":"Darbhanga","lat":"26.00000000","lon":"86.00000000"},
{"state":"Bihar","name":"Daudnagar","lat":"25.03473000","lon":"84.40095000"},
{"state":"Bihar","name":"Dehri","lat":"24.90247000","lon":"84.18217000"},
{"state":"Bihar","name":"Dhaka","lat":"26.67479000","lon":"85.16698000"},
{"state":"Bihar","name":"Dighwara","lat":"25.74434000","lon":"85.01003000"},
{"state":"Bihar","name":"Dinapore","lat":"25.63705000","lon":"85.04794000"},
{"state":"Bihar","name":"Dumra","lat":"26.56708000","lon":"85.52040000"},
{"state":"Bihar","name":"Dumraon","lat":"25.55265000","lon":"84.15149000"},
{"state":"Bihar","name":"Fatwa","lat":"25.50958000","lon":"85.30504000"},
{"state":"Bihar","name":"Forbesganj","lat":"26.30253000","lon":"87.26556000"},
{"state":"Bihar","name":"Gaya","lat":"24.79686000","lon":"85.00385000"},
{"state":"Bihar","name":"Ghoga","lat":"25.21738000","lon":"87.15710000"},
{"state":"Bihar","name":"Gopalganj","lat":"26.50000000","lon":"84.33333000"},
{"state":"Bihar","name":"Hajipur","lat":"25.68544000","lon":"85.20981000"},
{"state":"Bihar","name":"Hilsa","lat":"25.31642000","lon":"85.28234000"},
{"state":"Bihar","name":"Hisua","lat":"24.83360000","lon":"85.41729000"},
{"state":"Bihar","name":"Islampur","lat":"25.14075000","lon":"85.20587000"},
{"state":"Bihar","name":"Jagdispur","lat":"25.46811000","lon":"84.41939000"},
{"state":"Bihar","name":"Jahanabad","lat":"25.21368000","lon":"84.98710000"},
{"state":"Bihar","name":"Jamalpur","lat":"25.31258000","lon":"86.48888000"},
{"state":"Bihar","name":"Jamui","lat":"24.92082000","lon":"86.17538000"},
{"state":"Bihar","name":"Jaynagar","lat":"26.59048000","lon":"86.13791000"},
{"state":"Bihar","name":"Jehanabad","lat":"25.20701000","lon":"84.99573000"},
{"state":"Bihar","name":"Jha-Jha","lat":"24.77107000","lon":"86.37888000"},
{"state":"Bihar","name":"Jhanjharpur","lat":"26.26467000","lon":"86.27993000"},
{"state":"Bihar","name":"Jogbani","lat":"26.39905000","lon":"87.26525000"},
{"state":"Bihar","name":"Kaimur District","lat":"25.05077000","lon":"83.58261000"},
{"state":"Bihar","name":"Kasba","lat":"25.85643000","lon":"87.53836000"},
{"state":"Bihar","name":"Katihar","lat":"25.50000000","lon":"87.60000000"},
{"state":"Bihar","name":"Khagaria","lat":"25.50220000","lon":"86.46708000"},
{"state":"Bihar","name":"Khagaul","lat":"25.57898000","lon":"85.04564000"},
{"state":"Bihar","name":"Kharagpur","lat":"25.12446000","lon":"86.55578000"},
{"state":"Bihar","name":"Khusropur","lat":"25.48174000","lon":"85.38492000"},
{"state":"Bihar","name":"Kishanganj","lat":"26.30000000","lon":"88.00000000"},
{"state":"Bihar","name":"Koath","lat":"25.32643000","lon":"84.25983000"},
{"state":"Bihar","name":"Koelwar","lat":"25.58055000","lon":"84.79751000"},
{"state":"Bihar","name":"Lakhisarai","lat":"25.20000000","lon":"86.20000000"},
{"state":"Bihar","name":"Lalganj","lat":"25.86894000","lon":"85.17394000"},
{"state":"Bihar","name":"Luckeesarai","lat":"25.17650000","lon":"86.09470000"},
{"state":"Bihar","name":"Madhepura","lat":"25.80000000","lon":"87.00000000"},
{"state":"Bihar","name":"Madhipura","lat":"25.92127000","lon":"86.79271000"},
{"state":"Bihar","name":"Madhubani","lat":"26.35367000","lon":"86.07169000"},
{"state":"Bihar","name":"Maharajgani","lat":"26.11017000","lon":"84.50365000"},
{"state":"Bihar","name":"Mairwa","lat":"26.23218000","lon":"84.16349000"},
{"state":"Bihar","name":"Maner","lat":"25.64602000","lon":"84.87291000"},
{"state":"Bihar","name":"Manihari","lat":"25.33891000","lon":"87.61998000"},
{"state":"Bihar","name":"Marhaura","lat":"25.97349000","lon":"84.86796000"},
{"state":"Bihar","name":"Masaurhi Buzurg","lat":"25.35417000","lon":"85.03195000"},
{"state":"Bihar","name":"Mohiuddinnagar","lat":"25.57374000","lon":"85.66944000"},
{"state":"Bihar","name":"Mokameh","lat":"25.39662000","lon":"85.92190000"},
{"state":"Bihar","name":"Monghyr","lat":"25.37459000","lon":"86.47455000"},
{"state":"Bihar","name":"Mothihari","lat":"26.64862000","lon":"84.91656000"},
{"state":"Bihar","name":"Munger","lat":"25.36099000","lon":"86.46515000"},
{"state":"Bihar","name":"Murliganj","lat":"25.89690000","lon":"86.99577000"},
{"state":"Bihar","name":"Muzaffarpur","lat":"26.16667000","lon":"85.41667000"},
{"state":"Bihar","name":"Nabinagar","lat":"24.60681000","lon":"84.12624000"},
{"state":"Bihar","name":"Nalanda","lat":"25.25000000","lon":"85.58333000"},
{"state":"Bihar","name":"Nasriganj","lat":"25.05140000","lon":"84.32839000"},
{"state":"Bihar","name":"Naugachhia","lat":"25.38807000","lon":"87.09906000"},
{"state":"Bihar","name":"Nawada","lat":"24.75000000","lon":"85.50000000"},
{"state":"Bihar","name":"Nirmali","lat":"26.31397000","lon":"86.58537000"},
{"state":"Bihar","name":"Pashchim Champaran","lat":"27.00000000","lon":"84.50000000"},
{"state":"Bihar","name":"Patna","lat":"25.41667000","lon":"85.16667000"},
{"state":"Bihar","name":"Piro","lat":"25.33218000","lon":"84.40454000"},
{"state":"Bihar","name":"Pupri","lat":"26.47079000","lon":"85.70311000"},
{"state":"Bihar","name":"Purba Champaran","lat":"26.58333000","lon":"84.83333000"},
{"state":"Bihar","name":"Purnia","lat":"25.81614000","lon":"87.40708000"},
{"state":"Bihar","name":"Rafiganj","lat":"24.81757000","lon":"84.63445000"},
{"state":"Bihar","name":"Raghunathpur","lat":"25.64492000","lon":"87.91762000"},
{"state":"Bihar","name":"Rajgir","lat":"25.02828000","lon":"85.42079000"},
{"state":"Bihar","name":"Ramnagar","lat":"27.16371000","lon":"84.32342000"},
{"state":"Bihar","name":"Raxaul","lat":"26.97982000","lon":"84.85065000"},
{"state":"Bihar","name":"Revelganj","lat":"25.78976000","lon":"84.63596000"},
{"state":"Bihar","name":"Rohtas","lat":"24.97941000","lon":"84.02774000"},
{"state":"Bihar","name":"Rusera","lat":"25.75355000","lon":"86.02597000"},
{"state":"Bihar","name":"Sagauli","lat":"26.76390000","lon":"84.74341000"},
{"state":"Bihar","name":"Saharsa","lat":"25.87498000","lon":"86.59611000"},
{"state":"Bihar","name":"Samastipur","lat":"25.75000000","lon":"85.91667000"},
{"state":"Bihar","name":"Saran","lat":"25.91667000","lon":"84.75000000"},
{"state":"Bihar","name":"Shahbazpur","lat":"26.30511000","lon":"87.28865000"},
{"state":"Bihar","name":"Shahpur","lat":"25.60293000","lon":"84.40412000"},
{"state":"Bihar","name":"Sheikhpura","lat":"25.13073000","lon":"85.78176000"},
{"state":"Bihar","name":"Sheohar","lat":"26.50000000","lon":"85.30000000"},
{"state":"Bihar","name":"Sherghati","lat":"24.55950000","lon":"84.79162000"},
{"state":"Bihar","name":"Silao","lat":"25.08358000","lon":"85.42804000"},
{"state":"Bihar","name":"Sitamarhi","lat":"26.66667000","lon":"85.50000000"},
{"state":"Bihar","name":"Siwan","lat":"26.22096000","lon":"84.35609000"},
{"state":"Bihar","name":"Supaul","lat":"26.25000000","lon":"86.80000000"},
{"state":"Bihar","name":"Teghra","lat":"25.49043000","lon":"85.94001000"},
{"state":"Bihar","name":"Tekari","lat":"24.94253000","lon":"84.84265000"},
{"state":"Bihar","name":"Thakurganj","lat":"26.42742000","lon":"88.13112000"},
{"state":"Bihar","name":"Vaishali","lat":"25.75000000","lon":"85.41667000"},
{"state":"Bihar","name":"Waris Aliganj","lat":"25.01720000","lon":"85.64047000"},
{"state":"Chandigarh","name":"Chandigarh","lat":"30.73629000","lon":"76.78840000"},
{"state":"Chhattisgarh","name":"Akaltara","lat":"22.02463000","lon":"82.42641000"},
{"state":"Chhattisgarh","name":"Ambagarh Chauki","lat":"20.77644000","lon":"80.74608000"},
{"state":"Chhattisgarh","name":"Ambikapur","lat":"23.11892000","lon":"83.19537000"},
{"state":"Chhattisgarh","name":"Arang","lat":"21.19639000","lon":"81.96912000"},
{"state":"Chhattisgarh","name":"Baikunthpur","lat":"23.26206000","lon":"82.56051000"},
{"state":"Chhattisgarh","name":"Balod","lat":"20.73081000","lon":"81.20578000"},
{"state":"Chhattisgarh","name":"Baloda","lat":"22.13890000","lon":"82.48171000"},
{"state":"Chhattisgarh","name":"Baloda Bazar","lat":"21.65678000","lon":"82.16062000"},
{"state":"Chhattisgarh","name":"Basna","lat":"21.27885000","lon":"82.82670000"},
{"state":"Chhattisgarh","name":"Bastar","lat":"19.26794000","lon":"81.73828000"},
{"state":"Chhattisgarh","name":"Bemetara","lat":"21.71556000","lon":"81.53423000"},
{"state":"Chhattisgarh","name":"Bhanpuri","lat":"21.09190000","lon":"80.93218000"},
{"state":"Chhattisgarh","name":"Bhatapara","lat":"21.73500000","lon":"81.94711000"},
{"state":"Chhattisgarh","name":"Bhatgaon","lat":"21.15000000","lon":"81.70000000"},
{"state":"Chhattisgarh","name":"Bhilai","lat":"21.20919000","lon":"81.42850000"},
{"state":"Chhattisgarh","name":"Bijapur","lat":"18.84322000","lon":"80.77610000"},
{"state":"Chhattisgarh","name":"Bilaspur","lat":"22.38333000","lon":"82.13333000"},
{"state":"Chhattisgarh","name":"Champa","lat":"22.03532000","lon":"82.64234000"},
{"state":"Chhattisgarh","name":"Chhuikhadan","lat":"21.52316000","lon":"80.99788000"},
{"state":"Chhattisgarh","name":"Deori","lat":"21.45000000","lon":"82.61667000"},
{"state":"Chhattisgarh","name":"Dhamtari","lat":"20.70718000","lon":"81.54874000"},
{"state":"Chhattisgarh","name":"Dongargaon","lat":"20.97172000","lon":"80.85077000"},
{"state":"Chhattisgarh","name":"Dongargarh","lat":"21.18893000","lon":"80.75459000"},
{"state":"Chhattisgarh","name":"Durg","lat":"21.15000000","lon":"81.40000000"},
{"state":"Chhattisgarh","name":"Gandai","lat":"21.66667000","lon":"81.10013000"},
{"state":"Chhattisgarh","name":"Gariaband","lat":"20.63323000","lon":"82.06221000"},
{"state":"Chhattisgarh","name":"Gaurela","lat":"22.75449000","lon":"81.90107000"},
{"state":"Chhattisgarh","name":"Gharghoda","lat":"22.17427000","lon":"83.35170000"},
{"state":"Chhattisgarh","name":"Gidam","lat":"18.97431000","lon":"81.39894000"},
{"state":"Chhattisgarh","name":"Jagdalpur","lat":"19.08136000","lon":"82.02131000"},
{"state":"Chhattisgarh","name":"Janjgir","lat":"22.00922000","lon":"82.57780000"},
{"state":"Chhattisgarh","name":"Janjgir-Champa","lat":"21.90000000","lon":"82.70000000"},
{"state":"Chhattisgarh","name":"Jashpur","lat":"22.78495000","lon":"83.84573000"},
{"state":"Chhattisgarh","name":"Jashpurnagar","lat":"22.88783000","lon":"84.13864000"},
{"state":"Chhattisgarh","name":"Junagarh","lat":"19.85993000","lon":"82.93385000"},
{"state":"Chhattisgarh","name":"Kabeerdham","lat":"22.10000000","lon":"81.20000000"},
{"state":"Chhattisgarh","name":"Kanker","lat":"20.27193000","lon":"81.49177000"},
{"state":"Chhattisgarh","name":"Katghora","lat":"22.50247000","lon":"82.54279000"},
{"state":"Chhattisgarh","name":"Kawardha","lat":"22.00853000","lon":"81.23148000"},
{"state":"Chhattisgarh","name":"Khairagarh","lat":"21.41859000","lon":"80.97942000"},
{"state":"Chhattisgarh","name":"Khamharia","lat":"20.97600000","lon":"82.25116000"},
{"state":"Chhattisgarh","name":"Kharod","lat":"21.74420000","lon":"82.57880000"},
{"state":"Chhattisgarh","name":"Kharsia","lat":"21.98953000","lon":"83.10476000"},
{"state":"Chhattisgarh","name":"Kirandul","lat":"18.63649000","lon":"81.25827000"},
{"state":"Chhattisgarh","name":"Kondagaon","lat":"19.59083000","lon":"81.66400000"},
{"state":"Chhattisgarh","name":"Korba","lat":"22.50000000","lon":"82.60000000"},
{"state":"Chhattisgarh","name":"Koriya","lat":"23.48326000","lon":"82.15037000"},
{"state":"Chhattisgarh","name":"Kota","lat":"22.29507000","lon":"82.02366000"},
{"state":"Chhattisgarh","name":"Kotaparh","lat":"19.14256000","lon":"82.32536000"},
{"state":"Chhattisgarh","name":"Kumhari","lat":"21.26667000","lon":"81.51667000"},
{"state":"Chhattisgarh","name":"Kurud","lat":"20.83073000","lon":"81.72212000"},
{"state":"Chhattisgarh","name":"Lormi","lat":"22.27434000","lon":"81.70181000"},
{"state":"Chhattisgarh","name":"Mahasamund","lat":"21.20000000","lon":"82.50000000"},
{"state":"Chhattisgarh","name":"Mungeli","lat":"22.06566000","lon":"81.68543000"},
{"state":"Chhattisgarh","name":"Narayanpur","lat":"19.60426000","lon":"81.08119000"},
{"state":"Chhattisgarh","name":"Narharpur","lat":"20.44892000","lon":"81.62004000"},
{"state":"Chhattisgarh","name":"Pandaria","lat":"22.22495000","lon":"81.40994000"},
{"state":"Chhattisgarh","name":"Pandatarai","lat":"22.18714000","lon":"81.32815000"},
{"state":"Chhattisgarh","name":"Pasan","lat":"22.84412000","lon":"82.19823000"},
{"state":"Chhattisgarh","name":"Patan","lat":"21.03333000","lon":"81.53333000"},
{"state":"Chhattisgarh","name":"Pathalgaon","lat":"22.55656000","lon":"83.46355000"},
{"state":"Chhattisgarh","name":"Pendra","lat":"22.77548000","lon":"81.95968000"},
{"state":"Chhattisgarh","name":"Pithora","lat":"21.25021000","lon":"82.51707000"},
{"state":"Chhattisgarh","name":"Raigarh","lat":"22.08582000","lon":"83.30603000"},
{"state":"Chhattisgarh","name":"Raipur","lat":"21.25621000","lon":"81.69022000"},
{"state":"Chhattisgarh","name":"Raj Nandgaon","lat":"21.16667000","lon":"81.00000000"},
{"state":"Chhattisgarh","name":"Raj-Nandgaon","lat":"21.09687000","lon":"81.02890000"},
{"state":"Chhattisgarh","name":"Ramanuj Ganj","lat":"23.80637000","lon":"83.69981000"},
{"state":"Chhattisgarh","name":"Ratanpur","lat":"22.28660000","lon":"82.16823000"},
{"state":"Chhattisgarh","name":"Sakti","lat":"22.02662000","lon":"82.96091000"},
{"state":"Chhattisgarh","name":"Saraipali","lat":"21.31530000","lon":"83.00629000"},
{"state":"Chhattisgarh","name":"Sarangarh","lat":"21.58614000","lon":"83.07850000"},
{"state":"Chhattisgarh","name":"Seorinarayan","lat":"21.72055000","lon":"82.59344000"},
{"state":"Chhattisgarh","name":"Simga","lat":"21.62810000","lon":"81.70376000"},
{"state":"Chhattisgarh","name":"Surguja","lat":"22.89624000","lon":"83.09631000"},
{"state":"Chhattisgarh","name":"Takhatpur","lat":"22.12915000","lon":"81.86959000"},
{"state":"Chhattisgarh","name":"Umarkot","lat":"19.66529000","lon":"82.20629000"},
{"state":"Chhattisgarh","name":"Uttar Bastar Kanker","lat":"20.20000000","lon":"81.10000000"},
{"state":"Dadra and Nagar Haveli and Daman and Diu","name":"Amli","lat":"20.28333000","lon":"73.01667000"},
{"state":"Dadra and Nagar Haveli and Daman and Diu","name":"Dadra","lat":"20.32504000","lon":"72.96618000"},
{"state":"Dadra and Nagar Haveli and Daman and Diu","name":"Dadra & Nagar Haveli","lat":"20.20651000","lon":"73.00811000"},
{"state":"Dadra and Nagar Haveli and Daman and Diu","name":"Daman","lat":"20.41431000","lon":"72.83236000"},
{"state":"Dadra and Nagar Haveli and Daman and Diu","name":"Daman District","lat":"20.41667000","lon":"72.88333000"},
{"state":"Dadra and Nagar Haveli and Daman and Diu","name":"Diu","lat":"20.72081000","lon":"70.93989000"},
{"state":"Dadra and Nagar Haveli and Daman and Diu","name":"Silvassa","lat":"20.27386000","lon":"72.99673000"},
{"state":"Delhi","name":"Alipur","lat":"28.79862000","lon":"77.13314000"},
{"state":"Delhi","name":"Bawana","lat":"28.79820000","lon":"77.03431000"},
{"state":"Delhi","name":"Central Delhi","lat":"28.64857000","lon":"77.21895000"},
{"state":"Delhi","name":"Delhi","lat":"28.65195000","lon":"77.23149000"},
{"state":"Delhi","name":"Deoli","lat":"28.50254000","lon":"77.23117000"},
{"state":"Delhi","name":"East Delhi","lat":"28.66242000","lon":"77.29122000"},
{"state":"Delhi","name":"Karol Bagh","lat":"28.65136000","lon":"77.19072000"},
{"state":"Delhi","name":"Najafgarh","lat":"28.60922000","lon":"76.97982000"},
{"state":"Delhi","name":"Nangloi Jat","lat":"28.67957000","lon":"77.06799000"},
{"state":"Delhi","name":"Narela","lat":"28.85267000","lon":"77.09288000"},
{"state":"Delhi","name":"New Delhi","lat":"28.63576000","lon":"77.22445000"},
{"state":"Delhi","name":"North Delhi","lat":"28.66920000","lon":"77.22273000"},
{"state":"Delhi","name":"North East Delhi","lat":"28.68690000","lon":"77.30195000"},
{"state":"Delhi","name":"North West Delhi","lat":"28.70113000","lon":"77.10154000"},
{"state":"Delhi","name":"Pitampura","lat":"28.68964000","lon":"77.13126000"},
{"state":"Delhi","name":"Rohini","lat":"28.74322000","lon":"77.06778000"},
{"state":"Delhi","name":"South Delhi","lat":"28.53009000","lon":"77.25174000"},
{"state":"Delhi","name":"South West Delhi","lat":"28.58060000","lon":"77.06720000"},
{"state":"Delhi","name":"West Delhi","lat":"28.65655000","lon":"77.10068000"},
{"state":"Goa","name":"Aldona","lat":"15.59337000","lon":"73.87482000"},
{"state":"Goa","name":"Arambol","lat":"15.68681000","lon":"73.70449000"},
{"state":"Goa","name":"Baga","lat":"15.56517000","lon":"73.75517000"},
{"state":"Goa","name":"Bambolim","lat":"15.46361000","lon":"73.85310000"},
{"state":"Goa","name":"Bandora","lat":"15.40823000","lon":"73.98129000"},
{"state":"Goa","name":"Benaulim","lat":"15.26435000","lon":"73.92812000"},
{"state":"Goa","name":"Calangute","lat":"15.54390000","lon":"73.75530000"},
{"state":"Goa","name":"Candolim","lat":"15.51807000","lon":"73.76259000"},
{"state":"Goa","name":"Carapur","lat":"15.56588000","lon":"73.98713000"},
{"state":"Goa","name":"Cavelossim","lat":"15.17255000","lon":"73.94194000"},
{"state":"Goa","name":"Chicalim","lat":"15.39835000","lon":"73.84216000"},
{"state":"Goa","name":"Chinchinim","lat":"15.21447000","lon":"73.97555000"},
{"state":"Goa","name":"Colovale","lat":"15.63522000","lon":"73.82426000"},
{"state":"Goa","name":"Colva","lat":"15.27976000","lon":"73.92285000"},
{"state":"Goa","name":"Cortalim","lat":"15.40247000","lon":"73.90881000"},
{"state":"Goa","name":"Cuncolim","lat":"15.17730000","lon":"73.99392000"},
{"state":"Goa","name":"Curchorem","lat":"15.26349000","lon":"74.10875000"},
{"state":"Goa","name":"Curti","lat":"15.41667000","lon":"74.01667000"},
{"state":"Goa","name":"Davorlim","lat":"15.27221000","lon":"73.99242000"},
{"state":"Goa","name":"Dicholi","lat":"15.59319000","lon":"73.94571000"},
{"state":"Goa","name":"Goa Velha","lat":"15.44384000","lon":"73.88572000"},
{"state":"Goa","name":"Guirim","lat":"15.57552000","lon":"73.80722000"},
{"state":"Goa","name":"Jua","lat":"15.53070000","lon":"73.95047000"},
{"state":"Goa","name":"Kankon","lat":"15.02698000","lon":"74.04617000"},
{"state":"Goa","name":"Madgaon","lat":"15.27501000","lon":"73.95786000"},
{"state":"Goa","name":"Mapuca","lat":"15.59154000","lon":"73.80898000"},
{"state":"Goa","name":"Morjim","lat":"15.63097000","lon":"73.73903000"},
{"state":"Goa","name":"Mormugao","lat":"15.38914000","lon":"73.81491000"},
{"state":"Goa","name":"Navelim","lat":"15.53333000","lon":"73.98333000"},
{"state":"Goa","name":"North Goa","lat":"15.53397000","lon":"73.96408000"},
{"state":"Goa","name":"Palle","lat":"15.46667000","lon":"74.08333000"},
{"state":"Goa","name":"Panaji","lat":"15.49574000","lon":"73.82624000"},
{"state":"Goa","name":"Pernem","lat":"15.72300000","lon":"73.79511000"},
{"state":"Goa","name":"Ponda","lat":"15.40341000","lon":"74.01519000"},
{"state":"Goa","name":"Quepem","lat":"15.21280000","lon":"74.07720000"},
{"state":"Goa","name":"Queula","lat":"15.39011000","lon":"73.98557000"},
{"state":"Goa","name":"Raia","lat":"15.30499000","lon":"73.97096000"},
{"state":"Goa","name":"Saligao","lat":"15.55359000","lon":"73.79036000"},
{"state":"Goa","name":"Sancoale","lat":"15.37794000","lon":"73.90352000"},
{"state":"Goa","name":"Sanguem","lat":"15.22901000","lon":"74.15149000"},
{"state":"Goa","name":"Sanquelim","lat":"15.56422000","lon":"74.00799000"},
{"state":"Goa","name":"Sanvordem","lat":"15.26269000","lon":"74.11965000"},
{"state":"Goa","name":"Serula","lat":"15.54774000","lon":"73.84329000"},
{"state":"Goa","name":"Solim","lat":"15.61521000","lon":"73.76740000"},
{"state":"Goa","name":"South Goa","lat":"15.20425000","lon":"74.16733000"},
{"state":"Goa","name":"Taleigao","lat":"15.46915000","lon":"73.83285000"},
{"state":"Goa","name":"Vagator","lat":"15.59766000","lon":"73.74496000"},
{"state":"Goa","name":"Valpoy","lat":"15.53239000","lon":"74.13671000"},
{"state":"Goa","name":"Varca","lat":"15.23237000","lon":"73.94311000"},
{"state":"Goa","name":"Vasco da Gama","lat":"15.39585000","lon":"73.81568000"},
{"state":"Gujarat","name":"Abrama","lat":"20.85865000","lon":"72.90648000"},
{"state":"Gujarat","name":"Adalaj","lat":"23.16453000","lon":"72.58107000"},
{"state":"Gujarat","name":"Agol","lat":"23.15000000","lon":"72.26666667"},
{"state":"Gujarat","name":"Ahmedabad","lat":"23.02579000","lon":"72.58727000"},
{"state":"Gujarat","name":"Ahwa","lat":"20.75718000","lon":"73.68626000"},
{"state":"Gujarat","name":"Akrund","lat":"23.28333333","lon":"73.11666667"},
{"state":"Gujarat","name":"Amod","lat":"21.99317000","lon":"72.87047000"},
{"state":"Gujarat","name":"Amod","lat":"21.99100000","lon":"72.87100000"},
{"state":"Gujarat","name":"Amreli","lat":"21.50789000","lon":"71.18323000"},
{"state":"Gujarat","name":"Amroli","lat":"21.25084000","lon":"72.83878000"},
{"state":"Gujarat","name":"Anand","lat":"22.40000000","lon":"72.75000000"},
{"state":"Gujarat","name":"Anjar","lat":"23.11316000","lon":"70.02671000"},
{"state":"Gujarat","name":"Ankleshwar","lat":"21.63236000","lon":"72.99001000"},
{"state":"Gujarat","name":"Babra","lat":"21.84577000","lon":"71.30544000"},
{"state":"Gujarat","name":"Bagasara","lat":"21.48333333","lon":"70.95000000"},
{"state":"Gujarat","name":"Bagasra","lat":"21.48719000","lon":"70.95516000"},
{"state":"Gujarat","name":"Bakharla","lat":"21.73151700","lon":"69.63529600"},
{"state":"Gujarat","name":"Balagam","lat":"21.36666667","lon":"70.10000000"},
{"state":"Gujarat","name":"Balasinor","lat":"22.95589100","lon":"73.33649900"},
{"state":"Gujarat","name":"Balisana","lat":"23.81643600","lon":"72.25753600"},
{"state":"Gujarat","name":"Bamanbore","lat":"22.41666667","lon":"71.01666667"},
{"state":"Gujarat","name":"Banas Kantha","lat":"24.25000000","lon":"72.50000000"},
{"state":"Gujarat","name":"Bandia","lat":"23.39604000","lon":"69.01155000"},
{"state":"Gujarat","name":"Bantva","lat":"21.48815000","lon":"70.07576000"},
{"state":"Gujarat","name":"Bardoli","lat":"21.12297000","lon":"73.11151000"},
{"state":"Gujarat","name":"Bedi","lat":"22.50143000","lon":"70.04363000"},
{"state":"Gujarat","name":"Bhachau","lat":"23.29858000","lon":"70.34279000"},
{"state":"Gujarat","name":"Bhadran","lat":"22.35930000","lon":"72.90050000"},
{"state":"Gujarat","name":"Bhandu","lat":"23.70000000","lon":"72.36666667"},
{"state":"Gujarat","name":"Bhanvad","lat":"21.93053000","lon":"69.78081000"},
{"state":"Gujarat","name":"Bharuch","lat":"21.69482000","lon":"72.98050000"},
{"state":"Gujarat","name":"Bhatha","lat":"21.18333333","lon":"72.76666667"},
{"state":"Gujarat","name":"Bhavnagar","lat":"21.76287000","lon":"72.15331000"},
{"state":"Gujarat","name":"Bhayavadar","lat":"21.85523000","lon":"70.24791000"},
{"state":"Gujarat","name":"Bhildi","lat":"24.18333333","lon":"72.03333333"},
{"state":"Gujarat","name":"Bhojpur Dharampur","lat":"23.25000000","lon":"69.67000000"},
{"state":"Gujarat","name":"Bhuj","lat":"23.25397000","lon":"69.66928000"},
{"state":"Gujarat","name":"Bilimora","lat":"20.76957000","lon":"72.96134000"},
{"state":"Gujarat","name":"Bilkha","lat":"21.44150000","lon":"70.60063000"},
{"state":"Gujarat","name":"Borsad","lat":"22.40788000","lon":"72.89817000"},
{"state":"Gujarat","name":"Botad","lat":"22.16917000","lon":"71.66671000"},
{"state":"Gujarat","name":"Chaklasi","lat":"22.65320000","lon":"72.94497000"},
{"state":"Gujarat","name":"Chalala","lat":"21.41073000","lon":"71.16621000"},
{"state":"Gujarat","name":"Chaloda","lat":"22.80000000","lon":"72.45000000"},
{"state":"Gujarat","name":"Champaner","lat":"22.48590000","lon":"73.53710000"},
{"state":"Gujarat","name":"Chanasma","lat":"23.71472000","lon":"72.11279000"},
{"state":"Gujarat","name":"Chhala","lat":"23.30779000","lon":"72.77404000"},
{"state":"Gujarat","name":"Chhota Udepur","lat":"22.30401000","lon":"74.01580000"},
{"state":"Gujarat","name":"Chikhli","lat":"20.75751000","lon":"73.06268000"},
{"state":"Gujarat","name":"Chotila","lat":"22.42347000","lon":"71.19641000"},
{"state":"Gujarat","name":"Chuda","lat":"22.48333333","lon":"71.68333333"},
{"state":"Gujarat","name":"Dabhoda","lat":"23.16666667","lon":"72.73333333"},
{"state":"Gujarat","name":"Dabhoi","lat":"22.18333000","lon":"73.43333000"},
{"state":"Gujarat","name":"Dahegam","lat":"23.16903000","lon":"72.82161000"},
{"state":"Gujarat","name":"Dahod","lat":"22.52000000","lon":"74.15000000"},
{"state":"Gujarat","name":"Dakor","lat":"22.75268000","lon":"73.14967000"},
{"state":"Gujarat","name":"Damnagar","lat":"21.69232000","lon":"71.51747000"},
{"state":"Gujarat","name":"Dandi","lat":"21.32988000","lon":"72.62484000"},
{"state":"Gujarat","name":"Dangs (India)","lat":"20.75000000","lon":"73.75000000"},
{"state":"Gujarat","name":"Danta","lat":"24.18861111","lon":"72.76583333"},
{"state":"Gujarat","name":"Dayapar","lat":"23.63371000","lon":"68.90192000"},
{"state":"Gujarat","name":"Delvada","lat":"20.77544000","lon":"71.04646000"},
{"state":"Gujarat","name":"Delwada","lat":"20.78330000","lon":"71.05000000"},
{"state":"Gujarat","name":"Detroj","lat":"23.33333333","lon":"72.18333333"},
{"state":"Gujarat","name":"Devbhumi Dwarka","lat":"22.20253000","lon":"69.65498000"},
{"state":"Gujarat","name":"Devgadh Bariya","lat":"22.70517000","lon":"73.90882000"},
{"state":"Gujarat","name":"Dhandhuka","lat":"22.38185000","lon":"71.98664000"},
{"state":"Gujarat","name":"Dhanera","lat":"24.50967000","lon":"72.02343000"},
{"state":"Gujarat","name":"Dhansura","lat":"23.35000000","lon":"73.20000000"},
{"state":"Gujarat","name":"Dharampur","lat":"20.53693000","lon":"73.17368000"},
{"state":"Gujarat","name":"Dharasana","lat":"20.68333333","lon":"72.91666667"},
{"state":"Gujarat","name":"Dhari","lat":"21.32855000","lon":"71.02645000"},
{"state":"Gujarat","name":"Dhasa","lat":"21.80000000","lon":"71.51666667"},
{"state":"Gujarat","name":"Dhola","lat":"21.88129000","lon":"71.77269000"},
{"state":"Gujarat","name":"Dholera","lat":"22.24800000","lon":"72.19500000"},
{"state":"Gujarat","name":"Dholka","lat":"22.72732000","lon":"72.44128000"},
{"state":"Gujarat","name":"Dhoraji","lat":"21.73359000","lon":"70.45004000"},
{"state":"Gujarat","name":"Dhrangadhra","lat":"22.99167000","lon":"71.46793000"},
{"state":"Gujarat","name":"Dhrol","lat":"22.56700000","lon":"70.41769000"},
{"state":"Gujarat","name":"Dhuwaran","lat":"22.23779000","lon":"72.75910000"},
{"state":"Gujarat","name":"Disa","lat":"24.25612000","lon":"72.17928000"},
{"state":"Gujarat","name":"Dohad","lat":"22.90000000","lon":"74.00000000"},
{"state":"Gujarat","name":"Dumkhal","lat":"21.73960000","lon":"73.84490000"},
{"state":"Gujarat","name":"Dungarpur","lat":"21.28777000","lon":"71.75560000"},
{"state":"Gujarat","name":"Dwarka","lat":"22.23944000","lon":"68.96778000"},
{"state":"Gujarat","name":"Gadhada","lat":"21.96957000","lon":"71.57828000"},
{"state":"Gujarat","name":"Gandevi","lat":"20.81214000","lon":"72.99811000"},
{"state":"Gujarat","name":"Gandhidham","lat":"23.08333000","lon":"70.13333000"},
{"state":"Gujarat","name":"Gandhinagar","lat":"23.21667000","lon":"72.68333000"},
{"state":"Gujarat","name":"Gariadhar","lat":"21.53889000","lon":"71.57737000"},
{"state":"Gujarat","name":"Ghodasar","lat":"24.45000000","lon":"71.85000000"},
{"state":"Gujarat","name":"Ghogha","lat":"21.68813000","lon":"72.27630000"},
{"state":"Gujarat","name":"Gir Somnath","lat":"20.91287000","lon":"70.36710000"},
{"state":"Gujarat","name":"Godhra","lat":"22.77547000","lon":"73.61488000"},
{"state":"Gujarat","name":"Gondal","lat":"21.96074000","lon":"70.80255000"},
{"state":"Gujarat","name":"Gorwa","lat":"22.33010000","lon":"73.16110000"},
{"state":"Gujarat","name":"Halenda","lat":"22.08818500","lon":"71.05171000"},
{"state":"Gujarat","name":"Halol","lat":"22.50321000","lon":"73.47242000"},
{"state":"Gujarat","name":"Halvad","lat":"23.01516000","lon":"71.18029000"},
{"state":"Gujarat","name":"Hansot","lat":"21.58496000","lon":"72.80764000"},
{"state":"Gujarat","name":"Harij","lat":"23.69356000","lon":"71.90700000"},
{"state":"Gujarat","name":"Harsol","lat":"23.36000000","lon":"73.02000000"},
{"state":"Gujarat","name":"Hathuran","lat":"21.50000000","lon":"72.97000000"},
{"state":"Gujarat","name":"Himatnagar","lat":"23.59893000","lon":"72.96602000"},
{"state":"Gujarat","name":"Idar","lat":"23.83000000","lon":"73.00000000"},
{"state":"Gujarat","name":"Jakhau","lat":"23.21861111","lon":"68.71694444"},
{"state":"Gujarat","name":"Jalalpore","lat":"20.94910000","lon":"72.91360000"},
{"state":"Gujarat","name":"Jalalpur","lat":"20.94896000","lon":"72.89829000"},
{"state":"Gujarat","name":"Jalia","lat":"21.80000000","lon":"70.25000000"},
{"state":"Gujarat","name":"Jambuda","lat":"22.51666667","lon":"70.21666667"},
{"state":"Gujarat","name":"Jambusar","lat":"22.05236000","lon":"72.80074000"},
{"state":"Gujarat","name":"Jamnagar","lat":"22.47292000","lon":"70.06673000"},
{"state":"Gujarat","name":"Jarod","lat":"22.43300000","lon":"73.33300000"},
{"state":"Gujarat","name":"Jasdan","lat":"22.03709000","lon":"71.20794000"},
{"state":"Gujarat","name":"Jetalpur","lat":"22.88333333","lon":"72.60000000"},
{"state":"Gujarat","name":"Jetalsar","lat":"21.70891000","lon":"70.57695000"},
{"state":"Gujarat","name":"Jetpur","lat":"21.75482000","lon":"70.62347000"},
{"state":"Gujarat","name":"Jetpur (Navagadh)","lat":"21.75482000","lon":"70.62347000"},
{"state":"Gujarat","name":"Jhalod","lat":"23.10027778","lon":"74.15611111"},
{"state":"Gujarat","name":"Jhulasan","lat":"23.32860000","lon":"72.47314000"},
{"state":"Gujarat","name":"Jodhpur","lat":"21.90174000","lon":"70.03270000"},
{"state":"Gujarat","name":"Jodhpur (Ahmedabad)","lat":"21.88000000","lon":"70.03000000"},
{"state":"Gujarat","name":"Jodia","lat":"22.71667000","lon":"70.28333000"},
{"state":"Gujarat","name":"Jodiya Bandar","lat":"22.71667000","lon":"70.28333000"},
{"state":"Gujarat","name":"Junagadh","lat":"21.25000000","lon":"70.33333000"},
{"state":"Gujarat","name":"Kachchh","lat":"23.58333000","lon":"70.00000000"},
{"state":"Gujarat","name":"Kachholi","lat":"20.83333333","lon":"72.96666667"},
{"state":"Gujarat","name":"Kadi","lat":"23.29908000","lon":"72.33362000"},
{"state":"Gujarat","name":"Kadod","lat":"21.21717000","lon":"73.21972000"},
{"state":"Gujarat","name":"Kalavad","lat":"22.20789000","lon":"70.38343000"},
{"state":"Gujarat","name":"Kalol","lat":"22.60777000","lon":"73.46272000"},
{"state":"Gujarat","name":"Kandla","lat":"23.03333000","lon":"70.21667000"},
{"state":"Gujarat","name":"Kandla port","lat":"23.03000000","lon":"70.22000000"},
{"state":"Gujarat","name":"Kanodar","lat":"24.08932000","lon":"72.39354000"},
{"state":"Gujarat","name":"Kapadvanj","lat":"23.02302000","lon":"73.07113000"},
{"state":"Gujarat","name":"Karamsad","lat":"22.54243000","lon":"72.90392000"},
{"state":"Gujarat","name":"Kariana","lat":"21.88333333","lon":"71.35000000"},
{"state":"Gujarat","name":"Karjan","lat":"22.05304167","lon":"73.12351389"},
{"state":"Gujarat","name":"Kathor","lat":"21.28854000","lon":"72.94070000"},
{"state":"Gujarat","name":"Katpur","lat":"21.05869000","lon":"71.79457000"},
{"state":"Gujarat","name":"Kavant","lat":"22.09282000","lon":"74.05078000"},
{"state":"Gujarat","name":"Kawant","lat":"22.09282000","lon":"74.05078000"},
{"state":"Gujarat","name":"Kayavarohan","lat":"22.06700000","lon":"73.25000000"},
{"state":"Gujarat","name":"Kerwada","lat":"21.90000000","lon":"72.85000000"},
{"state":"Gujarat","name":"Keshod","lat":"21.30328000","lon":"70.24861000"},
{"state":"Gujarat","name":"Khambhalia","lat":"22.20000000","lon":"69.65000000"},
{"state":"Gujarat","name":"Khambhat","lat":"22.31744000","lon":"72.61916000"},
{"state":"Gujarat","name":"Khavda","lat":"23.85000000","lon":"69.72000000"},
{"state":"Gujarat","name":"Kheda","lat":"22.75000000","lon":"72.83333000"},
{"state":"Gujarat","name":"Khedbrahma","lat":"24.02990000","lon":"73.04632000"},
{"state":"Gujarat","name":"Khedoi","lat":"23.05927778","lon":"69.91895556"},
{"state":"Gujarat","name":"Kherali","lat":"22.68333333","lon":"71.60000000"},
{"state":"Gujarat","name":"Kheralu","lat":"23.88534000","lon":"72.61869000"},
{"state":"Gujarat","name":"Kodinar","lat":"20.79393000","lon":"70.70216000"},
{"state":"Gujarat","name":"Kosamba","lat":"21.46202000","lon":"72.95842000"},
{"state":"Gujarat","name":"Kothara","lat":"23.13300000","lon":"68.93200000"},
{"state":"Gujarat","name":"Kotharia","lat":"22.23000000","lon":"70.81000000"},
{"state":"Gujarat","name":"Kukarmunda","lat":"21.51666667","lon":"74.13333333"},
{"state":"Gujarat","name":"Kukma","lat":"23.21782200","lon":"69.77792200"},
{"state":"Gujarat","name":"Kundla","lat":"21.34222000","lon":"71.30633000"},
{"state":"Gujarat","name":"Kutch district","lat":"23.91500000","lon":"70.36700000"},
{"state":"Gujarat","name":"Kutiyana","lat":"21.62410000","lon":"69.98494000"},
{"state":"Gujarat","name":"Ladol","lat":"23.61666667","lon":"72.73333333"},
{"state":"Gujarat","name":"Lakhpat","lat":"23.82611111","lon":"68.77694444"},
{"state":"Gujarat","name":"Lakhtar","lat":"22.85683000","lon":"71.78844000"},
{"state":"Gujarat","name":"Lalpur","lat":"22.19073000","lon":"69.96351000"},
{"state":"Gujarat","name":"Langhnaj","lat":"23.45000000","lon":"72.48333333"},
{"state":"Gujarat","name":"Lathi","lat":"21.72310000","lon":"71.38843000"},
{"state":"Gujarat","name":"Limbdi","lat":"22.56507000","lon":"71.81076000"},
{"state":"Gujarat","name":"Limkheda","lat":"22.81666667","lon":"73.98333333"},
{"state":"Gujarat","name":"Lunavada","lat":"23.12841000","lon":"73.61043000"},
{"state":"Gujarat","name":"Madhavpur Ghed","lat":"21.29929167","lon":"70.02513889"},
{"state":"Gujarat","name":"Madhi","lat":"22.10000000","lon":"69.10000000"},
{"state":"Gujarat","name":"Mahemdavad","lat":"22.82359000","lon":"72.75551000"},
{"state":"Gujarat","name":"Mahesana","lat":"23.66667000","lon":"72.50000000"},
{"state":"Gujarat","name":"Mahisa","lat":"22.85000000","lon":"73.05000000"},
{"state":"Gujarat","name":"Mahudha","lat":"22.82082000","lon":"72.94032000"},
{"state":"Gujarat","name":"Mahuva","lat":"21.08330000","lon":"71.80000000"},
{"state":"Gujarat","name":"Mahuva (Surat)","lat":"21.02000000","lon":"73.15000000"},
{"state":"Gujarat","name":"Malpur","lat":"23.36035000","lon":"73.46595000"},
{"state":"Gujarat","name":"Manavadar","lat":"21.49813000","lon":"70.13775000"},
{"state":"Gujarat","name":"Mandal","lat":"23.28865000","lon":"71.91854000"},
{"state":"Gujarat","name":"Mandvi","lat":"22.83282000","lon":"69.35237000"},
{"state":"Gujarat","name":"Mandvi (Surat)","lat":"21.25526000","lon":"73.30412000"},
{"state":"Gujarat","name":"Mangrol","lat":"21.12268000","lon":"70.11484000"},
{"state":"Gujarat","name":"Mangrol (Junagadh)","lat":"21.12000000","lon":"70.12000000"},
{"state":"Gujarat","name":"Mansa","lat":"23.42564000","lon":"72.65739000"},
{"state":"Gujarat","name":"Meghraj","lat":"23.49805000","lon":"73.51352000"},
{"state":"Gujarat","name":"Mehsana","lat":"23.60000000","lon":"72.40000000"},
{"state":"Gujarat","name":"Mendarda","lat":"21.32112000","lon":"70.44078000"},
{"state":"Gujarat","name":"Mithapur","lat":"22.41000000","lon":"69.00000000"},
{"state":"Gujarat","name":"Modasa","lat":"23.46253000","lon":"73.29857000"},
{"state":"Gujarat","name":"Morbi","lat":"22.81731000","lon":"70.83770000"},
{"state":"Gujarat","name":"Morva (Hadaf)","lat":"22.90469000","lon":"73.83912000"},
{"state":"Gujarat","name":"Morwa","lat":"22.90469000","lon":"73.83912000"},
{"state":"Gujarat","name":"Mundra","lat":"22.83918000","lon":"69.72190000"},
{"state":"Gujarat","name":"Nadiad","lat":"22.69385000","lon":"72.86157000"},
{"state":"Gujarat","name":"Nadiad","lat":"22.70000000","lon":"72.87000000"},
{"state":"Gujarat","name":"Nagwa","lat":"25.69621000","lon":"84.23590000"},
{"state":"Gujarat","name":"Naldhara","lat":"20.96666667","lon":"73.16666667"},
{"state":"Gujarat","name":"Naliya","lat":"23.26058000","lon":"68.82655000"},
{"state":"Gujarat","name":"Nargol","lat":"20.23300000","lon":"72.75000000"},
{"state":"Gujarat","name":"Narmada","lat":"21.87377000","lon":"73.49527000"},
{"state":"Gujarat","name":"Naroda","lat":"23.07041000","lon":"72.65702000"},
{"state":"Gujarat","name":"Navsari","lat":"20.95000000","lon":"72.92000000"},
{"state":"Gujarat","name":"Nikora","lat":"21.78586000","lon":"73.13968000"},
{"state":"Gujarat","name":"Nizar","lat":"21.47727000","lon":"74.19595000"},
{"state":"Gujarat","name":"Odadar","lat":"21.56666667","lon":"69.66666667"},
{"state":"Gujarat","name":"Okha","lat":"22.46756000","lon":"69.07002000"},
{"state":"Gujarat","name":"Olpad","lat":"21.33649000","lon":"72.75161000"},
{"state":"Gujarat","name":"Paddhari","lat":"22.43654000","lon":"70.60162000"},
{"state":"Gujarat","name":"Padra","lat":"22.23980000","lon":"73.08451000"},
{"state":"Gujarat","name":"Palanpur","lat":"24.17128000","lon":"72.43827000"},
{"state":"Gujarat","name":"Palanswa","lat":"23.46666667","lon":"70.93333333"},
{"state":"Gujarat","name":"Palitana","lat":"21.52519000","lon":"71.82309000"},
{"state":"Gujarat","name":"Paliyad","lat":"22.25757000","lon":"71.56024000"},
{"state":"Gujarat","name":"Paliyad (Bhavnagar)","lat":"22.25757000","lon":"71.56024000"},
{"state":"Gujarat","name":"Palsana","lat":"21.08000000","lon":"72.98000000"},
{"state":"Gujarat","name":"Panch Mahals","lat":"22.75000000","lon":"73.60000000"},
{"state":"Gujarat","name":"Panchmahal district","lat":"22.75000000","lon":"73.60000000"},
{"state":"Gujarat","name":"Pardi","lat":"20.50870000","lon":"72.94569000"},
{"state":"Gujarat","name":"Parnera","lat":"20.56101000","lon":"72.94846000"},
{"state":"Gujarat","name":"Patan","lat":"23.70000000","lon":"71.80000000"},
{"state":"Gujarat","name":"Pavi Jetpur","lat":"22.34472000","lon":"73.84093000"},
{"state":"Gujarat","name":"Petlad","lat":"22.47681000","lon":"72.79995000"},
{"state":"Gujarat","name":"Pipavav","lat":"20.96666667","lon":"71.56666667"},
{"state":"Gujarat","name":"Piplod","lat":"22.81666667","lon":"73.90000000"},
{"state":"Gujarat","name":"Porbandar","lat":"21.64219000","lon":"69.60929000"},
{"state":"Gujarat","name":"Prabhas Patan","lat":"20.88808000","lon":"70.40129000"},
{"state":"Gujarat","name":"Prantij","lat":"23.43841944","lon":"72.85718056"},
{"state":"Gujarat","name":"Radhanpur","lat":"23.83238000","lon":"71.60470000"},
{"state":"Gujarat","name":"Rajkot","lat":"22.33333000","lon":"70.83333000"},
{"state":"Gujarat","name":"Rajpipla","lat":"21.86667000","lon":"73.50000000"},
{"state":"Gujarat","name":"Rajula","lat":"21.03854000","lon":"71.44345000"},
{"state":"Gujarat","name":"Ranavav","lat":"21.68734000","lon":"69.74485000"},
{"state":"Gujarat","name":"Ranpur","lat":"22.36670000","lon":"71.75000000"},
{"state":"Gujarat","name":"Rapar","lat":"23.57267000","lon":"70.64718000"},
{"state":"Gujarat","name":"Reha","lat":"23.15172500","lon":"69.75008600"},
{"state":"Gujarat","name":"Roha","lat":"23.19646000","lon":"69.27076000"},
{"state":"Gujarat","name":"Sabar Kantha","lat":"23.62974000","lon":"73.00197000"},
{"state":"Gujarat","name":"Sachin","lat":"21.08718000","lon":"72.88153000"},
{"state":"Gujarat","name":"Salaya","lat":"22.31038000","lon":"69.60376000"},
{"state":"Gujarat","name":"Samakhiali","lat":"23.30340000","lon":"70.50688000"},
{"state":"Gujarat","name":"Sanand","lat":"22.99227000","lon":"72.38177000"},
{"state":"Gujarat","name":"Sankheda","lat":"22.17021000","lon":"73.57820000"},
{"state":"Gujarat","name":"Sarbhon","lat":"21.05000000","lon":"73.08330000"},
{"state":"Gujarat","name":"Sardoi","lat":"23.56670000","lon":"73.26670000"},
{"state":"Gujarat","name":"Sarkhej","lat":"22.98297000","lon":"72.50196000"},
{"state":"Gujarat","name":"Sathamba","lat":"23.16912500","lon":"73.32661667"},
{"state":"Gujarat","name":"Savarkundla","lat":"21.33726000","lon":"71.30350000"},
{"state":"Gujarat","name":"Savli","lat":"22.56666667","lon":"73.21666667"},
{"state":"Gujarat","name":"Sayla","lat":"22.54925000","lon":"71.48324000"},
{"state":"Gujarat","name":"Shahpur","lat":"22.15611000","lon":"70.77068000"},
{"state":"Gujarat","name":"Shivrajpur","lat":"22.42319000","lon":"73.60865000"},
{"state":"Gujarat","name":"Siddhpur","lat":"23.91670000","lon":"72.38330000"},
{"state":"Gujarat","name":"Sihor","lat":"21.71134000","lon":"71.96179000"},
{"state":"Gujarat","name":"Sikka","lat":"22.43218000","lon":"69.84158000"},
{"state":"Gujarat","name":"Sinor","lat":"21.91117000","lon":"73.33974000"},
{"state":"Gujarat","name":"Sojitra","lat":"22.53884000","lon":"72.71984000"},
{"state":"Gujarat","name":"Songadh","lat":"21.16966000","lon":"73.56357000"},
{"state":"Gujarat","name":"Supedi","lat":"21.76200000","lon":"70.37800000"},
{"state":"Gujarat","name":"Surat","lat":"21.17801000","lon":"72.81189000"},
{"state":"Gujarat","name":"Surendranagar","lat":"22.72706000","lon":"71.64856000"},
{"state":"Gujarat","name":"Sutrapada","lat":"20.89280000","lon":"70.46500000"},
{"state":"Gujarat","name":"Talaja","lat":"21.35270000","lon":"72.03524000"},
{"state":"Gujarat","name":"Tankara","lat":"22.65622000","lon":"70.74945000"},
{"state":"Gujarat","name":"Tapi","lat":"21.12000000","lon":"73.40000000"},
{"state":"Gujarat","name":"Than","lat":"22.57422000","lon":"71.19942000"},
{"state":"Gujarat","name":"Thangadh","lat":"22.56666667","lon":"71.18333333"},
{"state":"Gujarat","name":"Tharad","lat":"24.39597000","lon":"71.62577000"},
{"state":"Gujarat","name":"Thasra","lat":"22.79831000","lon":"73.21174000"},
{"state":"Gujarat","name":"The Dangs","lat":"20.75000000","lon":"73.75000000"},
{"state":"Gujarat","name":"Umarpada","lat":"21.45000000","lon":"73.50000000"},
{"state":"Gujarat","name":"Umrala","lat":"21.84353000","lon":"71.80305000"},
{"state":"Gujarat","name":"Umreth","lat":"22.69881000","lon":"73.11561000"},
{"state":"Gujarat","name":"Un","lat":"23.88745000","lon":"71.76975000"},
{"state":"Gujarat","name":"Una","lat":"20.82318000","lon":"71.03795000"},
{"state":"Gujarat","name":"Unjha","lat":"23.80366000","lon":"72.39101000"},
{"state":"Gujarat","name":"Upleta","lat":"21.74015000","lon":"70.28256000"},
{"state":"Gujarat","name":"Utran","lat":"21.23333000","lon":"72.86667000"},
{"state":"Gujarat","name":"Vadgam","lat":"24.08333333","lon":"72.48333333"},
{"state":"Gujarat","name":"Vadnagar","lat":"23.78593000","lon":"72.63893000"},
{"state":"Gujarat","name":"Vadodara","lat":"22.29941000","lon":"73.20812000"},
{"state":"Gujarat","name":"Vaghodia","lat":"22.30505000","lon":"73.40016000"},
{"state":"Gujarat","name":"Vaghodia INA","lat":"22.30000000","lon":"73.38330000"},
{"state":"Gujarat","name":"Vallabh Vidyanagar","lat":"22.53333000","lon":"72.90000000"},
{"state":"Gujarat","name":"Vallabhipur","lat":"21.88780000","lon":"71.87950000"},
{"state":"Gujarat","name":"Valsad","lat":"20.50000000","lon":"73.08333000"},
{"state":"Gujarat","name":"Vanala","lat":"22.45000000","lon":"71.98333333"},
{"state":"Gujarat","name":"Vansda","lat":"20.45000000","lon":"73.22000000"},
{"state":"Gujarat","name":"Vanthli","lat":"21.48330000","lon":"70.33330000"},
{"state":"Gujarat","name":"Vapi","lat":"20.37175000","lon":"72.90493000"},
{"state":"Gujarat","name":"Vartej","lat":"21.73947000","lon":"72.06553000"},
{"state":"Gujarat","name":"Vasa","lat":"22.66079000","lon":"72.75519000"},
{"state":"Gujarat","name":"Vasavad","lat":"21.82657000","lon":"71.02436000"},
{"state":"Gujarat","name":"Vaso","lat":"22.66079000","lon":"72.75519000"},
{"state":"Gujarat","name":"Vataman","lat":"22.53000000","lon":"72.42000000"},
{"state":"Gujarat","name":"Vejalpur","lat":"22.69021000","lon":"73.56299000"},
{"state":"Gujarat","name":"Veraval","lat":"20.90770000","lon":"70.36786000"},
{"state":"Gujarat","name":"Vijapur","lat":"23.56230000","lon":"72.74848000"},
{"state":"Gujarat","name":"Vinchhiya","lat":"22.21027000","lon":"71.37967000"},
{"state":"Gujarat","name":"Vinchia","lat":"22.21027000","lon":"71.37967000"},
{"state":"Gujarat","name":"Viramgam","lat":"23.12000000","lon":"72.03000000"},
{"state":"Gujarat","name":"Virpur","lat":"23.18920000","lon":"73.47987000"},
{"state":"Gujarat","name":"Visavadar","lat":"21.33954000","lon":"70.74966000"},
{"state":"Gujarat","name":"Visnagar","lat":"23.69855000","lon":"72.55210000"},
{"state":"Gujarat","name":"Vyara","lat":"21.11079000","lon":"73.39365000"},
{"state":"Gujarat","name":"Wadhai","lat":"20.76666667","lon":"73.48333333"},
{"state":"Gujarat","name":"Wadhwan","lat":"22.70000000","lon":"71.68333333"},
{"state":"Gujarat","name":"Waghai","lat":"20.77048000","lon":"73.50074000"},
{"state":"Gujarat","name":"Wankaner","lat":"22.61198000","lon":"70.94379000"},
{"state":"Haryana","name":"Ambala","lat":"30.32854000","lon":"76.94220000"},
{"state":"Haryana","name":"Asandh","lat":"29.52119000","lon":"76.60552000"},
{"state":"Haryana","name":"Ateli Mandi","lat":"28.10080000","lon":"76.25980000"},
{"state":"Haryana","name":"Bahadurgarh","lat":"28.69287000","lon":"76.93555000"},
{"state":"Haryana","name":"Bara Uchana","lat":"29.46747000","lon":"76.17798000"},
{"state":"Haryana","name":"Barwala","lat":"29.36747000","lon":"75.90809000"},
{"state":"Haryana","name":"Bawal","lat":"28.07184000","lon":"76.58312000"},
{"state":"Haryana","name":"Beri Khas","lat":"28.70146000","lon":"76.57708000"},
{"state":"Haryana","name":"Bhiwani","lat":"28.75000000","lon":"76.16667000"},
{"state":"Haryana","name":"Bilaspur","lat":"30.30450000","lon":"77.30424000"},
{"state":"Haryana","name":"Buriya","lat":"30.15911000","lon":"77.35814000"},
{"state":"Haryana","name":"Charkhi Dadri","lat":"28.59166000","lon":"76.27161000"},
{"state":"Haryana","name":"Chhachhrauli","lat":"30.24492000","lon":"77.36027000"},
{"state":"Haryana","name":"Dabwali","lat":"29.94906000","lon":"74.73832000"},
{"state":"Haryana","name":"Dharuhera","lat":"28.20553000","lon":"76.79691000"},
{"state":"Haryana","name":"Ellenabad","lat":"29.45282000","lon":"74.66122000"},
{"state":"Haryana","name":"Faridabad","lat":"28.41124000","lon":"77.31316000"},
{"state":"Haryana","name":"Faridabad District","lat":"28.46292000","lon":"77.37160000"},
{"state":"Haryana","name":"Farrukhnagar","lat":"28.44745000","lon":"76.82391000"},
{"state":"Haryana","name":"Fatehabad","lat":"29.51525000","lon":"75.45554000"},
{"state":"Haryana","name":"Fatehabad District","lat":"29.31000000","lon":"75.27000000"},
{"state":"Haryana","name":"Firozpur Jhirka","lat":"27.78853000","lon":"76.94496000"},
{"state":"Haryana","name":"Gharaunda","lat":"29.53692000","lon":"76.97142000"},
{"state":"Haryana","name":"Gohana","lat":"29.13777000","lon":"76.70247000"},
{"state":"Haryana","name":"Gorakhpur","lat":"29.44768000","lon":"75.67206000"},
{"state":"Haryana","name":"Gurgaon","lat":"28.43891000","lon":"77.00592000"},
{"state":"Haryana","name":"Hansi","lat":"29.10239000","lon":"75.96253000"},
{"state":"Haryana","name":"Hasanpur","lat":"27.96944000","lon":"77.49544000"},
{"state":"Haryana","name":"Hisar","lat":"29.15394000","lon":"75.72294000"},
{"state":"Haryana","name":"Hodal","lat":"27.89196000","lon":"77.36744000"},
{"state":"Haryana","name":"Inda Chhoi","lat":"29.64042000","lon":"75.79041000"},
{"state":"Haryana","name":"Indri","lat":"29.87999000","lon":"77.05972000"},
{"state":"Haryana","name":"Jagadhri","lat":"30.16719000","lon":"77.30367000"},
{"state":"Haryana","name":"Jakhal","lat":"29.79627000","lon":"75.82392000"},
{"state":"Haryana","name":"Jhajjar","lat":"28.60630000","lon":"76.65650000"},
{"state":"Haryana","name":"Jind","lat":"29.31577000","lon":"76.31502000"},
{"state":"Haryana","name":"Kaithal","lat":"29.80153000","lon":"76.39959000"},
{"state":"Haryana","name":"Kalanaur","lat":"28.82823000","lon":"76.39550000"},
{"state":"Haryana","name":"Kalanwali","lat":"29.83573000","lon":"74.97170000"},
{"state":"Haryana","name":"Kanina Khas","lat":"28.33093000","lon":"76.31099000"},
{"state":"Haryana","name":"Karnal","lat":"29.66667000","lon":"76.83333000"},
{"state":"Haryana","name":"Kharkhauda","lat":"28.87870000","lon":"76.91069000"},
{"state":"Haryana","name":"Kheri Sampla","lat":"28.77810000","lon":"76.77560000"},
{"state":"Haryana","name":"Kurukshetra","lat":"30.00000000","lon":"76.75000000"},
{"state":"Haryana","name":"Ladwa","lat":"29.99350000","lon":"77.04563000"},
{"state":"Haryana","name":"Loharu","lat":"28.42993000","lon":"75.80779000"},
{"state":"Haryana","name":"Maham","lat":"28.96912000","lon":"76.29495000"},
{"state":"Haryana","name":"Mahendragarh","lat":"28.25000000","lon":"76.16667000"},
{"state":"Haryana","name":"Mandholi Kalan","lat":"28.70850000","lon":"75.68296000"},
{"state":"Haryana","name":"Mustafabad","lat":"30.20220000","lon":"77.14873000"},
{"state":"Haryana","name":"Narayangarh","lat":"30.47798000","lon":"77.12804000"},
{"state":"Haryana","name":"Narnaul","lat":"28.04444000","lon":"76.10833000"},
{"state":"Haryana","name":"Narnaund","lat":"29.22047000","lon":"76.14278000"},
{"state":"Haryana","name":"Narwana","lat":"29.59903000","lon":"76.11927000"},
{"state":"Haryana","name":"Nilokheri","lat":"29.83671000","lon":"76.93191000"},
{"state":"Haryana","name":"Nuh","lat":"28.10296000","lon":"77.00144000"},
{"state":"Haryana","name":"Palwal","lat":"28.14469000","lon":"77.32546000"},
{"state":"Haryana","name":"Panchkula","lat":"30.72883000","lon":"76.94716000"},
{"state":"Haryana","name":"Panipat","lat":"29.33259000","lon":"76.92634000"},
{"state":"Haryana","name":"Pataudi","lat":"28.32547000","lon":"76.77858000"},
{"state":"Haryana","name":"Pehowa","lat":"29.97897000","lon":"76.58249000"},
{"state":"Haryana","name":"Pinjaur","lat":"30.79873000","lon":"76.91822000"},
{"state":"Haryana","name":"Punahana","lat":"27.86371000","lon":"77.20432000"},
{"state":"Haryana","name":"Pundri","lat":"29.76096000","lon":"76.56034000"},
{"state":"Haryana","name":"Radaur","lat":"30.02706000","lon":"77.15177000"},
{"state":"Haryana","name":"Rania","lat":"29.52454000","lon":"74.83689000"},
{"state":"Haryana","name":"Ratia","lat":"29.69029000","lon":"75.57688000"},
{"state":"Haryana","name":"Rewari","lat":"28.19900000","lon":"76.61830000"},
{"state":"Haryana","name":"Rewari District","lat":"28.19613000","lon":"76.61607000"},
{"state":"Haryana","name":"Rohtak","lat":"28.83333000","lon":"76.66667000"},
{"state":"Haryana","name":"Safidon","lat":"29.40596000","lon":"76.67042000"},
{"state":"Haryana","name":"Samalkha","lat":"29.23552000","lon":"77.01273000"},
{"state":"Haryana","name":"Shadipur Julana","lat":"29.12368000","lon":"76.40516000"},
{"state":"Haryana","name":"Shahabad","lat":"30.16776000","lon":"76.87046000"},
{"state":"Haryana","name":"Sirsa","lat":"29.53489000","lon":"75.02898000"},
{"state":"Haryana","name":"Sohna","lat":"28.24737000","lon":"77.06544000"},
{"state":"Haryana","name":"Sonipat","lat":"29.00000000","lon":"76.91667000"},
{"state":"Haryana","name":"Taoru","lat":"28.21173000","lon":"76.94984000"},
{"state":"Haryana","name":"Thanesar","lat":"29.97323000","lon":"76.83214000"},
{"state":"Haryana","name":"Tohana","lat":"29.71332000","lon":"75.90441000"},
{"state":"Haryana","name":"Tosham","lat":"28.86993000","lon":"75.91650000"},
{"state":"Haryana","name":"Uklana","lat":"29.51124000","lon":"75.87823000"},
{"state":"Haryana","name":"Yamunanagar","lat":"30.23644000","lon":"77.30498000"},
{"state":"Himachal Pradesh","name":"Arki","lat":"31.15196000","lon":"76.96675000"},
{"state":"Himachal Pradesh","name":"Baddi","lat":"30.95783000","lon":"76.79136000"},
{"state":"Himachal Pradesh","name":"Banjar","lat":"31.63900000","lon":"77.34055000"},
{"state":"Himachal Pradesh","name":"Bilaspur","lat":"31.33027000","lon":"76.75663000"},
{"state":"Himachal Pradesh","name":"Chamba","lat":"32.57147000","lon":"76.10229000"},
{"state":"Himachal Pradesh","name":"Chaupal","lat":"30.94647000","lon":"77.58840000"},
{"state":"Himachal Pradesh","name":"Chowari","lat":"32.43190000","lon":"76.01200000"},
{"state":"Himachal Pradesh","name":"Chuari Khas","lat":"32.43058000","lon":"76.01428000"},
{"state":"Himachal Pradesh","name":"Dagshai","lat":"30.88431000","lon":"77.05228000"},
{"state":"Himachal Pradesh","name":"Dalhousie","lat":"32.55219000","lon":"75.94663000"},
{"state":"Himachal Pradesh","name":"Daulatpur","lat":"31.78871000","lon":"75.99154000"},
{"state":"Himachal Pradesh","name":"Dera Gopipur","lat":"31.87919000","lon":"76.21871000"},
{"state":"Himachal Pradesh","name":"Dharamsala","lat":"32.22006000","lon":"76.32013000"},
{"state":"Himachal Pradesh","name":"Gagret","lat":"31.65846000","lon":"76.06144000"},
{"state":"Himachal Pradesh","name":"Ghumarwin","lat":"31.44166000","lon":"76.71509000"},
{"state":"Himachal Pradesh","name":"Hamirpur","lat":"31.75000000","lon":"76.50000000"},
{"state":"Himachal Pradesh","name":"Jawala Mukhi","lat":"31.87456000","lon":"76.32013000"},
{"state":"Himachal Pradesh","name":"Jogindarnagar","lat":"31.98727000","lon":"76.78906000"},
{"state":"Himachal Pradesh","name":"Jubbal","lat":"31.10923000","lon":"77.65085000"},
{"state":"Himachal Pradesh","name":"Jutogh","lat":"31.10000000","lon":"77.11667000"},
{"state":"Himachal Pradesh","name":"Kalka","lat":"30.83982000","lon":"76.94065000"},
{"state":"Himachal Pradesh","name":"Kangar","lat":"32.09135000","lon":"76.26267000"},
{"state":"Himachal Pradesh","name":"Kangra","lat":"32.16667000","lon":"76.25000000"},
{"state":"Himachal Pradesh","name":"Kasauli","lat":"30.89856000","lon":"76.96587000"},
{"state":"Himachal Pradesh","name":"Kinnaur","lat":"31.58333000","lon":"78.41667000"},
{"state":"Himachal Pradesh","name":"Kotkhai","lat":"31.11728000","lon":"77.53936000"},
{"state":"Himachal Pradesh","name":"Kotla","lat":"32.25000000","lon":"76.03333000"},
{"state":"Himachal Pradesh","name":"Kulu","lat":"32.00000000","lon":"77.25000000"},
{"state":"Himachal Pradesh","name":"Kyelang","lat":"32.57170000","lon":"77.02448000"},
{"state":"Himachal Pradesh","name":"Lahul and Spiti","lat":"32.50000000","lon":"77.83333000"},
{"state":"Himachal Pradesh","name":"Manali","lat":"32.25740000","lon":"77.17481000"},
{"state":"Himachal Pradesh","name":"Mandi","lat":"31.71194000","lon":"76.93273000"},
{"state":"Himachal Pradesh","name":"Nadaun","lat":"31.78303000","lon":"76.34310000"},
{"state":"Himachal Pradesh","name":"Nagar","lat":"32.13808000","lon":"77.17393000"},
{"state":"Himachal Pradesh","name":"Nagrota","lat":"32.05710000","lon":"76.09139000"},
{"state":"Himachal Pradesh","name":"Nahan","lat":"30.56029000","lon":"77.29426000"},
{"state":"Himachal Pradesh","name":"Nalagarh","lat":"31.04168000","lon":"76.72285000"},
{"state":"Himachal Pradesh","name":"Palampur","lat":"32.11453000","lon":"76.55681000"},
{"state":"Himachal Pradesh","name":"Pandoh","lat":"31.66902000","lon":"77.05359000"},
{"state":"Himachal Pradesh","name":"Paonta Sahib","lat":"30.43666000","lon":"77.62462000"},
{"state":"Himachal Pradesh","name":"Parwanoo","lat":"30.83716000","lon":"76.96143000"},
{"state":"Himachal Pradesh","name":"Rajgarh","lat":"30.85142000","lon":"77.30066000"},
{"state":"Himachal Pradesh","name":"Rampur","lat":"31.44943000","lon":"77.63087000"},
{"state":"Himachal Pradesh","name":"Rohru","lat":"31.20269000","lon":"77.75484000"},
{"state":"Himachal Pradesh","name":"Sabathu","lat":"30.97494000","lon":"76.99137000"},
{"state":"Himachal Pradesh","name":"Santokhgarh","lat":"31.35205000","lon":"76.31775000"},
{"state":"Himachal Pradesh","name":"Sarahan","lat":"31.50988000","lon":"77.79395000"},
{"state":"Himachal Pradesh","name":"Sarka Ghat","lat":"31.69887000","lon":"76.73529000"},
{"state":"Himachal Pradesh","name":"Seoni","lat":"31.24188000","lon":"77.12362000"},
{"state":"Himachal Pradesh","name":"Shimla","lat":"31.16667000","lon":"77.58333000"},
{"state":"Himachal Pradesh","name":"Sirmaur","lat":"30.75000000","lon":"77.50000000"},
{"state":"Himachal Pradesh","name":"Solan","lat":"31.08333000","lon":"76.83333000"},
{"state":"Himachal Pradesh","name":"Sundarnagar","lat":"31.53523000","lon":"76.90500000"},
{"state":"Himachal Pradesh","name":"Theog","lat":"31.12155000","lon":"77.35838000"},
{"state":"Himachal Pradesh","name":"Tira Sujanpur","lat":"31.83364000","lon":"76.50539000"},
{"state":"Himachal Pradesh","name":"Una","lat":"31.46493000","lon":"76.26914000"},
{"state":"Himachal Pradesh","name":"Yol","lat":"32.16423000","lon":"76.19622000"},
{"state":"Jammu and Kashmir","name":"Akhnur","lat":"32.86667000","lon":"74.73333000"},
{"state":"Jammu and Kashmir","name":"Anantnag","lat":"33.73068000","lon":"75.15418000"},
{"state":"Jammu and Kashmir","name":"Awantipur","lat":"33.91978000","lon":"75.01515000"},
{"state":"Jammu and Kashmir","name":"Badgam","lat":"33.89001000","lon":"74.66297000"},
{"state":"Jammu and Kashmir","name":"Bandipore","lat":"34.50404000","lon":"74.82832000"},
{"state":"Jammu and Kashmir","name":"Bandipura","lat":"34.41728000","lon":"74.64308000"},
{"state":"Jammu and Kashmir","name":"Banihal","lat":"33.43647000","lon":"75.19684000"},
{"state":"Jammu and Kashmir","name":"Baramula","lat":"34.19287000","lon":"74.36920000"},
{"state":"Jammu and Kashmir","name":"Batoti","lat":"33.11826000","lon":"75.30889000"},
{"state":"Jammu and Kashmir","name":"Bhadarwah","lat":"32.97941000","lon":"75.71723000"},
{"state":"Jammu and Kashmir","name":"Bijbehara","lat":"33.79378000","lon":"75.10700000"},
{"state":"Jammu and Kashmir","name":"Bishnah","lat":"32.61060000","lon":"74.85557000"},
{"state":"Jammu and Kashmir","name":"Doda","lat":"33.14916000","lon":"75.54746000"},
{"state":"Jammu and Kashmir","name":"Gandarbal","lat":"34.22619000","lon":"74.77478000"},
{"state":"Jammu and Kashmir","name":"Ganderbal","lat":"34.29467000","lon":"75.19996000"},
{"state":"Jammu and Kashmir","name":"Gho Brahmanan de","lat":"32.55590000","lon":"74.95390000"},
{"state":"Jammu and Kashmir","name":"Hajan","lat":"34.29895000","lon":"74.61681000"},
{"state":"Jammu and Kashmir","name":"Hiranagar","lat":"32.45493000","lon":"75.27187000"},
{"state":"Jammu and Kashmir","name":"Jammu","lat":"32.75000000","lon":"74.83333000"},
{"state":"Jammu and Kashmir","name":"Jaurian","lat":"32.83255000","lon":"74.57612000"},
{"state":"Jammu and Kashmir","name":"Kathua","lat":"32.58333000","lon":"75.50000000"},
{"state":"Jammu and Kashmir","name":"Katra","lat":"32.99167000","lon":"74.93195000"},
{"state":"Jammu and Kashmir","name":"Khaur","lat":"32.60270000","lon":"74.80918000"},
{"state":"Jammu and Kashmir","name":"Kishtwar","lat":"33.52958000","lon":"76.01462000"},
{"state":"Jammu and Kashmir","name":"Kud","lat":"33.07246000","lon":"75.28727000"},
{"state":"Jammu and Kashmir","name":"Kulgam","lat":"33.64456000","lon":"75.01923000"},
{"state":"Jammu and Kashmir","name":"Kupwara","lat":"34.53193000","lon":"74.26605000"},
{"state":"Jammu and Kashmir","name":"Ladakh","lat":"34.33333000","lon":"77.41667000"},
{"state":"Jammu and Kashmir","name":"Magam","lat":"34.09256000","lon":"74.59016000"},
{"state":"Jammu and Kashmir","name":"Nawanshahr","lat":"32.76505000","lon":"74.52772000"},
{"state":"Jammu and Kashmir","name":"Noria","lat":"32.52095000","lon":"74.79845000"},
{"state":"Jammu and Kashmir","name":"Padam","lat":"33.46659000","lon":"76.88488000"},
{"state":"Jammu and Kashmir","name":"Pahlgam","lat":"34.01592000","lon":"75.31899000"},
{"state":"Jammu and Kashmir","name":"Parol","lat":"32.34598000","lon":"75.43441000"},
{"state":"Jammu and Kashmir","name":"Pattan","lat":"34.16125000","lon":"74.55634000"},
{"state":"Jammu and Kashmir","name":"Pulwama","lat":"33.87405000","lon":"74.89955000"},
{"state":"Jammu and Kashmir","name":"Punch","lat":"33.70178000","lon":"74.19916000"},
{"state":"Jammu and Kashmir","name":"Qazigund","lat":"33.63828000","lon":"75.14261000"},
{"state":"Jammu and Kashmir","name":"Rajaori","lat":"33.37526000","lon":"74.30920000"},
{"state":"Jammu and Kashmir","name":"Rajauri","lat":"33.25000000","lon":"74.25000000"},
{"state":"Jammu and Kashmir","name":"Ramban","lat":"33.32301000","lon":"75.18610000"},
{"state":"Jammu and Kashmir","name":"Ramgarh","lat":"33.40379000","lon":"74.22388000"},
{"state":"Jammu and Kashmir","name":"Ramnagar","lat":"32.80728000","lon":"75.31119000"},
{"state":"Jammu and Kashmir","name":"Riasi","lat":"33.08115000","lon":"74.83242000"},
{"state":"Jammu and Kashmir","name":"Samba","lat":"32.57523000","lon":"75.10929000"},
{"state":"Jammu and Kashmir","name":"Shupiyan","lat":"33.73067000","lon":"74.81869000"},
{"state":"Jammu and Kashmir","name":"Sopur","lat":"34.28671000","lon":"74.47228000"},
{"state":"Jammu and Kashmir","name":"Soyibug","lat":"34.07677000","lon":"74.70570000"},
{"state":"Jammu and Kashmir","name":"Srinagar","lat":"34.08565000","lon":"74.80555000"},
{"state":"Jammu and Kashmir","name":"Sumbal","lat":"34.23072000","lon":"74.64720000"},
{"state":"Jammu and Kashmir","name":"Thang","lat":"34.92740000","lon":"76.79336000"},
{"state":"Jammu and Kashmir","name":"Thanna Mandi","lat":"33.54204000","lon":"74.38100000"},
{"state":"Jammu and Kashmir","name":"Tral","lat":"33.92708000","lon":"75.11585000"},
{"state":"Jammu and Kashmir","name":"Tsrar Sharif","lat":"33.86319000","lon":"74.76524000"},
{"state":"Jammu and Kashmir","name":"Udhampur","lat":"33.00000000","lon":"75.16667000"},
{"state":"Jammu and Kashmir","name":"Uri","lat":"34.08064000","lon":"74.05088000"},
{"state":"Jharkhand","name":"Bagra","lat":"23.73333000","lon":"86.31667000"},
{"state":"Jharkhand","name":"Barka Kana","lat":"23.62118000","lon":"85.46748000"},
{"state":"Jharkhand","name":"Barki Saria","lat":"24.17594000","lon":"85.88938000"},
{"state":"Jharkhand","name":"Barwadih","lat":"23.84780000","lon":"84.11049000"},
{"state":"Jharkhand","name":"Bhojudih","lat":"23.63962000","lon":"86.44105000"},
{"state":"Jharkhand","name":"Bokaro","lat":"23.68562000","lon":"85.99026000"},
{"state":"Jharkhand","name":"Bundu","lat":"23.16095000","lon":"85.59007000"},
{"state":"Jharkhand","name":"Chaibasa","lat":"22.55038000","lon":"85.80249000"},
{"state":"Jharkhand","name":"Chakradharpur","lat":"22.67611000","lon":"85.62892000"},
{"state":"Jharkhand","name":"Chakulia","lat":"22.48301000","lon":"86.71793000"},
{"state":"Jharkhand","name":"Chandil","lat":"22.95745000","lon":"86.05331000"},
{"state":"Jharkhand","name":"Chas","lat":"23.63556000","lon":"86.16712000"},
{"state":"Jharkhand","name":"Chatra","lat":"24.20645000","lon":"84.87085000"},
{"state":"Jharkhand","name":"Chiria","lat":"22.31093000","lon":"85.27601000"},
{"state":"Jharkhand","name":"Daltonganj","lat":"24.03971000","lon":"84.06580000"},
{"state":"Jharkhand","name":"Deogarh","lat":"24.44382000","lon":"86.72607000"},
{"state":"Jharkhand","name":"Dhanbad","lat":"23.80199000","lon":"86.44324000"},
{"state":"Jharkhand","name":"Dhanwar","lat":"24.41074000","lon":"85.98183000"},
{"state":"Jharkhand","name":"Dugda","lat":"23.74516000","lon":"86.17175000"},
{"state":"Jharkhand","name":"Dumka","lat":"24.30000000","lon":"87.25000000"},
{"state":"Jharkhand","name":"Garhwa","lat":"24.07494000","lon":"83.71023000"},
{"state":"Jharkhand","name":"Ghatsila","lat":"22.58531000","lon":"86.47682000"},
{"state":"Jharkhand","name":"Giridih","lat":"24.25000000","lon":"85.91667000"},
{"state":"Jharkhand","name":"Gobindpur","lat":"22.63393000","lon":"86.07162000"},
{"state":"Jharkhand","name":"Godda","lat":"24.83333000","lon":"87.21667000"},
{"state":"Jharkhand","name":"Gomoh","lat":"23.87355000","lon":"86.15160000"},
{"state":"Jharkhand","name":"Gopinathpur","lat":"22.66301000","lon":"86.07500000"},
{"state":"Jharkhand","name":"Gua","lat":"22.21361000","lon":"85.38774000"},
{"state":"Jharkhand","name":"Gumia","lat":"23.79750000","lon":"85.82523000"},
{"state":"Jharkhand","name":"Gumla","lat":"23.08055000","lon":"84.53834000"},
{"state":"Jharkhand","name":"Hazaribag","lat":"24.00000000","lon":"85.25000000"},
{"state":"Jharkhand","name":"Hazaribagh","lat":"23.99241000","lon":"85.36162000"},
{"state":"Jharkhand","name":"Hesla","lat":"24.06313000","lon":"85.87905000"},
{"state":"Jharkhand","name":"Husainabad","lat":"24.52849000","lon":"84.00000000"},
{"state":"Jharkhand","name":"Jagannathpur","lat":"22.22115000","lon":"85.63917000"},
{"state":"Jharkhand","name":"Jamadoba","lat":"23.71667000","lon":"86.40000000"},
{"state":"Jharkhand","name":"Jamshedpur","lat":"22.80278000","lon":"86.18545000"},
{"state":"Jharkhand","name":"Jamtara","lat":"24.00000000","lon":"86.85000000"},
{"state":"Jharkhand","name":"Jasidih","lat":"24.51379000","lon":"86.64576000"},
{"state":"Jharkhand","name":"Jharia","lat":"23.74079000","lon":"86.41456000"},
{"state":"Jharkhand","name":"Jugsalai","lat":"22.77668000","lon":"86.18351000"},
{"state":"Jharkhand","name":"Jumri Tilaiya","lat":"24.43490000","lon":"85.52951000"},
{"state":"Jharkhand","name":"Kalikapur","lat":"22.61662000","lon":"86.28810000"},
{"state":"Jharkhand","name":"Kandra","lat":"22.85170000","lon":"86.05192000"},
{"state":"Jharkhand","name":"Kanke","lat":"23.43478000","lon":"85.32059000"},
{"state":"Jharkhand","name":"Katras","lat":"23.79752000","lon":"86.29834000"},
{"state":"Jharkhand","name":"Kenduadih","lat":"23.77574000","lon":"86.37609000"},
{"state":"Jharkhand","name":"Kharsawan","lat":"22.79093000","lon":"85.83102000"},
{"state":"Jharkhand","name":"Khunti","lat":"23.07602000","lon":"85.27818000"},
{"state":"Jharkhand","name":"Kodarma","lat":"24.46753000","lon":"85.59397000"},
{"state":"Jharkhand","name":"Kuju","lat":"23.72536000","lon":"85.51023000"},
{"state":"Jharkhand","name":"Latehar","lat":"23.75000000","lon":"84.40000000"},
{"state":"Jharkhand","name":"Lohardaga","lat":"23.50000000","lon":"84.60000000"},
{"state":"Jharkhand","name":"Madhupur","lat":"24.27419000","lon":"86.63929000"},
{"state":"Jharkhand","name":"Malkera","lat":"23.78213000","lon":"86.28767000"},
{"state":"Jharkhand","name":"Manoharpur","lat":"22.37456000","lon":"85.19234000"},
{"state":"Jharkhand","name":"Mugma","lat":"23.77015000","lon":"86.72746000"},
{"state":"Jharkhand","name":"Mushabani","lat":"22.51135000","lon":"86.45713000"},
{"state":"Jharkhand","name":"Neturhat","lat":"23.47457000","lon":"84.26780000"},
{"state":"Jharkhand","name":"Nirsa","lat":"23.78438000","lon":"86.70692000"},
{"state":"Jharkhand","name":"Noamundi","lat":"22.16094000","lon":"85.50416000"},
{"state":"Jharkhand","name":"Pakur","lat":"24.63925000","lon":"87.84239000"},
{"state":"Jharkhand","name":"Palamu","lat":"23.91667000","lon":"84.08333000"},
{"state":"Jharkhand","name":"Pashchim Singhbhum","lat":"22.50000000","lon":"85.50000000"},
{"state":"Jharkhand","name":"patamda","lat":"24.30000000","lon":"85.41667000"},
{"state":"Jharkhand","name":"Pathardih","lat":"23.66580000","lon":"86.43166000"},
{"state":"Jharkhand","name":"Purba Singhbhum","lat":"22.59238000","lon":"86.48341000"},
{"state":"Jharkhand","name":"Ramgarh","lat":"23.63073000","lon":"85.56057000"},
{"state":"Jharkhand","name":"Ranchi","lat":"23.34316000","lon":"85.30940000"},
{"state":"Jharkhand","name":"Ray","lat":"23.68430000","lon":"85.05457000"},
{"state":"Jharkhand","name":"Sahibganj","lat":"24.99354000","lon":"87.67333000"},
{"state":"Jharkhand","name":"Saraikela","lat":"22.69963000","lon":"85.93126000"},
{"state":"Jharkhand","name":"Sarubera","lat":"23.81813000","lon":"85.99628000"},
{"state":"Jharkhand","name":"Sijua","lat":"23.77617000","lon":"86.33028000"},
{"state":"Jharkhand","name":"Simdega","lat":"22.61523000","lon":"84.50208000"},
{"state":"Jharkhand","name":"Sini","lat":"22.79325000","lon":"85.94543000"},
{"state":"Jharkhand","name":"Topchanchi","lat":"23.90381000","lon":"86.19792000"},
{"state":"Karnataka","name":"Afzalpur","lat":"17.19986000","lon":"76.36018000"},
{"state":"Karnataka","name":"Ajjampur","lat":"13.72794000","lon":"76.00680000"},
{"state":"Karnataka","name":"Aland","lat":"17.56425000","lon":"76.56854000"},
{"state":"Karnataka","name":"Alnavar","lat":"15.42727000","lon":"74.74111000"},
{"state":"Karnataka","name":"Alur","lat":"12.97805000","lon":"75.99094000"},
{"state":"Karnataka","name":"Anekal","lat":"12.71110000","lon":"77.69557000"},
{"state":"Karnataka","name":"Ankola","lat":"14.66049000","lon":"74.30470000"},
{"state":"Karnataka","name":"Annigeri","lat":"15.42513000","lon":"75.43350000"},
{"state":"Karnataka","name":"Arkalgud","lat":"12.76171000","lon":"76.06035000"},
{"state":"Karnataka","name":"Arsikere","lat":"13.31446000","lon":"76.25704000"},
{"state":"Karnataka","name":"Athni","lat":"16.72613000","lon":"75.06421000"},
{"state":"Karnataka","name":"Aurad","lat":"18.25397000","lon":"77.41761000"},
{"state":"Karnataka","name":"Badami","lat":"15.91495000","lon":"75.67683000"},
{"state":"Karnataka","name":"Bagalkot","lat":"16.18000000","lon":"75.69000000"},
{"state":"Karnataka","name":"Bagepalli","lat":"13.78338000","lon":"77.79667000"},
{"state":"Karnataka","name":"Bail-Hongal","lat":"15.81370000","lon":"74.85895000"},
{"state":"Karnataka","name":"Ballari","lat":"15.15000000","lon":"76.55000000"},
{"state":"Karnataka","name":"Ballary","lat":"15.14205000","lon":"76.92398000"},
{"state":"Karnataka","name":"Banavar","lat":"13.41029000","lon":"76.16314000"},
{"state":"Karnataka","name":"Bangalore Rural","lat":"13.22567000","lon":"77.57501000"},
{"state":"Karnataka","name":"Bangalore Urban","lat":"13.00000000","lon":"77.58333000"},
{"state":"Karnataka","name":"Bangarapet","lat":"12.99116000","lon":"78.17804000"},
{"state":"Karnataka","name":"Bannur","lat":"12.33295000","lon":"76.86201000"},
{"state":"Karnataka","name":"Bantval","lat":"12.89050000","lon":"75.03489000"},
{"state":"Karnataka","name":"Basavakalyan","lat":"17.87445000","lon":"76.94972000"},
{"state":"Karnataka","name":"Basavana Bagevadi","lat":"16.57278000","lon":"75.97252000"},
{"state":"Karnataka","name":"Belagavi","lat":"16.33333000","lon":"74.75000000"},
{"state":"Karnataka","name":"Belluru","lat":"12.98140000","lon":"76.73308000"},
{"state":"Karnataka","name":"Beltangadi","lat":"13.98333000","lon":"75.30000000"},
{"state":"Karnataka","name":"Belur","lat":"13.16558000","lon":"75.86519000"},
{"state":"Karnataka","name":"Bengaluru","lat":"12.97194000","lon":"77.59369000"},
{"state":"Karnataka","name":"Bhadravati","lat":"13.84846000","lon":"75.70502000"},
{"state":"Karnataka","name":"Bhalki","lat":"18.04348000","lon":"77.20600000"},
{"state":"Karnataka","name":"Bhatkal","lat":"13.98534000","lon":"74.55531000"},
{"state":"Karnataka","name":"Bidar","lat":"18.08333000","lon":"77.33333000"},
{"state":"Karnataka","name":"Bilgi","lat":"16.34714000","lon":"75.61804000"},
{"state":"Karnataka","name":"Birur","lat":"13.59723000","lon":"75.97167000"},
{"state":"Karnataka","name":"Byadgi","lat":"14.67325000","lon":"75.48680000"},
{"state":"Karnataka","name":"Byndoor","lat":"13.86667000","lon":"74.63333000"},
{"state":"Karnataka","name":"Canacona","lat":"14.99590000","lon":"74.05056000"},
{"state":"Karnataka","name":"Challakere","lat":"14.31800000","lon":"76.65165000"},
{"state":"Karnataka","name":"Chamrajnagar","lat":"11.96000000","lon":"77.09000000"},
{"state":"Karnataka","name":"Channagiri","lat":"14.02399000","lon":"75.92577000"},
{"state":"Karnataka","name":"Channapatna","lat":"12.65143000","lon":"77.20672000"},
{"state":"Karnataka","name":"Channarayapatna","lat":"12.90642000","lon":"76.38775000"},
{"state":"Karnataka","name":"Chik Ballapur","lat":"13.43512000","lon":"77.72787000"},
{"state":"Karnataka","name":"Chikkaballapur","lat":"13.55000000","lon":"77.87000000"},
{"state":"Karnataka","name":"Chikkamagaluru","lat":"13.49000000","lon":"75.73000000"},
{"state":"Karnataka","name":"Chiknayakanhalli","lat":"13.41609000","lon":"76.62063000"},
{"state":"Karnataka","name":"Chikodi","lat":"16.42898000","lon":"74.58591000"},
{"state":"Karnataka","name":"Chincholi","lat":"17.46508000","lon":"77.41874000"},
{"state":"Karnataka","name":"Chintamani","lat":"13.40051000","lon":"78.05172000"},
{"state":"Karnataka","name":"Chitapur","lat":"17.12357000","lon":"77.08240000"},
{"state":"Karnataka","name":"Chitradurga","lat":"14.20000000","lon":"76.50000000"},
{"state":"Karnataka","name":"Closepet","lat":"12.72181000","lon":"77.28149000"},
{"state":"Karnataka","name":"Coondapoor","lat":"13.63126000","lon":"74.69020000"},
{"state":"Karnataka","name":"Dakshina Kannada","lat":"12.84000000","lon":"75.29000000"},
{"state":"Karnataka","name":"Dandeli","lat":"15.26667000","lon":"74.61667000"},
{"state":"Karnataka","name":"Davanagere","lat":"14.43000000","lon":"75.90000000"},
{"state":"Karnataka","name":"Devanhalli","lat":"13.24655000","lon":"77.71183000"},
{"state":"Karnataka","name":"Dharwad","lat":"15.37000000","lon":"75.14000000"},
{"state":"Karnataka","name":"Dod Ballapur","lat":"13.29452000","lon":"77.53777000"},
{"state":"Karnataka","name":"French Rocks","lat":"12.50094000","lon":"76.67416000"},
{"state":"Karnataka","name":"Gadag","lat":"15.49835000","lon":"75.65187000"},
{"state":"Karnataka","name":"Gadag-Betageri","lat":"15.41670000","lon":"75.61670000"},
{"state":"Karnataka","name":"Gajendragarh","lat":"15.73628000","lon":"75.96976000"},
{"state":"Karnataka","name":"Gangawati","lat":"15.43130000","lon":"76.52933000"},
{"state":"Karnataka","name":"Gangolli","lat":"13.65024000","lon":"74.67072000"},
{"state":"Karnataka","name":"Gokak","lat":"16.16901000","lon":"74.82393000"},
{"state":"Karnataka","name":"Gokarna","lat":"14.55000000","lon":"74.31667000"},
{"state":"Karnataka","name":"Goribidnur","lat":"13.61072000","lon":"77.51738000"},
{"state":"Karnataka","name":"Gorur","lat":"12.82297000","lon":"76.06463000"},
{"state":"Karnataka","name":"Gubbi","lat":"13.31216000","lon":"76.94102000"},