[{"name":"Andaman and Nicobar Islands","native":null,"cities":[{"name":"Bamboo Flat","native":null,"lat":"11.70000000","lon":"92.71667000"},{"name":"Nicobar","native":null,"lat":"7.03002000","lon":"93.79028000"},{"name":"Port Blair","native":null,"lat":"11.66613000","lon":"92.74635000"},{"name":"South Andaman","native":null,"lat":"10.75776000","lon":"92.52136000"}]},{"name":"Andhra Pradesh","native":null,"cities":[{"name":"Addanki","native":null,"lat":"15.81061000","lon":"79.97338000"},{"name":"Adoni","native":null,"lat":"15.62788000","lon":"77.27495000"},{"name":"Akasahebpet","native":null,"lat":"17.50455000","lon":"82.56597000"},{"name":"Akividu","native":null,"lat":"16.58225000","lon":"81.38112000"},{"name":"Akkarampalle","native":null,"lat":"13.65000000","lon":"79.42000000"},{"name":"Amalapuram","native":null,"lat":"16.57868000","lon":"82.00609000"},{"name":"Amudalavalasa","native":null,"lat":"18.41025000","lon":"83.90295000"},{"name":"Anakapalle","native":null,"lat":"17.69134000","lon":"83.00395000"},{"name":"Anantapur","native":null,"lat":"14.55000000","lon":"77.41667000"},{"name":"Atmakur","native":null,"lat":"15.88109000","lon":"78.58704000"},{"name":"Attili","native":null,"lat":"16.70000000","lon":"81.60000000"},{"name":"Avanigadda","native":null,"lat":"16.02148000","lon":"80.91808000"},{"name":"Badvel","native":null,"lat":"14.74510000","lon":"79.06288000"},{"name":"Banganapalle","native":null,"lat":"15.31771000","lon":"78.22669000"},{"name":"Bapatla","native":null,"lat":"15.90422000","lon":"80.46743000"},{"name":"Betamcherla","native":null,"lat":"15.45144000","lon":"78.14797000"},{"name":"Bhattiprolu","native":null,"lat":"16.10260000","lon":"80.78074000"},{"name":"Bhimavaram","native":null,"lat":"16.54078000","lon":"81.52322000"},{"name":"Bhimunipatnam","native":null,"lat":"17.89017000","lon":"83.45203000"},{"name":"Bobbili","native":null,"lat":"18.57366000","lon":"83.35925000"},{"name":"Challapalle","native":null,"lat":"16.11756000","lon":"80.93139000"},{"name":"Chemmumiahpet","native":null,"lat":"15.89794000","lon":"79.32129000"},{"name":"Chilakalurupet","native":null,"lat":"16.08987000","lon":"80.16705000"},{"name":"Chinnachowk","native":null,"lat":"14.47516000","lon":"78.83540000"},{"name":"Chipurupalle","native":null,"lat":"18.31142000","lon":"83.56846000"},{"name":"Chirala","native":null,"lat":"15.82385000","lon":"80.35219000"},{"name":"Chittoor","native":null,"lat":"13.41667000","lon":"79.00000000"},{"name":"Chodavaram","native":null,"lat":"17.82884000","lon":"82.93526000"},{"name":"Cuddapah","native":null,"lat":"14.41667000","lon":"78.75000000"},{"name":"Cumbum","native":null,"lat":"15.58171000","lon":"79.11059000"},{"name":"Darsi","native":null,"lat":"15.76978000","lon":"79.67939000"},{"name":"Dharmavaram","native":null,"lat":"14.41435000","lon":"77.72035000"},{"name":"Dhone","native":null,"lat":"15.39520000","lon":"77.87150000"},{"name":"Diguvametta","native":null,"lat":"15.39507000","lon":"78.82930000"},{"name":"East Godavari","native":null,"lat":"17.83333000","lon":"81.83333000"},{"name":"Elamanchili","native":null,"lat":"17.54907000","lon":"82.85749000"},{"name":"Ellore","native":null,"lat":"16.71311000","lon":"81.10437000"},{"name":"Emmiganur","native":null,"lat":"15.77203000","lon":"77.48345000"},{"name":"Erraguntla","native":null,"lat":"14.63853000","lon":"78.53974000"},{"name":"Etikoppaka","native":null,"lat":"17.50000000","lon":"82.73333000"},{"name":"Gajuwaka","native":null,"lat":"17.70000000","lon":"83.21667000"},{"name":"Ganguvada","native":null,"lat":"18.66667000","lon":"84.11667000"},{"name":"Gannavaram","native":null,"lat":"16.54092000","lon":"80.80213000"},{"name":"Giddalur","native":null,"lat":"15.37439000","lon":"78.92609000"},{"name":"Gokavaram","native":null,"lat":"17.25823000","lon":"81.84985000"},{"name":"Gorantla","native":null,"lat":"13.98411000","lon":"77.77224000"},{"name":"GovindapuramChilakaluripetGuntur","native":null,"lat":"16.15477000","lon":"80.10279000"},{"name":"Gudivada","native":null,"lat":"16.43547000","lon":"80.99555000"},{"name":"Gudlavalleru","native":null,"lat":"16.35000000","lon":"81.05000000"},{"name":"Gudur","native":null,"lat":"14.15093000","lon":"79.85210000"},{"name":"Guntakal Junction","native":null,"lat":"15.17112000","lon":"77.36244000"},{"name":"Guntur","native":null,"lat":"16.29974000","lon":"80.45729000"},{"name":"Hindupur","native":null,"lat":"13.82807000","lon":"77.49143000"},{"name":"Ichchapuram","native":null,"lat":"19.11393000","lon":"84.68721000"},{"name":"Jaggayyapeta","native":null,"lat":"16.89380000","lon":"80.09807000"},{"name":"Jammalamadugu","native":null,"lat":"14.84677000","lon":"78.38314000"},{"name":"Kadiri","native":null,"lat":"14.11168000","lon":"78.15982000"},{"name":"Kaikalur","native":null,"lat":"16.55154000","lon":"81.21400000"},{"name":"Kakinada","native":null,"lat":"16.96036000","lon":"82.23809000"},{"name":"Kalyandurg","native":null,"lat":"14.54519000","lon":"77.10552000"},{"name":"Kamalapuram","native":null,"lat":"14.59830000","lon":"78.66948000"},{"name":"Kandukur","native":null,"lat":"15.21542000","lon":"79.90390000"},{"name":"Kanigiri","native":null,"lat":"15.40555000","lon":"79.50694000"},{"name":"Kankipadu","native":null,"lat":"16.43530000","lon":"80.76715000"},{"name":"Kanuru","native":null,"lat":"16.28584000","lon":"81.25464000"},{"name":"Kavali","native":null,"lat":"14.91630000","lon":"79.99449000"},{"name":"Kolanukonda","native":null,"lat":"16.45392000","lon":"80.61046000"},{"name":"Kondapalle","native":null,"lat":"16.61989000","lon":"80.54244000"},{"name":"Korukollu","native":null,"lat":"16.50000000","lon":"81.25000000"},{"name":"Kosigi","native":null,"lat":"15.85510000","lon":"77.24463000"},{"name":"Kovvur","native":null,"lat":"17.01620000","lon":"81.72934000"},{"name":"Krishna","native":null,"lat":"16.66667000","lon":"81.00000000"},{"name":"Kuppam","native":null,"lat":"12.74931000","lon":"78.34189000"},{"name":"Kurnool","native":null,"lat":"15.58333000","lon":"78.33333000"},{"name":"Macherla","native":null,"lat":"16.47635000","lon":"79.43533000"},{"name":"Machilipatnam","native":null,"lat":"16.18747000","lon":"81.13888000"},{"name":"Madanapalle","native":null,"lat":"13.55030000","lon":"78.50288000"},{"name":"Madugula","native":null,"lat":"17.91589000","lon":"82.81578000"},{"name":"Mandapeta","native":null,"lat":"16.86254000","lon":"81.92921000"},{"name":"Mandasa","native":null,"lat":"18.86830000","lon":"84.46296000"},{"name":"Mangalagiri","native":null,"lat":"16.43083000","lon":"80.56815000"},{"name":"Markapur","native":null,"lat":"15.73534000","lon":"79.26848000"},{"name":"Nagari","native":null,"lat":"13.32139000","lon":"79.58557000"},{"name":"Nagireddipalli","native":null,"lat":"14.27005000","lon":"79.10131000"},{"name":"Nandigama","native":null,"lat":"16.77170000","lon":"80.28596000"},{"name":"Nandikotkur","native":null,"lat":"15.85668000","lon":"78.26569000"},{"name":"Nandyal","native":null,"lat":"15.47799000","lon":"78.48360000"},{"name":"Narasannapeta","native":null,"lat":"18.41428000","lon":"84.04463000"},{"name":"Narasapur","native":null,"lat":"16.43425000","lon":"81.69845000"},{"name":"Narasaraopet","native":null,"lat":"16.23488000","lon":"80.04927000"},{"name":"Narasingapuram","native":null,"lat":"13.60759000","lon":"79.31652000"},{"name":"Narayanavanam","native":null,"lat":"13.42565000","lon":"79.58881000"},{"name":"Narsipatnam","native":null,"lat":"17.66709000","lon":"82.61245000"},{"name":"Nayudupet","native":null,"lat":"13.90742000","lon":"79.89465000"},{"name":"Nellore","native":null,"lat":"14.08333000","lon":"79.58333000"},{"name":"Nidadavole","native":null,"lat":"16.90572000","lon":"81.67222000"},{"name":"Nuzvid","native":null,"lat":"16.78854000","lon":"80.84593000"},{"name":"Ongole","native":null,"lat":"15.50357000","lon":"80.04454000"},{"name":"Pakala","native":null,"lat":"13.44903000","lon":"79.11493000"},{"name":"Palakollu","native":null,"lat":"16.51670000","lon":"81.73000000"},{"name":"Palasa","native":null,"lat":"18.77257000","lon":"84.41012000"},{"name":"Palkonda","native":null,"lat":"18.60374000","lon":"83.75568000"},{"name":"Pallevada","native":null,"lat":"16.57790000","lon":"81.29463000"},{"name":"Palmaner","native":null,"lat":"13.20000000","lon":"78.74725000"},{"name":"Parlakimidi","native":null,"lat":"18.78113000","lon":"84.08836000"},{"name":"Parvatipuram","native":null,"lat":"18.78392000","lon":"83.42569000"},{"name":"Pavuluru","native":null,"lat":"15.85292000","lon":"80.16468000"},{"name":"Pedana","native":null,"lat":"16.25582000","lon":"81.14378000"},{"name":"pedda nakkalapalem","native":null,"lat":"15.86680000","lon":"80.16202000"},{"name":"Peddapuram","native":null,"lat":"17.07701000","lon":"82.13836000"},{"name":"Penugonda","native":null,"lat":"16.65363000","lon":"81.74550000"},{"name":"Penukonda","native":null,"lat":"14.08286000","lon":"77.59473000"},{"name":"Phirangipuram","native":null,"lat":"16.29078000","lon":"80.26233000"},{"name":"Pippara","native":null,"lat":"16.71667000","lon":"81.55000000"},{"name":"Pithapuram","native":null,"lat":"17.11680000","lon":"82.25284000"},{"name":"Polavaram","native":null,"lat":"17.24754000","lon":"81.64372000"},{"name":"Ponnur","native":null,"lat":"16.07114000","lon":"80.54944000"},{"name":"Ponnuru","native":null,"lat":"16.06547000","lon":"80.55203000"},{"name":"Prakasam","native":null,"lat":"15.50000000","lon":"79.50000000"},{"name":"Proddatur","native":null,"lat":"14.75020000","lon":"78.54813000"},{"name":"Pulivendla","native":null,"lat":"14.42139000","lon":"78.22502000"},{"name":"Punganuru","native":null,"lat":"13.36672000","lon":"78.57186000"},{"name":"Puttaparthi","native":null,"lat":"14.16520000","lon":"77.81170000"},{"name":"Puttur","native":null,"lat":"13.44189000","lon":"79.55314000"},{"name":"Rajahmundry","native":null,"lat":"17.00517000","lon":"81.77784000"},{"name":"Ramachandrapuram","native":null,"lat":"16.83636000","lon":"82.02871000"},{"name":"Ramanayyapeta","native":null,"lat":"16.94516000","lon":"82.23850000"},{"name":"Ramapuram","native":null,"lat":"15.28749000","lon":"77.86722000"},{"name":"Rampachodavaram","native":null,"lat":"17.44088000","lon":"81.77558000"},{"name":"Rayachoti","native":null,"lat":"14.05723000","lon":"78.75056000"},{"name":"Rayadrug","native":null,"lat":"14.69971000","lon":"76.85241000"},{"name":"Razam","native":null,"lat":"18.44909000","lon":"83.65957000"},{"name":"Razampeta","native":null,"lat":"14.19544000","lon":"79.15896000"},{"name":"Razole","native":null,"lat":"16.47608000","lon":"81.83912000"},{"name":"Renigunta","native":null,"lat":"13.65143000","lon":"79.51256000"},{"name":"Repalle","native":null,"lat":"16.01840000","lon":"80.82958000"},{"name":"Salur","native":null,"lat":"18.51716000","lon":"83.20548000"},{"name":"Samalkot","native":null,"lat":"17.05675000","lon":"82.17639000"},{"name":"Sattenapalle","native":null,"lat":"16.39381000","lon":"80.15221000"},{"name":"Singarayakonda","native":null,"lat":"15.23046000","lon":"80.02794000"},{"name":"Sompeta","native":null,"lat":"18.94419000","lon":"84.58449000"},{"name":"Srikakulam","native":null,"lat":"18.29890000","lon":"83.89751000"},{"name":"Srisailain","native":null,"lat":"16.07217000","lon":"78.86816000"},{"name":"Suluru","native":null,"lat":"13.70000000","lon":"80.01667000"},{"name":"Tadepalle","native":null,"lat":"16.48333000","lon":"80.60000000"},{"name":"Tadepallegudem","native":null,"lat":"16.81467000","lon":"81.52717000"},{"name":"Tadpatri","native":null,"lat":"14.90832000","lon":"78.01031000"},{"name":"Tanuku","native":null,"lat":"16.75438000","lon":"81.68143000"},{"name":"Tekkali","native":null,"lat":"18.60570000","lon":"84.23546000"},{"name":"Tirumala","native":null,"lat":"13.68333000","lon":"79.35000000"},{"name":"Tirupati","native":null,"lat":"13.63551000","lon":"79.41989000"},{"name":"Tuni","native":null,"lat":"17.35905000","lon":"82.54607000"},{"name":"Uravakonda","native":null,"lat":"14.94348000","lon":"77.25494000"},{"name":"vadlamuru","native":null,"lat":"17.09545000","lon":"82.16565000"},{"name":"Vadlapudi","native":null,"lat":"14.31119000","lon":"79.80430000"},{"name":"Venkatagiri","native":null,"lat":"13.96005000","lon":"79.58032000"},{"name":"Vepagunta","native":null,"lat":"17.77844000","lon":"83.21577000"},{"name":"Vetapalem","native":null,"lat":"15.78502000","lon":"80.30663000"},{"name":"Vijayawada","native":null,"lat":"16.50745000","lon":"80.64660000"},{"name":"Vinukonda","native":null,"lat":"16.05310000","lon":"79.73964000"},{"name":"Visakhapatnam","native":null,"lat":"17.68009000","lon":"83.20161000"},{"name":"Vizianagaram","native":null,"lat":"18.11692000","lon":"83.41148000"},{"name":"Vizianagaram District","native":null,"lat":"18.41102000","lon":"83.37677000"},{"name":"Vuyyuru","native":null,"lat":"16.36307000","lon":"80.84406000"},{"name":"West Godavari","native":null,"lat":"17.00000000","lon":"81.16667000"},{"name":"Yanam","native":null,"lat":"16.73308000","lon":"82.21364000"},{"name":"Yanamalakuduru","native":null,"lat":"16.48531000","lon":"80.66746000"},{"name":"Yarada","native":null,"lat":"17.65872000","lon":"83.27419000"}]},{"name":"Arunachal Pradesh","native":null,"cities":[{"name":"Along","native":null,"lat":"28.16951000","lon":"94.80060000"},{"name":"Anjaw","native":null,"lat":"28.06549000","lon":"96.82878000"},{"name":"Basar","native":null,"lat":"27.99008000","lon":"94.69451000"},{"name":"Bomdila","native":null,"lat":"27.26475000","lon":"92.42472000"},{"name":"Changlang","native":null,"lat":"27.36265000","lon":"96.34518000"},{"name":"Dibang Valley","native":null,"lat":"28.70000000","lon":"95.70000000"},{"name":"East Kameng","native":null,"lat":"27.30000000","lon":"93.05000000"},{"name":"East Siang","native":null,"lat":"28.12379000","lon":"95.16339000"},{"name":"Hayuliang","native":null,"lat":"28.07301000","lon":"96.54305000"},{"name":"Itanagar","native":null,"lat":"27.08694000","lon":"93.60987000"},{"name":"Khonsa","native":null,"lat":"27.01667000","lon":"95.56667000"},{"name":"Kurung Kumey","native":null,"lat":"27.99983000","lon":"93.39240000"},{"name":"Lohit District","native":null,"lat":"27.84012000","lon":"96.19521000"},{"name":"Lower Dibang Valley","native":null,"lat":"28.37258000","lon":"95.88040000"},{"name":"Lower Subansiri","native":null,"lat":"27.62554000","lon":"93.93908000"},{"name":"Margherita","native":null,"lat":"27.28482000","lon":"95.66796000"},{"name":"Naharlagun","native":null,"lat":"27.10467000","lon":"93.69518000"},{"name":"Pasighat","native":null,"lat":"28.06631000","lon":"95.32678000"},{"name":"Tawang","native":null,"lat":"27.57417000","lon":"91.92437000"},{"name":"Tezu","native":null,"lat":"27.91256000","lon":"96.12882000"},{"name":"Tirap","native":null,"lat":"27.01917000","lon":"95.51788000"},{"name":"Upper Siang","native":null,"lat":"28.83355000","lon":"94.91806000"},{"name":"Upper Subansiri","native":null,"lat":"28.30000000","lon":"94.00000000"},{"name":"West Kameng","native":null,"lat":"27.40000000","lon":"92.35000000"},{"name":"West Siang","native":null,"lat":"28.40000000","lon":"94.55000000"},{"name":"Ziro","native":null,"lat":"27.59497000","lon":"93.83854000"}]},{"name":"Assam","native":null,"cities":[{"name":"Abhayapuri","native":null,"lat":"26.32255000","lon":"90.68526000"},{"name":"Amguri","native":null,"lat":"26.81482000","lon":"94.52614000"},{"name":"Badarpur","native":null,"lat":"24.86852000","lon":"92.59606000"},{"name":"Baksa","native":null,"lat":"26.69804000","lon":"91.15142000"},{"name":"Barpathar","native":null,"lat":"26.28709000","lon":"93.88844000"},{"name":"Barpeta","native":null,"lat":"26.47104000","lon":"91.03080000"},{"name":"Barpeta Road","native":null,"lat":"26.50284000","lon":"90.96937000"},{"name":"Basugaon","native":null,"lat":"26.46742000","lon":"90.41951000"},{"name":"Bihpuriagaon","native":null,"lat":"27.01718000","lon":"93.91673000"},{"name":"Bijni","native":null,"lat":"26.49588000","lon":"90.70298000"},{"name":"Bilasipara","native":null,"lat":"26.23285000","lon":"90.23410000"},{"name":"Bokajan","native":null,"lat":"26.02131000","lon":"93.77945000"},{"name":"Bokakhat","native":null,"lat":"26.64018000","lon":"93.60052000"},{"name":"Bongaigaon","native":null,"lat":"26.46030000","lon":"90.64640000"},{"name":"Cachar","native":null,"lat":"24.78213000","lon":"92.85771000"},{"name":"Chabua","native":null,"lat":"27.48253000","lon":"95.17451000"},{"name":"Chapar","native":null,"lat":"26.27266000","lon":"90.44556000"},{"name":"Chirang","native":null,"lat":"26.52527000","lon":"90.49066000"},{"name":"Darrang","native":null,"lat":"26.51195000","lon":"92.16843000"},{"name":"Dergaon","native":null,"lat":"26.70000000","lon":"93.96667000"},{"name":"Dhekiajuli","native":null,"lat":"26.70367000","lon":"92.47808000"},{"name":"Dhemaji","native":null,"lat":"27.60910000","lon":"94.79420000"},{"name":"Dhing","native":null,"lat":"26.46793000","lon":"92.47336000"},{"name":"Dhubri","native":null,"lat":"26.06749000","lon":"90.02238000"},{"name":"Dibrugarh","native":null,"lat":"27.50000000","lon":"95.00000000"},{"name":"Digboi","native":null,"lat":"27.39321000","lon":"95.61839000"},{"name":"Dima Hasao District","native":null,"lat":"25.50000000","lon":"93.00000000"},{"name":"Diphu","native":null,"lat":"25.84341000","lon":"93.43116000"},{"name":"Dispur","native":null,"lat":"26.13564000","lon":"91.80069000"},{"name":"Duliagaon","native":null,"lat":"27.37227000","lon":"95.30754000"},{"name":"Dum Duma","native":null,"lat":"27.56884000","lon":"95.55664000"},{"name":"Gauripur","native":null,"lat":"26.08334000","lon":"89.96118000"},{"name":"Goalpara","native":null,"lat":"26.12791000","lon":"90.60974000"},{"name":"Gohpur","native":null,"lat":"26.88184000","lon":"93.61560000"},{"name":"Golaghat","native":null,"lat":"26.40920000","lon":"93.91193000"},{"name":"Golakganj","native":null,"lat":"26.10216000","lon":"89.82275000"},{"name":"Goshaingaon","native":null,"lat":"26.43946000","lon":"89.96307000"},{"name":"Guwahati","native":null,"lat":"26.18440000","lon":"91.74580000"},{"name":"Haflong","native":null,"lat":"25.16478000","lon":"93.01744000"},{"name":"Hailakandi","native":null,"lat":"24.50170000","lon":"92.60069000"},{"name":"Hajo","native":null,"lat":"26.24520000","lon":"91.52525000"},{"name":"Hojai","native":null,"lat":"26.00281000","lon":"92.85605000"},{"name":"Howli","native":null,"lat":"26.42237000","lon":"90.98004000"},{"name":"Jogighopa","native":null,"lat":"26.22646000","lon":"90.57247000"},{"name":"Jorhat","native":null,"lat":"26.80000000","lon":"94.26000000"},{"name":"Kamrup","native":null,"lat":"26.22322000","lon":"91.65344000"},{"name":"Kamrup Metropolitan","native":null,"lat":"26.05375000","lon":"92.00763000"},{"name":"Karbi Anglong","native":null,"lat":"26.00000000","lon":"93.50000000"},{"name":"Karimganj","native":null,"lat":"24.60000000","lon":"92.40000000"},{"name":"Kharupatia","native":null,"lat":"26.51839000","lon":"92.14722000"},{"name":"Kokrajhar","native":null,"lat":"26.60000000","lon":"90.20000000"},{"name":"Lakhimpur","native":null,"lat":"27.35000000","lon":"94.25000000"},{"name":"Lakhipur","native":null,"lat":"24.79281000","lon":"93.00910000"},{"name":"Lala","native":null,"lat":"24.55418000","lon":"92.61592000"},{"name":"Lumding Railway Colony","native":null,"lat":"25.74903000","lon":"93.16998000"},{"name":"Mahur","native":null,"lat":"25.18305000","lon":"93.11342000"},{"name":"Maibong","native":null,"lat":"25.30125000","lon":"93.13811000"},{"name":"Makum","native":null,"lat":"27.48652000","lon":"95.43646000"},{"name":"Mangaldai","native":null,"lat":"26.44212000","lon":"92.03047000"},{"name":"Mariani","native":null,"lat":"26.65725000","lon":"94.31529000"},{"name":"Moranha","native":null,"lat":"27.18735000","lon":"94.91557000"},{"name":"Morigaon","native":null,"lat":"26.25213000","lon":"92.34238000"},{"name":"Nagaon","native":null,"lat":"26.35037000","lon":"92.69225000"},{"name":"Nahorkatiya","native":null,"lat":"27.28912000","lon":"95.34180000"},{"name":"Nalbari","native":null,"lat":"26.50000000","lon":"91.40000000"},{"name":"Namrup","native":null,"lat":"27.19395000","lon":"95.31929000"},{"name":"Nazira","native":null,"lat":"26.91649000","lon":"94.73611000"},{"name":"North Guwahati","native":null,"lat":"26.19749000","lon":"91.72020000"},{"name":"North Lakhimpur","native":null,"lat":"27.23517000","lon":"94.10357000"},{"name":"Numaligarh","native":null,"lat":"26.62249000","lon":"93.72225000"},{"name":"Palasbari","native":null,"lat":"26.12388000","lon":"91.53974000"},{"name":"Raha","native":null,"lat":"26.23333000","lon":"92.51667000"},{"name":"Rangapara","native":null,"lat":"26.83772000","lon":"92.66876000"},{"name":"Rangia","native":null,"lat":"26.44931000","lon":"91.61356000"},{"name":"Sapatgram","native":null,"lat":"26.33732000","lon":"90.12360000"},{"name":"Sarupathar","native":null,"lat":"26.20600000","lon":"96.81000000"},{"name":"Sibsagar","native":null,"lat":"26.98427000","lon":"94.63784000"},{"name":"Silapathar","native":null,"lat":"27.59441000","lon":"94.72402000"},{"name":"Silchar","native":null,"lat":"24.82733000","lon":"92.79787000"},{"name":"Soalkuchi","native":null,"lat":"26.16806000","lon":"91.57111000"},{"name":"Sonari","native":null,"lat":"27.02462000","lon":"95.01629000"},{"name":"Sonitpur","native":null,"lat":"26.76748000","lon":"92.96425000"},{"name":"Sorbhog","native":null,"lat":"26.48612000","lon":"90.88590000"},{"name":"Tezpur","native":null,"lat":"26.63333000","lon":"92.80000000"},{"name":"Tinsukia","native":null,"lat":"27.60000000","lon":"95.60000000"},{"name":"Titabar","native":null,"lat":"26.60140000","lon":"94.20386000"},{"name":"Udalguri","native":null,"lat":"26.75367000","lon":"92.10215000"}]},{"name":"Bihar","native":null,"cities":[{"name":"Amarpur","native":null,"lat":"25.03967000","lon":"86.90247000"},{"name":"Araria","native":null,"lat":"26.20000000","lon":"87.40000000"},{"name":"Arrah","native":null,"lat":"25.55629000","lon":"84.66335000"},{"name":"Arwal","native":null,"lat":"25.16158000","lon":"84.69040000"},{"name":"Asarganj","native":null,"lat":"25.15046000","lon":"86.68639000"},{"name":"Aurangabad","native":null,"lat":"24.75204000","lon":"84.37420000"},{"name":"Bagaha","native":null,"lat":"27.09918000","lon":"84.09003000"},{"name":"Bahadurganj","native":null,"lat":"26.26172000","lon":"87.82443000"},{"name":"Bairagnia","native":null,"lat":"26.74063000","lon":"85.27323000"},{"name":"Baisi","native":null,"lat":"25.86302000","lon":"87.74487000"},{"name":"Bakhtiyarpur","native":null,"lat":"25.46179000","lon":"85.53179000"},{"name":"Bangaon","native":null,"lat":"25.86728000","lon":"86.51152000"},{"name":"Banka","native":null,"lat":"24.89214000","lon":"86.98425000"},{"name":"Banmankhi","native":null,"lat":"25.88857000","lon":"87.19421000"},{"name":"Bar Bigha","native":null,"lat":"25.21855000","lon":"85.73320000"},{"name":"Barauli","native":null,"lat":"26.38109000","lon":"84.58648000"},{"name":"Barh","native":null,"lat":"25.48339000","lon":"85.70928000"},{"name":"Barhiya","native":null,"lat":"25.28814000","lon":"86.02055000"},{"name":"Bariarpur","native":null,"lat":"25.28791000","lon":"86.57643000"},{"name":"Baruni","native":null,"lat":"25.47509000","lon":"85.96813000"},{"name":"Begusarai","native":null,"lat":"25.41853000","lon":"86.13389000"},{"name":"Belsand","native":null,"lat":"26.44365000","lon":"85.40076000"},{"name":"Bettiah","native":null,"lat":"26.80229000","lon":"84.50311000"},{"name":"Bhabhua","native":null,"lat":"25.04049000","lon":"83.60749000"},{"name":"Bhagalpur","native":null,"lat":"25.29023000","lon":"87.06665000"},{"name":"Bhagirathpur","native":null,"lat":"26.26950000","lon":"86.06346000"},{"name":"Bhawanipur","native":null,"lat":"26.45352000","lon":"87.02744000"},{"name":"Bhojpur","native":null,"lat":"25.30886000","lon":"84.44504000"},{"name":"Bihar Sharif","native":null,"lat":"25.20084000","lon":"85.52389000"},{"name":"Bihariganj","native":null,"lat":"25.73415000","lon":"86.98837000"},{"name":"Bikramganj","native":null,"lat":"25.21073000","lon":"84.25508000"},{"name":"Birpur","native":null,"lat":"26.50823000","lon":"87.01194000"},{"name":"Buddh Gaya","native":null,"lat":"24.69808000","lon":"84.98690000"},{"name":"Buxar","native":null,"lat":"25.50000000","lon":"84.10000000"},{"name":"Chakia","native":null,"lat":"26.41598000","lon":"85.04665000"},{"name":"Chapra","native":null,"lat":"25.78031000","lon":"84.74709000"},{"name":"Chhatapur","native":null,"lat":"26.21965000","lon":"87.00479000"},{"name":"Colgong","native":null,"lat":"25.26328000","lon":"87.23264000"},{"name":"Dalsingh Sarai","native":null,"lat":"25.66795000","lon":"85.83636000"},{"name":"Darbhanga","native":null,"lat":"26.00000000","lon":"86.00000000"},{"name":"Daudnagar","native":null,"lat":"25.03473000","lon":"84.40095000"},{"name":"Dehri","native":null,"lat":"24.90247000","lon":"84.18217000"},{"name":"Dhaka","native":null,"lat":"26.67479000","lon":"85.16698000"},{"name":"Dighwara","native":null,"lat":"25.74434000","lon":"85.01003000"},{"name":"Dinapore","native":null,"lat":"25.63705000","lon":"85.04794000"},{"name":"Dumra","native":null,"lat":"26.56708000","lon":"85.52040000"},{"name":"Dumraon","native":null,"lat":"25.55265000","lon":"84.15149000"},{"name":"Fatwa","native":null,"lat":"25.50958000","lon":"85.30504000"},{"name":"Forbesganj","native":null,"lat":"26.30253000","lon":"87.26556000"},{"name":"Gaya","native":null,"lat":"24.79686000","lon":"85.00385000"},{"name":"Ghoga","native":null,"lat":"25.21738000","lon":"87.15710000"},{"name":"Gopalganj","native":null,"lat":"26.50000000","lon":"84.33333000"},{"name":"Hajipur","native":null,"lat":"25.68544000","lon":"85.20981000"},{"name":"Hilsa","native":null,"lat":"25.31642000","lon":"85.28234000"},{"name":"Hisua","native":null,"lat":"24.83360000","lon":"85.41729000"},{"name":"Islampur","native":null,"lat":"25.14075000","lon":"85.20587000"},{"name":"Jagdispur","native":null,"lat":"25.46811000","lon":"84.41939000"},{"name":"Jahanabad","native":null,"lat":"25.21368000","lon":"84.98710000"},{"name":"Jamalpur","native":null,"lat":"25.31258000","lon":"86.48888000"},{"name":"Jamui","native":null,"lat":"24.92082000","lon":"86.17538000"},{"name":"Jaynagar","native":null,"lat":"26.59048000","lon":"86.13791000"},{"name":"Jehanabad","native":null,"lat":"25.20701000","lon":"84.99573000"},{"name":"Jha-Jha","native":null,"lat":"24.77107000","lon":"86.37888000"},{"name":"Jhanjharpur","native":null,"lat":"26.26467000","lon":"86.27993000"},{"name":"Jogbani","native":null,"lat":"26.39905000","lon":"87.26525000"},{"name":"Kaimur District","native":null,"lat":"25.05077000","lon":"83.58261000"},{"name":"Kasba","native":null,"lat":"25.85643000","lon":"87.53836000"},{"name":"Katihar","native":null,"lat":"25.50000000","lon":"87.60000000"},{"name":"Khagaria","native":null,"lat":"25.50220000","lon":"86.46708000"},{"name":"Khagaul","native":null,"lat":"25.57898000","lon":"85.04564000"},{"name":"Kharagpur","native":null,"lat":"25.12446000","lon":"86.55578000"},{"name":"Khusropur","native":null,"lat":"25.48174000","lon":"85.38492000"},{"name":"Kishanganj","native":null,"lat":"26.30000000","lon":"88.00000000"},{"name":"Koath","native":null,"lat":"25.32643000","lon":"84.25983000"},{"name":"Koelwar","native":null,"lat":"25.58055000","lon":"84.79751000"},{"name":"Lakhisarai","native":null,"lat":"25.20000000","lon":"86.20000000"},{"name":"Lalganj","native":null,"lat":"25.86894000","lon":"85.17394000"},{"name":"Luckeesarai","native":null,"lat":"25.17650000","lon":"86.09470000"},{"name":"Madhepura","native":null,"lat":"25.80000000","lon":"87.00000000"},{"name":"Madhipura","native":null,"lat":"25.92127000","lon":"86.79271000"},{"name":"Madhubani","native":null,"lat":"26.35367000","lon":"86.07169000"},{"name":"Maharajgani","native":null,"lat":"26.11017000","lon":"84.50365000"},{"name":"Mairwa","native":null,"lat":"26.23218000","lon":"84.16349000"},{"name":"Maner","native":null,"lat":"25.64602000","lon":"84.87291000"},{"name":"Manihari","native":null,"lat":"25.33891000","lon":"87.61998000"},{"name":"Marhaura","native":null,"lat":"25.97349000","lon":"84.86796000"},{"name":"Masaurhi Buzurg","native":null,"lat":"25.35417000","lon":"85.03195000"},{"name":"Mohiuddinnagar","native":null,"lat":"25.57374000","lon":"85.66944000"},{"name":"Mokameh","native":null,"lat":"25.39662000","lon":"85.92190000"},{"name":"Monghyr","native":null,"lat":"25.37459000","lon":"86.47455000"},{"name":"Mothihari","native":null,"lat":"26.64862000","lon":"84.91656000"},{"name":"Munger","native":null,"lat":"25.36099000","lon":"86.46515000"},{"name":"Murliganj","native":null,"lat":"25.89690000","lon":"86.99577000"},{"name":"Muzaffarpur","native":null,"lat":"26.16667000","lon":"85.41667000"},{"name":"Nabinagar","native":null,"lat":"24.60681000","lon":"84.12624000"},{"name":"Nalanda","native":null,"lat":"25.25000000","lon":"85.58333000"},{"name":"Nasriganj","native":null,"lat":"25.05140000","lon":"84.32839000"},{"name":"Naugachhia","native":null,"lat":"25.38807000","lon":"87.09906000"},{"name":"Nawada","native":null,"lat":"24.75000000","lon":"85.50000000"},{"name":"Nirmali","native":null,"lat":"26.31397000","lon":"86.58537000"},{"name":"Pashchim Champaran","native":null,"lat":"27.00000000","lon":"84.50000000"},{"name":"Patna","native":null,"lat":"25.41667000","lon":"85.16667000"},{"name":"Piro","native":null,"lat":"25.33218000","lon":"84.40454000"},{"name":"Pupri","native":null,"lat":"26.47079000","lon":"85.70311000"},{"name":"Purba Champaran","native":null,"lat":"26.58333000","lon":"84.83333000"},{"name":"Purnia","native":null,"lat":"25.81614000","lon":"87.40708000"},{"name":"Rafiganj","native":null,"lat":"24.81757000","lon":"84.63445000"},{"name":"Raghunathpur","native":null,"lat":"25.64492000","lon":"87.91762000"},{"name":"Rajgir","native":null,"lat":"25.02828000","lon":"85.42079000"},{"name":"Ramnagar","native":null,"lat":"27.16371000","lon":"84.32342000"},{"name":"Raxaul","native":null,"lat":"26.97982000","lon":"84.85065000"},{"name":"Revelganj","native":null,"lat":"25.78976000","lon":"84.63596000"},{"name":"Rohtas","native":null,"lat":"24.97941000","lon":"84.02774000"},{"name":"Rusera","native":null,"lat":"25.75355000","lon":"86.02597000"},{"name":"Sagauli","native":null,"lat":"26.76390000","lon":"84.74341000"},{"name":"Saharsa","native":null,"lat":"25.87498000","lon":"86.59611000"},{"name":"Samastipur","native":null,"lat":"25.75000000","lon":"85.91667000"},{"name":"Saran","native":null,"lat":"25.91667000","lon":"84.75000000"},{"name":"Shahbazpur","native":null,"lat":"26.30511000","lon":"87.28865000"},{"name":"Shahpur","native":null,"lat":"25.60293000","lon":"84.40412000"},{"name":"Sheikhpura","native":null,"lat":"25.13073000","lon":"85.78176000"},{"name":"Sheohar","native":null,"lat":"26.50000000","lon":"85.30000000"},{"name":"Sherghati","native":null,"lat":"24.55950000","lon":"84.79162000"},{"name":"Silao","native":null,"lat":"25.08358000","lon":"85.42804000"},{"name":"Sitamarhi","native":null,"lat":"26.66667000","lon":"85.50000000"},{"name":"Siwan","native":null,"lat":"26.22096000","lon":"84.35609000"},{"name":"Supaul","native":null,"lat":"26.25000000","lon":"86.80000000"},{"name":"Teghra","native":null,"lat":"25.49043000","lon":"85.94001000"},{"name":"Tekari","native":null,"lat":"24.94253000","lon":"84.84265000"},{"name":"Thakurganj","native":null,"lat":"26.42742000","lon":"88.13112000"},{"name":"Vaishali","native":null,"lat":"25.75000000","lon":"85.41667000"},{"name":"Waris Aliganj","native":null,"lat":"25.01720000","lon":"85.64047000"}]},{"name":"Chandigarh","native":null,"cities":[{"name":"Chandigarh","native":null,"lat":"30.73629000","lon":"76.78840000"}]},{"name":"Chhattisgarh","native":null,"cities":[{"name":"Akaltara","native":null,"lat":"22.02463000","lon":"82.42641000"},{"name":"Ambagarh Chauki","native":null,"lat":"20.77644000","lon":"80.74608000"},{"name":"Ambikapur","native":null,"lat":"23.11892000","lon":"83.19537000"},{"name":"Arang","native":null,"lat":"21.19639000","lon":"81.96912000"},{"name":"Baikunthpur","native":null,"lat":"23.26206000","lon":"82.56051000"},{"name":"Balod","native":null,"lat":"20.73081000","lon":"81.20578000"},{"name":"Baloda","native":null,"lat":"22.13890000","lon":"82.48171000"},{"name":"Baloda Bazar","native":null,"lat":"21.65678000","lon":"82.16062000"},{"name":"Basna","native":null,"lat":"21.27885000","lon":"82.82670000"},{"name":"Bastar","native":null,"lat":"19.26794000","lon":"81.73828000"},{"name":"Bemetara","native":null,"lat":"21.71556000","lon":"81.53423000"},{"name":"Bhanpuri","native":null,"lat":"21.09190000","lon":"80.93218000"},{"name":"Bhatapara","native":null,"lat":"21.73500000","lon":"81.94711000"},{"name":"Bhatgaon","native":null,"lat":"21.15000000","lon":"81.70000000"},{"name":"Bhilai","native":null,"lat":"21.20919000","lon":"81.42850000"},{"name":"Bijapur","native":null,"lat":"18.84322000","lon":"80.77610000"},{"name":"Bilaspur","native":null,"lat":"22.38333000","lon":"82.13333000"},{"name":"Champa","native":null,"lat":"22.03532000","lon":"82.64234000"},{"name":"Chhuikhadan","native":null,"lat":"21.52316000","lon":"80.99788000"},{"name":"Deori","native":null,"lat":"21.45000000","lon":"82.61667000"},{"name":"Dhamtari","native":null,"lat":"20.70718000","lon":"81.54874000"},{"name":"Dongargaon","native":null,"lat":"20.97172000","lon":"80.85077000"},{"name":"Dongargarh","native":null,"lat":"21.18893000","lon":"80.75459000"},{"name":"Durg","native":null,"lat":"21.15000000","lon":"81.40000000"},{"name":"Gandai","native":null,"lat":"21.66667000","lon":"81.10013000"},{"name":"Gariaband","native":null,"lat":"20.63323000","lon":"82.06221000"},{"name":"Gaurela","native":null,"lat":"22.75449000","lon":"81.90107000"},{"name":"Gharghoda","native":null,"lat":"22.17427000","lon":"83.35170000"},{"name":"Gidam","native":null,"lat":"18.97431000","lon":"81.39894000"},{"name":"Jagdalpur","native":null,"lat":"19.08136000","lon":"82.02131000"},{"name":"Janjgir","native":null,"lat":"22.00922000","lon":"82.57780000"},{"name":"Janjgir-Champa","native":null,"lat":"21.90000000","lon":"82.70000000"},{"name":"Jashpur","native":null,"lat":"22.78495000","lon":"83.84573000"},{"name":"Jashpurnagar","native":null,"lat":"22.88783000","lon":"84.13864000"},{"name":"Junagarh","native":null,"lat":"19.85993000","lon":"82.93385000"},{"name":"Kabeerdham","native":null,"lat":"22.10000000","lon":"81.20000000"},{"name":"Kanker","native":null,"lat":"20.27193000","lon":"81.49177000"},{"name":"Katghora","native":null,"lat":"22.50247000","lon":"82.54279000"},{"name":"Kawardha","native":null,"lat":"22.00853000","lon":"81.23148000"},{"name":"Khairagarh","native":null,"lat":"21.41859000","lon":"80.97942000"},{"name":"Khamharia","native":null,"lat":"20.97600000","lon":"82.25116000"},{"name":"Kharod","native":null,"lat":"21.74420000","lon":"82.57880000"},{"name":"Kharsia","native":null,"lat":"21.98953000","lon":"83.10476000"},{"name":"Kirandul","native":null,"lat":"18.63649000","lon":"81.25827000"},{"name":"Kondagaon","native":null,"lat":"19.59083000","lon":"81.66400000"},{"name":"Korba","native":null,"lat":"22.50000000","lon":"82.60000000"},{"name":"Koriya","native":null,"lat":"23.48326000","lon":"82.15037000"},{"name":"Kota","native":null,"lat":"22.29507000","lon":"82.02366000"},{"name":"Kotaparh","native":null,"lat":"19.14256000","lon":"82.32536000"},{"name":"Kumhari","native":null,"lat":"21.26667000","lon":"81.51667000"},{"name":"Kurud","native":null,"lat":"20.83073000","lon":"81.72212000"},{"name":"Lormi","native":null,"lat":"22.27434000","lon":"81.70181000"},{"name":"Mahasamund","native":null,"lat":"21.20000000","lon":"82.50000000"},{"name":"Mungeli","native":null,"lat":"22.06566000","lon":"81.68543000"},{"name":"Narayanpur","native":null,"lat":"19.60426000","lon":"81.08119000"},{"name":"Narharpur","native":null,"lat":"20.44892000","lon":"81.62004000"},{"name":"Pandaria","native":null,"lat":"22.22495000","lon":"81.40994000"},{"name":"Pandatarai","native":null,"lat":"22.18714000","lon":"81.32815000"},{"name":"Pasan","native":null,"lat":"22.84412000","lon":"82.19823000"},{"name":"Patan","native":null,"lat":"21.03333000","lon":"81.53333000"},{"name":"Pathalgaon","native":null,"lat":"22.55656000","lon":"83.46355000"},{"name":"Pendra","native":null,"lat":"22.77548000","lon":"81.95968000"},{"name":"Pithora","native":null,"lat":"21.25021000","lon":"82.51707000"},{"name":"Raigarh","native":null,"lat":"22.08582000","lon":"83.30603000"},{"name":"Raipur","native":null,"lat":"21.25621000","lon":"81.69022000"},{"name":"Raj Nandgaon","native":null,"lat":"21.16667000","lon":"81.00000000"},{"name":"Raj-Nandgaon","native":null,"lat":"21.09687000","lon":"81.02890000"},{"name":"Ramanuj Ganj","native":null,"lat":"23.80637000","lon":"83.69981000"},{"name":"Ratanpur","native":null,"lat":"22.28660000","lon":"82.16823000"},{"name":"Sakti","native":null,"lat":"22.02662000","lon":"82.96091000"},{"name":"Saraipali","native":null,"lat":"21.31530000","lon":"83.00629000"},{"name":"Sarangarh","native":null,"lat":"21.58614000","lon":"83.07850000"},{"name":"Seorinarayan","native":null,"lat":"21.72055000","lon":"82.59344000"},{"name":"Simga","native":null,"lat":"21.62810000","lon":"81.70376000"},{"name":"Surguja","native":null,"lat":"22.89624000","lon":"83.09631000"},{"name":"Takhatpur","native":null,"lat":"22.12915000","lon":"81.86959000"},{"name":"Umarkot","native":null,"lat":"19.66529000","lon":"82.20629000"},{"name":"Uttar Bastar Kanker","native":null,"lat":"20.20000000","lon":"81.10000000"}]},{"name":"Dadra and Nagar Haveli and Daman and Diu","native":null,"cities":[{"name":"Amli","native":null,"lat":"20.28333000","lon":"73.01667000"},{"name":"Dadra","native":null,"lat":"20.32504000","lon":"72.96618000"},{"name":"Dadra & Nagar Haveli","native":null,"lat":"20.20651000","lon":"73.00811000"},{"name":"Daman","native":null,"lat":"20.41431000","lon":"72.83236000"},{"name":"Daman District","native":null,"lat":"20.41667000","lon":"72.88333000"},{"name":"Diu","native":null,"lat":"20.72081000","lon":"70.93989000"},{"name":"Silvassa","native":null,"lat":"20.27386000","lon":"72.99673000"}]},{"name":"Delhi","native":null,"cities":[{"name":"Alipur","native":null,"lat":"28.79862000","lon":"77.13314000"},{"name":"Bawana","native":null,"lat":"28.79820000","lon":"77.03431000"},{"name":"Central Delhi","native":null,"lat":"28.64857000","lon":"77.21895000"},{"name":"Delhi","native":null,"lat":"28.65195000","lon":"77.23149000"},{"name":"Deoli","native":null,"lat":"28.50254000","lon":"77.23117000"},{"name":"East Delhi","native":null,"lat":"28.66242000","lon":"77.29122000"},{"name":"Karol Bagh","native":null,"lat":"28.65136000","lon":"77.19072000"},{"name":"Najafgarh","native":null,"lat":"28.60922000","lon":"76.97982000"},{"name":"Nangloi Jat","native":null,"lat":"28.67957000","lon":"77.06799000"},{"name":"Narela","native":null,"lat":"28.85267000","lon":"77.09288000"},{"name":"New Delhi","native":null,"lat":"28.63576000","lon":"77.22445000"},{"name":"North Delhi","native":null,"lat":"28.66920000","lon":"77.22273000"},{"name":"North East Delhi","native":null,"lat":"28.68690000","lon":"77.30195000"},{"name":"North West Delhi","native":null,"lat":"28.70113000","lon":"77.10154000"},{"name":"Pitampura","native":null,"lat":"28.68964000","lon":"77.13126000"},{"name":"Rohini","native":null,"lat":"28.74322000","lon":"77.06778000"},{"name":"South Delhi","native":null,"lat":"28.53009000","lon":"77.25174000"},{"name":"South West Delhi","native":null,"lat":"28.58060000","lon":"77.06720000"},{"name":"West Delhi","native":null,"lat":"28.65655000","lon":"77.10068000"}]},{"name":"Goa","native":null,"cities":[{"name":"Aldona","native":null,"lat":"15.59337000","lon":"73.87482000"},{"name":"Arambol","native":null,"lat":"15.68681000","lon":"73.70449000"},{"name":"Baga","native":null,"lat":"15.56517000","lon":"73.75517000"},{"name":"Bambolim","native":null,"lat":"15.46361000","lon":"73.85310000"},{"name":"Bandora","native":null,"lat":"15.40823000","lon":"73.98129000"},{"name":"Benaulim","native":null,"lat":"15.26435000","lon":"73.92812000"},{"name":"Calangute","native":null,"lat":"15.54390000","lon":"73.75530000"},{"name":"Candolim","native":null,"lat":"15.51807000","lon":"73.76259000"},{"name":"Carapur","native":null,"lat":"15.56588000","lon":"73.98713000"},{"name":"Cavelossim","native":null,"lat":"15.17255000","lon":"73.94194000"},{"name":"Chicalim","native":null,"lat":"15.39835000","lon":"73.84216000"},{"name":"Chinchinim","native":null,"lat":"15.21447000","lon":"73.97555000"},{"name":"Colovale","native":null,"lat":"15.63522000","lon":"73.82426000"},{"name":"Colva","native":null,"lat":"15.27976000","lon":"73.92285000"},{"name":"Cortalim","native":null,"lat":"15.40247000","lon":"73.90881000"},{"name":"Cuncolim","native":null,"lat":"15.17730000","lon":"73.99392000"},{"name":"Curchorem","native":null,"lat":"15.26349000","lon":"74.10875000"},{"name":"Curti","native":null,"lat":"15.41667000","lon":"74.01667000"},{"name":"Davorlim","native":null,"lat":"15.27221000","lon":"73.99242000"},{"name":"Dicholi","native":null,"lat":"15.59319000","lon":"73.94571000"},{"name":"Goa Velha","native":null,"lat":"15.44384000","lon":"73.88572000"},{"name":"Guirim","native":null,"lat":"15.57552000","lon":"73.80722000"},{"name":"Jua","native":null,"lat":"15.53070000","lon":"73.95047000"},{"name":"Kankon","native":null,"lat":"15.02698000","lon":"74.04617000"},{"name":"Madgaon","native":null,"lat":"15.27501000","lon":"73.95786000"},{"name":"Mapuca","native":null,"lat":"15.59154000","lon":"73.80898000"},{"name":"Morjim","native":null,"lat":"15.63097000","lon":"73.73903000"},{"name":"Mormugao","native":null,"lat":"15.38914000","lon":"73.81491000"},{"name":"Navelim","native":null,"lat":"15.53333000","lon":"73.98333000"},{"name":"North Goa","native":null,"lat":"15.53397000","lon":"73.96408000"},{"name":"Palle","native":null,"lat":"15.46667000","lon":"74.08333000"},{"name":"Panaji","native":null,"lat":"15.49574000","lon":"73.82624000"},{"name":"Pernem","native":null,"lat":"15.72300000","lon":"73.79511000"},{"name":"Ponda","native":null,"lat":"15.40341000","lon":"74.01519000"},{"name":"Quepem","native":null,"lat":"15.21280000","lon":"74.07720000"},{"name":"Queula","native":null,"lat":"15.39011000","lon":"73.98557000"},{"name":"Raia","native":null,"lat":"15.30499000","lon":"73.97096000"},{"name":"Saligao","native":null,"lat":"15.55359000","lon":"73.79036000"},{"name":"Sancoale","native":null,"lat":"15.37794000","lon":"73.90352000"},{"name":"Sanguem","native":null,"lat":"15.22901000","lon":"74.15149000"},{"name":"Sanquelim","native":null,"lat":"15.56422000","lon":"74.00799000"},{"name":"Sanvordem","native":null,"lat":"15.26269000","lon":"74.11965000"},{"name":"Serula","native":null,"lat":"15.54774000","lon":"73.84329000"},{"name":"Solim","native":null,"lat":"15.61521000","lon":"73.76740000"},{"name":"South Goa","native":null,"lat":"15.20425000","lon":"74.16733000"},{"name":"Taleigao","native":null,"lat":"15.46915000","lon":"73.83285000"},{"name":"Vagator","native":null,"lat":"15.59766000","lon":"73.74496000"},{"name":"Valpoy","native":null,"lat":"15.53239000","lon":"74.13671000"},{"name":"Varca","native":null,"lat":"15.23237000","lon":"73.94311000"},{"name":"Vasco da Gama","native":null,"lat":"15.39585000","lon":"73.81568000"}]},{"name":"Gujarat","native":null,"cities":[{"name":"Abrama","native":null,"lat":"20.85865000","lon":"72.90648000"},{"name":"Adalaj","native":null,"lat":"23.16453000","lon":"72.58107000"},{"name":"Agol","native":null,"lat":"23.15000000","lon":"72.26666667"},{"name":"Ahmedabad","native":null,"lat":"23.02579000","lon":"72.58727000"},{"name":"Ahwa","native":null,"lat":"20.75718000","lon":"73.68626000"},{"name":"Akrund","native":null,"lat":"23.28333333","lon":"73.11666667"},{"name":"Amod","native":null,"lat":"21.99317000","lon":"72.87047000"},{"name":"Amod","native":null,"lat":"21.99100000","lon":"72.87100000"},{"name":"Amreli","native":null,"lat":"21.50789000","lon":"71.18323000"},{"name":"Amroli","native":null,"lat":"21.25084000","lon":"72.83878000"},{"name":"Anand","native":null,"lat":"22.40000000","lon":"72.75000000"},{"name":"Anjar","native":null,"lat":"23.11316000","lon":"70.02671000"},{"name":"Ankleshwar","native":null,"lat":"21.63236000","lon":"72.99001000"},{"name":"Babra","native":null,"lat":"21.84577000","lon":"71.30544000"},{"name":"Bagasara","native":null,"lat":"21.48333333","lon":"70.95000000"},{"name":"Bagasra","native":null,"lat":"21.48719000","lon":"70.95516000"},{"name":"Bakharla","native":null,"lat":"21.73151700","lon":"69.63529600"},{"name":"Balagam","native":null,"lat":"21.36666667","lon":"70.10000000"},{"name":"Balasinor","native":null,"lat":"22.95589100","lon":"73.33649900"},{"name":"Balisana","native":null,"lat":"23.81643600","lon":"72.25753600"},{"name":"Bamanbore","native":null,"lat":"22.41666667","lon":"71.01666667"},{"name":"Banas Kantha","native":null,"lat":"24.25000000","lon":"72.50000000"},{"name":"Bandia","native":null,"lat":"23.39604000","lon":"69.01155000"},{"name":"Bantva","native":null,"lat":"21.48815000","lon":"70.07576000"},{"name":"Bardoli","native":null,"lat":"21.12297000","lon":"73.11151000"},{"name":"Bedi","native":null,"lat":"22.50143000","lon":"70.04363000"},{"name":"Bhachau","native":null,"lat":"23.29858000","lon":"70.34279000"},{"name":"Bhadran","native":null,"lat":"22.35930000","lon":"72.90050000"},{"name":"Bhandu","native":null,"lat":"23.70000000","lon":"72.36666667"},{"name":"Bhanvad","native":null,"lat":"21.93053000","lon":"69.78081000"},{"name":"Bharuch","native":null,"lat":"21.69482000","lon":"72.98050000"},{"name":"Bhatha","native":null,"lat":"21.18333333","lon":"72.76666667"},{"name":"Bhavnagar","native":null,"lat":"21.76287000","lon":"72.15331000"},{"name":"Bhayavadar","native":null,"lat":"21.85523000","lon":"70.24791000"},{"name":"Bhildi","native":null,"lat":"24.18333333","lon":"72.03333333"},{"name":"Bhojpur Dharampur","native":null,"lat":"23.25000000","lon":"69.67000000"},{"name":"Bhuj","native":null,"lat":"23.25397000","lon":"69.66928000"},{"name":"Bilimora","native":null,"lat":"20.76957000","lon":"72.96134000"},{"name":"Bilkha","native":null,"lat":"21.44150000","lon":"70.60063000"},{"name":"Borsad","native":null,"lat":"22.40788000","lon":"72.89817000"},{"name":"Botad","native":null,"lat":"22.16917000","lon":"71.66671000"},{"name":"Chaklasi","native":null,"lat":"22.65320000","lon":"72.94497000"},{"name":"Chalala","native":null,"lat":"21.41073000","lon":"71.16621000"},{"name":"Chaloda","native":null,"lat":"22.80000000","lon":"72.45000000"},{"name":"Champaner","native":null,"lat":"22.48590000","lon":"73.53710000"},{"name":"Chanasma","native":null,"lat":"23.71472000","lon":"72.11279000"},{"name":"Chhala","native":null,"lat":"23.30779000","lon":"72.77404000"},{"name":"Chhota Udepur","native":null,"lat":"22.30401000","lon":"74.01580000"},{"name":"Chikhli","native":null,"lat":"20.75751000","lon":"73.06268000"},{"name":"Chotila","native":null,"lat":"22.42347000","lon":"71.19641000"},{"name":"Chuda","native":null,"lat":"22.48333333","lon":"71.68333333"},{"name":"Dabhoda","native":null,"lat":"23.16666667","lon":"72.73333333"},{"name":"Dabhoi","native":null,"lat":"22.18333000","lon":"73.43333000"},{"name":"Dahegam","native":null,"lat":"23.16903000","lon":"72.82161000"},{"name":"Dahod","native":null,"lat":"22.52000000","lon":"74.15000000"},{"name":"Dakor","native":null,"lat":"22.75268000","lon":"73.14967000"},{"name":"Damnagar","native":null,"lat":"21.69232000","lon":"71.51747000"},{"name":"Dandi","native":null,"lat":"21.32988000","lon":"72.62484000"},{"name":"Dangs (India)","native":null,"lat":"20.75000000","lon":"73.75000000"},{"name":"Danta","native":null,"lat":"24.18861111","lon":"72.76583333"},{"name":"Dayapar","native":null,"lat":"23.63371000","lon":"68.90192000"},{"name":"Delvada","native":null,"lat":"20.77544000","lon":"71.04646000"},{"name":"Delwada","native":null,"lat":"20.78330000","lon":"71.05000000"},{"name":"Detroj","native":null,"lat":"23.33333333","lon":"72.18333333"},{"name":"Devbhumi Dwarka","native":null,"lat":"22.20253000","lon":"69.65498000"},{"name":"Devgadh Bariya","native":null,"lat":"22.70517000","lon":"73.90882000"},{"name":"Dhandhuka","native":null,"lat":"22.38185000","lon":"71.98664000"},{"name":"Dhanera","native":null,"lat":"24.50967000","lon":"72.02343000"},{"name":"Dhansura","native":null,"lat":"23.35000000","lon":"73.20000000"},{"name":"Dharampur","native":null,"lat":"20.53693000","lon":"73.17368000"},{"name":"Dharasana","native":null,"lat":"20.68333333","lon":"72.91666667"},{"name":"Dhari","native":null,"lat":"21.32855000","lon":"71.02645000"},{"name":"Dhasa","native":null,"lat":"21.80000000","lon":"71.51666667"},{"name":"Dhola","native":null,"lat":"21.88129000","lon":"71.77269000"},{"name":"Dholera","native":null,"lat":"22.24800000","lon":"72.19500000"},{"name":"Dholka","native":null,"lat":"22.72732000","lon":"72.44128000"},{"name":"Dhoraji","native":null,"lat":"21.73359000","lon":"70.45004000"},{"name":"Dhrangadhra","native":null,"lat":"22.99167000","lon":"71.46793000"},{"name":"Dhrol","native":null,"lat":"22.56700000","lon":"70.41769000"},{"name":"Dhuwaran","native":null,"lat":"22.23779000","lon":"72.75910000"},{"name":"Disa","native":null,"lat":"24.25612000","lon":"72.17928000"},{"name":"Dohad","native":null,"lat":"22.90000000","lon":"74.00000000"},{"name":"Dumkhal","native":null,"lat":"21.73960000","lon":"73.84490000"},{"name":"Dungarpur","native":null,"lat":"21.28777000","lon":"71.75560000"},{"name":"Dwarka","native":null,"lat":"22.23944000","lon":"68.96778000"},{"name":"Gadhada","native":null,"lat":"21.96957000","lon":"71.57828000"},{"name":"Gandevi","native":null,"lat":"20.81214000","lon":"72.99811000"},{"name":"Gandhidham","native":null,"lat":"23.08333000","lon":"70.13333000"},{"name":"Gandhinagar","native":null,"lat":"23.21667000","lon":"72.68333000"},{"name":"Gariadhar","native":null,"lat":"21.53889000","lon":"71.57737000"},{"name":"Ghodasar","native":null,"lat":"24.45000000","lon":"71.85000000"},{"name":"Ghogha","native":null,"lat":"21.68813000","lon":"72.27630000"},{"name":"Gir Somnath","native":null,"lat":"20.91287000","lon":"70.36710000"},{"name":"Godhra","native":null,"lat":"22.77547000","lon":"73.61488000"},{"name":"Gondal","native":null,"lat":"21.96074000","lon":"70.80255000"},{"name":"Gorwa","native":null,"lat":"22.33010000","lon":"73.16110000"},{"name":"Halenda","native":null,"lat":"22.08818500","lon":"71.05171000"},{"name":"Halol","native":null,"lat":"22.50321000","lon":"73.47242000"},{"name":"Halvad","native":null,"lat":"23.01516000","lon":"71.18029000"},{"name":"Hansot","native":null,"lat":"21.58496000","lon":"72.80764000"},{"name":"Harij","native":null,"lat":"23.69356000","lon":"71.90700000"},{"name":"Harsol","native":null,"lat":"23.36000000","lon":"73.02000000"},{"name":"Hathuran","native":null,"lat":"21.50000000","lon":"72.97000000"},{"name":"Himatnagar","native":null,"lat":"23.59893000","lon":"72.96602000"},{"name":"Idar","native":null,"lat":"23.83000000","lon":"73.00000000"},{"name":"Jakhau","native":null,"lat":"23.21861111","lon":"68.71694444"},{"name":"Jalalpore","native":null,"lat":"20.94910000","lon":"72.91360000"},{"name":"Jalalpur","native":null,"lat":"20.94896000","lon":"72.89829000"},{"name":"Jalia","native":null,"lat":"21.80000000","lon":"70.25000000"},{"name":"Jambuda","native":null,"lat":"22.51666667","lon":"70.21666667"},{"name":"Jambusar","native":null,"lat":"22.05236000","lon":"72.80074000"},{"name":"Jamnagar","native":null,"lat":"22.47292000","lon":"70.06673000"},{"name":"Jarod","native":null,"lat":"22.43300000","lon":"73.33300000"},{"name":"Jasdan","native":null,"lat":"22.03709000","lon":"71.20794000"},{"name":"Jetalpur","native":null,"lat":"22.88333333","lon":"72.60000000"},{"name":"Jetalsar","native":null,"lat":"21.70891000","lon":"70.57695000"},{"name":"Jetpur","native":null,"lat":"21.75482000","lon":"70.62347000"},{"name":"Jetpur (Navagadh)","native":null,"lat":"21.75482000","lon":"70.62347000"},{"name":"Jhalod","native":null,"lat":"23.10027778","lon":"74.15611111"},{"name":"Jhulasan","native":null,"lat":"23.32860000","lon":"72.47314000"},{"name":"Jodhpur","native":null,"lat":"21.90174000","lon":"70.03270000"},{"name":"Jodhpur (Ahmedabad)","native":null,"lat":"21.88000000","lon":"70.03000000"},{"name":"Jodia","native":null,"lat":"22.71667000","lon":"70.28333000"},{"name":"Jodiya Bandar","native":null,"lat":"22.71667000","lon":"70.28333000"},{"name":"Junagadh","native":null,"lat":"21.25000000","lon":"70.33333000"},{"name":"Kachchh","native":null,"lat":"23.58333000","lon":"70.00000000"},{"name":"Kachholi","native":null,"lat":"20.83333333","lon":"72.96666667"},{"name":"Kadi","native":null,"lat":"23.29908000","lon":"72.33362000"},{"name":"Kadod","native":null,"lat":"21.21717000","lon":"73.21972000"},{"name":"Kalavad","native":null,"lat":"22.20789000","lon":"70.38343000"},{"name":"Kalol","native":null,"lat":"22.60777000","lon":"73.46272000"},{"name":"Kandla","native":null,"lat":"23.03333000","lon":"70.21667000"},{"name":"Kandla port","native":null,"lat":"23.03000000","lon":"70.22000000"},{"name":"Kanodar","native":null,"lat":"24.08932000","lon":"72.39354000"},{"name":"Kapadvanj","native":null,"lat":"23.02302000","lon":"73.07113000"},{"name":"Karamsad","native":null,"lat":"22.54243000","lon":"72.90392000"},{"name":"Kariana","native":null,"lat":"21.88333333","lon":"71.35000000"},{"name":"Karjan","native":null,"lat":"22.05304167","lon":"73.12351389"},{"name":"Kathor","native":null,"lat":"21.28854000","lon":"72.94070000"},{"name":"Katpur","native":null,"lat":"21.05869000","lon":"71.79457000"},{"name":"Kavant","native":null,"lat":"22.09282000","lon":"74.05078000"},{"name":"Kawant","native":null,"lat":"22.09282000","lon":"74.05078000"},{"name":"Kayavarohan","native":null,"lat":"22.06700000","lon":"73.25000000"},{"name":"Kerwada","native":null,"lat":"21.90000000","lon":"72.85000000"},{"name":"Keshod","native":null,"lat":"21.30328000","lon":"70.24861000"},{"name":"Khambhalia","native":null,"lat":"22.20000000","lon":"69.65000000"},{"name":"Khambhat","native":null,"lat":"22.31744000","lon":"72.61916000"},{"name":"Khavda","native":null,"lat":"23.85000000","lon":"69.72000000"},{"name":"Kheda","native":null,"lat":"22.75000000","lon":"72.83333000"},{"name":"Khedbrahma","native":null,"lat":"24.02990000","lon":"73.04632000"},{"name":"Khedoi","native":null,"lat":"23.05927778","lon":"69.91895556"},{"name":"Kherali","native":null,"lat":"22.68333333","lon":"71.60000000"},{"name":"Kheralu","native":null,"lat":"23.88534000","lon":"72.61869000"},{"name":"Kodinar","native":null,"lat":"20.79393000","lon":"70.70216000"},{"name":"Kosamba","native":null,"lat":"21.46202000","lon":"72.95842000"},{"name":"Kothara","native":null,"lat":"23.13300000","lon":"68.93200000"},{"name":"Kotharia","native":null,"lat":"22.23000000","lon":"70.81000000"},{"name":"Kukarmunda","native":null,"lat":"21.51666667","lon":"74.13333333"},{"name":"Kukma","native":null,"lat":"23.21782200","lon":"69.77792200"},{"name":"Kundla","native":null,"lat":"21.34222000","lon":"71.30633000"},{"name":"Kutch district","native":null,"lat":"23.91500000","lon":"70.36700000"},{"name":"Kutiyana","native":null,"lat":"21.62410000","lon":"69.98494000"},{"name":"Ladol","native":null,"lat":"23.61666667","lon":"72.73333333"},{"name":"Lakhpat","native":null,"lat":"23.82611111","lon":"68.77694444"},{"name":"Lakhtar","native":null,"lat":"22.85683000","lon":"71.78844000"},{"name":"Lalpur","native":null,"lat":"22.19073000","lon":"69.96351000"},{"name":"Langhnaj","native":null,"lat":"23.45000000","lon":"72.48333333"},{"name":"Lathi","native":null,"lat":"21.72310000","lon":"71.38843000"},{"name":"Limbdi","native":null,"lat":"22.56507000","lon":"71.81076000"},{"name":"Limkheda","native":null,"lat":"22.81666667","lon":"73.98333333"},{"name":"Lunavada","native":null,"lat":"23.12841000","lon":"73.61043000"},{"name":"Madhavpur Ghed","native":null,"lat":"21.29929167","lon":"70.02513889"},{"name":"Madhi","native":null,"lat":"22.10000000","lon":"69.10000000"},{"name":"Mahemdavad","native":null,"lat":"22.82359000","lon":"72.75551000"},{"name":"Mahesana","native":null,"lat":"23.66667000","lon":"72.50000000"},{"name":"Mahisa","native":null,"lat":"22.85000000","lon":"73.05000000"},{"name":"Mahudha","native":null,"lat":"22.82082000","lon":"72.94032000"},{"name":"Mahuva","native":null,"lat":"21.08330000","lon":"71.80000000"},{"name":"Mahuva (Surat)","native":null,"lat":"21.02000000","lon":"73.15000000"},{"name":"Malpur","native":null,"lat":"23.36035000","lon":"73.46595000"},{"name":"Manavadar","native":null,"lat":"21.49813000","lon":"70.13775000"},{"name":"Mandal","native":null,"lat":"23.28865000","lon":"71.91854000"},{"name":"Mandvi","native":null,"lat":"22.83282000","lon":"69.35237000"},{"name":"Mandvi (Surat)","native":null,"lat":"21.25526000","lon":"73.30412000"},{"name":"Mangrol","native":null,"lat":"21.12268000","lon":"70.11484000"},{"name":"Mangrol (Junagadh)","native":null,"lat":"21.12000000","lon":"70.12000000"},{"name":"Mansa","native":null,"lat":"23.42564000","lon":"72.65739000"},{"name":"Meghraj","native":null,"lat":"23.49805000","lon":"73.51352000"},{"name":"Mehsana","native":null,"lat":"23.60000000","lon":"72.40000000"},{"name":"Mendarda","native":null,"lat":"21.32112000","lon":"70.44078000"},{"name":"Mithapur","native":null,"lat":"22.41000000","lon":"69.00000000"},{"name":"Modasa","native":null,"lat":"23.46253000","lon":"73.29857000"},{"name":"Morbi","native":null,"lat":"22.81731000","lon":"70.83770000"},{"name":"Morva (Hadaf)","native":null,"lat":"22.90469000","lon":"73.83912000"},{"name":"Morwa","native":null,"lat":"22.90469000","lon":"73.83912000"},{"name":"Mundra","native":null,"lat":"22.83918000","lon":"69.72190000"},{"name":"Nadiad","native":null,"lat":"22.69385000","lon":"72.86157000"},{"name":"Nadiad","native":null,"lat":"22.70000000","lon":"72.87000000"},{"name":"Nagwa","native":null,"lat":"25.69621000","lon":"84.23590000"},{"name":"Naldhara","native":null,"lat":"20.96666667","lon":"73.16666667"},{"name":"Naliya","native":null,"lat":"23.26058000","lon":"68.82655000"},{"name":"Nargol","native":null,"lat":"20.23300000","lon":"72.75000000"},{"name":"Narmada","native":null,"lat":"21.87377000","lon":"73.49527000"},{"name":"Naroda","native":null,"lat":"23.07041000","lon":"72.65702000"},{"name":"Navsari","native":null,"lat":"20.95000000","lon":"72.92000000"},{"name":"Nikora","native":null,"lat":"21.78586000","lon":"73.13968000"},{"name":"Nizar","native":null,"lat":"21.47727000","lon":"74.19595000"},{"name":"Odadar","native":null,"lat":"21.56666667","lon":"69.66666667"},{"name":"Okha","native":null,"lat":"22.46756000","lon":"69.07002000"},{"name":"Olpad","native":null,"lat":"21.33649000","lon":"72.75161000"},{"name":"Paddhari","native":null,"lat":"22.43654000","lon":"70.60162000"},{"name":"Padra","native":null,"lat":"22.23980000","lon":"73.08451000"},{"name":"Palanpur","native":null,"lat":"24.17128000","lon":"72.43827000"},{"name":"Palanswa","native":null,"lat":"23.46666667","lon":"70.93333333"},{"name":"Palitana","native":null,"lat":"21.52519000","lon":"71.82309000"},{"name":"Paliyad","native":null,"lat":"22.25757000","lon":"71.56024000"},{"name":"Paliyad (Bhavnagar)","native":null,"lat":"22.25757000","lon":"71.56024000"},{"name":"Palsana","native":null,"lat":"21.08000000","lon":"72.98000000"},{"name":"Panch Mahals","native":null,"lat":"22.75000000","lon":"73.60000000"},{"name":"Panchmahal district","native":null,"lat":"22.75000000","lon":"73.60000000"},{"name":"Pardi","native":null,"lat":"20.50870000","lon":"72.94569000"},{"name":"Parnera","native":null,"lat":"20.56101000","lon":"72.94846000"},{"name":"Patan","native":null,"lat":"23.70000000","lon":"71.80000000"},{"name":"Pavi Jetpur","native":null,"lat":"22.34472000","lon":"73.84093000"},{"name":"Petlad","native":null,"lat":"22.47681000","lon":"72.79995000"},{"name":"Pipavav","native":null,"lat":"20.96666667","lon":"71.56666667"},{"name":"Piplod","native":null,"lat":"22.81666667","lon":"73.90000000"},{"name":"Porbandar","native":null,"lat":"21.64219000","lon":"69.60929000"},{"name":"Prabhas Patan","native":null,"lat":"20.88808000","lon":"70.40129000"},{"name":"Prantij","native":null,"lat":"23.43841944","lon":"72.85718056"},{"name":"Radhanpur","native":null,"lat":"23.83238000","lon":"71.60470000"},{"name":"Rajkot","native":null,"lat":"22.33333000","lon":"70.83333000"},{"name":"Rajpipla","native":null,"lat":"21.86667000","lon":"73.50000000"},{"name":"Rajula","native":null,"lat":"21.03854000","lon":"71.44345000"},{"name":"Ranavav","native":null,"lat":"21.68734000","lon":"69.74485000"},{"name":"Ranpur","native":null,"lat":"22.36670000","lon":"71.75000000"},{"name":"Rapar","native":null,"lat":"23.57267000","lon":"70.64718000"},{"name":"Reha","native":null,"lat":"23.15172500","lon":"69.75008600"},{"name":"Roha","native":null,"lat":"23.19646000","lon":"69.27076000"},{"name":"Sabar Kantha","native":null,"lat":"23.62974000","lon":"73.00197000"},{"name":"Sachin","native":null,"lat":"21.08718000","lon":"72.88153000"},{"name":"Salaya","native":null,"lat":"22.31038000","lon":"69.60376000"},{"name":"Samakhiali","native":null,"lat":"23.30340000","lon":"70.50688000"},{"name":"Sanand","native":null,"lat":"22.99227000","lon":"72.38177000"},{"name":"Sankheda","native":null,"lat":"22.17021000","lon":"73.57820000"},{"name":"Sarbhon","native":null,"lat":"21.05000000","lon":"73.08330000"},{"name":"Sardoi","native":null,"lat":"23.56670000","lon":"73.26670000"},{"name":"Sarkhej","native":null,"lat":"22.98297000","lon":"72.50196000"},{"name":"Sathamba","native":null,"lat":"23.16912500","lon":"73.32661667"},{"name":"Savarkundla","native":null,"lat":"21.33726000","lon":"71.30350000"},{"name":"Savli","native":null,"lat":"22.56666667","lon":"73.21666667"},{"name":"Sayla","native":null,"lat":"22.54925000","lon":"71.48324000"},{"name":"Shahpur","native":null,"lat":"22.15611000","lon":"70.77068000"},{"name":"Shivrajpur","native":null,"lat":"22.42319000","lon":"73.60865000"},{"name":"Siddhpur","native":null,"lat":"23.91670000","lon":"72.38330000"},{"name":"Sihor","native":null,"lat":"21.71134000","lon":"71.96179000"},{"name":"Sikka","native":null,"lat":"22.43218000","lon":"69.84158000"},{"name":"Sinor","native":null,"lat":"21.91117000","lon":"73.33974000"},{"name":"Sojitra","native":null,"lat":"22.53884000","lon":"72.71984000"},{"name":"Songadh","native":null,"lat":"21.16966000","lon":"73.56357000"},{"name":"Supedi","native":null,"lat":"21.76200000","lon":"70.37800000"},{"name":"Surat","native":null,"lat":"21.17801000","lon":"72.81189000"},{"name":"Surendranagar","native":null,"lat":"22.72706000","lon":"71.64856000"},{"name":"Sutrapada","native":null,"lat":"20.89280000","lon":"70.46500000"},{"name":"Talaja","native":null,"lat":"21.35270000","lon":"72.03524000"},{"name":"Tankara","native":null,"lat":"22.65622000","lon":"70.74945000"},{"name":"Tapi","native":null,"lat":"21.12000000","lon":"73.40000000"},{"name":"Than","native":null,"lat":"22.57422000","lon":"71.19942000"},{"name":"Thangadh","native":null,"lat":"22.56666667","lon":"71.18333333"},{"name":"Tharad","native":null,"lat":"24.39597000","lon":"71.62577000"},{"name":"Thasra","native":null,"lat":"22.79831000","lon":"73.21174000"},{"name":"The Dangs","native":null,"lat":"20.75000000","lon":"73.75000000"},{"name":"Umarpada","native":null,"lat":"21.45000000","lon":"73.50000000"},{"name":"Umrala","native":null,"lat":"21.84353000","lon":"71.80305000"},{"name":"Umreth","native":null,"lat":"22.69881000","lon":"73.11561000"},{"name":"Un","native":null,"lat":"23.88745000","lon":"71.76975000"},{"name":"Una","native":null,"lat":"20.82318000","lon":"71.03795000"},{"name":"Unjha","native":null,"lat":"23.80366000","lon":"72.39101000"},{"name":"Upleta","native":null,"lat":"21.74015000","lon":"70.28256000"},{"name":"Utran","native":null,"lat":"21.23333000","lon":"72.86667000"},{"name":"Vadgam","native":null,"lat":"24.08333333","lon":"72.48333333"},{"name":"Vadnagar","native":null,"lat":"23.78593000","lon":"72.63893000"},{"name":"Vadodara","native":null,"lat":"22.29941000","lon":"73.20812000"},{"name":"Vaghodia","native":null,"lat":"22.30505000","lon":"73.40016000"},{"name":"Vaghodia INA","native":null,"lat":"22.30000000","lon":"73.38330000"},{"name":"Vallabh Vidyanagar","native":null,"lat":"22.53333000","lon":"72.90000000"},{"name":"Vallabhipur","native":null,"lat":"21.88780000","lon":"71.87950000"},{"name":"Valsad","native":null,"lat":"20.50000000","lon":"73.08333000"},{"name":"Vanala","native":null,"lat":"22.45000000","lon":"71.98333333"},{"name":"Vansda","native":null,"lat":"20.45000000","lon":"73.22000000"},{"name":"Vanthli","native":null,"lat":"21.48330000","lon":"70.33330000"},{"name":"Vapi","native":null,"lat":"20.37175000","lon":"72.90493000"},{"name":"Vartej","native":null,"lat":"21.73947000","lon":"72.06553000"},{"name":"Vasa","native":null,"lat":"22.66079000","lon":"72.75519000"},{"name":"Vasavad","native":null,"lat":"21.82657000","lon":"71.02436000"},{"name":"Vaso","native":null,"lat":"22.66079000","lon":"72.75519000"},{"name":"Vataman","native":null,"lat":"22.53000000","lon":"72.42000000"},{"name":"Vejalpur","native":null,"lat":"22.69021000","lon":"73.56299000"},{"name":"Veraval","native":null,"lat":"20.90770000","lon":"70.36786000"},{"name":"Vijapur","native":null,"lat":"23.56230000","lon":"72.74848000"},{"name":"Vinchhiya","native":null,"lat":"22.21027000","lon":"71.37967000"},{"name":"Vinchia","native":null,"lat":"22.21027000","lon":"71.37967000"},{"name":"Viramgam","native":null,"lat":"23.12000000","lon":"72.03000000"},{"name":"Virpur","native":null,"lat":"23.18920000","lon":"73.47987000"},{"name":"Visavadar","native":null,"lat":"21.33954000","lon":"70.74966000"},{"name":"Visnagar","native":null,"lat":"23.69855000","lon":"72.55210000"},{"name":"Vyara","native":null,"lat":"21.11079000","lon":"73.39365000"},{"name":"Wadhai","native":null,"lat":"20.76666667","lon":"73.48333333"},{"name":"Wadhwan","native":null,"lat":"22.70000000","lon":"71.68333333"},{"name":"Waghai","native":null,"lat":"20.77048000","lon":"73.50074000"},{"name":"Wankaner","native":null,"lat":"22.61198000","lon":"70.94379000"}]},{"name":"Haryana","native":null,"cities":[{"name":"Ambala","native":null,"lat":"30.32854000","lon":"76.94220000"},{"name":"Asandh","native":null,"lat":"29.52119000","lon":"76.60552000"},{"name":"Ateli Mandi","native":null,"lat":"28.10080000","lon":"76.25980000"},{"name":"Bahadurgarh","native":null,"lat":"28.69287000","lon":"76.93555000"},{"name":"Bara Uchana","native":null,"lat":"29.46747000","lon":"76.17798000"},{"name":"Barwala","native":null,"lat":"29.36747000","lon":"75.90809000"},{"name":"Bawal","native":null,"lat":"28.07184000","lon":"76.58312000"},{"name":"Beri Khas","native":null,"lat":"28.70146000","lon":"76.57708000"},{"name":"Bhiwani","native":null,"lat":"28.75000000","lon":"76.16667000"},{"name":"Bilaspur","native":null,"lat":"30.30450000","lon":"77.30424000"},{"name":"Buriya","native":null,"lat":"30.15911000","lon":"77.35814000"},{"name":"Charkhi Dadri","native":null,"lat":"28.59166000","lon":"76.27161000"},{"name":"Chhachhrauli","native":null,"lat":"30.24492000","lon":"77.36027000"},{"name":"Dabwali","native":null,"lat":"29.94906000","lon":"74.73832000"},{"name":"Dharuhera","native":null,"lat":"28.20553000","lon":"76.79691000"},{"name":"Ellenabad","native":null,"lat":"29.45282000","lon":"74.66122000"},{"name":"Faridabad","native":null,"lat":"28.41124000","lon":"77.31316000"},{"name":"Faridabad District","native":null,"lat":"28.46292000","lon":"77.37160000"},{"name":"Farrukhnagar","native":null,"lat":"28.44745000","lon":"76.82391000"},{"name":"Fatehabad","native":null,"lat":"29.51525000","lon":"75.45554000"},{"name":"Fatehabad District","native":null,"lat":"29.31000000","lon":"75.27000000"},{"name":"Firozpur Jhirka","native":null,"lat":"27.78853000","lon":"76.94496000"},{"name":"Gharaunda","native":null,"lat":"29.53692000","lon":"76.97142000"},{"name":"Gohana","native":null,"lat":"29.13777000","lon":"76.70247000"},{"name":"Gorakhpur","native":null,"lat":"29.44768000","lon":"75.67206000"},{"name":"Gurgaon","native":null,"lat":"28.43891000","lon":"77.00592000"},{"name":"Hansi","native":null,"lat":"29.10239000","lon":"75.96253000"},{"name":"Hasanpur","native":null,"lat":"27.96944000","lon":"77.49544000"},{"name":"Hisar","native":null,"lat":"29.15394000","lon":"75.72294000"},{"name":"Hodal","native":null,"lat":"27.89196000","lon":"77.36744000"},{"name":"Inda Chhoi","native":null,"lat":"29.64042000","lon":"75.79041000"},{"name":"Indri","native":null,"lat":"29.87999000","lon":"77.05972000"},{"name":"Jagadhri","native":null,"lat":"30.16719000","lon":"77.30367000"},{"name":"Jakhal","native":null,"lat":"29.79627000","lon":"75.82392000"},{"name":"Jhajjar","native":null,"lat":"28.60630000","lon":"76.65650000"},{"name":"Jind","native":null,"lat":"29.31577000","lon":"76.31502000"},{"name":"Kaithal","native":null,"lat":"29.80153000","lon":"76.39959000"},{"name":"Kalanaur","native":null,"lat":"28.82823000","lon":"76.39550000"},{"name":"Kalanwali","native":null,"lat":"29.83573000","lon":"74.97170000"},{"name":"Kanina Khas","native":null,"lat":"28.33093000","lon":"76.31099000"},{"name":"Karnal","native":null,"lat":"29.66667000","lon":"76.83333000"},{"name":"Kharkhauda","native":null,"lat":"28.87870000","lon":"76.91069000"},{"name":"Kheri Sampla","native":null,"lat":"28.77810000","lon":"76.77560000"},{"name":"Kurukshetra","native":null,"lat":"30.00000000","lon":"76.75000000"},{"name":"Ladwa","native":null,"lat":"29.99350000","lon":"77.04563000"},{"name":"Loharu","native":null,"lat":"28.42993000","lon":"75.80779000"},{"name":"Maham","native":null,"lat":"28.96912000","lon":"76.29495000"},{"name":"Mahendragarh","native":null,"lat":"28.25000000","lon":"76.16667000"},{"name":"Mandholi Kalan","native":null,"lat":"28.70850000","lon":"75.68296000"},{"name":"Mustafabad","native":null,"lat":"30.20220000","lon":"77.14873000"},{"name":"Narayangarh","native":null,"lat":"30.47798000","lon":"77.12804000"},{"name":"Narnaul","native":null,"lat":"28.04444000","lon":"76.10833000"},{"name":"Narnaund","native":null,"lat":"29.22047000","lon":"76.14278000"},{"name":"Narwana","native":null,"lat":"29.59903000","lon":"76.11927000"},{"name":"Nilokheri","native":null,"lat":"29.83671000","lon":"76.93191000"},{"name":"Nuh","native":null,"lat":"28.10296000","lon":"77.00144000"},{"name":"Palwal","native":null,"lat":"28.14469000","lon":"77.32546000"},{"name":"Panchkula","native":null,"lat":"30.72883000","lon":"76.94716000"},{"name":"Panipat","native":null,"lat":"29.33259000","lon":"76.92634000"},{"name":"Pataudi","native":null,"lat":"28.32547000","lon":"76.77858000"},{"name":"Pehowa","native":null,"lat":"29.97897000","lon":"76.58249000"},{"name":"Pinjaur","native":null,"lat":"30.79873000","lon":"76.91822000"},{"name":"Punahana","native":null,"lat":"27.86371000","lon":"77.20432000"},{"name":"Pundri","native":null,"lat":"29.76096000","lon":"76.56034000"},{"name":"Radaur","native":null,"lat":"30.02706000","lon":"77.15177000"},{"name":"Rania","native":null,"lat":"29.52454000","lon":"74.83689000"},{"name":"Ratia","native":null,"lat":"29.69029000","lon":"75.57688000"},{"name":"Rewari","native":null,"lat":"28.19900000","lon":"76.61830000"},{"name":"Rewari District","native":null,"lat":"28.19613000","lon":"76.61607000"},{"name":"Rohtak","native":null,"lat":"28.83333000","lon":"76.66667000"},{"name":"Safidon","native":null,"lat":"29.40596000","lon":"76.67042000"},{"name":"Samalkha","native":null,"lat":"29.23552000","lon":"77.01273000"},{"name":"Shadipur Julana","native":null,"lat":"29.12368000","lon":"76.40516000"},{"name":"Shahabad","native":null,"lat":"30.16776000","lon":"76.87046000"},{"name":"Sirsa","native":null,"lat":"29.53489000","lon":"75.02898000"},{"name":"Sohna","native":null,"lat":"28.24737000","lon":"77.06544000"},{"name":"Sonipat","native":null,"lat":"29.00000000","lon":"76.91667000"},{"name":"Taoru","native":null,"lat":"28.21173000","lon":"76.94984000"},{"name":"Thanesar","native":null,"lat":"29.97323000","lon":"76.83214000"},{"name":"Tohana","native":null,"lat":"29.71332000","lon":"75.90441000"},{"name":"Tosham","native":null,"lat":"28.86993000","lon":"75.91650000"},{"name":"Uklana","native":null,"lat":"29.51124000","lon":"75.87823000"},{"name":"Yamunanagar","native":null,"lat":"30.23644000","lon":"77.30498000"}]},{"name":"Himachal Pradesh","native":null,"cities":[{"name":"Arki","native":null,"lat":"31.15196000","lon":"76.96675000"},{"name":"Baddi","native":null,"lat":"30.95783000","lon":"76.79136000"},{"name":"Banjar","native":null,"lat":"31.63900000","lon":"77.34055000"},{"name":"Bilaspur","native":null,"lat":"31.33027000","lon":"76.75663000"},{"name":"Chamba","native":null,"lat":"32.57147000","lon":"76.10229000"},{"name":"Chaupal","native":null,"lat":"30.94647000","lon":"77.58840000"},{"name":"Chowari","native":null,"lat":"32.43190000","lon":"76.01200000"},{"name":"Chuari Khas","native":null,"lat":"32.43058000","lon":"76.01428000"},{"name":"Dagshai","native":null,"lat":"30.88431000","lon":"77.05228000"},{"name":"Dalhousie","native":null,"lat":"32.55219000","lon":"75.94663000"},{"name":"Daulatpur","native":null,"lat":"31.78871000","lon":"75.99154000"},{"name":"Dera Gopipur","native":null,"lat":"31.87919000","lon":"76.21871000"},{"name":"Dharamsala","native":null,"lat":"32.22006000","lon":"76.32013000"},{"name":"Gagret","native":null,"lat":"31.65846000","lon":"76.06144000"},{"name":"Ghumarwin","native":null,"lat":"31.44166000","lon":"76.71509000"},{"name":"Hamirpur","native":null,"lat":"31.75000000","lon":"76.50000000"},{"name":"Jawala Mukhi","native":null,"lat":"31.87456000","lon":"76.32013000"},{"name":"Jogindarnagar","native":null,"lat":"31.98727000","lon":"76.78906000"},{"name":"Jubbal","native":null,"lat":"31.10923000","lon":"77.65085000"},{"name":"Jutogh","native":null,"lat":"31.10000000","lon":"77.11667000"},{"name":"Kalka","native":null,"lat":"30.83982000","lon":"76.94065000"},{"name":"Kangar","native":null,"lat":"32.09135000","lon":"76.26267000"},{"name":"Kangra","native":null,"lat":"32.16667000","lon":"76.25000000"},{"name":"Kasauli","native":null,"lat":"30.89856000","lon":"76.96587000"},{"name":"Kinnaur","native":null,"lat":"31.58333000","lon":"78.41667000"},{"name":"Kotkhai","native":null,"lat":"31.11728000","lon":"77.53936000"},{"name":"Kotla","native":null,"lat":"32.25000000","lon":"76.03333000"},{"name":"Kulu","native":null,"lat":"32.00000000","lon":"77.25000000"},{"name":"Kyelang","native":null,"lat":"32.57170000","lon":"77.02448000"},{"name":"Lahul and Spiti","native":null,"lat":"32.50000000","lon":"77.83333000"},{"name":"Manali","native":null,"lat":"32.25740000","lon":"77.17481000"},{"name":"Mandi","native":null,"lat":"31.71194000","lon":"76.93273000"},{"name":"Nadaun","native":null,"lat":"31.78303000","lon":"76.34310000"},{"name":"Nagar","native":null,"lat":"32.13808000","lon":"77.17393000"},{"name":"Nagrota","native":null,"lat":"32.05710000","lon":"76.09139000"},{"name":"Nahan","native":null,"lat":"30.56029000","lon":"77.29426000"},{"name":"Nalagarh","native":null,"lat":"31.04168000","lon":"76.72285000"},{"name":"Palampur","native":null,"lat":"32.11453000","lon":"76.55681000"},{"name":"Pandoh","native":null,"lat":"31.66902000","lon":"77.05359000"},{"name":"Paonta Sahib","native":null,"lat":"30.43666000","lon":"77.62462000"},{"name":"Parwanoo","native":null,"lat":"30.83716000","lon":"76.96143000"},{"name":"Rajgarh","native":null,"lat":"30.85142000","lon":"77.30066000"},{"name":"Rampur","native":null,"lat":"31.44943000","lon":"77.63087000"},{"name":"Rohru","native":null,"lat":"31.20269000","lon":"77.75484000"},{"name":"Sabathu","native":null,"lat":"30.97494000","lon":"76.99137000"},{"name":"Santokhgarh","native":null,"lat":"31.35205000","lon":"76.31775000"},{"name":"Sarahan","native":null,"lat":"31.50988000","lon":"77.79395000"},{"name":"Sarka Ghat","native":null,"lat":"31.69887000","lon":"76.73529000"},{"name":"Seoni","native":null,"lat":"31.24188000","lon":"77.12362000"},{"name":"Shimla","native":null,"lat":"31.16667000","lon":"77.58333000"},{"name":"Sirmaur","native":null,"lat":"30.75000000","lon":"77.50000000"},{"name":"Solan","native":null,"lat":"31.08333000","lon":"76.83333000"},{"name":"Sundarnagar","native":null,"lat":"31.53523000","lon":"76.90500000"},{"name":"Theog","native":null,"lat":"31.12155000","lon":"77.35838000"},{"name":"Tira Sujanpur","native":null,"lat":"31.83364000","lon":"76.50539000"},{"name":"Una","native":null,"lat":"31.46493000","lon":"76.26914000"},{"name":"Yol","native":null,"lat":"32.16423000","lon":"76.19622000"}]},{"name":"Jammu and Kashmir","native":null,"cities":[{"name":"Akhnur","native":null,"lat":"32.86667000","lon":"74.73333000"},{"name":"Anantnag","native":null,"lat":"33.73068000","lon":"75.15418000"},{"name":"Awantipur","native":null,"lat":"33.91978000","lon":"75.01515000"},{"name":"Badgam","native":null,"lat":"33.89001000","lon":"74.66297000"},{"name":"Bandipore","native":null,"lat":"34.50404000","lon":"74.82832000"},{"name":"Bandipura","native":null,"lat":"34.41728000","lon":"74.64308000"},{"name":"Banihal","native":null,"lat":"33.43647000","lon":"75.19684000"},{"name":"Baramula","native":null,"lat":"34.19287000","lon":"74.36920000"},{"name":"Batoti","native":null,"lat":"33.11826000","lon":"75.30889000"},{"name":"Bhadarwah","native":null,"lat":"32.97941000","lon":"75.71723000"},{"name":"Bijbehara","native":null,"lat":"33.79378000","lon":"75.10700000"},{"name":"Bishnah","native":null,"lat":"32.61060000","lon":"74.85557000"},{"name":"Doda","native":null,"lat":"33.14916000","lon":"75.54746000"},{"name":"Gandarbal","native":null,"lat":"34.22619000","lon":"74.77478000"},{"name":"Ganderbal","native":null,"lat":"34.29467000","lon":"75.19996000"},{"name":"Gho Brahmanan de","native":null,"lat":"32.55590000","lon":"74.95390000"},{"name":"Hajan","native":null,"lat":"34.29895000","lon":"74.61681000"},{"name":"Hiranagar","native":null,"lat":"32.45493000","lon":"75.27187000"},{"name":"Jammu","native":null,"lat":"32.75000000","lon":"74.83333000"},{"name":"Jaurian","native":null,"lat":"32.83255000","lon":"74.57612000"},{"name":"Kathua","native":null,"lat":"32.58333000","lon":"75.50000000"},{"name":"Katra","native":null,"lat":"32.99167000","lon":"74.93195000"},{"name":"Khaur","native":null,"lat":"32.60270000","lon":"74.80918000"},{"name":"Kishtwar","native":null,"lat":"33.52958000","lon":"76.01462000"},{"name":"Kud","native":null,"lat":"33.07246000","lon":"75.28727000"},{"name":"Kulgam","native":null,"lat":"33.64456000","lon":"75.01923000"},{"name":"Kupwara","native":null,"lat":"34.53193000","lon":"74.26605000"},{"name":"Ladakh","native":null,"lat":"34.33333000","lon":"77.41667000"},{"name":"Magam","native":null,"lat":"34.09256000","lon":"74.59016000"},{"name":"Nawanshahr","native":null,"lat":"32.76505000","lon":"74.52772000"},{"name":"Noria","native":null,"lat":"32.52095000","lon":"74.79845000"},{"name":"Padam","native":null,"lat":"33.46659000","lon":"76.88488000"},{"name":"Pahlgam","native":null,"lat":"34.01592000","lon":"75.31899000"},{"name":"Parol","native":null,"lat":"32.34598000","lon":"75.43441000"},{"name":"Pattan","native":null,"lat":"34.16125000","lon":"74.55634000"},{"name":"Pulwama","native":null,"lat":"33.87405000","lon":"74.89955000"},{"name":"Punch","native":null,"lat":"33.70178000","lon":"74.19916000"},{"name":"Qazigund","native":null,"lat":"33.63828000","lon":"75.14261000"},{"name":"Rajaori","native":null,"lat":"33.37526000","lon":"74.30920000"},{"name":"Rajauri","native":null,"lat":"33.25000000","lon":"74.25000000"},{"name":"Ramban","native":null,"lat":"33.32301000","lon":"75.18610000"},{"name":"Ramgarh","native":null,"lat":"33.40379000","lon":"74.22388000"},{"name":"Ramnagar","native":null,"lat":"32.80728000","lon":"75.31119000"},{"name":"Riasi","native":null,"lat":"33.08115000","lon":"74.83242000"},{"name":"Samba","native":null,"lat":"32.57523000","lon":"75.10929000"},{"name":"Shupiyan","native":null,"lat":"33.73067000","lon":"74.81869000"},{"name":"Sopur","native":null,"lat":"34.28671000","lon":"74.47228000"},{"name":"Soyibug","native":null,"lat":"34.07677000","lon":"74.70570000"},{"name":"Srinagar","native":null,"lat":"34.08565000","lon":"74.80555000"},{"name":"Sumbal","native":null,"lat":"34.23072000","lon":"74.64720000"},{"name":"Thang","native":null,"lat":"34.92740000","lon":"76.79336000"},{"name":"Thanna Mandi","native":null,"lat":"33.54204000","lon":"74.38100000"},{"name":"Tral","native":null,"lat":"33.92708000","lon":"75.11585000"},{"name":"Tsrar Sharif","native":null,"lat":"33.86319000","lon":"74.76524000"},{"name":"Udhampur","native":null,"lat":"33.00000000","lon":"75.16667000"},{"name":"Uri","native":null,"lat":"34.08064000","lon":"74.05088000"}]},{"name":"Jharkhand","native":null,"cities":[{"name":"Bagra","native":null,"lat":"23.73333000","lon":"86.31667000"},{"name":"Barka Kana","native":null,"lat":"23.62118000","lon":"85.46748000"},{"name":"Barki Saria","native":null,"lat":"24.17594000","lon":"85.88938000"},{"name":"Barwadih","native":null,"lat":"23.84780000","lon":"84.11049000"},{"name":"Bhojudih","native":null,"lat":"23.63962000","lon":"86.44105000"},{"name":"Bokaro","native":null,"lat":"23.68562000","lon":"85.99026000"},{"name":"Bundu","native":null,"lat":"23.16095000","lon":"85.59007000"},{"name":"Chaibasa","native":null,"lat":"22.55038000","lon":"85.80249000"},{"name":"Chakradharpur","native":null,"lat":"22.67611000","lon":"85.62892000"},{"name":"Chakulia","native":null,"lat":"22.48301000","lon":"86.71793000"},{"name":"Chandil","native":null,"lat":"22.95745000","lon":"86.05331000"},{"name":"Chas","native":null,"lat":"23.63556000","lon":"86.16712000"},{"name":"Chatra","native":null,"lat":"24.20645000","lon":"84.87085000"},{"name":"Chiria","native":null,"lat":"22.31093000","lon":"85.27601000"},{"name":"Daltonganj","native":null,"lat":"24.03971000","lon":"84.06580000"},{"name":"Deogarh","native":null,"lat":"24.44382000","lon":"86.72607000"},{"name":"Dhanbad","native":null,"lat":"23.80199000","lon":"86.44324000"},{"name":"Dhanwar","native":null,"lat":"24.41074000","lon":"85.98183000"},{"name":"Dugda","native":null,"lat":"23.74516000","lon":"86.17175000"},{"name":"Dumka","native":null,"lat":"24.30000000","lon":"87.25000000"},{"name":"Garhwa","native":null,"lat":"24.07494000","lon":"83.71023000"},{"name":"Ghatsila","native":null,"lat":"22.58531000","lon":"86.47682000"},{"name":"Giridih","native":null,"lat":"24.25000000","lon":"85.91667000"},{"name":"Gobindpur","native":null,"lat":"22.63393000","lon":"86.07162000"},{"name":"Godda","native":null,"lat":"24.83333000","lon":"87.21667000"},{"name":"Gomoh","native":null,"lat":"23.87355000","lon":"86.15160000"},{"name":"Gopinathpur","native":null,"lat":"22.66301000","lon":"86.07500000"},{"name":"Gua","native":null,"lat":"22.21361000","lon":"85.38774000"},{"name":"Gumia","native":null,"lat":"23.79750000","lon":"85.82523000"},{"name":"Gumla","native":null,"lat":"23.08055000","lon":"84.53834000"},{"name":"Hazaribag","native":null,"lat":"24.00000000","lon":"85.25000000"},{"name":"Hazaribagh","native":null,"lat":"23.99241000","lon":"85.36162000"},{"name":"Hesla","native":null,"lat":"24.06313000","lon":"85.87905000"},{"name":"Husainabad","native":null,"lat":"24.52849000","lon":"84.00000000"},{"name":"Jagannathpur","native":null,"lat":"22.22115000","lon":"85.63917000"},{"name":"Jamadoba","native":null,"lat":"23.71667000","lon":"86.40000000"},{"name":"Jamshedpur","native":null,"lat":"22.80278000","lon":"86.18545000"},{"name":"Jamtara","native":null,"lat":"24.00000000","lon":"86.85000000"},{"name":"Jasidih","native":null,"lat":"24.51379000","lon":"86.64576000"},{"name":"Jharia","native":null,"lat":"23.74079000","lon":"86.41456000"},{"name":"Jugsalai","native":null,"lat":"22.77668000","lon":"86.18351000"},{"name":"Jumri Tilaiya","native":null,"lat":"24.43490000","lon":"85.52951000"},{"name":"Kalikapur","native":null,"lat":"22.61662000","lon":"86.28810000"},{"name":"Kandra","native":null,"lat":"22.85170000","lon":"86.05192000"},{"name":"Kanke","native":null,"lat":"23.43478000","lon":"85.32059000"},{"name":"Katras","native":null,"lat":"23.79752000","lon":"86.29834000"},{"name":"Kenduadih","native":null,"lat":"23.77574000","lon":"86.37609000"},{"name":"Kharsawan","native":null,"lat":"22.79093000","lon":"85.83102000"},{"name":"Khunti","native":null,"lat":"23.07602000","lon":"85.27818000"},{"name":"Kodarma","native":null,"lat":"24.46753000","lon":"85.59397000"},{"name":"Kuju","native":null,"lat":"23.72536000","lon":"85.51023000"},{"name":"Latehar","native":null,"lat":"23.75000000","lon":"84.40000000"},{"name":"Lohardaga","native":null,"lat":"23.50000000","lon":"84.60000000"},{"name":"Madhupur","native":null,"lat":"24.27419000","lon":"86.63929000"},{"name":"Malkera","native":null,"lat":"23.78213000","lon":"86.28767000"},{"name":"Manoharpur","native":null,"lat":"22.37456000","lon":"85.19234000"},{"name":"Mugma","native":null,"lat":"23.77015000","lon":"86.72746000"},{"name":"Mushabani","native":null,"lat":"22.51135000","lon":"86.45713000"},{"name":"Neturhat","native":null,"lat":"23.47457000","lon":"84.26780000"},{"name":"Nirsa","native":null,"lat":"23.78438000","lon":"86.70692000"},{"name":"Noamundi","native":null,"lat":"22.16094000","lon":"85.50416000"},{"name":"Pakur","native":null,"lat":"24.63925000","lon":"87.84239000"},{"name":"Palamu","native":null,"lat":"23.91667000","lon":"84.08333000"},{"name":"Pashchim Singhbhum","native":null,"lat":"22.50000000","lon":"85.50000000"},{"name":"patamda","native":null,"lat":"24.30000000","lon":"85.41667000"},{"name":"Pathardih","native":null,"lat":"23.66580000","lon":"86.43166000"},{"name":"Purba Singhbhum","native":null,"lat":"22.59238000","lon":"86.48341000"},{"name":"Ramgarh","native":null,"lat":"23.63073000","lon":"85.56057000"},{"name":"Ranchi","native":null,"lat":"23.34316000","lon":"85.30940000"},{"name":"Ray","native":null,"lat":"23.68430000","lon":"85.05457000"},{"name":"Sahibganj","native":null,"lat":"24.99354000","lon":"87.67333000"},{"name":"Saraikela","native":null,"lat":"22.69963000","lon":"85.93126000"},{"name":"Sarubera","native":null,"lat":"23.81813000","lon":"85.99628000"},{"name":"Sijua","native":null,"lat":"23.77617000","lon":"86.33028000"},{"name":"Simdega","native":null,"lat":"22.61523000","lon":"84.50208000"},{"name":"Sini","native":null,"lat":"22.79325000","lon":"85.94543000"},{"name":"Topchanchi","native":null,"lat":"23.90381000","lon":"86.19792000"}]},{"name":"Karnataka","native":null,"cities":[{"name":"Afzalpur","native":null,"lat":"17.19986000","lon":"76.36018000"},{"name":"Ajjampur","native":null,"lat":"13.72794000","lon":"76.00680000"},{"name":"Aland","native":null,"lat":"17.56425000","lon":"76.56854000"},{"name":"Alnavar","native":null,"lat":"15.42727000","lon":"74.74111000"},{"name":"Alur","native":null,"lat":"12.97805000","lon":"75.99094000"},{"name":"Anekal","native":null,"lat":"12.71110000","lon":"77.69557000"},{"name":"Ankola","native":null,"lat":"14.66049000","lon":"74.30470000"},{"name":"Annigeri","native":null,"lat":"15.42513000","lon":"75.43350000"},{"name":"Arkalgud","native":null,"lat":"12.76171000","lon":"76.06035000"},{"name":"Arsikere","native":null,"lat":"13.31446000","lon":"76.25704000"},{"name":"Athni","native":null,"lat":"16.72613000","lon":"75.06421000"},{"name":"Aurad","native":null,"lat":"18.25397000","lon":"77.41761000"},{"name":"Badami","native":null,"lat":"15.91495000","lon":"75.67683000"},{"name":"Bagalkot","native":null,"lat":"16.18000000","lon":"75.69000000"},{"name":"Bagepalli","native":null,"lat":"13.78338000","lon":"77.79667000"},{"name":"Bail-Hongal","native":null,"lat":"15.81370000","lon":"74.85895000"},{"name":"Ballari","native":null,"lat":"15.15000000","lon":"76.55000000"},{"name":"Ballary","native":null,"lat":"15.14205000","lon":"76.92398000"},{"name":"Banavar","native":null,"lat":"13.41029000","lon":"76.16314000"},{"name":"Bangalore Rural","native":null,"lat":"13.22567000","lon":"77.57501000"},{"name":"Bangalore Urban","native":null,"lat":"13.00000000","lon":"77.58333000"},{"name":"Bangarapet","native":null,"lat":"12.99116000","lon":"78.17804000"},{"name":"Bannur","native":null,"lat":"12.33295000","lon":"76.86201000"},{"name":"Bantval","native":null,"lat":"12.89050000","lon":"75.03489000"},{"name":"Basavakalyan","native":null,"lat":"17.87445000","lon":"76.94972000"},{"name":"Basavana Bagevadi","native":null,"lat":"16.57278000","lon":"75.97252000"},{"name":"Belagavi","native":null,"lat":"16.33333000","lon":"74.75000000"},{"name":"Belluru","native":null,"lat":"12.98140000","lon":"76.73308000"},{"name":"Beltangadi","native":null,"lat":"13.98333000","lon":"75.30000000"},{"name":"Belur","native":null,"lat":"13.16558000","lon":"75.86519000"},{"name":"Bengaluru","native":null,"lat":"12.97194000","lon":"77.59369000"},{"name":"Bhadravati","native":null,"lat":"13.84846000","lon":"75.70502000"},{"name":"Bhalki","native":null,"lat":"18.04348000","lon":"77.20600000"},{"name":"Bhatkal","native":null,"lat":"13.98534000","lon":"74.55531000"},{"name":"Bidar","native":null,"lat":"18.08333000","lon":"77.33333000"},{"name":"Bilgi","native":null,"lat":"16.34714000","lon":"75.61804000"},{"name":"Birur","native":null,"lat":"13.59723000","lon":"75.97167000"},{"name":"Byadgi","native":null,"lat":"14.67325000","lon":"75.48680000"},{"name":"Byndoor","native":null,"lat":"13.86667000","lon":"74.63333000"},{"name":"Canacona","native":null,"lat":"14.99590000","lon":"74.05056000"},{"name":"Challakere","native":null,"lat":"14.31800000","lon":"76.65165000"},{"name":"Chamrajnagar","native":null,"lat":"11.96000000","lon":"77.09000000"},{"name":"Channagiri","native":null,"lat":"14.02399000","lon":"75.92577000"},{"name":"Channapatna","native":null,"lat":"12.65143000","lon":"77.20672000"},{"name":"Channarayapatna","native":null,"lat":"12.90642000","lon":"76.38775000"},{"name":"Chik Ballapur","native":null,"lat":"13.43512000","lon":"77.72787000"},{"name":"Chikkaballapur","native":null,"lat":"13.55000000","lon":"77.87000000"},{"name":"Chikkamagaluru","native":null,"lat":"13.49000000","lon":"75.73000000"},{"name":"Chiknayakanhalli","native":null,"lat":"13.41609000","lon":"76.62063000"},{"name":"Chikodi","native":null,"lat":"16.42898000","lon":"74.58591000"},{"name":"Chincholi","native":null,"lat":"17.46508000","lon":"77.41874000"},{"name":"Chintamani","native":null,"lat":"13.40051000","lon":"78.05172000"},{"name":"Chitapur","native":null,"lat":"17.12357000","lon":"77.08240000"},{"name":"Chitradurga","native":null,"lat":"14.20000000","lon":"76.50000000"},{"name":"Closepet","native":null,"lat":"12.72181000","lon":"77.28149000"},{"name":"Coondapoor","native":null,"lat":"13.63126000","lon":"74.69020000"},{"name":"Dakshina Kannada","native":null,"lat":"12.84000000","lon":"75.29000000"},{"name":"Dandeli","native":null,"lat":"15.26667000","lon":"74.61667000"},{"name":"Davanagere","native":null,"lat":"14.43000000","lon":"75.90000000"},{"name":"Devanhalli","native":null,"lat":"13.24655000","lon":"77.71183000"},{"name":"Dharwad","native":null,"lat":"15.37000000","lon":"75.14000000"},{"name":"Dod Ballapur","native":null,"lat":"13.29452000","lon":"77.53777000"},{"name":"French Rocks","native":null,"lat":"12.50094000","lon":"76.67416000"},{"name":"Gadag","native":null,"lat":"15.49835000","lon":"75.65187000"},{"name":"Gadag-Betageri","native":null,"lat":"15.41670000","lon":"75.61670000"},{"name":"Gajendragarh","native":null,"lat":"15.73628000","lon":"75.96976000"},{"name":"Gangawati","native":null,"lat":"15.43130000","lon":"76.52933000"},{"name":"Gangolli","native":null,"lat":"13.65024000","lon":"74.67072000"},{"name":"Gokak","native":null,"lat":"16.16901000","lon":"74.82393000"},{"name":"Gokarna","native":null,"lat":"14.55000000","lon":"74.31667000"},{"name":"Goribidnur","native":null,"lat":"13.61072000","lon":"77.51738000"},{"name":"Gorur","native":null,"lat":"12.82297000","lon":"76.06463000"},{"name":"Gubbi","native":null,"lat":"13.31216000","lon":"76.94102000"},{"name":"Gudibanda","native":null,"lat":"13.67099000","lon":"77.70414000"},{"name":"Guledagudda","native":null,"lat":"16.05025000","lon":"75.78997000"},{"name":"Gundlupt","native":null,"lat":"11.81004000","lon":"76.69027000"},{"name":"Gurmatkal","native":null,"lat":"16.86773000","lon":"77.39088000"},{"name":"Hadagalli","native":null,"lat":"15.02048000","lon":"75.93185000"},{"name":"Haliyal","native":null,"lat":"15.32864000","lon":"74.75638000"},{"name":"Hampi","native":null,"lat":"15.33520000","lon":"76.46030000"},{"name":"Hangal","native":null,"lat":"14.76465000","lon":"75.12460000"},{"name":"Harihar","native":null,"lat":"14.51288000","lon":"75.80716000"},{"name":"Harpanahalli","native":null,"lat":"14.78766000","lon":"75.98863000"},{"name":"Hassan","native":null,"lat":"12.95000000","lon":"76.08333000"},{"name":"Haveri","native":null,"lat":"14.73732000","lon":"75.41062000"},{"name":"Heggadadevankote","native":null,"lat":"12.08809000","lon":"76.32957000"},{"name":"Hirekerur","native":null,"lat":"14.45506000","lon":"75.39520000"},{"name":"Hiriyur","native":null,"lat":"13.94455000","lon":"76.61723000"},{"name":"Holalkere","native":null,"lat":"14.04295000","lon":"76.18496000"},{"name":"Hole Narsipur","native":null,"lat":"12.78635000","lon":"76.24331000"},{"name":"Homnabad","native":null,"lat":"17.77074000","lon":"77.12519000"},{"name":"Honavar","native":null,"lat":"14.28088000","lon":"74.44497000"},{"name":"Honnali","native":null,"lat":"14.23976000","lon":"75.64507000"},{"name":"Hosanagara","native":null,"lat":"13.91387000","lon":"75.06503000"},{"name":"Hosangadi","native":null,"lat":"13.69756000","lon":"74.95427000"},{"name":"Hosdurga","native":null,"lat":"13.79631000","lon":"76.28408000"},{"name":"Hoskote","native":null,"lat":"13.07070000","lon":"77.79814000"},{"name":"Hospet","native":null,"lat":"15.26954000","lon":"76.38710000"},{"name":"Hubballi","native":null,"lat":"15.34776000","lon":"75.13378000"},{"name":"Hukeri","native":null,"lat":"16.23082000","lon":"74.60244000"},{"name":"Hungund","native":null,"lat":"16.06213000","lon":"76.05860000"},{"name":"Hunsur","native":null,"lat":"12.30359000","lon":"76.29275000"},{"name":"Ilkal","native":null,"lat":"15.95923000","lon":"76.11351000"},{"name":"Indi","native":null,"lat":"17.17735000","lon":"75.95260000"},{"name":"Jagalur","native":null,"lat":"14.51957000","lon":"76.33915000"},{"name":"Jamkhandi","native":null,"lat":"16.50461000","lon":"75.29146000"},{"name":"Jevargi","native":null,"lat":"17.01394000","lon":"76.77317000"},{"name":"Kadur","native":null,"lat":"13.55285000","lon":"76.01164000"},{"name":"Kalaburgi","native":null,"lat":"17.16667000","lon":"77.08333000"},{"name":"Kalghatgi","native":null,"lat":"15.18315000","lon":"74.97099000"},{"name":"Kampli","native":null,"lat":"15.40626000","lon":"76.60013000"},{"name":"Kankanhalli","native":null,"lat":"12.54654000","lon":"77.42005000"},{"name":"Karkala","native":null,"lat":"13.21428000","lon":"74.99234000"},{"name":"Karwar","native":null,"lat":"14.81361000","lon":"74.12972000"},{"name":"Kavalur","native":null,"lat":"15.28829000","lon":"75.94330000"},{"name":"Kerur","native":null,"lat":"16.01384000","lon":"75.54631000"},{"name":"Khanapur","native":null,"lat":"15.63969000","lon":"74.50847000"},{"name":"Kodagu","native":null,"lat":"12.41667000","lon":"75.75000000"},{"name":"Kodigenahalli","native":null,"lat":"13.72136000","lon":"77.38629000"},{"name":"Kodlipet","native":null,"lat":"12.80087000","lon":"75.88662000"},{"name":"Kolar","native":null,"lat":"13.13000000","lon":"78.23000000"},{"name":"Kollegal","native":null,"lat":"12.15449000","lon":"77.11051000"},{"name":"Konanur","native":null,"lat":"12.63016000","lon":"76.05037000"},{"name":"Konnur","native":null,"lat":"16.20138000","lon":"74.74886000"},{"name":"Koppa","native":null,"lat":"13.53044000","lon":"75.36329000"},{"name":"Koppal","native":null,"lat":"15.50000000","lon":"76.20000000"},{"name":"Koratagere","native":null,"lat":"13.52200000","lon":"77.23730000"},{"name":"Kotturu","native":null,"lat":"14.82442000","lon":"76.22005000"},{"name":"Krishnarajpet","native":null,"lat":"12.66621000","lon":"76.48770000"},{"name":"Kudachi","native":null,"lat":"16.62784000","lon":"74.85408000"},{"name":"Kudligi","native":null,"lat":"14.90500000","lon":"76.38527000"},{"name":"Kumsi","native":null,"lat":"14.05455000","lon":"75.39992000"},{"name":"Kumta","native":null,"lat":"14.42853000","lon":"74.41890000"},{"name":"Kundgol","native":null,"lat":"15.25612000","lon":"75.24735000"},{"name":"Kunigal","native":null,"lat":"13.02319000","lon":"77.02518000"},{"name":"Kurgunta","native":null,"lat":"17.19321000","lon":"77.35772000"},{"name":"Kushalnagar","native":null,"lat":"12.45795000","lon":"75.95904000"},{"name":"Kushtagi","native":null,"lat":"15.75623000","lon":"76.19112000"},{"name":"Lakshmeshwar","native":null,"lat":"15.12689000","lon":"75.46935000"},{"name":"Lingsugur","native":null,"lat":"16.15876000","lon":"76.52174000"},{"name":"Londa","native":null,"lat":"15.46907000","lon":"74.51906000"},{"name":"Maddagiri","native":null,"lat":"13.66035000","lon":"77.21239000"},{"name":"Maddur","native":null,"lat":"12.58283000","lon":"77.04294000"},{"name":"Madikeri","native":null,"lat":"12.42602000","lon":"75.73820000"},{"name":"Magadi","native":null,"lat":"12.95706000","lon":"77.22374000"},{"name":"Mahalingpur","native":null,"lat":"16.38880000","lon":"75.10873000"},{"name":"Malavalli","native":null,"lat":"12.38556000","lon":"77.06045000"},{"name":"Malpe","native":null,"lat":"13.34962000","lon":"74.70394000"},{"name":"Malur","native":null,"lat":"13.00322000","lon":"77.93798000"},{"name":"Mandya","native":null,"lat":"12.52230000","lon":"76.89746000"},{"name":"Mangaluru","native":null,"lat":"12.91723000","lon":"74.85603000"},{"name":"Manipal","native":null,"lat":"13.35000000","lon":"74.78333000"},{"name":"Manvi","native":null,"lat":"15.99126000","lon":"77.05034000"},{"name":"Mayakonda","native":null,"lat":"14.28894000","lon":"76.08305000"},{"name":"Melukote","native":null,"lat":"12.66258000","lon":"76.64861000"},{"name":"Mudbidri","native":null,"lat":"13.06653000","lon":"74.99525000"},{"name":"Muddebihal","native":null,"lat":"16.33782000","lon":"76.13173000"},{"name":"Mudgal","native":null,"lat":"16.01191000","lon":"76.44203000"},{"name":"Mudgere","native":null,"lat":"13.13353000","lon":"75.64160000"},{"name":"Mudhol","native":null,"lat":"16.33354000","lon":"75.28305000"},{"name":"Mulbagal","native":null,"lat":"13.16352000","lon":"78.39346000"},{"name":"Mulgund","native":null,"lat":"15.28070000","lon":"75.52132000"},{"name":"Mulki","native":null,"lat":"13.09101000","lon":"74.79353000"},{"name":"Mundargi","native":null,"lat":"15.20677000","lon":"75.88390000"},{"name":"Mundgod","native":null,"lat":"14.97144000","lon":"75.03658000"},{"name":"Munirabad","native":null,"lat":"15.30928000","lon":"76.33830000"},{"name":"Murudeshwara","native":null,"lat":"14.09430000","lon":"74.48450000"},{"name":"Mysuru","native":null,"lat":"12.23000000","lon":"76.42000000"},{"name":"Nagamangala","native":null,"lat":"12.81939000","lon":"76.75456000"},{"name":"Nanjangud","native":null,"lat":"12.11764000","lon":"76.68397000"},{"name":"Narasimharajapura","native":null,"lat":"13.61075000","lon":"75.51200000"},{"name":"Naregal","native":null,"lat":"15.57316000","lon":"75.80805000"},{"name":"Nargund","native":null,"lat":"15.72299000","lon":"75.38666000"},{"name":"Navalgund","native":null,"lat":"15.55877000","lon":"75.35305000"},{"name":"Nelamangala","native":null,"lat":"13.09978000","lon":"77.39364000"},{"name":"Nyamti","native":null,"lat":"14.14869000","lon":"75.57641000"},{"name":"Pangala","native":null,"lat":"13.25000000","lon":"74.75000000"},{"name":"Pavugada","native":null,"lat":"14.09953000","lon":"77.28018000"},{"name":"Piriyapatna","native":null,"lat":"12.33497000","lon":"76.10073000"},{"name":"Ponnampet","native":null,"lat":"12.14473000","lon":"75.94514000"},{"name":"Puttur","native":null,"lat":"12.75975000","lon":"75.20169000"},{"name":"Rabkavi","native":null,"lat":"16.47567000","lon":"75.11060000"},{"name":"Raichur","native":null,"lat":"16.16000000","lon":"76.91000000"},{"name":"Ramanagara","native":null,"lat":"12.65000000","lon":"77.35000000"},