[{"state":"Al Anbar","name":"‘Anah","lat":"34.36857000","lon":"41.98194000"},
{"state":"Al Anbar","name":"‘Anat al Qadīmah","lat":"34.46934000","lon":"41.94223000"},
{"state":"Al Anbar","name":"Al Fallūjah","lat":"33.34913000","lon":"43.78599000"},
{"state":"Al Anbar","name":"Ar Ruţbah","lat":"33.03718000","lon":"40.28586000"},
{"state":"Al Anbar","name":"Ḩadīthah","lat":"34.13661000","lon":"42.37727000"},
{"state":"Al Anbar","name":"Hīt","lat":"33.63664000","lon":"42.82768000"},
{"state":"Al Anbar","name":"Hīt District","lat":"33.73482000","lon":"42.68228000"},
{"state":"Al Anbar","name":"Ramadi","lat":"33.42056000","lon":"43.30778000"},
{"state":"Al Anbar","name":"Rāwah","lat":"34.48229000","lon":"41.91898000"},
{"state":"Al Muthanna","name":"Ar Rumaythah","lat":"31.52845000","lon":"45.20377000"},
{"state":"Al Muthanna","name":"As Samawah","lat":"31.33198000","lon":"45.29440000"},
{"state":"Al-Qādisiyyah","name":"‘Afak","lat":"32.06430000","lon":"45.24743000"},
{"state":"Al-Qādisiyyah","name":"Ad Dīwānīyah","lat":"31.99289000","lon":"44.92552000"},
{"state":"Al-Qādisiyyah","name":"Ash Shāmīyah","lat":"31.96257000","lon":"44.60075000"},
{"state":"Al-Qādisiyyah","name":"Nāḩiyat ash Shināfīyah","lat":"31.58376000","lon":"44.64675000"},
{"state":"Al-Qādisiyyah","name":"Nahiyat Ghammas","lat":"31.74311000","lon":"44.61960000"},
{"state":"Babylon","name":"Al Ḩillah","lat":"32.46367000","lon":"44.41963000"},
{"state":"Babylon","name":"Al Musayyib","lat":"32.77872000","lon":"44.29005000"},
{"state":"Babylon","name":"Imam Qasim","lat":"32.29799000","lon":"44.68282000"},
{"state":"Babylon","name":"Nāḩīyat Saddat al Hindīyah","lat":"32.71557000","lon":"44.27857000"},
{"state":"Baghdad","name":"Abu Ghraib District","lat":"33.29194000","lon":"44.06919000"},
{"state":"Baghdad","name":"Abū Ghurayb","lat":"33.30563000","lon":"44.18477000"},
{"state":"Baghdad","name":"Adamiyah","lat":"33.36917800","lon":"44.33955940"},
{"state":"Baghdad","name":"Al Adel","lat":"33.35912830","lon":"44.28138680"},
{"state":"Baghdad","name":"Al Baladiyat","lat":"33.34931610","lon":"44.41071530"},
{"state":"Baghdad","name":"Al Jamaa","lat":"33.34114470","lon":"44.34062690"},
{"state":"Baghdad","name":"Al Saadoon Park","lat":"33.32480360","lon":"44.41470980"},
{"state":"Baghdad","name":"Al Salhiah","lat":"33.32254010","lon":"44.38425050"},
{"state":"Baghdad","name":"Al Za'franiya","lat":"33.31857750","lon":"44.48686390"},
{"state":"Baghdad","name":"Al-Ubaidi","lat":"33.32036030","lon":"44.45955910"},
{"state":"Baghdad","name":"Al-Wahda","lat":"33.31115820","lon":"44.43352280"},
{"state":"Baghdad","name":"Ameria","lat":"33.29671020","lon":"44.27076790"},
{"state":"Baghdad","name":"Amil District","lat":"33.27606090","lon":"44.31037170"},
{"state":"Baghdad","name":"Amin","lat":"33.31248740","lon":"44.48634150"},
{"state":"Baghdad","name":"Arasat AlHindiya","lat":"33.29335790","lon":"44.42302450"},
{"state":"Baghdad","name":"At Taifiya","lat":"33.35643940","lon":"44.35791100"},
{"state":"Baghdad","name":"Bab Al Moatham","lat":"33.36014170","lon":"44.36507700"},
{"state":"Baghdad","name":"Bab Al Sharqi","lat":"33.33249060","lon":"44.41407910"},
{"state":"Baghdad","name":"Baghdad","lat":"33.34058000","lon":"44.40088000"},
{"state":"Baghdad","name":"Baghdad Al Jadeeda","lat":"33.31335440","lon":"44.47157920"},
{"state":"Baghdad","name":"Baijai","lat":"33.33254000","lon":"44.34509550"},
{"state":"Baghdad","name":"Bataween","lat":"33.32112350","lon":"44.40855680"},
{"state":"Baghdad","name":"Bayaa","lat":"33.28255440","lon":"44.37528030"},
{"state":"Baghdad","name":"Binouk","lat":"33.39278120","lon":"44.41114480"},
{"state":"Baghdad","name":"Bo'aitha","lat":"33.24194630","lon":"44.42695090"},
{"state":"Baghdad","name":"Camp Sarah","lat":"33.30112930","lon":"44.44469600"},
{"state":"Baghdad","name":"Daoudi","lat":"33.31214030","lon":"44.32584820"},
{"state":"Baghdad","name":"Dora","lat":"33.23126860","lon":"44.36198120"},
{"state":"Baghdad","name":"Ghadeer","lat":"33.33749740","lon":"44.46281840"},
{"state":"Baghdad","name":"Ghazaliya","lat":"33.34143530","lon":"44.22354420"},
{"state":"Baghdad","name":"Gherai'at","lat":"33.39208370","lon":"44.30443140"},
{"state":"Baghdad","name":"Green Zone","lat":"33.31376100","lon":"44.35900560"},
{"state":"Baghdad","name":"Habibiya","lat":"33.33920270","lon":"44.46846120"},
{"state":"Baghdad","name":"Harthiya","lat":"33.22626120","lon":"44.39826750"},
{"state":"Baghdad","name":"Hurriya","lat":"33.34241870","lon":"44.30656300"},
{"state":"Baghdad","name":"Iskan","lat":"33.33405930","lon":"44.32303100"},
{"state":"Baghdad","name":"Jadriyah","lat":"33.26076360","lon":"44.41117200"},
{"state":"Baghdad","name":"Jamila","lat":"33.35108840","lon":"44.41495600"},
{"state":"Baghdad","name":"Jihad","lat":"33.25289200","lon":"44.29231180"},
{"state":"Baghdad","name":"Kadhimiya","lat":"33.38129610","lon":"44.35139180"},
{"state":"Baghdad","name":"Kamaliyah","lat":"33.35008480","lon":"44.50894110"},
{"state":"Baghdad","name":"Karada","lat":"33.29336610","lon":"44.39641530"},
{"state":"Baghdad","name":"Khadra","lat":"33.31972470","lon":"44.28764700"},
{"state":"Baghdad","name":"Mansour","lat":"33.31422960","lon":"44.33631230"},
{"state":"Baghdad","name":"Mashtal","lat":"33.32443210","lon":"44.49314830"},
{"state":"Baghdad","name":"Mustansiriya","lat":"33.36298920","lon":"44.38695430"},
{"state":"Baghdad","name":"Qadisiyah","lat":"33.32719630","lon":"44.31623840"},
{"state":"Baghdad","name":"Sadr City","lat":"33.37692330","lon":"44.40446380"},
{"state":"Baghdad","name":"Saidiya","lat":"33.26500930","lon":"44.33159340"},
{"state":"Baghdad","name":"Sha'ab","lat":"33.41309100","lon":"44.38611030"},
{"state":"Baghdad","name":"Sheik Maaruf","lat":"33.33896010","lon":"44.34789580"},
{"state":"Baghdad","name":"Shorjah","lat":"33.34613940","lon":"44.39504420"},
{"state":"Baghdad","name":"Suleikh","lat":"33.39343320","lon":"44.36144500"},
{"state":"Baghdad","name":"Ur District","lat":"33.41694000","lon":"44.39060790"},
{"state":"Baghdad","name":"Wazireya","lat":"33.36366170","lon":"44.38196550"},
{"state":"Baghdad","name":"Yarmouk","lat":"33.33938360","lon":"44.32212520"},
{"state":"Baghdad","name":"Ziyouna","lat":"33.32484340","lon":"44.45454600"},
{"state":"Basra","name":"Al Başrah al Qadīmah","lat":"30.50316000","lon":"47.81507000"},
{"state":"Basra","name":"Al Fāw","lat":"29.97421000","lon":"48.47309000"},
{"state":"Basra","name":"Al Hārithah","lat":"30.58481000","lon":"47.76114000"},
{"state":"Basra","name":"Az Zubayr","lat":"30.39213000","lon":"47.70175000"},
{"state":"Basra","name":"Basrah","lat":"30.50852000","lon":"47.78040000"},
{"state":"Basra","name":"Umm Qaşr","lat":"30.03620000","lon":"47.91951000"},
{"state":"Dhi Qar","name":"Ash Shaţrah","lat":"31.40906000","lon":"46.17270000"},
{"state":"Dhi Qar","name":"Nāḩiyat al Fuhūd","lat":"30.96972000","lon":"46.72278000"},
{"state":"Dhi Qar","name":"Nasiriyah","lat":"31.05799000","lon":"46.25726000"},
{"state":"Diyala","name":"Al Miqdādīyah","lat":"33.97861000","lon":"44.93694000"},
{"state":"Diyala","name":"Baladrūz","lat":"33.69631000","lon":"45.07782000"},
{"state":"Diyala","name":"Baqubah","lat":"33.75403000","lon":"44.60518000"},
{"state":"Diyala","name":"Khāliş","lat":"33.80809000","lon":"44.53343000"},
{"state":"Diyala","name":"Kifrī","lat":"34.68963000","lon":"44.96057000"},
{"state":"Diyala","name":"Mandalī","lat":"33.74810000","lon":"45.55503000"},
{"state":"Diyala","name":"Qaḑā’ Kifrī","lat":"34.52289000","lon":"44.85821000"},
{"state":"Dohuk","name":"Al ‘Amādīyah","lat":"37.09214000","lon":"43.48769000"},
{"state":"Dohuk","name":"Batifa","lat":"37.17454000","lon":"43.01233000"},
{"state":"Dohuk","name":"Dihok","lat":"36.86709000","lon":"42.98845000"},
{"state":"Dohuk","name":"Sīnah","lat":"36.80851000","lon":"43.03935000"},
{"state":"Dohuk","name":"Zaxo","lat":"37.14871000","lon":"42.68591000"},
{"state":"Erbil","name":"Arbil","lat":"36.19070000","lon":"44.00947000"},
{"state":"Erbil","name":"Erbil","lat":"36.18333000","lon":"44.01193000"},
{"state":"Erbil","name":"Koysinceq","lat":"36.08289000","lon":"44.62873000"},
{"state":"Erbil","name":"Ruwāndiz","lat":"36.61207000","lon":"44.52372000"},
{"state":"Erbil","name":"Shaqlāwah","lat":"36.40422000","lon":"44.32563000"},
{"state":"Erbil","name":"Soran","lat":"36.65320000","lon":"44.54407000"},
{"state":"Karbala","name":"Al Hindīyah","lat":"32.54671000","lon":"44.22765000"},
{"state":"Karbala","name":"Karbala","lat":"32.61603000","lon":"44.02488000"},
{"state":"Kirkuk","name":"Kirkuk","lat":"35.46806000","lon":"44.39222000"},
{"state":"Maysan","name":"‘Alī al Gharbī","lat":"32.46186000","lon":"46.68794000"},
{"state":"Maysan","name":"Al ‘Amārah","lat":"31.83561000","lon":"47.14483000"},
{"state":"Maysan","name":"Al-Mejar Al-Kabi District","lat":"31.42940000","lon":"47.20355000"},
{"state":"Najaf","name":"Al Mishkhāb","lat":"31.80437000","lon":"44.48930000"},
{"state":"Najaf","name":"Kufa","lat":"32.05114000","lon":"44.44017000"},
{"state":"Najaf","name":"Najaf","lat":"32.02594000","lon":"44.34625000"},
{"state":"Nineveh","name":"‘Aqrah","lat":"36.76038000","lon":"43.89428000"},
{"state":"Nineveh","name":"Al Mawşil al Jadīdah","lat":"36.33271000","lon":"43.10555000"},
{"state":"Nineveh","name":"Al-Hamdaniya","lat":"36.27093000","lon":"43.37758000"},
{"state":"Nineveh","name":"Ash Shaykhān","lat":"36.69595000","lon":"43.35202000"},
{"state":"Nineveh","name":"Mosul","lat":"36.33500000","lon":"43.11889000"},
{"state":"Nineveh","name":"Sinjar","lat":"36.29548000","lon":"41.89315000"},
{"state":"Nineveh","name":"Tall ‘Afar","lat":"36.37913000","lon":"42.44806000"},
{"state":"Nineveh","name":"Tallkayf","lat":"36.49118000","lon":"43.12114000"},
{"state":"Saladin","name":"Ad Dujayl","lat":"33.84667000","lon":"44.23444000"},
{"state":"Saladin","name":"Balad","lat":"34.01485000","lon":"44.14574000"},
{"state":"Saladin","name":"Bayjī","lat":"34.92915000","lon":"43.48878000"},
{"state":"Saladin","name":"Sāmarrā’","lat":"34.19590000","lon":"43.88568000"},
{"state":"Saladin","name":"Tikrīt","lat":"34.61581000","lon":"43.67861000"},
{"state":"Saladin","name":"Tozkhurmato","lat":"34.88808000","lon":"44.63256000"},
{"state":"Sulaymaniyah","name":"As Sulaymānīyah","lat":"35.56496000","lon":"45.43290000"},
{"state":"Sulaymaniyah","name":"Baynjiwayn","lat":"35.62054000","lon":"45.94908000"},
{"state":"Sulaymaniyah","name":"Ḩalabjah","lat":"35.17778000","lon":"45.98611000"},
{"state":"Sulaymaniyah","name":"Jamjamāl","lat":"35.53356000","lon":"44.83430000"},
{"state":"Wasit","name":"Al ‘Azīzīyah","lat":"32.90941000","lon":"45.06359000"},
{"state":"Wasit","name":"Al Ḩayy","lat":"32.17419000","lon":"46.04345000"},
{"state":"Wasit","name":"Al Kūt","lat":"32.51280000","lon":"45.81817000"},
{"state":"Wasit","name":"Aş Şuwayrah","lat":"32.92556000","lon":"44.77583000"}]