[{"state":"Alborz","name":"Asara","lat":"36.03913120","lon":"51.19087090"},
{"state":"Alborz","name":"Charbagh","lat":"35.84060280","lon":"50.83944800"},
{"state":"Alborz","name":"Eshtehard","lat":"35.72813000","lon":"50.41422000"},
{"state":"Alborz","name":"Fardis","lat":"35.72318000","lon":"50.97865000"},
{"state":"Alborz","name":"Garmdareh","lat":"35.75371760","lon":"51.04707220"},
{"state":"Alborz","name":"Golsar","lat":"35.90777800","lon":"50.78250000"},
{"state":"Alborz","name":"Hashtgerd","lat":"35.96194400","lon":"50.68000000"},
{"state":"Alborz","name":"Hashtgerd New City","lat":"35.98327270","lon":"50.68520960"},
{"state":"Alborz","name":"Kamalshahr","lat":"35.88239360","lon":"50.84343850"},
{"state":"Alborz","name":"Karaj","lat":"35.83266000","lon":"50.99155000"},
{"state":"Alborz","name":"Koohsar","lat":"35.96242640","lon":"50.77578280"},
{"state":"Alborz","name":"Mahdasht","lat":"35.72040800","lon":"50.76636250"},
{"state":"Alborz","name":"Mohammad Shahr","lat":"35.74468970","lon":"50.87227770"},
{"state":"Alborz","name":"Nazarabad","lat":"35.95411000","lon":"50.60607000"},
{"state":"Alborz","name":"Savojbolagh","lat":"36.00000000","lon":"50.83333000"},
{"state":"Alborz","name":"Taleqan","lat":"36.20528000","lon":"50.77610000"},
{"state":"Alborz","name":"Tankaman","lat":"35.89154410","lon":"50.60591340"},
{"state":"Ardabil","name":"Abibeiglou","lat":"38.28362000","lon":"48.54482890"},
{"state":"Ardabil","name":"Anbaran","lat":"38.48843440","lon":"48.41767760"},
{"state":"Ardabil","name":"Ardabil","lat":"38.24980000","lon":"48.29330000"},
{"state":"Ardabil","name":"Aslan Duz","lat":"39.44298680","lon":"47.40042690"},
{"state":"Ardabil","name":"Bileh Savar","lat":"39.37961000","lon":"48.35463000"},
{"state":"Ardabil","name":"Eslāmābād","lat":"38.13110480","lon":"47.93918600"},
{"state":"Ardabil","name":"Fakhrabad","lat":"38.52260140","lon":"47.85339830"},
{"state":"Ardabil","name":"Germi","lat":"39.00000000","lon":"47.95000000"},
{"state":"Ardabil","name":"Hashjin","lat":"37.36980870","lon":"48.31333280"},
{"state":"Ardabil","name":"Hir","lat":"38.07953040","lon":"48.48940360"},
{"state":"Ardabil","name":"Jafarabad","lat":"39.42213160","lon":"48.07888930"},
{"state":"Ardabil","name":"Khalkhal","lat":"37.40604000","lon":"48.54466000"},
{"state":"Ardabil","name":"Kivi","lat":"37.69312310","lon":"48.32075700"},
{"state":"Ardabil","name":"Kolor","lat":"37.38848590","lon":"48.71668330"},
{"state":"Ardabil","name":"Kowsar","lat":"37.72142000","lon":"48.26985000"},
{"state":"Ardabil","name":"Kuraim","lat":"37.95500000","lon":"48.23555600"},
{"state":"Ardabil","name":"Lahroud","lat":"38.50801930","lon":"47.82212370"},
{"state":"Ardabil","name":"Meshgin Shahr","lat":"38.43333000","lon":"47.75000000"},
{"state":"Ardabil","name":"Moradlu","lat":"38.74800000","lon":"47.74016620"},
{"state":"Ardabil","name":"Namin","lat":"38.38333000","lon":"48.51667000"},
{"state":"Ardabil","name":"Nir","lat":"38.00000000","lon":"48.08333000"},
{"state":"Ardabil","name":"Omidcheh","lat":"38.28667000","lon":"48.14139000"},
{"state":"Ardabil","name":"Parsabad","lat":"39.64820000","lon":"47.91740000"},
{"state":"Ardabil","name":"Qasabeh","lat":"38.38781300","lon":"47.53829230"},
{"state":"Ardabil","name":"Razi","lat":"38.62486600","lon":"48.08286670"},
{"state":"Ardabil","name":"Sarein","lat":"38.14643470","lon":"48.05716020"},
{"state":"Ardabil","name":"Sareyn","lat":"38.18333000","lon":"47.98333000"},
{"state":"Ardabil","name":"Tazakand","lat":"39.10450420","lon":"44.89902010"},
{"state":"Bushehr","name":"Ab Pakhsh","lat":"29.36788550","lon":"51.05140670"},
{"state":"Bushehr","name":"Abad","lat":"29.02994140","lon":"51.23435480"},
{"state":"Bushehr","name":"Ahram","lat":"28.88260000","lon":"51.27460000"},
{"state":"Bushehr","name":"Alishahr","lat":"28.93079290","lon":"51.05608460"},
{"state":"Bushehr","name":"Anarestan","lat":"28.03242110","lon":"52.05895180"},
{"state":"Bushehr","name":"Asaluyeh","lat":"27.45000000","lon":"52.73333000"},
{"state":"Bushehr","name":"Baduleh","lat":"28.39721360","lon":"51.49332760"},
{"state":"Bushehr","name":"Banak","lat":"27.86259810","lon":"52.00103740"},
{"state":"Bushehr","name":"Bandar Bushehr","lat":"28.91090220","lon":"50.83002130"},
{"state":"Bushehr","name":"Bandar Deylam","lat":"30.06097110","lon":"50.14617180"},
{"state":"Bushehr","name":"Bandar Ganaveh","lat":"29.57910000","lon":"50.51700000"},
{"state":"Bushehr","name":"Bandar Rig","lat":"29.48417390","lon":"50.61869140"},
{"state":"Bushehr","name":"Bandar-e Kangan","lat":"27.83288720","lon":"52.03707510"},
{"state":"Bushehr","name":"BandarSiraf","lat":"27.66442800","lon":"52.32552030"},
{"state":"Bushehr","name":"Bardestan","lat":"27.87006400","lon":"51.94125630"},
{"state":"Bushehr","name":"Borazjan","lat":"29.26990000","lon":"51.21880000"},
{"state":"Bushehr","name":"Bord Khun","lat":"28.06421750","lon":"51.47342790"},
{"state":"Bushehr","name":"Boshkan","lat":"28.83166590","lon":"51.69114580"},
{"state":"Bushehr","name":"Bushehr","lat":"28.96887000","lon":"50.83657000"},
{"state":"Bushehr","name":"Choghadak","lat":"28.98004950","lon":"51.00757680"},
{"state":"Bushehr","name":"Dalaki","lat":"29.43023450","lon":"51.28279560"},
{"state":"Bushehr","name":"Dashtestan","lat":"29.28333000","lon":"51.25000000"},
{"state":"Bushehr","name":"Dashti","lat":"28.48685000","lon":"51.56182000"},
{"state":"Bushehr","name":"Dayyer","lat":"27.84286870","lon":"51.91832720"},
{"state":"Bushehr","name":"Delvar","lat":"28.75279600","lon":"51.05192160"},
{"state":"Bushehr","name":"Deylam","lat":"30.02286000","lon":"50.35595000"},
{"state":"Bushehr","name":"Dorahak","lat":"27.94859620","lon":"51.95292940"},
{"state":"Bushehr","name":"Genaveh","lat":"29.64574000","lon":"50.64699000"},
{"state":"Bushehr","name":"Imam Hassan","lat":"29.84250000","lon":"50.26305600"},
{"state":"Bushehr","name":"Jam","lat":"27.81572560","lon":"52.30998450"},
{"state":"Bushehr","name":"Kaki","lat":"28.34162750","lon":"51.50626640"},
{"state":"Bushehr","name":"Kalameh","lat":"28.94047610","lon":"51.45177470"},
{"state":"Bushehr","name":"Kangan","lat":"27.71330000","lon":"52.26862000"},
{"state":"Bushehr","name":"Kharg","lat":"29.24059200","lon":"50.27422810"},
{"state":"Bushehr","name":"Khark","lat":"29.26139000","lon":"50.33056000"},
{"state":"Bushehr","name":"Khormoj","lat":"28.64840690","lon":"51.35095520"},
{"state":"Bushehr","name":"Konar Torshan","lat":"28.07801520","lon":"51.74254250"},
{"state":"Bushehr","name":"Nakhl Taghi","lat":"27.50035250","lon":"52.57634380"},
{"state":"Bushehr","name":"Riz","lat":"28.05156760","lon":"52.06435920"},
{"state":"Bushehr","name":"Sadabad","lat":"29.38580150","lon":"51.11174580"},
{"state":"Bushehr","name":"Shaban Kareh","lat":"29.47081580","lon":"50.97548950"},
{"state":"Bushehr","name":"Shonbeh","lat":"28.39593970","lon":"51.75433880"},
{"state":"Bushehr","name":"Tang Eram","lat":"29.15332260","lon":"51.51832580"},
{"state":"Bushehr","name":"Tangestan","lat":"28.88333000","lon":"51.26667000"},
{"state":"Bushehr","name":"Vahdatiyeh","lat":"29.48645140","lon":"51.21830440"},
{"state":"Chaharmahal and Bakhtiari","name":"Aluni","lat":"31.55421910","lon":"51.04972240"},
{"state":"Chaharmahal and Bakhtiari","name":"Ardal","lat":"32.00501060","lon":"50.61478550"},
{"state":"Chaharmahal and Bakhtiari","name":"Babaheydar","lat":"32.33058500","lon":"50.45960420"},
{"state":"Chaharmahal and Bakhtiari","name":"Bazoft","lat":"32.20000000","lon":"50.05000000"},
{"state":"Chaharmahal and Bakhtiari","name":"Ben","lat":"32.53556000","lon":"50.75201000"},
{"state":"Chaharmahal and Bakhtiari","name":"Boldaji","lat":"31.93677560","lon":"51.04458330"},
{"state":"Chaharmahal and Bakhtiari","name":"Boroujen","lat":"31.97268680","lon":"51.27156200"},
{"state":"Chaharmahal and Bakhtiari","name":"Borujen","lat":"31.96523000","lon":"51.28730000"},
{"state":"Chaharmahal and Bakhtiari","name":"Chelgard","lat":"32.46720000","lon":"50.12229000"},
{"state":"Chaharmahal and Bakhtiari","name":"Chelgerd","lat":"32.46261960","lon":"50.12346200"},
{"state":"Chaharmahal and Bakhtiari","name":"Choliche","lat":"32.23196940","lon":"50.62066420"},
{"state":"Chaharmahal and Bakhtiari","name":"Dashtak","lat":"32.16260720","lon":"50.44992680"},
{"state":"Chaharmahal and Bakhtiari","name":"Dastena","lat":"32.05881780","lon":"50.76100940"},
{"state":"Chaharmahal and Bakhtiari","name":"Faradonbeh","lat":"32.00967370","lon":"51.19972210"},
{"state":"Chaharmahal and Bakhtiari","name":"Farrokh Shahr","lat":"32.27174000","lon":"50.98008000"},
{"state":"Chaharmahal and Bakhtiari","name":"Farrokhshahr","lat":"32.27076050","lon":"50.93707970"},
{"state":"Chaharmahal and Bakhtiari","name":"Farsan","lat":"32.25694000","lon":"50.56095000"},
{"state":"Chaharmahal and Bakhtiari","name":"Gahru","lat":"32.00802020","lon":"50.87719190"},
{"state":"Chaharmahal and Bakhtiari","name":"Gandoman","lat":"31.86348680","lon":"51.13710870"},
{"state":"Chaharmahal and Bakhtiari","name":"Gujan","lat":"32.24561880","lon":"50.54045680"},
{"state":"Chaharmahal and Bakhtiari","name":"Haarooni","lat":"32.39291700","lon":"50.56652790"},
{"state":"Chaharmahal and Bakhtiari","name":"Hafshejan","lat":"32.22555600","lon":"50.79388900"},
{"state":"Chaharmahal and Bakhtiari","name":"Junqan","lat":"32.15297870","lon":"50.67785030"},
{"state":"Chaharmahal and Bakhtiari","name":"Kaj","lat":"32.05868180","lon":"50.57817940"},
{"state":"Chaharmahal and Bakhtiari","name":"Kal Geh-ye Sardasht","lat":"31.39583300","lon":"50.83583300"},
{"state":"Chaharmahal and Bakhtiari","name":"Kiar","lat":"32.00000000","lon":"50.76667000"},
{"state":"Chaharmahal and Bakhtiari","name":"Kuhrang","lat":"32.41667000","lon":"50.00000000"},
{"state":"Chaharmahal and Bakhtiari","name":"Lordegan","lat":"31.43333000","lon":"50.83333000"},
{"state":"Chaharmahal and Bakhtiari","name":"Mal-e Khalifeh","lat":"31.29168000","lon":"51.25682120"},
{"state":"Chaharmahal and Bakhtiari","name":"Menj","lat":"31.48467380","lon":"50.87308270"},
{"state":"Chaharmahal and Bakhtiari","name":"Nafch","lat":"32.42311540","lon":"50.77988140"},
{"state":"Chaharmahal and Bakhtiari","name":"Naghan","lat":"31.93457630","lon":"50.72042630"},
{"state":"Chaharmahal and Bakhtiari","name":"Naghneh","lat":"31.93395290","lon":"51.32190230"},
{"state":"Chaharmahal and Bakhtiari","name":"Pordanjan","lat":"32.25403890","lon":"50.59079640"},
{"state":"Chaharmahal and Bakhtiari","name":"Saman","lat":"32.44980000","lon":"50.91379000"},
{"state":"Chaharmahal and Bakhtiari","name":"Samsami","lat":"32.16811120","lon":"50.27090540"},
{"state":"Chaharmahal and Bakhtiari","name":"SarKhun","lat":"31.74577700","lon":"50.54092890"},
{"state":"Chaharmahal and Bakhtiari","name":"Sefiddasht","lat":"32.13223020","lon":"51.17423050"},
{"state":"Chaharmahal and Bakhtiari","name":"Shahrekord","lat":"32.31667000","lon":"50.80000000"},
{"state":"Chaharmahal and Bakhtiari","name":"ShahrKian","lat":"32.28446520","lon":"50.88317860"},
{"state":"Chaharmahal and Bakhtiari","name":"Shalamzar ","lat":"32.04720560","lon":"50.80899950"},
{"state":"Chaharmahal and Bakhtiari","name":"Sudejan","lat":"32.52143210","lon":"50.39623970"},
{"state":"Chaharmahal and Bakhtiari","name":"Sureshjan","lat":"32.31709400","lon":"50.67117690"},
{"state":"Chaharmahal and Bakhtiari","name":"Taqanak","lat":"32.22333300","lon":"50.83861100"},
{"state":"Chaharmahal and Bakhtiari","name":"Vardanjan ","lat":"32.47903740","lon":"50.75005520"},
{"state":"East Azerbaijan","name":"Abeshahmad","lat":"39.04976740","lon":"47.30755790"},
{"state":"East Azerbaijan","name":"Achachi","lat":"37.39543380","lon":"47.79039870"},
{"state":"East Azerbaijan","name":"Ahar","lat":"38.47740000","lon":"47.06990000"},
{"state":"East Azerbaijan","name":"Ajabshir","lat":"37.47760000","lon":"45.89430000"},
{"state":"East Azerbaijan","name":"Aqkend","lat":"37.25776990","lon":"48.06143040"},
{"state":"East Azerbaijan","name":"Azarshahr","lat":"37.75001000","lon":"45.83334000"},
{"state":"East Azerbaijan","name":"Bakhshāyesh","lat":"38.13113810","lon":"46.93808910"},
{"state":"East Azerbaijan","name":"Basmenj","lat":"38.00133160","lon":"46.44624690"},
{"state":"East Azerbaijan","name":"Benab e Marand","lat":"38.42810110","lon":"45.90225220"},
{"state":"East Azerbaijan","name":"Bonab","lat":"37.34040000","lon":"46.05610000"},
{"state":"East Azerbaijan","name":"Bostan Abad","lat":"37.83949300","lon":"46.80963270"},
{"state":"East Azerbaijan","name":"Bostanabad","lat":"37.83333000","lon":"46.83333000"},
{"state":"East Azerbaijan","name":"Charavimaq","lat":"37.10012000","lon":"47.06680000"},
{"state":"East Azerbaijan","name":"Duzduzan","lat":"37.94875740","lon":"47.11409570"},
{"state":"East Azerbaijan","name":"Gogan","lat":"37.78153460","lon":"45.89832550"},
{"state":"East Azerbaijan","name":"Hadishahr","lat":"38.82833100","lon":"45.62179980"},
{"state":"East Azerbaijan","name":"Hashtrood","lat":"37.47750290","lon":"47.03698730"},
{"state":"East Azerbaijan","name":"Hashtrud","lat":"37.47790000","lon":"47.05080000"},
{"state":"East Azerbaijan","name":"Heris","lat":"38.23058000","lon":"46.84011000"},
{"state":"East Azerbaijan","name":"Hurand","lat":"38.85916700","lon":"47.36861100"},
{"state":"East Azerbaijan","name":"Ilkhichi","lat":"37.93748590","lon":"45.94332160"},
{"state":"East Azerbaijan","name":"Javan Qala","lat":"37.49714170","lon":"45.97186080"},
{"state":"East Azerbaijan","name":"Jolfa","lat":"38.83343000","lon":"45.91680000"},
{"state":"East Azerbaijan","name":"Kaleybar","lat":"38.86672580","lon":"47.02453120"},
{"state":"East Azerbaijan","name":"Kelvanaq","lat":"38.10249790","lon":"46.98483460"},
{"state":"East Azerbaijan","name":"Khaje","lat":"38.15275670","lon":"46.58237460"},
{"state":"East Azerbaijan","name":"Khamaneh","lat":"38.18523560","lon":"45.61308840"},
{"state":"East Azerbaijan","name":"Kharajoo","lat":"37.30978140","lon":"46.52171360"},
{"state":"East Azerbaijan","name":"Kharvana","lat":"38.68560950","lon":"46.15987300"},
{"state":"East Azerbaijan","name":"Khoda Afarin","lat":"39.06667000","lon":"46.95000000"},
{"state":"East Azerbaijan","name":"Khomarlu","lat":"39.15455660","lon":"47.02483170"},
{"state":"East Azerbaijan","name":"Khosrowshah","lat":"37.96330460","lon":"46.01503310"},
{"state":"East Azerbaijan","name":"Koozehkonan","lat":"38.19320240","lon":"45.54328630"},
{"state":"East Azerbaijan","name":"Koshksaray","lat":"38.45962010","lon":"45.55695530"},
{"state":"East Azerbaijan","name":"Leilan","lat":"37.01165090","lon":"46.19523520"},
{"state":"East Azerbaijan","name":"Malekan","lat":"37.13338000","lon":"46.21667000"},
{"state":"East Azerbaijan","name":"Mamaqan","lat":"37.85616440","lon":"45.92748410"},
{"state":"East Azerbaijan","name":"Maragheh","lat":"37.38061000","lon":"46.39372000"},
{"state":"East Azerbaijan","name":"Marand","lat":"38.43290000","lon":"45.77490000"},
{"state":"East Azerbaijan","name":"Mehraban","lat":"38.08148170","lon":"47.12825770"},
{"state":"East Azerbaijan","name":"Mianeh","lat":"37.41667000","lon":"47.70000000"},
{"state":"East Azerbaijan","name":"Mobarak Abad","lat":"37.18030400","lon":"46.05071780"},
{"state":"East Azerbaijan","name":"Nazarkahrizi","lat":"37.34737060","lon":"46.75960420"},
{"state":"East Azerbaijan","name":"Osku","lat":"37.95005000","lon":"45.88340000"},
{"state":"East Azerbaijan","name":"Qareh Aghaj","lat":"37.12856190","lon":"46.96478250"},
{"state":"East Azerbaijan","name":"Sahand","lat":"37.94212840","lon":"46.11317040"},
{"state":"East Azerbaijan","name":"Sarab","lat":"37.94080000","lon":"47.53670000"},
{"state":"East Azerbaijan","name":"Sardroud","lat":"38.03123850","lon":"46.12973630"},
{"state":"East Azerbaijan","name":"Shabestar","lat":"38.18273990","lon":"45.68192460"},
{"state":"East Azerbaijan","name":"Sharabian","lat":"37.88192420","lon":"47.09549190"},
{"state":"East Azerbaijan","name":"Sharafkhaneh","lat":"38.17865710","lon":"45.46786290"},
{"state":"East Azerbaijan","name":"Shendabad","lat":"38.14561010","lon":"45.61905390"},
{"state":"East Azerbaijan","name":"Siahrood","lat":"38.86877450","lon":"45.99665520"},
{"state":"East Azerbaijan","name":"Sis","lat":"38.19685870","lon":"45.81075660"},
{"state":"East Azerbaijan","name":"Soufian","lat":"38.27831360","lon":"45.97709660"},
{"state":"East Azerbaijan","name":"Tabriz","lat":"38.08000000","lon":"46.29190000"},
{"state":"East Azerbaijan","name":"Tark","lat":"37.61736710","lon":"47.76673070"},
{"state":"East Azerbaijan","name":"Tasuj","lat":"38.31615040","lon":"45.33654190"},
{"state":"East Azerbaijan","name":"Tekmeh Dash","lat":"37.73535540","lon":"46.93088980"},
{"state":"East Azerbaijan","name":"Teymourlou","lat":"37.81040850","lon":"45.88154540"},
{"state":"East Azerbaijan","name":"Turkman Chay","lat":"37.58178980","lon":"47.37021430"},
{"state":"East Azerbaijan","name":"Vaighan","lat":"38.12844590","lon":"45.70490600"},
{"state":"East Azerbaijan","name":"Varzaqan","lat":"38.59492000","lon":"46.46397000"},
{"state":"East Azerbaijan","name":"Varzeqān","lat":"38.58136590","lon":"46.17000800"},
{"state":"East Azerbaijan","name":"Yamchi","lat":"38.52447740","lon":"45.63416480"},
{"state":"East Azerbaijan","name":"Zarnaq","lat":"38.09240870","lon":"47.07680230"},
{"state":"East Azerbaijan","name":"Zonouz","lat":"38.58949510","lon":"45.82614190"},
{"state":"Fars","name":"Abadeh","lat":"31.16080000","lon":"52.65060000"},
{"state":"Fars","name":"Abadeh Tashk","lat":"29.80720880","lon":"53.72005450"},
{"state":"Fars","name":"Ahel","lat":"27.21120460","lon":"53.65720510"},
{"state":"Fars","name":"Akbarabad","lat":"29.24640000","lon":"52.77930000"},
{"state":"Fars","name":"Alamarvdasht","lat":"27.62517770","lon":"52.99113750"},
{"state":"Fars","name":"Arsanjan","lat":"29.80000000","lon":"53.41667000"},
{"state":"Fars","name":"Arsenjan","lat":"29.91892820","lon":"53.28291870"},
{"state":"Fars","name":"Ashkanan","lat":"27.23524440","lon":"53.58667360"},
{"state":"Fars","name":"Asir","lat":"27.72481010","lon":"52.66111850"},
{"state":"Fars","name":"Baba Monir","lat":"30.07159140","lon":"51.20029090"},
{"state":"Fars","name":"BabAnar","lat":"28.96416700","lon":"53.21638900"},
{"state":"Fars","name":"Bahman","lat":"31.19345630","lon":"52.47589580"},
{"state":"Fars","name":"Baladeh ","lat":"29.28302900","lon":"51.92782400"},
{"state":"Fars","name":"Banaruyeh","lat":"28.08653670","lon":"54.03974940"},
{"state":"Fars","name":"Bavanat","lat":"30.33333000","lon":"53.66667000"},
{"state":"Fars","name":"Beyram","lat":"27.43173640","lon":"53.50586420"},
{"state":"Fars","name":"Beyza","lat":"29.97198120","lon":"52.39688860"},
{"state":"Fars","name":"City Kazeroon","lat":"29.62712330","lon":"51.64962760"},
{"state":"Fars","name":"Dabiran","lat":"28.40752830","lon":"54.16883220"},
{"state":"Fars","name":"Darab","lat":"28.75194000","lon":"54.54444000"},
{"state":"Fars","name":"Dariun","lat":"29.56255730","lon":"52.91882510"},
{"state":"Fars","name":"Dehram","lat":"28.49124870","lon":"52.29977130"},
{"state":"Fars","name":"Dezhkord","lat":"30.72281950","lon":"51.95147040"},
{"state":"Fars","name":"DoBorji","lat":"28.30666700","lon":"55.19277800"},
{"state":"Fars","name":"Douzeh","lat":"28.70131620","lon":"52.95476670"},
{"state":"Fars","name":"Efzar","lat":"28.34636970","lon":"52.96109670"},
{"state":"Fars","name":"Eij","lat":"29.02248840","lon":"54.23737580"},
{"state":"Fars","name":"Emad Deh","lat":"27.44620970","lon":"53.85212660"},
{"state":"Fars","name":"Emam Shahr","lat":"28.44682660","lon":"53.14627650"},
{"state":"Fars","name":"Eqlid","lat":"30.70000000","lon":"52.40000000"},
{"state":"Fars","name":"Estahban","lat":"29.11667000","lon":"54.00000000"},
{"state":"Fars","name":"Evaz","lat":"27.76295710","lon":"53.97943440"},
{"state":"Fars","name":"Fadami ","lat":"28.21409230","lon":"55.11737800"},
{"state":"Fars","name":"Farashband","lat":"28.75000000","lon":"52.25000000"},
{"state":"Fars","name":"Fasa","lat":"28.96667000","lon":"53.76667000"},
{"state":"Fars","name":"Firuzabad","lat":"28.84380000","lon":"52.57070000"},
{"state":"Fars","name":"Galehdar","lat":"27.65744580","lon":"52.62983260"},
{"state":"Fars","name":"Gerash","lat":"27.66966000","lon":"54.13586000"},
{"state":"Fars","name":"Ghare Bolagh","lat":"28.92810000","lon":"54.05090000"},
{"state":"Fars","name":"Ghirokarzin","lat":"28.33638090","lon":"52.66841600"},
{"state":"Fars","name":"HajiAbad","lat":"29.65540700","lon":"52.31150870"},
{"state":"Fars","name":"Hamashahr","lat":"30.11166700","lon":"52.08277800"},
{"state":"Fars","name":"HasanAbad","lat":"30.52016170","lon":"52.45160570"},
{"state":"Fars","name":"Hesami","lat":"29.96975010","lon":"53.86682510"},
{"state":"Fars","name":"IzadKhast","lat":"31.51636070","lon":"52.11609370"},
{"state":"Fars","name":"Jahrom","lat":"28.53058250","lon":"53.51852170"},
{"state":"Fars","name":"JannatShahr","lat":"28.65398340","lon":"54.67042500"},
{"state":"Fars","name":"Juyom","lat":"28.25891410","lon":"53.96016580"},
{"state":"Fars","name":"Kamfiruz","lat":"30.32309970","lon":"52.18398570"},
{"state":"Fars","name":"Karzin","lat":"28.43324410","lon":"53.12390410"},
{"state":"Fars","name":"Kavar","lat":"29.21667000","lon":"52.73333000"},
{"state":"Fars","name":"Kazerun","lat":"29.61919000","lon":"51.65350000"},
{"state":"Fars","name":"KhaneZenian","lat":"29.67004760","lon":"52.14333620"},
{"state":"Fars","name":"Khaniman","lat":"30.34916700","lon":"52.24166700"},
{"state":"Fars","name":"Kharameh","lat":"29.50038570","lon":"53.30107210"},
{"state":"Fars","name":"Khavaran","lat":"28.93684290","lon":"53.31201550"},
{"state":"Fars","name":"Kherameh","lat":"29.50000000","lon":"53.25000000"},
{"state":"Fars","name":"Khesht","lat":"27.23347270","lon":"53.43067650"},
{"state":"Fars","name":"Khonj","lat":"27.88763700","lon":"53.41157890"},
{"state":"Fars","name":"Khoome Zar","lat":"30.00924290","lon":"51.56660550"},
{"state":"Fars","name":"Khoozi","lat":"27.44610520","lon":"52.96075340"},
{"state":"Fars","name":"Khorrambid","lat":"30.50000000","lon":"53.08333000"},
{"state":"Fars","name":"Khour","lat":"27.64191680","lon":"54.33750230"},
{"state":"Fars","name":"Konartakhteh","lat":"29.52510620","lon":"51.37342200"},
{"state":"Fars","name":"Kopen","lat":"30.33500890","lon":"51.27854700"},
{"state":"Fars","name":"Korei","lat":"30.03036720","lon":"53.70883220"},
{"state":"Fars","name":"Kouhenjan","lat":"29.23156770","lon":"52.95320030"},
{"state":"Fars","name":"Koushkak","lat":"30.07373620","lon":"52.58820540"},
{"state":"Fars","name":"Lamerd","lat":"27.36667000","lon":"53.38333000"},
{"state":"Fars","name":"Lapouyee","lat":"29.79964990","lon":"52.64236450"},
{"state":"Fars","name":"Lar","lat":"27.68336000","lon":"54.34172000"},
{"state":"Fars","name":"Larestan","lat":"27.75000000","lon":"54.45000000"},
{"state":"Fars","name":"Latifi","lat":"27.69024090","lon":"54.37713040"},
{"state":"Fars","name":"Mamasani","lat":"30.03333000","lon":"51.38333000"},
{"state":"Fars","name":"Marvdasht","lat":"30.08333000","lon":"52.66667000"},
{"state":"Fars","name":"Masiri","lat":"30.24094560","lon":"51.52066790"},
{"state":"Fars","name":"Mazayejan","lat":"28.05616020","lon":"54.65025550"},
{"state":"Fars","name":"Meshkan","lat":"29.47403030","lon":"54.32865840"},
{"state":"Fars","name":"Meymand","lat":"28.86776870","lon":"52.73594130"},
{"state":"Fars","name":"Miyanshahr","lat":"28.71017970","lon":"53.85154720"},
{"state":"Fars","name":"Mobarakabad","lat":"28.35972200","lon":"53.32833300"},
{"state":"Fars","name":"Mohr","lat":"27.55520000","lon":"52.88360000"},
{"state":"Fars","name":"Neyriz","lat":"29.19880000","lon":"54.32780000"},
{"state":"Fars","name":"No Bandegan","lat":"28.85591230","lon":"53.81496180"},
{"state":"Fars","name":"Nourabad","lat":"30.11349310","lon":"51.50369100"},
{"state":"Fars","name":"Nowdan","lat":"29.80119540","lon":"51.68421500"},
{"state":"Fars","name":"Nowjein","lat":"29.11848470","lon":"51.98232590"},
{"state":"Fars","name":"Nurabad","lat":"30.11405000","lon":"51.52174000"},
{"state":"Fars","name":"Pasargad","lat":"30.20194000","lon":"53.18000000"},
{"state":"Fars","name":"PirCity","lat":"28.31454240","lon":"54.31413150"},
{"state":"Fars","name":"Qaderabad","lat":"30.27834010","lon":"53.25756670"},
{"state":"Fars","name":"Qaemyeh","lat":"29.85091920","lon":"51.57323570"},
{"state":"Fars","name":"Qatruyeh","lat":"29.14584570","lon":"54.69936130"},
{"state":"Fars","name":"Qir va Karzin","lat":"28.31667000","lon":"52.90000000"},
{"state":"Fars","name":"QotbAbad","lat":"28.64848720","lon":"53.61144090"},
{"state":"Fars","name":"RonizOlya","lat":"29.19133810","lon":"53.76483680"},
{"state":"Fars","name":"Rostam","lat":"30.40000000","lon":"51.41667000"},
{"state":"Fars","name":"SaadatShahr","lat":"30.08246270","lon":"53.12756530"},
{"state":"Fars","name":"Sadra","lat":"29.80475780","lon":"52.45825710"},
{"state":"Fars","name":"Safashahr","lat":"30.61431720","lon":"53.17833400"},
{"state":"Fars","name":"Sarvestan","lat":"29.21667000","lon":"53.13333000"},
{"state":"Fars","name":"Sedeh","lat":"30.70291140","lon":"52.15963050"},
{"state":"Fars","name":"Sepidan","lat":"30.15000000","lon":"52.10000000"},
{"state":"Fars","name":"Seyedan","lat":"30.00424490","lon":"53.00122260"},
{"state":"Fars","name":"Sheshdeh","lat":"28.91250530","lon":"53.99227100"},
{"state":"Fars","name":"Shiraz","lat":"29.61031000","lon":"52.53113000"},
{"state":"Fars","name":"Soghad","lat":"31.19106770","lon":"52.50031460"},
{"state":"Fars","name":"SoltanShahr","lat":"29.62961460","lon":"53.23294400"},
{"state":"Fars","name":"Surmaq","lat":"31.03248980","lon":"52.83048390"},
{"state":"Fars","name":"Varavi","lat":"27.46528850","lon":"53.04411650"},
{"state":"Fars","name":"Zahedshahr","lat":"28.75180650","lon":"53.78289130"},
{"state":"Fars","name":"Zarghan","lat":"29.76307670","lon":"52.67474350"},
{"state":"Fars","name":"Zarrin Dasht","lat":"28.30000000","lon":"54.46667000"},
{"state":"Fars","name":"سروستان","lat":"29.27022530","lon":"53.20730190"},
{"state":"Gilan","name":"Ahmadsargurab","lat":"37.12805600","lon":"49.36666700"},
{"state":"Gilan","name":"Amlash","lat":"37.09246800","lon":"50.17314410"},
{"state":"Gilan","name":"Asalem","lat":"37.72003980","lon":"48.92658170"},
{"state":"Gilan","name":"Astaneh-ye Ashrafiyeh","lat":"37.26318000","lon":"49.94325000"},
{"state":"Gilan","name":"astara","lat":"38.33333000","lon":"48.76667000"},
{"state":"Gilan","name":"Bandar Anzali","lat":"37.47318000","lon":"49.45785000"},
{"state":"Gilan","name":"Barehsar","lat":"36.77599100","lon":"49.74575040"},
{"state":"Gilan","name":"Bazar Jomeh","lat":"37.27945660","lon":"49.37436040"},
{"state":"Gilan","name":"Chaboksar","lat":"36.97505830","lon":"50.54664930"},
{"state":"Gilan","name":"Chaf and Chamkhaleh","lat":"37.22944400","lon":"50.25388900"},
{"state":"Gilan","name":"Choobar","lat":"38.18351690","lon":"48.87027790"},
{"state":"Gilan","name":"Deylaman","lat":"36.88609010","lon":"49.90029930"},
{"state":"Gilan","name":"Fuman","lat":"37.16667000","lon":"49.18333000"},
{"state":"Gilan","name":"Gurab Zarmikh","lat":"37.29829280","lon":"49.20505980"},
{"state":"Gilan","name":"Hashtpar","lat":"37.79658000","lon":"48.90521000"},
{"state":"Gilan","name":"Haviq","lat":"38.14750000","lon":"48.89222200"},
{"state":"Gilan","name":"Jirindih","lat":"36.70054440","lon":"49.78016850"},
{"state":"Gilan","name":"Kelachay","lat":"37.07707330","lon":"50.38030730"},
{"state":"Gilan","name":"Khomam","lat":"37.38749490","lon":"49.63949190"},
{"state":"Gilan","name":"Khoshkebijar","lat":"37.37479300","lon":"49.73922700"},
{"state":"Gilan","name":"Kiashahr","lat":"37.41682790","lon":"49.92925590"},
{"state":"Gilan","name":"Kuchesfahan","lat":"37.27838040","lon":"49.76859950"},
{"state":"Gilan","name":"Kumeleh","lat":"37.15277800","lon":"50.17694400"},
{"state":"Gilan","name":"Lahijan","lat":"37.21667000","lon":"50.01667000"},
{"state":"Gilan","name":"Langarud","lat":"37.19548000","lon":"50.15263000"},
{"state":"Gilan","name":"Lasht-e Nesha","lat":"37.36018660","lon":"49.84508860"},
{"state":"Gilan","name":"Lavandvil","lat":"38.30771640","lon":"48.84607290"},
{"state":"Gilan","name":"Lisar","lat":"37.95806970","lon":"48.88967500"},
{"state":"Gilan","name":"Louleman","lat":"37.25747920","lon":"49.80743050"},
{"state":"Gilan","name":"Lowshan","lat":"36.63216940","lon":"49.49772640"},
{"state":"Gilan","name":"Maklavan","lat":"37.19555600","lon":"49.19861100"},
{"state":"Gilan","name":"Manjil","lat":"36.74150000","lon":"49.41610000"},
{"state":"Gilan","name":"Marjaghal","lat":"37.27555600","lon":"49.36277800"},
{"state":"Gilan","name":"Masal","lat":"37.35000000","lon":"48.98333000"},
{"state":"Gilan","name":"Masuleh","lat":"37.15699680","lon":"48.97589190"},
{"state":"Gilan","name":"Otaghvar","lat":"37.10889440","lon":"50.11271960"},
{"state":"Gilan","name":"Paresar","lat":"37.60172960","lon":"49.06391210"},
{"state":"Gilan","name":"Rahimabad","lat":"37.02874220","lon":"50.32571940"},
{"state":"Gilan","name":"Ranekouh","lat":"37.05229690","lon":"50.21790480"},
{"state":"Gilan","name":"Rasht","lat":"37.27611000","lon":"49.58862000"},
{"state":"Gilan","name":"Rezvanshahr","lat":"37.54976000","lon":"49.13703000"},
{"state":"Gilan","name":"Rod Baneh","lat":"37.25551520","lon":"50.00032430"},
{"state":"Gilan","name":"Rostamabad","lat":"36.89948990","lon":"49.47362410"},
{"state":"Gilan","name":"Rudbar","lat":"36.80000000","lon":"49.60000000"},
{"state":"Gilan","name":"Rudsar","lat":"37.13696000","lon":"50.29174000"},
{"state":"Gilan","name":"Sangar","lat":"37.17965610","lon":"49.68532780"},
{"state":"Gilan","name":"Shaft","lat":"37.06483110","lon":"49.17771370"},
{"state":"Gilan","name":"Shalman","lat":"37.15916990","lon":"50.20692950"},
{"state":"Gilan","name":"Siahkal","lat":"36.93333000","lon":"49.90000000"},
{"state":"Gilan","name":"Someh Sara","lat":"37.33333000","lon":"49.30000000"},
{"state":"Gilan","name":"Talesh","lat":"37.90000000","lon":"48.78333000"},
{"state":"Gilan","name":"Tutkabon","lat":"36.89090440","lon":"49.52147480"},
{"state":"Gilan","name":"Vajargah","lat":"37.04083300","lon":"50.40861100"},
{"state":"Gilan","name":"Ziabar","lat":"37.42610000","lon":"49.24590000"},
{"state":"Golestan","name":"Aliabad-e-Katul","lat":"36.91016390","lon":"54.83907210"},
{"state":"Golestan","name":"Anbar Olum","lat":"37.13300090","lon":"54.61230750"},
{"state":"Golestan","name":"Aq Qala","lat":"37.16667000","lon":"54.58333000"},
{"state":"Golestan","name":"Aq Qayeh","lat":"37.27472000","lon":"55.15889000"},
{"state":"Golestan","name":"Azadshahr","lat":"37.08641000","lon":"55.17222000"},
{"state":"Golestan","name":"Bandar Torkaman","lat":"36.90507650","lon":"54.03526730"},
{"state":"Golestan","name":"Bandar-e Gaz","lat":"36.77416700","lon":"53.94805600"},
{"state":"Golestan","name":"Daland","lat":"37.03465860","lon":"55.03712660"},
{"state":"Golestan","name":"Faraqi","lat":"37.26035860","lon":"55.16635490"},
{"state":"Golestan","name":"Fazelabad","lat":"36.89410210","lon":"54.73096840"},
{"state":"Golestan","name":"Galikesh","lat":"37.30000000","lon":"55.65000000"},
{"state":"Golestan","name":"Gomish Tepe","lat":"37.07166700","lon":"54.07666700"},
{"state":"Golestan","name":"Gomishan","lat":"37.15000000","lon":"54.15000000"},
{"state":"Golestan","name":"Gonbad Kavus","lat":"37.25004000","lon":"55.16721000"},
{"state":"Golestan","name":"Gorgan","lat":"36.84270000","lon":"54.44391000"},
{"state":"Golestan","name":"Incheboron","lat":"37.45422400","lon":"54.71541160"},
{"state":"Golestan","name":"Jelin","lat":"36.85127690","lon":"54.52793600"},
{"state":"Golestan","name":"Kalaleh","lat":"37.37899000","lon":"55.49300000"},
{"state":"Golestan","name":"Khānbebin","lat":"37.00947410","lon":"54.97964140"},
{"state":"Golestan","name":"Kordkuy","lat":"36.68333000","lon":"54.20000000"},
{"state":"Golestan","name":"Maraveh","lat":"37.90416700","lon":"55.95583300"},
{"state":"Golestan","name":"Maraveh Tappeh","lat":"37.85000000","lon":"55.91667000"},
{"state":"Golestan","name":"Mazraeh","lat":"36.95386110","lon":"54.85471500"},
{"state":"Golestan","name":"Minudasht","lat":"37.11667000","lon":"55.45000000"},
{"state":"Golestan","name":"Neginshahr","lat":"37.13936470","lon":"55.15758990"},
{"state":"Golestan","name":"Nowdeh Khanduz","lat":"37.07449880","lon":"55.25308730"},
{"state":"Golestan","name":"Nowkandeh","lat":"36.74051840","lon":"53.88399070"},
{"state":"Golestan","name":"Qarnabad","lat":"36.82203000","lon":"54.59222000"},
{"state":"Golestan","name":"Ramian","lat":"36.93333000","lon":"55.08333000"},
{"state":"Golestan","name":"Sangdevin","lat":"36.99793400","lon":"54.85263350"},
{"state":"Golestan","name":"Sarkhon Kalateh","lat":"36.89138900","lon":"54.56916700"},
{"state":"Golestan","name":"Siminshahr","lat":"37.01276160","lon":"54.21581250"},
{"state":"Golestan","name":"Tatar Olia","lat":"37.11100750","lon":"55.04270560"},
{"state":"Golestan","name":"Torkaman","lat":"36.90000000","lon":"54.16667000"},
{"state":"Hamadan","name":"Ab Meshkin","lat":"35.61305556","lon":"48.26916667"},
{"state":"Hamadan","name":"Abarlaq-e Sofla","lat":"34.67138889","lon":"48.22833333"},
{"state":"Hamadan","name":"Abdalan","lat":"34.65277778","lon":"48.24555556"},
{"state":"Hamadan","name":"Abdol Rahim","lat":"34.62638889","lon":"49.01750000"},
{"state":"Hamadan","name":"Abrumand","lat":"34.90277778","lon":"48.32027778"},
{"state":"Hamadan","name":"Abshineh","lat":"34.78194400","lon":"48.61472200"},
{"state":"Hamadan","name":"Abu ol Fathabad","lat":"34.05666667","lon":"48.50916667"},
{"state":"Hamadan","name":"Aghcheh Qayah","lat":"35.35000000","lon":"48.34250000"},
{"state":"Hamadan","name":"Ahmadabad-e Tappeh","lat":"34.61277778","lon":"48.99277778"},
{"state":"Hamadan","name":"Ahu Tappeh","lat":"34.93777778","lon":"48.00111111"},
{"state":"Hamadan","name":"Ajin","lat":"34.73611111","lon":"47.92416667"},
{"state":"Hamadan","name":"Ajorlu","lat":"35.13833333","lon":"49.22944444"},
{"state":"Hamadan","name":"Akanlu","lat":"35.61416667","lon":"48.18805556"},
{"state":"Hamadan","name":"Akleh","lat":"35.20277778","lon":"49.08250000"},
{"state":"Hamadan","name":"Alan-e Sofla","lat":"35.28416667","lon":"48.21583333"},
{"state":"Hamadan","name":"Alanjeh","lat":"34.75083333","lon":"47.95972222"},
{"state":"Hamadan","name":"Alfavut","lat":"34.64000000","lon":"48.74972222"},
{"state":"Hamadan","name":"Aliabad-e Posht Shahr","lat":"34.83777778","lon":"48.51111111"},
{"state":"Hamadan","name":"Amirabad-e Kord","lat":"34.97611111","lon":"49.09166667"},
{"state":"Hamadan","name":"Amzajerd","lat":"34.93666667","lon":"48.53250000"},
{"state":"Hamadan","name":"Angoshteh","lat":"34.09138900","lon":"48.54000000"},
{"state":"Hamadan","name":"Anjir Baghi","lat":"35.19250000","lon":"48.53166667"},
{"state":"Hamadan","name":"Ansar ol Emam","lat":"34.85861111","lon":"48.49083333"},
{"state":"Hamadan","name":"Anuch","lat":"34.10805600","lon":"48.57333300"},
{"state":"Hamadan","name":"Aq Bolagh-e Aqdaq","lat":"35.61166667","lon":"48.44138889"},
{"state":"Hamadan","name":"Aq Bolagh-e Latgah","lat":"34.98444400","lon":"48.55527800"},
{"state":"Hamadan","name":"Aq Bolagh-e Morshed","lat":"35.61777778","lon":"48.02972222"},
{"state":"Hamadan","name":"Aq Chay","lat":"35.47916667","lon":"49.10388889"},
{"state":"Hamadan","name":"Aqa Bolaghi","lat":"35.36694444","lon":"48.24361111"},
{"state":"Hamadan","name":"Aqa Jan Bolaghi","lat":"34.84583333","lon":"48.05305556"},
{"state":"Hamadan","name":"Aqaj","lat":"34.95583333","lon":"49.32416667"},
{"state":"Hamadan","name":"Aqcheh Kharabeh","lat":"35.71361111","lon":"48.77638889"},
{"state":"Hamadan","name":"Aqchelu","lat":"35.13138889","lon":"48.49166667"},
{"state":"Hamadan","name":"Arges-e Sofla","lat":"34.07388889","lon":"48.86388889"},
{"state":"Hamadan","name":"Arikan","lat":"34.53222222","lon":"48.36055556"},
{"state":"Hamadan","name":"Arpa Darreh","lat":"35.69138889","lon":"48.80500000"},
{"state":"Hamadan","name":"Arteh Bolagh","lat":"34.32638889","lon":"48.54916667"},
{"state":"Hamadan","name":"Artiman","lat":"34.57944400","lon":"48.44777800"},
{"state":"Hamadan","name":"Arzan Fud","lat":"34.65527778","lon":"48.65416667"},
{"state":"Hamadan","name":"Arzuvaj","lat":"34.65444444","lon":"48.37305556"},
{"state":"Hamadan","name":"Asadabad","lat":"34.78222222","lon":"48.11833333"},
{"state":"Hamadan","name":"Ashmizan","lat":"34.10361111","lon":"48.88444444"},
{"state":"Hamadan","name":"Avarzaman","lat":"34.26638889","lon":"48.51222222"},
{"state":"Hamadan","name":"Azandarian","lat":"34.50888889","lon":"48.68666667"},
{"state":"Hamadan","name":"Aznahri","lat":"34.23750000","lon":"48.14833333"},
{"state":"Hamadan","name":"Baba Khanjar","lat":"35.55166667","lon":"48.54972222"},
{"state":"Hamadan","name":"Baba Pir","lat":"34.61416667","lon":"48.40194444"},
{"state":"Hamadan","name":"Baba Qasem","lat":"34.08000000","lon":"48.44805556"},
{"state":"Hamadan","name":"Babolqani","lat":"34.24277778","lon":"49.05750000"},
{"state":"Hamadan","name":"Bad Khvoreh","lat":"34.74305556","lon":"48.08027778"},
{"state":"Hamadan","name":"Bahar","lat":"34.90694444","lon":"48.44138889"},
{"state":"Hamadan","name":"Band Aman","lat":"34.22388889","lon":"48.22861111"},
{"state":"Hamadan","name":"Banesareh","lat":"34.23750000","lon":"48.43333333"},
{"state":"Hamadan","name":"Baraband","lat":"34.75194444","lon":"48.79861111"},
{"state":"Hamadan","name":"Bargecheh","lat":"34.45138900","lon":"48.30111100"},
{"state":"Hamadan","name":"Barreh Farakh","lat":"34.38555556","lon":"48.08638889"},
{"state":"Hamadan","name":"Barzul","lat":"34.21277778","lon":"48.25888889"},
{"state":"Hamadan","name":"Bashqurtaran","lat":"35.63722222","lon":"48.11694444"},
{"state":"Hamadan","name":"Bazeran","lat":"35.15611111","lon":"49.42305556"},
{"state":"Hamadan","name":"Behkandan","lat":"35.27222222","lon":"49.09888889"},
{"state":"Hamadan","name":"Belartu","lat":"34.33555556","lon":"48.51583333"},
{"state":"Hamadan","name":"Beshik Tappeh","lat":"35.53611111","lon":"48.41805556"},
{"state":"Hamadan","name":"Biaj","lat":"34.81500000","lon":"48.09916667"},
{"state":"Hamadan","name":"Biatan-e Sofla","lat":"34.02527778","lon":"48.95805556"},
{"state":"Hamadan","name":"Bid Korpeh-ye Sofla","lat":"34.02111111","lon":"48.89166667"},
{"state":"Hamadan","name":"Bid Korpeh-ye Vosta","lat":"34.01944444","lon":"48.88722222"},
{"state":"Hamadan","name":"Bifanaj","lat":"34.61472222","lon":"48.01694444"},
{"state":"Hamadan","name":"Bighash","lat":"34.09111111","lon":"49.06833333"},
{"state":"Hamadan","name":"Bish Aghaj","lat":"34.46111111","lon":"48.78583333"},
{"state":"Hamadan","name":"Bitervan","lat":"34.65444444","lon":"47.91055556"},
{"state":"Hamadan","name":"Borjaki","lat":"34.32861111","lon":"48.03305556"},
{"state":"Hamadan","name":"Boyukabad","lat":"35.05972222","lon":"48.84166667"},
{"state":"Hamadan","name":"Bozchalu","lat":"35.16888889","lon":"49.22444444"},
{"state":"Hamadan","name":"Bozineh Jerd","lat":"35.02472222","lon":"48.94388889"},
{"state":"Hamadan","name":"Bujin","lat":"34.80722222","lon":"48.05916667"},
{"state":"Hamadan","name":"Bustandar","lat":"34.44861111","lon":"48.41944444"},
{"state":"Hamadan","name":"Buyaqchi","lat":"34.84750000","lon":"49.08916667"},
{"state":"Hamadan","name":"Chahar Bolagh","lat":"35.58111111","lon":"48.65000000"},
{"state":"Hamadan","name":"Chal Boqa","lat":"35.42055556","lon":"48.92750000"},
{"state":"Hamadan","name":"Chaleh Kand","lat":"35.27500000","lon":"48.29944444"},
{"state":"Hamadan","name":"Charoq","lat":"34.84416667","lon":"48.06611111"},
{"state":"Hamadan","name":"Chasht Khvoreh","lat":"34.46444444","lon":"48.26694444"},
{"state":"Hamadan","name":"Chenari","lat":"34.23194444","lon":"48.17611111"},
{"state":"Hamadan","name":"Cheshmeh Malek","lat":"34.75500000","lon":"48.49305556"},
{"state":"Hamadan","name":"Cheshmeh Pahn-e Nanaj","lat":"34.45888889","lon":"48.76750000"},
{"state":"Hamadan","name":"Cheshmeh Qandab","lat":"34.62694444","lon":"48.09111111"},
{"state":"Hamadan","name":"Cheshmeh Qareh","lat":"34.90611111","lon":"47.87111111"},
{"state":"Hamadan","name":"Cheshmeh Qassaban","lat":"34.85777778","lon":"48.41888889"},
{"state":"Hamadan","name":"Cheshmeh Valad","lat":"34.87805556","lon":"47.98388889"},
{"state":"Hamadan","name":"Cheshmeh Zowraq","lat":"34.06611111","lon":"49.10083333"},
{"state":"Hamadan","name":"Choqa Sarahi","lat":"34.31527778","lon":"48.04888889"},
{"state":"Hamadan","name":"Chowtash","lat":"34.83694444","lon":"48.25194444"},
{"state":"Hamadan","name":"Chulak Qapanuri","lat":"34.23472222","lon":"48.30000000"},
{"state":"Hamadan","name":"Dahnejerd","lat":"34.96750000","lon":"48.50055600"},
{"state":"Hamadan","name":"Dali Chu","lat":"35.52138889","lon":"48.02027778"},
{"state":"Hamadan","name":"Damaq","lat":"35.44277778","lon":"48.82305556"},
{"state":"Hamadan","name":"Daqdaqabad","lat":"35.18277778","lon":"48.78833333"},
{"state":"Hamadan","name":"Dar Qeshlaq","lat":"35.49222222","lon":"48.05583333"},
{"state":"Hamadan","name":"Darani-ye Sofla","lat":"34.49888889","lon":"48.41222222"},
{"state":"Hamadan","name":"Darcham","lat":"34.26027778","lon":"48.82083333"},
{"state":"Hamadan","name":"Darreh Chenar","lat":"34.09944444","lon":"48.80305556"},
{"state":"Hamadan","name":"Darreh Mianeh-ye Sofla","lat":"34.07277778","lon":"48.83527778"},
{"state":"Hamadan","name":"Darreh Mirza","lat":"34.37611111","lon":"48.00750000"},
{"state":"Hamadan","name":"Darreh-ye Ebrahim","lat":"34.10166667","lon":"48.39444444"},
{"state":"Hamadan","name":"Darsibeh","lat":"34.26972222","lon":"48.00694444"},
{"state":"Hamadan","name":"Davijan","lat":"34.22027778","lon":"48.85833333"},
{"state":"Hamadan","name":"Deh Chaneh","lat":"34.10527778","lon":"49.12027778"},
{"state":"Hamadan","name":"Deh Dalian","lat":"34.80472222","lon":"48.71138889"},
{"state":"Hamadan","name":"Deh Ful","lat":"34.22694444","lon":"48.31388889"},
{"state":"Hamadan","name":"Deh Mianeh","lat":"34.17305556","lon":"49.04944444"},
{"state":"Hamadan","name":"Deh Nush","lat":"34.76111111","lon":"48.00305556"},
{"state":"Hamadan","name":"Deh Piaz","lat":"34.88194444","lon":"48.51472222"},
{"state":"Hamadan","name":"Deh-e Shaker","lat":"34.37888889","lon":"48.54777778"},
{"state":"Hamadan","name":"Dehnow-e Avarzaman","lat":"34.30694444","lon":"48.55694444"},
{"state":"Hamadan","name":"Dingeleh Kahriz","lat":"34.81111111","lon":"48.68472222"},
{"state":"Hamadan","name":"Do Rudan","lat":"34.55972222","lon":"48.41472222"},
{"state":"Hamadan","name":"Doraneh","lat":"34.23138889","lon":"48.21944444"},
{"state":"Hamadan","name":"Dorudgaran","lat":"34.02027800","lon":"48.92472200"},
{"state":"Hamadan","name":"Dow Baraleh","lat":"34.90222222","lon":"48.03361111"},
{"state":"Hamadan","name":"Dowlatabad-e Hajjilu","lat":"35.28111111","lon":"48.88694444"},
{"state":"Hamadan","name":"Dowlujerdin-e Bala","lat":"35.34777778","lon":"49.10944444"},
{"state":"Hamadan","name":"Durijan","lat":"34.30555556","lon":"48.48972222"},
{"state":"Hamadan","name":"Durnian","lat":"35.48194444","lon":"49.04000000"},
{"state":"Hamadan","name":"Emamzadeh Khatun","lat":"34.04972222","lon":"48.95222222"},
{"state":"Hamadan","name":"Emamzadeh Pir Nahan","lat":"35.01138889","lon":"49.04111111"},
{"state":"Hamadan","name":"Eskanan","lat":"34.35805556","lon":"48.59277778"},
{"state":"Hamadan","name":"Fahrumand","lat":"34.22416667","lon":"48.31194444"},
{"state":"Hamadan","name":"Famast","lat":"34.03897000","lon":"48.46260000"},
{"state":"Hamadan","name":"Famenin","lat":"35.11388889","lon":"48.97166667"},
{"state":"Hamadan","name":"Farasfaj","lat":"34.48611111","lon":"48.28555556"},
{"state":"Hamadan","name":"Farsban","lat":"34.24416667","lon":"48.11916667"},
{"state":"Hamadan","name":"Farvaz","lat":"34.22694444","lon":"48.90111111"},
{"state":"Hamadan","name":"Faryazan","lat":"34.52305600","lon":"48.33250000"},
{"state":"Hamadan","name":"Fasijan","lat":"34.83666667","lon":"48.30472222"},
{"state":"Hamadan","name":"Fiazaman","lat":"34.13111111","lon":"48.39638889"},
{"state":"Hamadan","name":"Firuzabad-e Sofla","lat":"34.34694444","lon":"48.09638889"},
{"state":"Hamadan","name":"Firuzan","lat":"34.27861111","lon":"48.24000000"},
{"state":"Hamadan","name":"Gamasa","lat":"34.23027778","lon":"49.08750000"},
{"state":"Hamadan","name":"Gamasb","lat":"34.04000000","lon":"48.46500000"},
{"state":"Hamadan","name":"Ganj Tappeh","lat":"34.93333300","lon":"48.46361100"},
{"state":"Hamadan","name":"Ganjab","lat":"34.45277778","lon":"48.98722222"},
{"state":"Hamadan","name":"Gashani","lat":"34.66055556","lon":"48.39138889"},
{"state":"Hamadan","name":"Gav Zaban","lat":"35.22916667","lon":"48.30527778"},
{"state":"Hamadan","name":"Gavkaran","lat":"34.48694444","lon":"48.12000000"},
{"state":"Hamadan","name":"Ghazyatan","lat":"35.33222222","lon":"48.93166667"},
{"state":"Hamadan","name":"Gholam Veys","lat":"35.63000000","lon":"48.52583333"},
{"state":"Hamadan","name":"Givaki","lat":"34.27250000","lon":"48.08111111"},
{"state":"Hamadan","name":"Giyan","lat":"34.17805556","lon":"48.24416667"},
{"state":"Hamadan","name":"Gol Darreh-ye Anuch","lat":"34.10222222","lon":"48.59861111"},
{"state":"Hamadan","name":"Gol Heydar","lat":"34.06250000","lon":"48.41666667"},
{"state":"Hamadan","name":"Gol Tappeh","lat":"35.22083550","lon":"48.19597000"},
{"state":"Hamadan","name":"Golparabad","lat":"34.15500000","lon":"49.05777778"},
{"state":"Hamadan","name":"Golshir","lat":"34.40000000","lon":"48.68333333"},
{"state":"Hamadan","name":"Golushjerd","lat":"34.36611111","lon":"48.79000000"},
{"state":"Hamadan","name":"Gomush Bolagh","lat":"34.93194444","lon":"48.28972222"},
{"state":"Hamadan","name":"Gonbad Chay","lat":"34.86833300","lon":"48.83138900"},
{"state":"Hamadan","name":"Gonbad-e Kabud","lat":"34.21722222","lon":"48.14777778"},
{"state":"Hamadan","name":"Gostar","lat":"35.46388889","lon":"48.87638889"},
{"state":"Hamadan","name":"Gozal Abdal","lat":"35.32166667","lon":"48.23861111"},
{"state":"Hamadan","name":"Gug Qash","lat":"35.68750000","lon":"48.02530000"},
{"state":"Hamadan","name":"Gujak","lat":"34.54083333","lon":"48.84027778"},
{"state":"Hamadan","name":"Gulvand","lat":"34.38083333","lon":"48.97527778"},
{"state":"Hamadan","name":"Gunestan","lat":"34.03027778","lon":"48.91833333"},
{"state":"Hamadan","name":"Gur Gaz","lat":"34.93333333","lon":"48.79111111"},
{"state":"Hamadan","name":"Gurjiu","lat":"34.18583333","lon":"48.40555556"},
{"state":"Hamadan","name":"Gushalan","lat":"34.83500000","lon":"48.32250000"},
{"state":"Hamadan","name":"Gusheh-ye Kasavand","lat":"34.15527778","lon":"48.95944444"},
{"state":"Hamadan","name":"Hajji Kheder","lat":"34.12722222","lon":"48.74833333"},
{"state":"Hamadan","name":"Hajji Maqsud","lat":"34.96972222","lon":"48.87972222"},
{"state":"Hamadan","name":"Hajji Tu","lat":"34.45083300","lon":"48.35361100"},
{"state":"Hamadan","name":"Hamadan","lat":"34.80000000","lon":"48.51666667"},
{"state":"Hamadan","name":"Hamedan","lat":"34.81230870","lon":"48.44002710"},
{"state":"Hamadan","name":"Hamilabad","lat":"34.40250000","lon":"48.46083333"},
{"state":"Hamadan","name":"Hamzehlu-ye Sofla","lat":"34.05777778","lon":"49.07777778"},
{"state":"Hamadan","name":"Haramabad","lat":"34.28166667","lon":"48.78250000"},
{"state":"Hamadan","name":"Hasan Kusej","lat":"34.24833333","lon":"48.57527778"},
{"state":"Hamadan","name":"Hasan Teymur","lat":"35.37583333","lon":"48.36361111"},
{"state":"Hamadan","name":"Hasanabad-e Emam","lat":"34.95027778","lon":"48.05083333"},
{"state":"Hamadan","name":"Hasanabad-e Qush Bolagh","lat":"34.42361111","lon":"48.65444444"},
{"state":"Hamadan","name":"Hasanabad-e Sheverin","lat":"34.84250000","lon":"48.54916667"},
{"state":"Hamadan","name":"Heriraz","lat":"34.20527778","lon":"48.74305556"},
{"state":"Hamadan","name":"Hesar-e Qarah Baghi","lat":"34.82250000","lon":"48.26861111"},
{"state":"Hamadan","name":"Hesar-e Qujeh Baghi","lat":"35.23861111","lon":"48.55972222"},
{"state":"Hamadan","name":"Heydareh-ye Dar-e Emam","lat":"34.82055556","lon":"48.34694444"},
{"state":"Hamadan","name":"Heydareh-ye Posht-e Shahr","lat":"34.80250000","lon":"48.45750000"},
{"state":"Hamadan","name":"Hizaj","lat":"34.93000000","lon":"49.14333333"},
{"state":"Hamadan","name":"Holvar-e Sofla","lat":"34.68000000","lon":"48.13472222"},
{"state":"Hamadan","name":"Hom-e Khosrow","lat":"34.31472222","lon":"48.01000000"},
{"state":"Hamadan","name":"Horhoreh","lat":"34.39111111","lon":"48.36027778"},
{"state":"Hamadan","name":"Hoseynabad-e Bahar","lat":"34.86750000","lon":"48.36833333"},
{"state":"Hamadan","name":"Hoseynabad-e Nazem","lat":"34.29527800","lon":"48.60416700"},
{"state":"Hamadan","name":"Hoseynabad-e Shamlu","lat":"34.44611111","lon":"48.62055556"},
{"state":"Hamadan","name":"Hudaraj","lat":"34.73361111","lon":"48.16194444"},
{"state":"Hamadan","name":"Iraneh","lat":"34.24305556","lon":"48.59750000"},
{"state":"Hamadan","name":"Isti Bolagh","lat":"35.69500000","lon":"48.26611111"},
{"state":"Hamadan","name":"Jamishlu","lat":"35.24583333","lon":"48.97666667"},
{"state":"Hamadan","name":"Jaria","lat":"34.35166667","lon":"48.46861111"},
{"state":"Hamadan","name":"Javar Sajin","lat":"35.28583333","lon":"49.22138889"},
{"state":"Hamadan","name":"Jerbanlu","lat":"35.58638889","lon":"48.92916667"},
{"state":"Hamadan","name":"Jighi","lat":"35.20027778","lon":"48.49388889"},
{"state":"Hamadan","name":"Jijan Kuh","lat":"34.48111111","lon":"48.50694444"},
{"state":"Hamadan","name":"Jijian Rud","lat":"34.35638889","lon":"48.60861111"},
{"state":"Hamadan","name":"Jin Taraqayah","lat":"35.34555556","lon":"48.43250000"},
{"state":"Hamadan","name":"Jowkar","lat":"34.43034520","lon":"48.67798440"},
{"state":"Hamadan","name":"Juraqan","lat":"34.88472222","lon":"48.55444444"},
{"state":"Hamadan","name":"Kaboodrahang","lat":"35.20833333","lon":"48.72388889"},
{"state":"Hamadan","name":"Kabudrahang","lat":"35.20939460","lon":"48.70679130"},
{"state":"Hamadan","name":"Kahard","lat":"35.28555556","lon":"49.00527778"},
{"state":"Hamadan","name":"Kahkadan","lat":"34.14388889","lon":"48.65805556"},
{"state":"Hamadan","name":"Kahriz-e Baba Hoseyn","lat":"35.53388889","lon":"47.94027778"},
{"state":"Hamadan","name":"Kahriz-e Boqazi","lat":"35.51138889","lon":"48.81833333"},
{"state":"Hamadan","name":"Kahriz-e Hoseynabad-e Nazem","lat":"34.31888889","lon":"48.62777778"},
{"state":"Hamadan","name":"Kahriz-e Jamal","lat":"34.33500000","lon":"48.14611111"},
{"state":"Hamadan","name":"Kahriz-e Salim","lat":"34.32888889","lon":"48.16222222"},
{"state":"Hamadan","name":"Kal Kabud","lat":"35.48083333","lon":"48.85277778"},
{"state":"Hamadan","name":"Kalb Hesari","lat":"35.36694444","lon":"48.39583333"},
{"state":"Hamadan","name":"Kalilabad","lat":"34.33916667","lon":"48.54472222"},
{"state":"Hamadan","name":"Kamak-e Sofla","lat":"34.88750000","lon":"47.96861111"},
{"state":"Hamadan","name":"Kamar Boneh","lat":"34.17500000","lon":"48.63500000"},
{"state":"Hamadan","name":"Kamazan","lat":"34.15083333","lon":"48.95333333"},
{"state":"Hamadan","name":"Kand Halan","lat":"34.50111111","lon":"48.78194444"},
{"state":"Hamadan","name":"Kand Tappeh","lat":"35.20138889","lon":"48.30555556"},
{"state":"Hamadan","name":"Kand-e Bolaghi","lat":"35.43000000","lon":"48.32277778"},
{"state":"Hamadan","name":"Kangavar-e Kohneh","lat":"34.34194444","lon":"47.97611111"},
{"state":"Hamadan","name":"Karafs","lat":"35.36333333","lon":"49.29888889"},
{"state":"Hamadan","name":"Kark-e Sofla","lat":"34.16944444","lon":"48.29138889"},
{"state":"Hamadan","name":"Kartilabad","lat":"34.31361111","lon":"48.64916667"},
{"state":"Hamadan","name":"Kasavand","lat":"34.15222222","lon":"48.96972222"},
{"state":"Hamadan","name":"Kaslan Qayah","lat":"35.19388889","lon":"48.18611111"},
{"state":"Hamadan","name":"Kavanaj","lat":"34.66388889","lon":"47.89694444"},
{"state":"Hamadan","name":"Kesb","lat":"34.41416667","lon":"48.72250000"},
{"state":"Hamadan","name":"Keykaleh","lat":"34.11500000","lon":"48.93916667"},
{"state":"Hamadan","name":"Keyni Sayeh","lat":"34.82583333","lon":"47.88638889"},
{"state":"Hamadan","name":"Khabar Arkhi","lat":"35.36333333","lon":"48.27666667"},
{"state":"Hamadan","name":"Khaku","lat":"34.72638889","lon":"48.53638889"},
{"state":"Hamadan","name":"Khaleq Verdi","lat":"35.41083333","lon":"48.18111111"},
{"state":"Hamadan","name":"Khalil Kord","lat":"34.97805556","lon":"48.25305556"},
{"state":"Hamadan","name":"Kheradmand","lat":"34.62583333","lon":"48.93138889"},
{"state":"Hamadan","name":"Kheyr Qoli","lat":"34.20222222","lon":"48.40138889"},
{"state":"Hamadan","name":"Khomeygan","lat":"35.36972222","lon":"49.02333333"},
{"state":"Hamadan","name":"Khvajeh Hesar","lat":"35.00000000","lon":"49.33916667"},
{"state":"Hamadan","name":"Khvajeh Hoseyni","lat":"34.15500000","lon":"48.37861111"},
{"state":"Hamadan","name":"Khvajeh Kandi","lat":"35.36194444","lon":"48.38500000"},
{"state":"Hamadan","name":"Khvoshab-e Sofla","lat":"35.01777778","lon":"48.35750000"},
{"state":"Hamadan","name":"Kitu","lat":"35.31972222","lon":"48.15333333"},
{"state":"Hamadan","name":"Kohnush","lat":"34.72583333","lon":"48.27777778"},
{"state":"Hamadan","name":"Kolanjan","lat":"34.59444444","lon":"48.39250000"},
{"state":"Hamadan","name":"Konjineh","lat":"34.79222222","lon":"48.62972222"},
{"state":"Hamadan","name":"Kord Bolagh","lat":"34.76722222","lon":"48.65277778"},
{"state":"Hamadan","name":"Korzan","lat":"34.59444444","lon":"48.35361111"},
{"state":"Hamadan","name":"Kowzareh","lat":"34.69861100","lon":"49.01138900"},
{"state":"Hamadan","name":"Kuhani","lat":"34.15388900","lon":"48.40500000"},
{"state":"Hamadan","name":"Kur Kahriz","lat":"34.71722222","lon":"48.77333333"},
{"state":"Hamadan","name":"Kusaj Khalil","lat":"34.40416667","lon":"48.58805556"},
{"state":"Hamadan","name":"Kutah Darreh","lat":"34.32055556","lon":"47.95388889"},
{"state":"Hamadan","name":"Laleh Dan","lat":"35.58111111","lon":"48.95416667"},
{"state":"Hamadan","name":"Lalejin","lat":"34.97444444","lon":"48.47555556"},
{"state":"Hamadan","name":"Lamiyan","lat":"34.46277778","lon":"48.19277778"},
{"state":"Hamadan","name":"Latgah","lat":"34.98944400","lon":"48.54638900"},
{"state":"Hamadan","name":"Lavashan","lat":"34.25055556","lon":"48.27416667"},
{"state":"Hamadan","name":"Leyli Yadegar","lat":"34.28583333","lon":"48.21027778"},
{"state":"Hamadan","name":"Luluhar","lat":"34.31611111","lon":"48.45416667"},
{"state":"Hamadan","name":"Mahanabad","lat":"34.18083333","lon":"48.20972222"},
{"state":"Hamadan","name":"Mahbar","lat":"34.87611111","lon":"48.80777778"},
{"state":"Hamadan","name":"Mahdaviyeh","lat":"34.08333333","lon":"48.88333333"},
{"state":"Hamadan","name":"Mahnian","lat":"35.50250000","lon":"49.06583333"},
{"state":"Hamadan","name":"Malayer","lat":"34.29416667","lon":"48.82000000"},
{"state":"Hamadan","name":"Malek-e Ashtar","lat":"34.95222222","lon":"48.31500000"},
{"state":"Hamadan","name":"Malusan","lat":"34.32333333","lon":"48.33000000"},
{"state":"Hamadan","name":"Mangavi","lat":"34.65750000","lon":"48.70861111"},
{"state":"Hamadan","name":"Marvil","lat":"34.16805556","lon":"48.88694444"},
{"state":"Hamadan","name":"Maryanaj","lat":"34.83083333","lon":"48.45916667"},
{"state":"Hamadan","name":"Masjedin","lat":"35.54277778","lon":"48.26333333"},
{"state":"Hamadan","name":"Menjan","lat":"34.44805556","lon":"48.23555556"},
{"state":"Hamadan","name":"Mesinak","lat":"35.27222222","lon":"49.15111111"},
{"state":"Hamadan","name":"Meyvaleh","lat":"34.83194444","lon":"47.85527778"},
{"state":"Hamadan","name":"Mianzulan","lat":"34.31222222","lon":"48.51555556"},
{"state":"Hamadan","name":"Mihamleh-ye Sofla","lat":"35.10000000","lon":"48.30805556"},
{"state":"Hamadan","name":"Milab","lat":"34.05277778","lon":"48.47972222"},
{"state":"Hamadan","name":"Mirza Hesari","lat":"35.12750000","lon":"48.45944400"},
{"state":"Hamadan","name":"Mishen","lat":"34.15750000","lon":"48.92722222"},
{"state":"Hamadan","name":"Mobarakin","lat":"35.09805556","lon":"49.42416667"},
{"state":"Hamadan","name":"Mohajeran","lat":"35.07388889","lon":"48.61666667"},
{"state":"Hamadan","name":"Mohammadabad-e Chulak","lat":"34.24666667","lon":"48.30444444"},
{"state":"Hamadan","name":"Mohammadiyeh-e Sofla","lat":"34.14611111","lon":"48.33861111"},
{"state":"Hamadan","name":"Mohara","lat":"34.55527778","lon":"48.86861111"},
{"state":"Hamadan","name":"Mokarrabi","lat":"34.62500000","lon":"48.69777778"},
{"state":"Hamadan","name":"Molham Darreh","lat":"34.83138889","lon":"48.14527778"},
{"state":"Hamadan","name":"Molla Bodagh","lat":"35.63138889","lon":"48.73888889"},
{"state":"Hamadan","name":"Monavvar Tappeh","lat":"34.72027778","lon":"47.91111111"},
{"state":"Hamadan","name":"Morghabad","lat":"35.18833333","lon":"49.28277778"},
{"state":"Hamadan","name":"Mowdaran","lat":"34.33250000","lon":"48.47138889"},
{"state":"Hamadan","name":"Musa Bolaghi","lat":"34.59888889","lon":"48.94111111"},
{"state":"Hamadan","name":"Nahandar","lat":"34.14944444","lon":"48.96833333"},
{"state":"Hamadan","name":"Nahavand","lat":"34.18833333","lon":"48.37694444"},
{"state":"Hamadan","name":"Najafiyeh","lat":"34.55500000","lon":"48.38638889"},
{"state":"Hamadan","name":"Nakilabad","lat":"34.36777778","lon":"48.65694444"},
{"state":"Hamadan","name":"Nakin","lat":"35.38805556","lon":"49.26527778"},
{"state":"Hamadan","name":"Namileh","lat":"34.27111111","lon":"48.82000000"},
{"state":"Hamadan","name":"Nanaj","lat":"34.42000000","lon":"48.75388889"},
{"state":"Hamadan","name":"Nazul","lat":"34.22833333","lon":"48.71805556"},
{"state":"Hamadan","name":"Negar Khatun","lat":"35.11861111","lon":"48.92555556"},
{"state":"Hamadan","name":"Negarabad","lat":"35.47583333","lon":"48.53277778"},
{"state":"Hamadan","name":"Nehenjeh","lat":"34.54111111","lon":"48.71722222"},
{"state":"Hamadan","name":"Nesar","lat":"34.07694444","lon":"48.46861111"},
{"state":"Hamadan","name":"Neshar","lat":"34.67722222","lon":"48.86694444"},
{"state":"Hamadan","name":"Niyanj","lat":"35.34861111","lon":"48.91722222"},
{"state":"Hamadan","name":"Nosratabad-e Behraz","lat":"34.69222222","lon":"48.08555556"},
{"state":"Hamadan","name":"Nosratabad-e Laklak","lat":"34.66472222","lon":"47.96277778"},
{"state":"Hamadan","name":"Nurabad-e Simineh","lat":"34.82194444","lon":"48.29277778"},
{"state":"Hamadan","name":"Ojaq","lat":"35.64000000","lon":"48.84583333"},
{"state":"Hamadan","name":"Ommatlar","lat":"35.43611111","lon":"48.96861111"},
{"state":"Hamadan","name":"Oshtoran","lat":"34.63805556","lon":"48.29555556"},
{"state":"Hamadan","name":"Oshtorjin","lat":"34.77583333","lon":"48.17222222"},
{"state":"Hamadan","name":"Ovraqin","lat":"35.28222222","lon":"48.69111111"},
{"state":"Hamadan","name":"Owrteh Qamish","lat":"35.57083333","lon":"48.62916667"},
{"state":"Hamadan","name":"Owryad","lat":"35.26277778","lon":"48.37250000"},
{"state":"Hamadan","name":"Pahnabad","lat":"34.84166667","lon":"48.61472222"},
{"state":"Hamadan","name":"Panbeh Dar","lat":"34.06527778","lon":"48.44555556"},
{"state":"Hamadan","name":"Parluk","lat":"35.06555556","lon":"48.24611111"},
{"state":"Hamadan","name":"Parvaraq","lat":"35.15583333","lon":"48.76777778"},
{"state":"Hamadan","name":"Payandeh","lat":"35.44194444","lon":"48.85305556"},
{"state":"Hamadan","name":"Peyhan","lat":"34.12972222","lon":"48.86750000"},
{"state":"Hamadan","name":"Pileh Jin","lat":"35.38388889","lon":"48.85583333"},
{"state":"Hamadan","name":"Pir Anbar","lat":"35.24250000","lon":"48.51361111"},
{"state":"Hamadan","name":"Pir Badam","lat":"35.56722222","lon":"48.13888889"},
{"state":"Hamadan","name":"Pir Khodaverdi","lat":"34.32500000","lon":"48.92861111"},
{"state":"Hamadan","name":"Pir Malu","lat":"34.91222222","lon":"48.06611111"},
{"state":"Hamadan","name":"Pir Mishan","lat":"34.39166667","lon":"48.66611111"},
{"state":"Hamadan","name":"Pir Savaran","lat":"34.11805556","lon":"48.77861111"},
{"state":"Hamadan","name":"Pir Yusof","lat":"34.68888889","lon":"47.89277778"},
{"state":"Hamadan","name":"Piruz","lat":"34.13500000","lon":"49.04527778"},
{"state":"Hamadan","name":"Poshtjin","lat":"35.31416667","lon":"49.07166667"},
{"state":"Hamadan","name":"Qabanqoli","lat":"35.19833333","lon":"49.17833333"},
{"state":"Hamadan","name":"Qader Khalaj","lat":"35.40111111","lon":"48.73000000"},
{"state":"Hamadan","name":"Qadimi","lat":"34.65194444","lon":"48.73666667"},
{"state":"Hamadan","name":"Qahavand","lat":"34.86027778","lon":"49.00472222"},
{"state":"Hamadan","name":"Qajar Ab-e Sofla","lat":"34.43527778","lon":"48.97527778"},
{"state":"Hamadan","name":"Qarah Day","lat":"35.12527778","lon":"49.28222222"},
{"state":"Hamadan","name":"Qarah Tegini","lat":"34.44027778","lon":"48.93555556"},
{"state":"Hamadan","name":"Qaranqu Darreh","lat":"35.51305556","lon":"48.17750000"},
{"state":"Hamadan","name":"Qasabestan","lat":"34.42000000","lon":"48.18777778"},
{"state":"Hamadan","name":"Qasemabad-e Laklak","lat":"34.67527778","lon":"47.97222222"},
{"state":"Hamadan","name":"Qater Owlan","lat":"35.37527778","lon":"48.93166667"},
{"state":"Hamadan","name":"Qayesh","lat":"35.49611111","lon":"48.86694444"},
{"state":"Hamadan","name":"Qazan Qarah","lat":"35.66190000","lon":"48.08220000"},
{"state":"Hamadan","name":"Qazi Mardan","lat":"34.77694444","lon":"48.01416667"},
{"state":"Hamadan","name":"Qeshlaq Baba Rostam","lat":"34.14194444","lon":"48.36250000"},
{"state":"Hamadan","name":"Qeshlaq-e Anuch","lat":"34.11611111","lon":"48.57777778"},
{"state":"Hamadan","name":"Qeshlaq-e Deh Ful","lat":"34.24388889","lon":"48.33750000"},
{"state":"Hamadan","name":"Qeshlaq-e Dehnow","lat":"34.50000000","lon":"48.56666667"},
{"state":"Hamadan","name":"Qeshlaq-e Mohammadi","lat":"34.06666667","lon":"48.91666667"},
{"state":"Hamadan","name":"Qeshlaq-e Najaf","lat":"34.37222222","lon":"48.24500000"},
{"state":"Hamadan","name":"Qeshlaq-e Pust Shuran","lat":"34.40305556","lon":"48.21638889"},
{"state":"Hamadan","name":"Qeshlaq-e Qobad","lat":"34.58777778","lon":"48.89583333"},
{"state":"Hamadan","name":"Qeshlaq-e Shirazi","lat":"34.38388889","lon":"48.93916667"},
{"state":"Hamadan","name":"Qeshlaq-e Sofla","lat":"34.70083333","lon":"49.06972222"},
{"state":"Hamadan","name":"Qeshlaq-e Valiollah","lat":"34.35222222","lon":"48.22416667"},
{"state":"Hamadan","name":"Qeydli Bolagh","lat":"35.01500000","lon":"48.28750000"},
{"state":"Hamadan","name":"Qilab","lat":"34.30444444","lon":"48.06083333"},
{"state":"Hamadan","name":"Qohurd-e Sofla","lat":"35.47111100","lon":"48.05944400"},
{"state":"Hamadan","name":"Qoli Laleh-ye Sofla","lat":"34.52805556","lon":"48.25972222"},
{"state":"Hamadan","name":"Qolqolabad","lat":"35.13083333","lon":"49.29083333"},
{"state":"Hamadan","name":"Qorveh-e Darjazin","lat":"35.31264740","lon":"49.08991810"},
{"state":"Hamadan","name":"Quch Tappeh","lat":"34.92722222","lon":"48.02611111"},
{"state":"Hamadan","name":"Qushjeh","lat":"35.66416667","lon":"48.30555556"},
{"state":"Hamadan","name":"Rahmanabad Malayer","lat":"34.08861111","lon":"48.58555556"},
{"state":"Hamadan","name":"Ramishan","lat":"35.15972222","lon":"48.80500000"},
{"state":"Hamadan","name":"Rastguyan","lat":"34.91666667","lon":"48.21666667"},
{"state":"Hamadan","name":"Rasulabad-e Sofla","lat":"34.87888889","lon":"48.21861111"},
{"state":"Hamadan","name":"Ravand-e Vosta","lat":"34.13333333","lon":"48.34916667"},
{"state":"Hamadan","name":"Rayegan-e Sofla","lat":"35.07111100","lon":"48.66333300"},
{"state":"Hamadan","name":"Razaj","lat":"34.89527778","lon":"49.14666667"},
{"state":"Hamadan","name":"Razan","lat":"35.38638889","lon":"49.03361111"},
{"state":"Hamadan","name":"Razini","lat":"34.26777778","lon":"48.12611111"},
{"state":"Hamadan","name":"Reza Baghi","lat":"35.18277778","lon":"49.31444444"},
{"state":"Hamadan","name":"Rezvankadeh","lat":"34.25000000","lon":"48.83333333"},
{"state":"Hamadan","name":"Rivasijan","lat":"34.57722222","lon":"48.43194444"},
{"state":"Hamadan","name":"Robat-e Sheverin","lat":"34.86111111","lon":"48.60027778"},
{"state":"Hamadan","name":"Rud Avar","lat":"34.55055556","lon":"48.41055556"},
{"state":"Hamadan","name":"Rud-e Hasan-e Sofla","lat":"34.12444444","lon":"48.37166667"},
{"state":"Hamadan","name":"Safa Riz","lat":"35.40694444","lon":"48.30611111"},
{"state":"Hamadan","name":"Sahamabad","lat":"34.55388889","lon":"48.30472222"},
{"state":"Hamadan","name":"Salehabad","lat":"34.92361111","lon":"48.34250000"},
{"state":"Hamadan","name":"Salilak","lat":"35.25277778","lon":"49.11888889"},
{"state":"Hamadan","name":"Saluk","lat":"34.34138889","lon":"48.99305556"},
{"state":"Hamadan","name":"Samen","lat":"34.20916667","lon":"48.70583333"},
{"state":"Hamadan","name":"Sanaj","lat":"35.12222222","lon":"49.02555556"},
{"state":"Hamadan","name":"Sanjuzan","lat":"34.65611111","lon":"48.39333333"},
{"state":"Hamadan","name":"Sar Duran","lat":"34.20305556","lon":"48.26388889"},
{"state":"Hamadan","name":"Sarab-e Tajar","lat":"34.23222222","lon":"48.60638889"},
{"state":"Hamadan","name":"Saravak","lat":"35.17916667","lon":"48.94638889"},
{"state":"Hamadan","name":"Sarayjuq","lat":"35.42888889","lon":"47.96194444"},
{"state":"Hamadan","name":"Sarijlu","lat":"35.61250000","lon":"48.89222222"},
{"state":"Hamadan","name":"Sarkan","lat":"34.60166667","lon":"48.45055556"},
{"state":"Hamadan","name":"Saziyan","lat":"34.57361111","lon":"48.15361111"},
{"state":"Hamadan","name":"Sefid Khaneh","lat":"34.06972222","lon":"48.50805556"},
{"state":"Hamadan","name":"Segavi","lat":"34.58527778","lon":"48.10083333"},
{"state":"Hamadan","name":"Serkan","lat":"34.60070120","lon":"48.43862940"},
{"state":"Hamadan","name":"Setaq","lat":"35.04583300","lon":"49.29638900"},
{"state":"Hamadan","name":"Shademaneh","lat":"34.36166667","lon":"48.28055556"},
{"state":"Hamadan","name":"Shanabad","lat":"34.60888889","lon":"48.10416667"},
{"state":"Hamadan","name":"Shanjur","lat":"35.29722222","lon":"49.17638889"},
{"state":"Hamadan","name":"Sharifabad-e Quzan","lat":"34.41222222","lon":"48.82583333"},
{"state":"Hamadan","name":"Sharifabad-e Tajar","lat":"34.26472222","lon":"48.63833333"},
{"state":"Hamadan","name":"Shatzal","lat":"34.30305556","lon":"47.97388889"},
{"state":"Hamadan","name":"Shavand","lat":"35.37527778","lon":"49.20972222"},
{"state":"Hamadan","name":"Sheverin","lat":"34.80750000","lon":"48.57027778"},
{"state":"Hamadan","name":"Sheykh Jarrah","lat":"35.50222222","lon":"48.22250000"},
{"state":"Hamadan","name":"Shilandar-e Sofla","lat":"34.66750000","lon":"48.16861111"},
{"state":"Hamadan","name":"Shir Barat","lat":"35.63333333","lon":"48.38250000"},
{"state":"Hamadan","name":"Shirin Su","lat":"35.49277778","lon":"48.45055556"},
{"state":"Hamadan","name":"Shush Ab","lat":"34.35361111","lon":"48.63222222"},
{"state":"Hamadan","name":"Siah Goleh","lat":"34.94583333","lon":"47.96833333"},
{"state":"Hamadan","name":"Sib Dar","lat":"34.21694444","lon":"48.78472222"},
{"state":"Hamadan","name":"Silvar","lat":"34.74583333","lon":"48.50666667"},
{"state":"Hamadan","name":"Simin-e Abaru","lat":"34.68250000","lon":"48.58583300"},
{"state":"Hamadan","name":"Simin-e Zagheh","lat":"34.87666667","lon":"48.32166667"},
{"state":"Hamadan","name":"Siravand","lat":"34.79527778","lon":"47.99638889"},
{"state":"Hamadan","name":"Sistaneh","lat":"34.66333333","lon":"48.32055556"},
{"state":"Hamadan","name":"Solulan","lat":"34.82611111","lon":"48.42944444"},
{"state":"Hamadan","name":"Sorkh Kand","lat":"34.08750000","lon":"48.42916667"},
{"state":"Hamadan","name":"Sulijeh","lat":"35.26860000","lon":"48.33440000"},
{"state":"Hamadan","name":"Surtajin","lat":"35.53560000","lon":"49.01390000"},
{"state":"Hamadan","name":"Sutlaq","lat":"34.57640000","lon":"48.27750000"},
{"state":"Hamadan","name":"Tafrijan","lat":"34.76330000","lon":"48.58190000"},
{"state":"Hamadan","name":"Tahunabad","lat":"34.83860000","lon":"48.86640000"},
{"state":"Hamadan","name":"Tajar-e Samen","lat":"34.22560000","lon":"48.66500000"},
{"state":"Hamadan","name":"Takhtiabad","lat":"34.81220000","lon":"47.83780000"},
{"state":"Hamadan","name":"Taleh Jerd-e Sofla","lat":"34.04580000","lon":"48.87780000"},
{"state":"Hamadan","name":"Tamuzan","lat":"35.27970000","lon":"49.13280000"},
{"state":"Hamadan","name":"Tappeh Yazdan","lat":"34.33670000","lon":"48.02250000"},
{"state":"Hamadan","name":"Tappeh-ye Dibi","lat":"35.42920000","lon":"48.69420000"},
{"state":"Hamadan","name":"Taraqayah","lat":"35.31890000","lon":"48.37110000"},
{"state":"Hamadan","name":"Tarik Darreh-ye Bala","lat":"34.27330000","lon":"47.93920000"},
{"state":"Hamadan","name":"Tarkhinabad","lat":"34.81530000","lon":"48.12250000"},
{"state":"Hamadan","name":"Tas Tappeh","lat":"35.16390000","lon":"48.48330000"},
{"state":"Hamadan","name":"Tasbandi","lat":"34.56140000","lon":"48.79060000"},
{"state":"Hamadan","name":"Tasran","lat":"35.33830000","lon":"48.63390000"},
{"state":"Hamadan","name":"Tavaleh","lat":"35.15440000","lon":"49.04390000"},
{"state":"Hamadan","name":"Tavaneh","lat":"34.21138900","lon":"48.18583300"},
{"state":"Hamadan","name":"Taveh","lat":"35.11670000","lon":"49.02720000"},
{"state":"Hamadan","name":"Tavilan-e Sofla","lat":"34.79940000","lon":"47.86940000"},
{"state":"Hamadan","name":"Tazehnab-e Sofla","lat":"34.09780000","lon":"48.31530000"},
{"state":"Hamadan","name":"Termianak","lat":"34.63190000","lon":"48.17360000"},
{"state":"Hamadan","name":"Timi Jan","lat":"34.69030000","lon":"48.34140000"},
{"state":"Hamadan","name":"Tuchaqaz","lat":"34.29970000","lon":"48.71500000"},
{"state":"Hamadan","name":"Tulki Tappeh","lat":"35.49530000","lon":"48.95780000"},
{"state":"Hamadan","name":"Tusk-e Sofla","lat":"34.25000000","lon":"48.99000000"},
{"state":"Hamadan","name":"Tutal","lat":"34.51500000","lon":"49.02140000"},
{"state":"Hamadan","name":"Tuyserkan","lat":"34.54805556","lon":"48.44666667"},
{"state":"Hamadan","name":"Vafr-e Jin","lat":"34.81030000","lon":"48.38420000"},
{"state":"Hamadan","name":"Vahandeh","lat":"35.50940000","lon":"49.04750000"},
{"state":"Hamadan","name":"Vahman","lat":"34.26080000","lon":"48.27080000"},
{"state":"Hamadan","name":"Vahnan","lat":"34.79000000","lon":"48.28860000"},
{"state":"Hamadan","name":"Vali Mohammad","lat":"35.15190000","lon":"48.38060000"},
{"state":"Hamadan","name":"Vali Sir Ab","lat":"34.23280000","lon":"48.18940000"},
{"state":"Hamadan","name":"Vandarabad","lat":"34.66970000","lon":"48.07890000"},
{"state":"Hamadan","name":"Varayeneh","lat":"34.07920000","lon":"48.40560000"},
{"state":"Hamadan","name":"Varazaneh","lat":"34.18640000","lon":"48.18610000"},
{"state":"Hamadan","name":"Varchaq","lat":"34.37170000","lon":"48.89780000"},
{"state":"Hamadan","name":"Vardavard-e Sofla","lat":"34.70030000","lon":"48.29390000"},
{"state":"Hamadan","name":"Vardavard-e Vosta","lat":"34.70440000","lon":"48.30170000"},
{"state":"Hamadan","name":"Varkaneh","lat":"34.67690000","lon":"48.61920000"},
{"state":"Hamadan","name":"Varqestan","lat":"35.39640000","lon":"49.00920000"},
{"state":"Hamadan","name":"Varvazin","lat":"35.36580000","lon":"48.96060000"},
{"state":"Hamadan","name":"Vasaj","lat":"34.32060000","lon":"48.22580000"},
{"state":"Hamadan","name":"Vashur","lat":"35.23170000","lon":"48.35170000"},
{"state":"Hamadan","name":"Vasleh","lat":"35.21280000","lon":"48.34640000"},
{"state":"Hamadan","name":"Vesht","lat":"34.13860000","lon":"48.46830000"},
{"state":"Hamadan","name":"Vezendan","lat":"34.95810000","lon":"49.31250000"},
{"state":"Hamadan","name":"Yalfan","lat":"34.73640000","lon":"48.61110000"},
{"state":"Hamadan","name":"Yarom Qayah","lat":"35.06890000","lon":"49.38170000"},
{"state":"Hamadan","name":"Yaromjeh Bagh","lat":"35.51750000","lon":"48.67640000"},
{"state":"Hamadan","name":"Yeganeh","lat":"34.80720000","lon":"48.63780000"},
{"state":"Hamadan","name":"Yekanabad","lat":"34.87360000","lon":"48.45420000"},
{"state":"Hamadan","name":"Yekleh","lat":"34.87777800","lon":"49.00666700"},
{"state":"Hamadan","name":"Yeserlu","lat":"35.06110000","lon":"48.78360000"},
{"state":"Hamadan","name":"Yunes","lat":"34.15860000","lon":"48.67330000"},
{"state":"Hamadan","name":"Yunji","lat":"34.35860000","lon":"48.78170000"},
{"state":"Hamadan","name":"Zagheh-ye Anuch","lat":"34.14780000","lon":"48.55420000"},
{"state":"Hamadan","name":"Zagheh-ye Tasbandi","lat":"34.60360000","lon":"48.81110000"},
{"state":"Hamadan","name":"Zaghlijeh","lat":"35.15280000","lon":"49.37580000"},
{"state":"Hamadan","name":"Zamanabad-e Mohammadabad","lat":"34.41250000","lon":"48.64220000"},
{"state":"Hamadan","name":"Zangeneh","lat":"34.15427170","lon":"49.00369050"},
{"state":"Hamadan","name":"Zangeneh-ye Sofla","lat":"34.14670000","lon":"49.01670000"},
{"state":"Hamadan","name":"Zapon","lat":"34.38390000","lon":"48.18940000"},
{"state":"Hamadan","name":"Zaramin-e Sofla","lat":"34.19360000","lon":"48.30000000"},
{"state":"Hamadan","name":"Zarrin Bagh","lat":"34.29470000","lon":"48.05190000"},
{"state":"Hamadan","name":"Zeraq","lat":"35.07140000","lon":"49.16940000"},
{"state":"Hamadan","name":"Zirabiyeh","lat":"34.41330000","lon":"48.61690000"},
{"state":"Hormozgan","name":"Abu Musa","lat":"26.05474000","lon":"55.16243000"},
{"state":"Hormozgan","name":"Abumusa ","lat":"27.19805600","lon":"54.36861100"},
{"state":"Hormozgan","name":"Bandar Abbas","lat":"27.18650000","lon":"56.28080000"},
{"state":"Hormozgan","name":"Bandar Charak","lat":"26.73055600","lon":"54.27472200"},
{"state":"Hormozgan","name":"Bandar Khamir","lat":"26.95185270","lon":"55.57268840"},
{"state":"Hormozgan","name":"Bandar Kong","lat":"26.60285650","lon":"54.92980580"},
{"state":"Hormozgan","name":"Bandar Lengeh","lat":"26.55792000","lon":"54.88067000"},
{"state":"Hormozgan","name":"Bandar-e-Jask","lat":"25.65385140","lon":"57.76995600"},
{"state":"Hormozgan","name":"Bashagard","lat":"26.45000000","lon":"58.08333000"},
{"state":"Hormozgan","name":"Bastak","lat":"27.20000000","lon":"54.36667000"},
{"state":"Hormozgan","name":"Bikah","lat":"27.35404360","lon":"57.16993320"},
{"state":"Hormozgan","name":"Dargahan","lat":"26.95833690","lon":"56.04316930"},
{"state":"Hormozgan","name":"Dashti","lat":"27.17918870","lon":"52.99824000"},
{"state":"Hormozgan","name":"Dehbārez","lat":"27.44841050","lon":"57.16675690"},
{"state":"Hormozgan","name":"Fareghan","lat":"28.00785210","lon":"56.24459260"},
{"state":"Hormozgan","name":"Fin","lat":"27.63285790","lon":"55.88187210"},
{"state":"Hormozgan","name":"Gerouk","lat":"26.58856490","lon":"57.08517550"},
{"state":"Hormozgan","name":"Gouharan","lat":"26.59615360","lon":"57.88707010"},
{"state":"Hormozgan","name":"Haji Abad","lat":"28.31352140","lon":"55.89620570"},
{"state":"Hormozgan","name":"Hajjiabad","lat":"28.33333000","lon":"55.83333000"},
{"state":"Hormozgan","name":"Hasht Bandi","lat":"27.14586240","lon":"57.43326510"},
{"state":"Hormozgan","name":"Hormuz","lat":"27.09500000","lon":"56.45277800"},
{"state":"Hormozgan","name":"Janah","lat":"27.02755080","lon":"54.27128050"},
{"state":"Hormozgan","name":"Jask","lat":"25.88333000","lon":"58.20000000"},
{"state":"Hormozgan","name":"Khamir","lat":"27.26667000","lon":"55.55000000"},
{"state":"Hormozgan","name":"Kish","lat":"26.55778000","lon":"54.01944000"},
{"state":"Hormozgan","name":"Koshkonar","lat":"27.25012720","lon":"52.85715580"},
{"state":"Hormozgan","name":"Kouhestak","lat":"26.80426850","lon":"57.01887130"},
{"state":"Hormozgan","name":"Lemazan","lat":"27.05369130","lon":"54.83641080"},
{"state":"Hormozgan","name":"Minab","lat":"27.13104000","lon":"57.08716000"},
{"state":"Hormozgan","name":"Parsian","lat":"27.16667000","lon":"53.26667000"},
{"state":"Hormozgan","name":"Qaleh Qazi","lat":"27.44472200","lon":"56.54777800"},
{"state":"Hormozgan","name":"Qeshm","lat":"26.78333000","lon":"55.86667000"},
{"state":"Hormozgan","name":"Rudan","lat":"27.53333000","lon":"57.11667000"},
{"state":"Hormozgan","name":"Ruydar","lat":"27.46003100","lon":"55.40825820"},
{"state":"Hormozgan","name":"Sardasht Bashagard","lat":"26.45871900","lon":"57.88425900"},
{"state":"Hormozgan","name":"Sargaz","lat":"28.42563000","lon":"55.70177000"},
{"state":"Hormozgan","name":"Senderk","lat":"26.83816290","lon":"57.41788730"},
{"state":"Hormozgan","name":"Sirik","lat":"26.50000000","lon":"57.18333000"},
{"state":"Hormozgan","name":"Suzā","lat":"26.77724030","lon":"56.04379160"},
{"state":"Hormozgan","name":"Takht","lat":"27.50356930","lon":"56.62731160"},
{"state":"Hormozgan","name":"Tazian","lat":"27.29016000","lon":"56.15210300"},
{"state":"Hormozgan","name":"Tirour","lat":"27.33793880","lon":"56.95310350"},
{"state":"Hormozgan","name":"Ziyārat Ali","lat":"27.73557730","lon":"57.21072420"},
{"state":"Ilam","name":"abdanan","lat":"32.99260000","lon":"47.41980000"},
{"state":"Ilam","name":"Arkavaz","lat":"33.38544050","lon":"46.57578680"},
{"state":"Ilam","name":"Aseman Abad","lat":"33.85182450","lon":"46.44400060"},
{"state":"Ilam","name":"Badreh","lat":"33.00000000","lon":"47.25000000"},
{"state":"Ilam","name":"Balavah Tareh","lat":"33.66690070","lon":"46.80243500"},
{"state":"Ilam","name":"Bedreh","lat":"33.30662610","lon":"47.02968120"},
{"state":"Ilam","name":"Chardavol County","lat":"33.75910000","lon":"46.56980000"},
{"state":"Ilam","name":"Chovar","lat":"33.69522650","lon":"46.29299630"},
{"state":"Ilam","name":"Darreh Shahr","lat":"33.14447000","lon":"47.37990000"},
{"state":"Ilam","name":"Dehloran","lat":"32.69410000","lon":"47.26790000"},
{"state":"Ilam","name":"Delgosha","lat":"33.40633120","lon":"46.58975600"},
{"state":"Ilam","name":"Eyvan","lat":"33.90000000","lon":"46.16667000"},
{"state":"Ilam","name":"Ilam","lat":"33.63740000","lon":"46.42270000"},
{"state":"Ilam","name":"Loumar","lat":"33.56787760","lon":"46.80513740"},
{"state":"Ilam","name":"Malekshahi","lat":"33.30000000","lon":"46.55000000"},
{"state":"Ilam","name":"Maymeh","lat":"33.22788250","lon":"46.91291920"},
{"state":"Ilam","name":"Mazhin","lat":"32.95297150","lon":"47.78095720"},
{"state":"Ilam","name":"Mehr","lat":"33.43694400","lon":"46.46111100"},
{"state":"Ilam","name":"Mehran","lat":"33.12220000","lon":"46.16460000"},
{"state":"Ilam","name":"Mousiyan","lat":"32.51868160","lon":"47.36810080"},
{"state":"Ilam","name":"Murmuri ","lat":"32.72546810","lon":"47.66744610"},
{"state":"Ilam","name":"Pahleh","lat":"33.01059760","lon":"46.87927360"},
{"state":"Ilam","name":"Saleh Abad","lat":"33.47157940","lon":"46.18184570"},
{"state":"Ilam","name":"Sarabbagh","lat":"32.89856040","lon":"47.57032870"},
{"state":"Ilam","name":"Sarableh","lat":"33.76577730","lon":"46.54643580"},
{"state":"Ilam","name":"Shabab","lat":"33.74878600","lon":"46.63228510"},
{"state":"Ilam","name":"Sirvan","lat":"33.75460000","lon":"46.56651000"},
{"state":"Ilam","name":"Tohid","lat":"33.72550000","lon":"47.06850000"},
{"state":"Ilam","name":"Zarneh","lat":"33.92863690","lon":"46.17875560"},
{"state":"Isfahan","name":"Abouzeidabad","lat":"33.90165760","lon":"51.74337370"},
{"state":"Isfahan","name":"Abrisham","lat":"32.55613000","lon":"51.57325000"},
{"state":"Isfahan","name":"Afus","lat":"33.02495550","lon":"50.08812900"},
{"state":"Isfahan","name":"Alavijeh","lat":"33.05169010","lon":"51.05992540"},
{"state":"Isfahan","name":"Anarak","lat":"33.30702060","lon":"53.68767500"},
{"state":"Isfahan","name":"Aran va Bidgol","lat":"34.10000000","lon":"51.90000000"},
{"state":"Isfahan","name":"Ardestan","lat":"33.37610000","lon":"52.36940000"},
{"state":"Isfahan","name":"Asghar Abad","lat":"32.65260910","lon":"51.47119400"},
{"state":"Isfahan","name":"Askaran","lat":"32.86623280","lon":"50.84719420"},
{"state":"Isfahan","name":"Badroud","lat":"33.68939670","lon":"51.99780820"},
{"state":"Isfahan","name":"Bafrān","lat":"32.83938320","lon":"53.13662050"},
{"state":"Isfahan","name":"Baghbahadoran","lat":"32.37872850","lon":"51.18191240"},
{"state":"Isfahan","name":"Baghshad","lat":"32.38226100","lon":"51.22944130"},
{"state":"Isfahan","name":"Baharan Shahr","lat":"32.65097430","lon":"51.72070930"},
{"state":"Isfahan","name":"Baharestan","lat":"32.48391000","lon":"51.73393190"},
{"state":"Isfahan","name":"Barf Anbar","lat":"32.99523650","lon":"50.17576210"},
{"state":"Isfahan","name":"Barzok","lat":"33.77699410","lon":"51.19740420"},
{"state":"Isfahan","name":"Borkhvar","lat":"32.98333000","lon":"51.76667000"},
{"state":"Isfahan","name":"Buin va Miandasht","lat":"33.07241000","lon":"50.14641000"},
{"state":"Isfahan","name":"Chadegan","lat":"32.76825000","lon":"50.62873000"},
{"state":"Isfahan","name":"Chamgordan","lat":"32.39291670","lon":"51.33082860"},
{"state":"Isfahan","name":"Chermahin","lat":"32.32433430","lon":"51.14324500"},
{"state":"Isfahan","name":"Damaneh","lat":"33.01758740","lon":"50.47904490"},
{"state":"Isfahan","name":"Daran","lat":"32.98871000","lon":"50.41267000"},
{"state":"Isfahan","name":"Dastgerd","lat":"32.80222710","lon":"51.65711400"},
{"state":"Isfahan","name":"Dehagh","lat":"33.10728330","lon":"50.93896840"},
{"state":"Isfahan","name":"Dehaghan","lat":"31.93724900","lon":"51.64522640"},
{"state":"Isfahan","name":"Dehaqan","lat":"31.94004000","lon":"51.64786000"},
{"state":"Isfahan","name":"Diziche","lat":"32.40433490","lon":"51.48476550"},
{"state":"Isfahan","name":"Dolatabad","lat":"32.80826470","lon":"51.67975170"},
{"state":"Isfahan","name":"Dorcheh","lat":"32.61500960","lon":"51.53461450"},
{"state":"Isfahan","name":"Dorcheh Piaz","lat":"32.61528000","lon":"51.55556000"},
{"state":"Isfahan","name":"Dowlatabad","lat":"32.79978000","lon":"51.69553000"},
{"state":"Isfahan","name":"Esfahan","lat":"32.26667000","lon":"52.45000000"},
{"state":"Isfahan","name":"Ezhieh","lat":"32.44236700","lon":"52.37182610"},
{"state":"Isfahan","name":"Falavarjan","lat":"32.55530000","lon":"51.50973000"},
{"state":"Isfahan","name":"Fareydunshahr","lat":"32.94098000","lon":"50.12100000"},
{"state":"Isfahan","name":"Farrokhi","lat":"33.84195750","lon":"54.94378560"},
{"state":"Isfahan","name":"Fereydan","lat":"33.10000000","lon":"50.26667000"},
{"state":"Isfahan","name":"Fereydun Shahr","lat":"32.93718600","lon":"50.12029390"},
{"state":"Isfahan","name":"Fooladshahr","lat":"32.52549510","lon":"51.29630090"},
{"state":"Isfahan","name":"Gazborkhar","lat":"32.80222200","lon":"51.62111100"},
{"state":"Isfahan","name":"Ghahderijan","lat":"32.56889540","lon":"51.40953480"},
{"state":"Isfahan","name":"Ghamsar","lat":"33.74066420","lon":"51.41000730"},
{"state":"Isfahan","name":"Goldasht","lat":"32.62173270","lon":"51.42737730"},
{"state":"Isfahan","name":"Golpayegan","lat":"33.45370000","lon":"50.28836000"},
{"state":"Isfahan","name":"Golshahr","lat":"33.50595700","lon":"50.45278070"},
{"state":"Isfahan","name":"Golshan","lat":"31.92651440","lon":"51.72279540"},
{"state":"Isfahan","name":"Googad","lat":"33.47637670","lon":"50.34423700"},
{"state":"Isfahan","name":"Gorgab","lat":"32.86625040","lon":"51.58879270"},
{"state":"Isfahan","name":"Habibabad","lat":"32.83124240","lon":"51.76599030"},
{"state":"Isfahan","name":"Hanna","lat":"31.19744850","lon":"51.71396600"},
{"state":"Isfahan","name":"Harand","lat":"32.57486500","lon":"52.39937730"},
{"state":"Isfahan","name":"Hassan Abad","lat":"32.13927970","lon":"52.62129300"},
{"state":"Isfahan","name":"Imanshahr","lat":"32.48392420","lon":"51.43493040"},
{"state":"Isfahan","name":"Isfahan","lat":"32.65246000","lon":"51.67462000"},
{"state":"Isfahan","name":"Jandaq","lat":"34.04261310","lon":"54.40511230"},
{"state":"Isfahan","name":"Josheqaneqali","lat":"33.55601380","lon":"51.13534680"},
{"state":"Isfahan","name":"Jowsheqan va Kamu","lat":"33.60000000","lon":"51.23333300"},
{"state":"Isfahan","name":"Jowzdan","lat":"32.55601720","lon":"51.35696400"},
{"state":"Isfahan","name":"Kahrizsang","lat":"32.63252520","lon":"51.46807190"},
{"state":"Isfahan","name":"Karkevand","lat":"32.34227880","lon":"51.43751610"},
{"state":"Isfahan","name":"Kashan","lat":"33.88333000","lon":"51.28333000"},
{"state":"Isfahan","name":"Kelishad and Soderjaan","lat":"32.55185850","lon":"51.52158730"},
{"state":"Isfahan","name":"Kelishad va Sudarjan","lat":"32.55118000","lon":"51.52758000"},
{"state":"Isfahan","name":"Khaled Abad","lat":"33.70071610","lon":"51.98288430"},
{"state":"Isfahan","name":"Khansar","lat":"33.26748190","lon":"50.24871590"},
{"state":"Isfahan","name":"Khomeyni Shahr","lat":"32.68560000","lon":"51.53609000"},
{"state":"Isfahan","name":"Khorzugh","lat":"32.78003800","lon":"51.62544240"},
{"state":"Isfahan","name":"Khur","lat":"33.77512000","lon":"55.08329000"},
{"state":"Isfahan","name":"Khvansar","lat":"33.22052000","lon":"50.31497000"},
{"state":"Isfahan","name":"Komeh","lat":"31.06320870","lon":"51.58456560"},
{"state":"Isfahan","name":"Komshecheh","lat":"32.90664920","lon":"51.80178170"},
{"state":"Isfahan","name":"Kooshk","lat":"32.63866920","lon":"51.49090280"},
{"state":"Isfahan","name":"Kuhpayeh","lat":"32.70287470","lon":"52.42220820"},
{"state":"Isfahan","name":"Laybid","lat":"33.45682060","lon":"50.68666930"},
{"state":"Isfahan","name":"Lenjan","lat":"32.36667000","lon":"51.20000000"},
{"state":"Isfahan","name":"Mahabad","lat":"33.52890960","lon":"52.21336130"},
{"state":"Isfahan","name":"Majlesi","lat":"32.19536780","lon":"51.48369300"},
{"state":"Isfahan","name":"Manzariyeh","lat":"31.94638130","lon":"51.87130450"},
{"state":"Isfahan","name":"Mashkat","lat":"34.18385200","lon":"51.25709940"},
{"state":"Isfahan","name":"Meymeh","lat":"33.44504910","lon":"51.16345880"},
{"state":"Isfahan","name":"Mobarakeh","lat":"32.34651000","lon":"51.50449000"},
{"state":"Isfahan","name":"Mohammad Abad","lat":"32.31742670","lon":"52.09172950"},
{"state":"Isfahan","name":"Naein","lat":"32.86148940","lon":"53.07443600"},
{"state":"Isfahan","name":"Nain","lat":"32.86006000","lon":"53.08749000"},
{"state":"Isfahan","name":"Najafabad","lat":"32.63440000","lon":"51.36680000"},
{"state":"Isfahan","name":"Nasr Abad","lat":"32.28016610","lon":"52.05294370"},
{"state":"Isfahan","name":"Natanz","lat":"33.51118000","lon":"51.91808000"},
{"state":"Isfahan","name":"Niasar","lat":"33.97745700","lon":"51.14122850"},
{"state":"Isfahan","name":"Nik Abad","lat":"32.30380070","lon":"52.18973630"},
{"state":"Isfahan","name":"Nushabad","lat":"34.07957060","lon":"51.42786020"},
{"state":"Isfahan","name":"Pir Bakran","lat":"32.46747760","lon":"51.53905380"},
{"state":"Isfahan","name":"Qahderijan","lat":"32.57670000","lon":"51.45500000"},
{"state":"Isfahan","name":"Qahjavarestan","lat":"32.70272036","lon":"51.82802440"},
{"state":"Isfahan","name":"Rehnan","lat":"32.68325000","lon":"51.60158000"},
{"state":"Isfahan","name":"Rezvanshahr","lat":"32.66581050","lon":"51.02359710"},
{"state":"Isfahan","name":"Rezveh","lat":"32.83687710","lon":"50.56521890"},
{"state":"Isfahan","name":"Sedeh Lenjan","lat":"32.37447790","lon":"51.30912400"},
{"state":"Isfahan","name":"Sefid Shahr","lat":"34.12406120","lon":"51.34705070"},
{"state":"Isfahan","name":"Sejzi","lat":"32.69866640","lon":"52.06674040"},
{"state":"Isfahan","name":"Semirom","lat":"31.30000000","lon":"51.53333000"},
{"state":"Isfahan","name":"Shahin Shahr","lat":"32.85788000","lon":"51.55290000"},
{"state":"Isfahan","name":"Shahreza","lat":"32.00890000","lon":"51.86680000"},
{"state":"Isfahan","name":"Shapur Abad","lat":"32.84337640","lon":"51.73918970"},
{"state":"Isfahan","name":"Sin","lat":"32.85028040","lon":"51.64761890"},
{"state":"Isfahan","name":"Talkhooncheh","lat":"32.24999310","lon":"51.51884030"},
{"state":"Isfahan","name":"Tarq Rud","lat":"33.34682690","lon":"51.79114390"},
{"state":"Isfahan","name":"Tiran","lat":"32.70260000","lon":"51.15370000"},
{"state":"Isfahan","name":"Toodeshk","lat":"32.72089190","lon":"52.65622610"},
{"state":"Isfahan","name":"Vanak","lat":"31.52755750","lon":"51.32147620"},
{"state":"Isfahan","name":"Varnamkhast","lat":"32.35522120","lon":"51.37205960"},
{"state":"Isfahan","name":"Varzaneh","lat":"32.41767450","lon":"52.63817870"},
{"state":"Isfahan","name":"Vazvan","lat":"33.41799110","lon":"51.17397300"},
{"state":"Isfahan","name":"Zarinshahr","lat":"32.41176360","lon":"51.36318620"},
{"state":"Isfahan","name":"Zarrin Shahr","lat":"32.38970000","lon":"51.37660000"},
{"state":"Isfahan","name":"Zavareh","lat":"33.44411680","lon":"52.46542430"},
{"state":"Isfahan","name":"Zayandehrod","lat":"32.38257720","lon":"51.25747000"},
{"state":"Isfahan","name":"Zazeran","lat":"32.59599600","lon":"51.48399340"},
{"state":"Isfahan","name":"Ziar","lat":"32.51124460","lon":"51.92680470"},
{"state":"Isfahan","name":"Zibashahr","lat":"32.38680810","lon":"51.54482590"},
{"state":"Kerman","name":"Aminshahr ","lat":"30.84221360","lon":"55.33205130"},
{"state":"Kerman","name":"Anar","lat":"30.85000000","lon":"55.35000000"},
{"state":"Kerman","name":"Anbarabad","lat":"28.43333000","lon":"58.16667000"},
{"state":"Kerman","name":"Andouhjerd","lat":"30.23285440","lon":"57.73551450"},
{"state":"Kerman","name":"Baft","lat":"29.23310000","lon":"56.60220000"},
{"state":"Kerman","name":"Bagheyn","lat":"30.18547660","lon":"56.80399410"},
{"state":"Kerman","name":"Bahreman","lat":"30.90036410","lon":"55.71686260"},
{"state":"Kerman","name":"Balvard","lat":"29.42318820","lon":"56.03645320"},
{"state":"Kerman","name":"Bam","lat":"29.06667000","lon":"58.23333000"},
{"state":"Kerman","name":"Baravat","lat":"29.06156180","lon":"58.38503770"},
{"state":"Kerman","name":"Bardsir","lat":"29.92266000","lon":"56.57433000"},
{"state":"Kerman","name":"Bezanjan","lat":"29.24761330","lon":"56.68898110"},
{"state":"Kerman","name":"Boluk","lat":"28.23060410","lon":"57.50465150"},
{"state":"Kerman","name":"Chatroud","lat":"30.60212460","lon":"56.90428730"},
{"state":"Kerman","name":"Darb-e Behesht","lat":"29.23461930","lon":"57.33000760"},
{"state":"Kerman","name":"Dashtkar","lat":"29.90690010","lon":"56.65785420"},
{"state":"Kerman","name":"Dehaj","lat":"30.69372360","lon":"54.86387720"},
{"state":"Kerman","name":"Dow Sari","lat":"28.42500000","lon":"57.94250000"},
{"state":"Kerman","name":"Ekhteyarabad","lat":"30.32721010","lon":"56.90308550"},
{"state":"Kerman","name":"Fahraj","lat":"28.94585560","lon":"58.87598980"},
{"state":"Kerman","name":"Faryab","lat":"28.20000000","lon":"57.21667000"},
{"state":"Kerman","name":"Ghalehganj","lat":"27.52440690","lon":"57.85301680"},
{"state":"Kerman","name":"Golbāf","lat":"29.88492820","lon":"57.71448600"},
{"state":"Kerman","name":"Golzar","lat":"29.70544120","lon":"57.02460030"},
{"state":"Kerman","name":"Gonbaki","lat":"28.71475080","lon":"58.84328830"},
{"state":"Kerman","name":"Hanza","lat":"29.29845610","lon":"57.17977030"},
{"state":"Kerman","name":"Hojedk","lat":"30.75808180","lon":"56.98747860"},
{"state":"Kerman","name":"Homashahr","lat":"29.64449710","lon":"55.80265050"},
{"state":"Kerman","name":"Jebalbarez","lat":"28.90703670","lon":"57.88232800"},
{"state":"Kerman","name":"Jiroft","lat":"28.83333000","lon":"57.58333000"},
{"state":"Kerman","name":"Joupar","lat":"30.05605440","lon":"57.09809280"},
{"state":"Kerman","name":"Jowzam","lat":"30.51302580","lon":"55.02259970"},
{"state":"Kerman","name":"Kahnooj","lat":"27.97934880","lon":"57.66592480"},
{"state":"Kerman","name":"Kahnuj","lat":"27.90000000","lon":"57.61667000"},
{"state":"Kerman","name":"Kazem Abad","lat":"30.56691630","lon":"56.83686730"},
{"state":"Kerman","name":"Kerman","lat":"30.28321000","lon":"57.07879000"},
{"state":"Kerman","name":"Khajoo Shahr","lat":"29.27247370","lon":"55.82664020"},
{"state":"Kerman","name":"Khanook","lat":"30.71558630","lon":"56.75333240"},
{"state":"Kerman","name":"KhatonAbad","lat":"30.00947510","lon":"55.41270020"},
{"state":"Kerman","name":"Khursand","lat":"30.15484910","lon":"55.07781030"},
{"state":"Kerman","name":"Kian Shahr","lat":"31.13444000","lon":"56.39806000"},
{"state":"Kerman","name":"Koshkuiyeh","lat":"30.52904570","lon":"55.63227370"},
{"state":"Kerman","name":"Kuh Sefid","lat":"29.27620000","lon":"56.80140000"},
{"state":"Kerman","name":"Kuhbanan","lat":"31.38333000","lon":"56.33333000"},
{"state":"Kerman","name":"Laleh zaar","lat":"29.52051620","lon":"56.80753450"},
{"state":"Kerman","name":"Mahan","lat":"30.06414420","lon":"57.25602090"},
{"state":"Kerman","name":"Manoojan","lat":"27.36824920","lon":"57.20289640"},
{"state":"Kerman","name":"Manujan","lat":"27.35000000","lon":"57.61667000"},
{"state":"Kerman","name":"Mardehak","lat":"28.35363910","lon":"58.14999100"},
{"state":"Kerman","name":"Mohammadabad","lat":"28.62839590","lon":"59.11886930"},
{"state":"Kerman","name":"MohyAbad","lat":"30.08404130","lon":"57.15257410"},
{"state":"Kerman","name":"Najaf Shahr","lat":"29.39739100","lon":"55.70182060"},
{"state":"Kerman","name":"Narmashir","lat":"29.26667000","lon":"58.73333000"},
{"state":"Kerman","name":"Negar","lat":"29.85702120","lon":"56.79398410"},
{"state":"Kerman","name":"Nezamshahr","lat":"28.91611100","lon":"58.55027800"},
{"state":"Kerman","name":"Nodej","lat":"27.53194030","lon":"57.44420510"},
{"state":"Kerman","name":"Orzueeyeh","lat":"28.45839080","lon":"56.35321770"},
{"state":"Kerman","name":"Orzuiyeh","lat":"28.46667000","lon":"56.53333000"},
{"state":"Kerman","name":"Pariz","lat":"29.87880940","lon":"55.72693730"},
{"state":"Kerman","name":"Qaleh Ganj","lat":"27.20000000","lon":"58.33333000"},
{"state":"Kerman","name":"Rabor","lat":"29.25000000","lon":"56.98333000"},
{"state":"Kerman","name":"Rafsanjan","lat":"30.40670000","lon":"55.99390000"},
{"state":"Kerman","name":"Ravar","lat":"31.26562000","lon":"56.80545000"},
{"state":"Kerman","name":"Rayen","lat":"29.59267390","lon":"57.42716770"},
{"state":"Kerman","name":"Reyhan","lat":"30.73485380","lon":"56.68739260"},
{"state":"Kerman","name":"Rigan","lat":"28.43333000","lon":"59.15000000"},
{"state":"Kerman","name":"Rudbar","lat":"27.90000000","lon":"58.46667000"},
{"state":"Kerman","name":"Safaiyeh","lat":"30.82808130","lon":"55.80301480"},
{"state":"Kerman","name":"Shahdad","lat":"30.42195570","lon":"57.69062500"},
{"state":"Kerman","name":"Shahrak Mes Sarcheshmeh","lat":"30.00024680","lon":"55.77831730"},
{"state":"Kerman","name":"Shahrbabak","lat":"30.11650000","lon":"55.11860000"},
{"state":"Kerman","name":"Sirjan","lat":"29.45137000","lon":"55.68090000"},
{"state":"Kerman","name":"Yazdan Shahr","lat":"30.86833240","lon":"56.33342680"},
{"state":"Kerman","name":"Zangiabad","lat":"30.40467220","lon":"56.89778550"},
{"state":"Kerman","name":"Zarand","lat":"30.81271000","lon":"56.56399000"},
{"state":"Kerman","name":"Zeh-e Kalut","lat":"27.79250000","lon":"58.58694400"},
{"state":"Kerman","name":"Zeydabad","lat":"29.60092330","lon":"55.52683340"},
{"state":"Kermanshah","name":"azeh Abad","lat":"34.49698980","lon":"47.04017400"},
{"state":"Kermanshah","name":"Banevreh","lat":"34.96917880","lon":"46.35028830"},
{"state":"Kermanshah","name":"Bayangan","lat":"34.98088040","lon":"46.26785870"},
{"state":"Kermanshah","name":"Bisotun","lat":"34.39705640","lon":"47.43759150"},
{"state":"Kermanshah","name":"Dalahu","lat":"34.41667000","lon":"46.25000000"},
{"state":"Kermanshah","name":"Eslamabad-e-Gharb","lat":"34.05000000","lon":"46.66667000"},
{"state":"Kermanshah","name":"Ezgeleh","lat":"34.83314400","lon":"45.83253630"},
{"state":"Kermanshah","name":"Gahvareh","lat":"34.34416220","lon":"46.41101360"},
{"state":"Kermanshah","name":"Gilan Gharb","lat":"34.13333000","lon":"46.00000000"},
{"state":"Kermanshah","name":"Gowdin","lat":"34.50788250","lon":"48.07484150"},
{"state":"Kermanshah","name":"Halashi","lat":"34.10985920","lon":"47.08711270"},
{"state":"Kermanshah","name":"Hamil","lat":"33.93732470","lon":"46.76577320"},
{"state":"Kermanshah","name":"Harsin","lat":"34.27210000","lon":"47.58610000"},
{"state":"Kermanshah","name":"Javanrud","lat":"34.79611000","lon":"46.51722000"},
{"state":"Kermanshah","name":"Kahriz","lat":"34.38380000","lon":"47.05530000"},
{"state":"Kermanshah","name":"Kangavar","lat":"34.50430000","lon":"47.96530000"},
{"state":"Kermanshah","name":"Kerend-e Gharb","lat":"34.27801600","lon":"46.22670290"},
{"state":"Kermanshah","name":"Kermanshah","lat":"34.31417000","lon":"47.06500000"},
{"state":"Kermanshah","name":"Kuzaran","lat":"34.49665360","lon":"46.59675130"},
{"state":"Kermanshah","name":"Mansur-e Aqai","lat":"34.93651900","lon":"46.45208350"},
{"state":"Kermanshah","name":"Miyan Rahan","lat":"34.58375750","lon":"47.44153980"},
{"state":"Kermanshah","name":"Nowdeshah","lat":"35.18205130","lon":"46.24964120"},
{"state":"Kermanshah","name":"Nowsud","lat":"35.16135400","lon":"46.20011690"},
{"state":"Kermanshah","name":"Paveh","lat":"35.04340000","lon":"46.35650000"},
{"state":"Kermanshah","name":"Qasr-e Shirin","lat":"34.20000000","lon":"45.63333000"},
{"state":"Kermanshah","name":"Ravansar","lat":"34.75000000","lon":"46.65000000"},
{"state":"Kermanshah","name":"Rijab","lat":"34.48030290","lon":"46.00143560"},
{"state":"Kermanshah","name":"Robat","lat":"34.26546230","lon":"46.79866770"},
{"state":"Kermanshah","name":"Sahneh","lat":"34.58333000","lon":"47.51667000"},
{"state":"Kermanshah","name":"Salas-e Baba Jani","lat":"34.81667000","lon":"45.98333000"},
{"state":"Kermanshah","name":"Sarpol Zahab","lat":"34.50000000","lon":"45.85000000"},
{"state":"Kermanshah","name":"Satar","lat":"34.81151280","lon":"47.46012210"},
{"state":"Kermanshah","name":"Sonqor","lat":"34.78187000","lon":"47.59945000"},
{"state":"Kermanshah","name":"Soomar","lat":"33.88124650","lon":"45.63190690"},
{"state":"Kermanshah","name":"Srmast","lat":"34.50537190","lon":"47.83984780"},
{"state":"Khuzestan","name":"Abadan","lat":"30.33920000","lon":"48.30430000"},
{"state":"Khuzestan","name":"Abezhdan","lat":"32.15000000","lon":"49.40000000"},
{"state":"Khuzestan","name":"Abou Homeyzeh","lat":"31.52809530","lon":"48.21535710"},
{"state":"Khuzestan","name":"Aghajari","lat":"30.70060000","lon":"49.83150000"},
{"state":"Khuzestan","name":"Ahvaz","lat":"31.31901000","lon":"48.68420000"},
{"state":"Khuzestan","name":"Alvan","lat":"32.11138900","lon":"48.46000000"},
{"state":"Khuzestan","name":"Andika","lat":"32.16667000","lon":"49.53333000"},
{"state":"Khuzestan","name":"Andimeshk","lat":"32.70000000","lon":"48.30000000"},
{"state":"Khuzestan","name":"Arvand Kenar","lat":"30.05886160","lon":"48.43110310"},
{"state":"Khuzestan","name":"Azadi","lat":"32.40362450","lon":"48.24791910"},
{"state":"Khuzestan","name":"Bagh Malek","lat":"31.50000000","lon":"49.91667000"},
{"state":"Khuzestan","name":"Baghmalek","lat":"31.52627310","lon":"49.86389610"},
{"state":"Khuzestan","name":"Bandar Imam Khomeini","lat":"30.47897630","lon":"49.00476180"},
{"state":"Khuzestan","name":"Bandar Mahshahr","lat":"30.63333000","lon":"49.11667000"},
{"state":"Khuzestan","name":"Bavi","lat":"31.50000000","lon":"48.95000000"},
{"state":"Khuzestan","name":"Behbahan","lat":"30.56667000","lon":"50.20000000"},
{"state":"Khuzestan","name":"Bidrubeh-ye","lat":"32.76095130","lon":"48.22946550"},
{"state":"Khuzestan","name":"Bostan","lat":"31.71577230","lon":"47.97680280"},
{"state":"Khuzestan","name":"Chamgolak","lat":"32.44472130","lon":"48.43590970"},
{"state":"Khuzestan","name":"Chamran Town","lat":"30.70618820","lon":"49.15299300"},
{"state":"Khuzestan","name":"Chavibdeh","lat":"30.20361100","lon":"48.55388900"},
{"state":"Khuzestan","name":"Choghamish","lat":"32.20916700","lon":"48.54611100"},
{"state":"Khuzestan","name":"Darkhovin","lat":"30.74371380","lon":"48.41850740"},
{"state":"Khuzestan","name":"Dehdez","lat":"31.70198800","lon":"50.28124790"},
{"state":"Khuzestan","name":"Dezful","lat":"32.56667000","lon":"48.78333000"},
{"state":"Khuzestan","name":"Elhayi","lat":"31.65388900","lon":"48.59444400"},
{"state":"Khuzestan","name":"FatholMobin","lat":"32.42388900","lon":"47.81000000"},
{"state":"Khuzestan","name":"Ghale Tol","lat":"31.62757850","lon":"49.86016210"},
{"state":"Khuzestan","name":"Golgir","lat":"31.96470000","lon":"49.28560000"},
{"state":"Khuzestan","name":"Gotvand","lat":"32.21667000","lon":"48.80000000"},
{"state":"Khuzestan","name":"Guriyeh","lat":"31.85694400","lon":"48.75666700"},
{"state":"Khuzestan","name":"Haftkel","lat":"31.45494850","lon":"49.50872880"},
{"state":"Khuzestan","name":"Hamidiyeh","lat":"31.48107000","lon":"48.43303000"},
{"state":"Khuzestan","name":"Hanzeh","lat":"32.39318880","lon":"48.57371090"},
{"state":"Khuzestan","name":"Hendijan","lat":"30.33333000","lon":"49.60000000"},
{"state":"Khuzestan","name":"Horr","lat":"32.14472200","lon":"48.39250000"},
{"state":"Khuzestan","name":"Hoseyniye","lat":"32.67667910","lon":"48.23694340"},
{"state":"Khuzestan","name":"Hosseinabad ","lat":"32.05847040","lon":"48.29463110"},
{"state":"Khuzestan","name":"Hoveyzeh","lat":"31.46547330","lon":"48.06143040"},
{"state":"Khuzestan","name":"Imam","lat":"32.22777680","lon":"48.41621160"},
{"state":"Khuzestan","name":"Izeh","lat":"31.91667000","lon":"49.98333000"},
{"state":"Khuzestan","name":"Jannat Makan","lat":"32.18523730","lon":"48.80457390"},
{"state":"Khuzestan","name":"Jayezan","lat":"30.87428460","lon":"49.83620500"},
{"state":"Khuzestan","name":"Jongiyeh","lat":"31.25583000","lon":"48.61667000"},
{"state":"Khuzestan","name":"Karun","lat":"31.27618000","lon":"48.64174000"},
{"state":"Khuzestan","name":"Khorramshahr","lat":"30.44079000","lon":"48.18428000"},
{"state":"Khuzestan","name":"Khorusi-ye Jonubi","lat":"30.61666700","lon":"48.61666700"},
{"state":"Khuzestan","name":"Kut Abdollah","lat":"31.23525860","lon":"48.64282600"},
{"state":"Khuzestan","name":"Kut-e Seyyed Naim","lat":"31.46138900","lon":"48.37833300"},
{"state":"Khuzestan","name":"Lali","lat":"32.41667000","lon":"49.16667000"},
{"state":"Khuzestan","name":"Mansuriyeh","lat":"30.62827400","lon":"50.29850000"},
{"state":"Khuzestan","name":"Masjed Soleyman","lat":"31.93640000","lon":"49.30390000"},
{"state":"Khuzestan","name":"Mianrood","lat":"32.15313320","lon":"48.43118900"},
{"state":"Khuzestan","name":"Midavod","lat":"31.39148800","lon":"49.83969100"},
{"state":"Khuzestan","name":"Minushahr","lat":"30.34436130","lon":"48.18489410"},
{"state":"Khuzestan","name":"Mollasani","lat":"31.58593640","lon":"48.87006270"},
{"state":"Khuzestan","name":"Moqavemat","lat":"30.44583300","lon":"48.17083300"},
{"state":"Khuzestan","name":"Moshrageh","lat":"31.01056150","lon":"49.43022070"},
{"state":"Khuzestan","name":"Omidiyeh","lat":"30.76277000","lon":"49.70226000"},
{"state":"Khuzestan","name":"Qaleh-ye Khvajeh","lat":"32.20524790","lon":"49.44976320"},
{"state":"Khuzestan","name":"Ramhormoz","lat":"31.27997000","lon":"49.60351000"},
{"state":"Khuzestan","name":"Ramshir","lat":"30.89315000","lon":"49.40787000"},
{"state":"Khuzestan","name":"Rofayyeh","lat":"31.59772720","lon":"47.88532740"},
{"state":"Khuzestan","name":"Safiabad","lat":"32.26002660","lon":"48.40730660"},
{"state":"Khuzestan","name":"Sāland","lat":"32.49901190","lon":"48.82560250"},
{"state":"Khuzestan","name":"Salehshahr","lat":"32.21427110","lon":"48.66241680"},
{"state":"Khuzestan","name":"Sar Dasht","lat":"30.32761920","lon":"50.20910740"},
{"state":"Khuzestan","name":"Sardarabad","lat":"32.02138900","lon":"48.79277800"},
{"state":"Khuzestan","name":"Semaleh","lat":"32.19756680","lon":"48.85203840"},
{"state":"Khuzestan","name":"Seydun","lat":"31.36528970","lon":"50.07061950"},
{"state":"Khuzestan","name":"Shadegan","lat":"30.64924000","lon":"48.66497000"},
{"state":"Khuzestan","name":"Shamsabad","lat":"32.29616570","lon":"48.42367890"},
{"state":"Khuzestan","name":"Sherafat","lat":"32.08775530","lon":"48.75856870"},
{"state":"Khuzestan","name":"Sheyban","lat":"31.40816250","lon":"48.78697870"},
{"state":"Khuzestan","name":"Shooshtar","lat":"32.04102720","lon":"48.79976690"},
{"state":"Khuzestan","name":"Shush","lat":"32.19420000","lon":"48.24360000"},
{"state":"Khuzestan","name":"Shushtar","lat":"32.04972000","lon":"48.84843000"},
{"state":"Khuzestan","name":"SiahMansur","lat":"32.33225340","lon":"48.48953250"},
{"state":"Khuzestan","name":"Susangerd","lat":"31.56350000","lon":"48.18958000"},
{"state":"Khuzestan","name":"Tashan","lat":"30.82916700","lon":"50.19833300"},
{"state":"Khuzestan","name":"Torkalaki","lat":"32.24128960","lon":"48.83882040"},
{"state":"Khuzestan","name":"Veys","lat":"31.48771080","lon":"48.86967650"},
{"state":"Khuzestan","name":"Zahreh","lat":"30.46916700","lon":"49.68444400"},
{"state":"Kohgiluyeh and Boyer-Ahmad","name":"Bahmai","lat":"31.05000000","lon":"50.08333000"},
{"state":"Kohgiluyeh and Boyer-Ahmad","name":"Basht","lat":"30.45000000","lon":"51.11667000"},
{"state":"Kohgiluyeh and Boyer-Ahmad","name":"Charam","lat":"30.76667000","lon":"50.85000000"},
{"state":"Kohgiluyeh and Boyer-Ahmad","name":"Chitab","lat":"30.79500000","lon":"51.32555600"},
{"state":"Kohgiluyeh and Boyer-Ahmad","name":"Choram","lat":"30.75374640","lon":"50.73295340"},
{"state":"Kohgiluyeh and Boyer-Ahmad","name":"Dehdasht","lat":"30.79490000","lon":"50.56457000"},
{"state":"Kohgiluyeh and Boyer-Ahmad","name":"Dishmok","lat":"31.29920680","lon":"50.39264550"},
{"state":"Kohgiluyeh and Boyer-Ahmad","name":"Dogonbadan","lat":"30.35860000","lon":"50.79810000"},
{"state":"Kohgiluyeh and Boyer-Ahmad","name":"Gachsaran","lat":"30.33333000","lon":"50.75000000"},
{"state":"Kohgiluyeh and Boyer-Ahmad","name":"Garab-e Sofla","lat":"30.94722200","lon":"50.88777800"},
{"state":"Kohgiluyeh and Boyer-Ahmad","name":"Kohgiluyeh","lat":"31.03333000","lon":"50.45000000"},
{"state":"Kohgiluyeh and Boyer-Ahmad","name":"Landeh","lat":"30.97994000","lon":"50.42469000"},
{"state":"Kohgiluyeh and Boyer-Ahmad","name":"Lendeh","lat":"30.97781800","lon":"50.40324550"},
{"state":"Kohgiluyeh and Boyer-Ahmad","name":"Likak","lat":"30.89500000","lon":"50.09305600"},
{"state":"Kohgiluyeh and Boyer-Ahmad","name":"Madavan","lat":"30.71844720","lon":"51.53613560"},
{"state":"Kohgiluyeh and Boyer-Ahmad","name":"Margoon","lat":"30.99314390","lon":"51.06901290"},
{"state":"Kohgiluyeh and Boyer-Ahmad","name":"Pataveh","lat":"30.95669820","lon":"51.26478200"},
{"state":"Kohgiluyeh and Boyer-Ahmad","name":"Qaleh Raisi","lat":"31.19000000","lon":"50.44194400"},
{"state":"Kohgiluyeh and Boyer-Ahmad","name":"sarfariyab","lat":"30.80720400","lon":"50.84650350"},
{"state":"Kohgiluyeh and Boyer-Ahmad","name":"Sisakht","lat":"30.85631130","lon":"51.43766630"},
{"state":"Kohgiluyeh and Boyer-Ahmad","name":"Suq","lat":"30.85902050","lon":"50.45108550"},
{"state":"Kohgiluyeh and Boyer-Ahmad","name":"Yasuj","lat":"30.66824000","lon":"51.58796000"},
{"state":"Kurdistan","name":"Armardeh","lat":"35.93224610","lon":"45.79138040"},
{"state":"Kurdistan","name":"Babarashani","lat":"35.67817150","lon":"47.79385330"},
{"state":"Kurdistan","name":"Baneh","lat":"35.99750000","lon":"45.88530000"},
{"state":"Kurdistan","name":"Bardeh Rasheh","lat":"35.59324210","lon":"46.08397320"},
{"state":"Kurdistan","name":"Bijar","lat":"35.86680000","lon":"47.60506000"},
{"state":"Kurdistan","name":"Boeen-e-Sofla","lat":"35.93821400","lon":"45.93237870"},
{"state":"Kurdistan","name":"Bolbanabad ","lat":"35.13864820","lon":"47.30808610"},
{"state":"Kurdistan","name":"Chnare","lat":"35.63244780","lon":"46.30428320"},
{"state":"Kurdistan","name":"Dehgolan","lat":"35.35000000","lon":"47.35000000"},
{"state":"Kurdistan","name":"Delbaran","lat":"35.23720820","lon":"47.97538320"},
{"state":"Kurdistan","name":"Dezej","lat":"35.06467320","lon":"47.95909890"},
{"state":"Kurdistan","name":"Divandarreh","lat":"35.91667000","lon":"47.00000000"},
{"state":"Kurdistan","name":"Hasanabad Yasukand","lat":"36.28383610","lon":"47.73750810"},
{"state":"Kurdistan","name":"Kamyaran","lat":"34.79560000","lon":"46.93550000"},
{"state":"Kurdistan","name":"Kani Dinar","lat":"35.46323020","lon":"46.20749840"},
{"state":"Kurdistan","name":"Kani Sur","lat":"36.21481320","lon":"46.81190730"},
{"state":"Kurdistan","name":"Marivan","lat":"35.51829000","lon":"46.18298000"},
{"state":"Kurdistan","name":"Muchesh","lat":"35.05822680","lon":"47.14611050"},
{"state":"Kurdistan","name":"Pir Taj","lat":"35.77629810","lon":"48.11167520"},
{"state":"Kurdistan","name":"Qorveh","lat":"35.16640000","lon":"47.80564000"},
{"state":"Kurdistan","name":"Saheb","lat":"36.20290110","lon":"46.45328510"},
{"state":"Kurdistan","name":"Sanandaj","lat":"35.31495000","lon":"46.99883000"},
{"state":"Kurdistan","name":"Saqqez","lat":"36.24992000","lon":"46.27350000"},
{"state":"Kurdistan","name":"Sarvabad","lat":"35.25000000","lon":"46.33333000"},
{"state":"Kurdistan","name":"Serish Abad","lat":"35.24963130","lon":"47.76967040"},
{"state":"Kurdistan","name":"Shuyesheh","lat":"35.35699600","lon":"46.67322630"},
{"state":"Kurdistan","name":"Tup Aghaj","lat":"36.04829630","lon":"47.81754160"},
{"state":"Kurdistan","name":"Uraman Takht","lat":"35.25282120","lon":"46.25915770"},
{"state":"Kurdistan","name":"Zarrineh ","lat":"36.06053080","lon":"46.91183560"},
{"state":"Lorestan","name":"Aleshtar","lat":"33.86419000","lon":"48.26258000"},
{"state":"Lorestan","name":"Aligudarz","lat":"33.40400000","lon":"49.69179000"},
{"state":"Lorestan","name":"Azna","lat":"33.45643000","lon":"49.45646000"},
{"state":"Lorestan","name":"Bayranshahr","lat":"33.64777800","lon":"48.55888900"},
{"state":"Lorestan","name":"Borujerd","lat":"33.89730000","lon":"48.75160000"},
{"state":"Lorestan","name":"Chalan Chulan","lat":"33.66517450","lon":"48.89954560"},
{"state":"Lorestan","name":"Chaqabol","lat":"33.28083300","lon":"47.50888900"},
{"state":"Lorestan","name":"Darb Gonbad","lat":"33.68929030","lon":"47.14619640"},
{"state":"Lorestan","name":"Delfan","lat":"34.05000000","lon":"47.78333000"},
{"state":"Lorestan","name":"Dorud","lat":"33.49215260","lon":"49.02520120"},
{"state":"Lorestan","name":"Firouz Abad","lat":"33.89859610","lon":"48.09895990"},
{"state":"Lorestan","name":"Garab","lat":"33.48518270","lon":"48.48797680"},
{"state":"Lorestan","name":"Haft Cheshmeh","lat":"34.20727710","lon":"47.76102300"},
{"state":"Lorestan","name":"Khorramabad","lat":"33.48778000","lon":"48.35583000"},
{"state":"Lorestan","name":"Kuhdasht","lat":"33.53335000","lon":"47.60999000"},
{"state":"Lorestan","name":"Kunani","lat":"33.40296240","lon":"47.31635560"},
{"state":"Lorestan","name":"Mamulan","lat":"33.37947580","lon":"47.95176030"},
{"state":"Lorestan","name":"Momen Abad","lat":"33.58523350","lon":"49.50169070"},
{"state":"Lorestan","name":"Nurabad","lat":"34.07340000","lon":"47.97250000"},
{"state":"Lorestan","name":"Oshtorinan","lat":"34.01542270","lon":"48.63428580"},
{"state":"Lorestan","name":"Pol Dokhtar","lat":"33.14617260","lon":"47.70149940"},
{"state":"Lorestan","name":"Pol-e Dokhtar","lat":"33.16667000","lon":"48.00000000"},
{"state":"Lorestan","name":"Rumeshkhan County","lat":"33.27960000","lon":"47.48995000"},
{"state":"Lorestan","name":"Sarab-e Dowreh","lat":"33.56388900","lon":"48.02222200"},
{"state":"Lorestan","name":"Selseleh","lat":"33.83333000","lon":"48.16667000"},
{"state":"Lorestan","name":"Sepid Dasht","lat":"33.21903120","lon":"48.88153190"},
{"state":"Lorestan","name":"Shool Abad","lat":"33.18481160","lon":"49.18555500"},
{"state":"Lorestan","name":"Vasian","lat":"33.49083000","lon":"48.04917000"},
{"state":"Lorestan","name":"Veysian","lat":"33.49083300","lon":"48.04916700"},
{"state":"Lorestan","name":"Zagheh","lat":"33.49888900","lon":"48.70861100"},
{"state":"Markazi","name":"Abyek","lat":"36.06667000","lon":"50.55000000"},
{"state":"Markazi","name":"Arak","lat":"34.09493000","lon":"49.69809000"},
{"state":"Markazi","name":"Ashtian","lat":"34.45000000","lon":"50.05000000"},
{"state":"Markazi","name":"Astaneh","lat":"33.89083300","lon":"49.35777800"},
{"state":"Markazi","name":"Aveh","lat":"34.80372130","lon":"50.40720450"},
{"state":"Markazi","name":"Davoud Abad","lat":"34.29521330","lon":"49.84664440"},
{"state":"Markazi","name":"Delijan","lat":"33.99050000","lon":"50.68380000"},
{"state":"Markazi","name":"Farahan","lat":"34.60000000","lon":"49.63333000"},
{"state":"Markazi","name":"Farmahin","lat":"34.50566860","lon":"49.66970420"},
{"state":"Markazi","name":"Gharqabad","lat":"35.10821780","lon":"49.82183930"},
{"state":"Markazi","name":"Ghurchi Bashi","lat":"33.67539870","lon":"49.87539770"},
{"state":"Markazi","name":"Hendoudar","lat":"33.78099310","lon":"49.22662500"},
{"state":"Markazi","name":"Javarseyan","lat":"34.25554870","lon":"49.31822780"},
{"state":"Markazi","name":"Karchan","lat":"34.09941170","lon":"49.92860190"},
{"state":"Markazi","name":"Khenejin","lat":"34.75851920","lon":"49.52237610"},
{"state":"Markazi","name":"Khomein","lat":"33.63710910","lon":"50.03426970"},
{"state":"Markazi","name":"Khomeyn","lat":"33.63889000","lon":"50.08003000"},
{"state":"Markazi","name":"Khondab","lat":"34.36667000","lon":"49.18333000"},
{"state":"Markazi","name":"Khoshkrud","lat":"35.39526200","lon":"50.32892700"},
{"state":"Markazi","name":"Komijan","lat":"34.72142000","lon":"49.32653000"},
{"state":"Markazi","name":"Mahalat","lat":"33.90493140","lon":"50.44106470"},
{"state":"Markazi","name":"Mahallat","lat":"33.91667000","lon":"50.41667000"},
{"state":"Markazi","name":"Mamuniyeh","lat":"35.30405590","lon":"50.48039670"},
{"state":"Markazi","name":"Milajerd","lat":"34.62165970","lon":"49.20046800"},
{"state":"Markazi","name":"Mohajeran","lat":"34.04931460","lon":"49.41744790"},
{"state":"Markazi","name":"Naragh","lat":"34.01038960","lon":"50.83148710"},
{"state":"Markazi","name":"Nimvar","lat":"33.88647470","lon":"50.56310530"},
{"state":"Markazi","name":"Nowbaran","lat":"35.13117470","lon":"49.70070010"},
{"state":"Markazi","name":"Parandak","lat":"35.36852660","lon":"50.67722800"},
{"state":"Markazi","name":"Razeqan","lat":"35.33076780","lon":"49.95117550"},
{"state":"Markazi","name":"Saroogh","lat":"34.41188360","lon":"49.49469560"},
{"state":"Markazi","name":"Saveh","lat":"35.02130000","lon":"50.35660000"},
{"state":"Markazi","name":"Shahbaz","lat":"33.93541290","lon":"49.33569190"},
{"state":"Markazi","name":"Shazand","lat":"33.90000000","lon":"49.30000000"},
{"state":"Markazi","name":"Tafresh","lat":"34.69307000","lon":"50.01601000"},
{"state":"Markazi","name":"Tureh","lat":"34.04440970","lon":"49.28376670"},
{"state":"Markazi","name":"Zarandiyeh","lat":"35.36667000","lon":"50.33333000"},
{"state":"Markazi","name":"Zavieh","lat":"35.37725590","lon":"50.55088500"},
{"state":"Mazandaran","name":"Abbasabad","lat":"36.63333000","lon":"51.15000000"},
{"state":"Mazandaran","name":"Alasht","lat":"36.06550040","lon":"52.83250090"},
{"state":"Mazandaran","name":"Amir Kala","lat":"36.59866300","lon":"52.65631190"},
{"state":"Mazandaran","name":"Amol","lat":"36.46961000","lon":"52.35072000"},
{"state":"Mazandaran","name":"Arateh","lat":"36.49486060","lon":"52.92620640"},
{"state":"Mazandaran","name":"Babol","lat":"36.55132000","lon":"52.67895000"},
{"state":"Mazandaran","name":"Babolsar","lat":"36.70251000","lon":"52.65760000"},
{"state":"Mazandaran","name":"Bahnamir","lat":"36.67194440","lon":"52.74325830"},
{"state":"Mazandaran","name":"Baladeh","lat":"36.19892280","lon":"51.79765630"},
{"state":"Mazandaran","name":"Behshahr","lat":"36.69235000","lon":"53.55262000"},
{"state":"Mazandaran","name":"Chalus","lat":"36.65500000","lon":"51.42040000"},
{"state":"Mazandaran","name":"Chamestan","lat":"36.47860630","lon":"52.10897640"},
{"state":"Mazandaran","name":"Dabudasht","lat":"36.48444400","lon":"52.45166700"},
{"state":"Mazandaran","name":"Emamzade Abdollah","lat":"36.40886250","lon":"52.30067250"},
{"state":"Mazandaran","name":"Farim","lat":"36.62361100","lon":"52.54194400"},
{"state":"Mazandaran","name":"Fereydunkenar","lat":"36.68642000","lon":"52.52255000"},
{"state":"Mazandaran","name":"Galugah","lat":"36.71667000","lon":"53.86667000"},
{"state":"Mazandaran","name":"Gatab","lat":"36.42989710","lon":"52.64785760"},
{"state":"Mazandaran","name":"Gazanak","lat":"35.90314800","lon":"52.21809470"},
{"state":"Mazandaran","name":"Hachiroud","lat":"36.68229130","lon":"51.34065050"},
{"state":"Mazandaran","name":"Izadshahr","lat":"36.59444940","lon":"52.11988020"},
{"state":"Mazandaran","name":"Juybar","lat":"36.64115000","lon":"52.91244000"},
{"state":"Mazandaran","name":"Kalar Dasht","lat":"36.45000000","lon":"51.11667000"},
{"state":"Mazandaran","name":"Kalleh Bast","lat":"36.64199270","lon":"52.61046750"},
{"state":"Mazandaran","name":"Kelarabad","lat":"36.68741450","lon":"51.23060710"},
{"state":"Mazandaran","name":"Kelardasht","lat":"36.49314010","lon":"51.11897660"},
{"state":"Mazandaran","name":"Ketalem and Sadat Shahr","lat":"36.87656180","lon":"50.70739730"},
{"state":"Mazandaran","name":"Khalil Shahr","lat":"36.69891840","lon":"53.62323740"},
{"state":"Mazandaran","name":"Khorramabad","lat":"36.78182580","lon":"50.86045490"},
{"state":"Mazandaran","name":"Khoshroud Pey","lat":"36.37200490","lon":"52.55749930"},
{"state":"Mazandaran","name":"Kia Kola","lat":"36.58337860","lon":"52.79896250"},
{"state":"Mazandaran","name":"Kiasar","lat":"36.24016620","lon":"53.53250060"},
{"state":"Mazandaran","name":"Kojur","lat":"36.38226370","lon":"51.72398280"},
{"state":"Mazandaran","name":"Kuhi Khil","lat":"36.68877660","lon":"52.89846190"},
{"state":"Mazandaran","name":"Mahmudabad","lat":"36.60000000","lon":"52.36667000"},
{"state":"Mazandaran","name":"Marzanabad","lat":"36.45283790","lon":"51.28507020"},
{"state":"Mazandaran","name":"Marzikola","lat":"36.36002270","lon":"52.73004060"},
{"state":"Mazandaran","name":"Miandorud","lat":"36.58333000","lon":"53.30000000"},
{"state":"Mazandaran","name":"Nashtarud","lat":"36.75090000","lon":"51.02362000"},
{"state":"Mazandaran","name":"Neka","lat":"36.65079000","lon":"53.29905000"},
{"state":"Mazandaran","name":"Nowshahr","lat":"36.64852000","lon":"51.49621000"},
{"state":"Mazandaran","name":"Nur","lat":"36.31667000","lon":"51.98333000"},
{"state":"Mazandaran","name":"Paein Hoular","lat":"36.42892620","lon":"53.13108150"},
{"state":"Mazandaran","name":"Pol Sefid","lat":"36.11532040","lon":"53.01140370"},
{"state":"Mazandaran","name":"Pul","lat":"36.39800310","lon":"51.57935130"},
{"state":"Mazandaran","name":"Qaem Shahr","lat":"36.48333000","lon":"52.90000000"},
{"state":"Mazandaran","name":"Qaemshahr","lat":"36.46202810","lon":"52.83104130"},
{"state":"Mazandaran","name":"Ramsar","lat":"36.76667000","lon":"50.53333000"},
{"state":"Mazandaran","name":"Rineh","lat":"35.88149570","lon":"52.16006610"},
{"state":"Mazandaran","name":"Rostam kola","lat":"36.68009760","lon":"53.39818930"},
{"state":"Mazandaran","name":"Royan","lat":"36.56735610","lon":"51.95396250"},
{"state":"Mazandaran","name":"Salman Shahr","lat":"36.70064750","lon":"51.19075290"},
{"state":"Mazandaran","name":"Sari","lat":"36.56332000","lon":"53.06009000"},
{"state":"Mazandaran","name":"Savadkuh","lat":"35.97765000","lon":"52.68246000"},
{"state":"Mazandaran","name":"Shirgah","lat":"36.29749850","lon":"52.86569940"},
{"state":"Mazandaran","name":"Shirud","lat":"36.85088800","lon":"50.80323940"},
{"state":"Mazandaran","name":"Simorgh County","lat":"36.57914000","lon":"52.82364000"},
{"state":"Mazandaran","name":"Sorkh Roud","lat":"36.66915810","lon":"52.44252880"},
{"state":"Mazandaran","name":"Surak","lat":"36.59687210","lon":"53.20168030"},
{"state":"Mazandaran","name":"Tonekabon","lat":"36.81626000","lon":"50.87376000"},
{"state":"Mazandaran","name":"Zargarmahalleh","lat":"36.52138900","lon":"52.57555600"},
{"state":"Mazandaran","name":"Zirab","lat":"36.18055860","lon":"52.95358650"},
{"state":"North Khorasan","name":"Ashkhaneh","lat":"37.55917080","lon":"56.90694800"},
{"state":"North Khorasan","name":"Ava","lat":"37.47722200","lon":"56.74111100"},
{"state":"North Khorasan","name":"Bojnurd","lat":"37.47473000","lon":"57.32903000"},
{"state":"North Khorasan","name":"Chenaran Shahr","lat":"37.46480280","lon":"57.43791020"},
{"state":"North Khorasan","name":"Daraq","lat":"36.97032870","lon":"56.20023960"},
{"state":"North Khorasan","name":"Esfarayen","lat":"37.07645000","lon":"57.51009000"},
{"state":"North Khorasan","name":"Farooj","lat":"37.18743970","lon":"57.53594140"},
{"state":"North Khorasan","name":"Faruj","lat":"37.21667000","lon":"58.21667000"},
{"state":"North Khorasan","name":"Garmeh","lat":"36.98811280","lon":"56.26396410"},
{"state":"North Khorasan","name":"Hesar-e Garmkhan","lat":"37.51944400","lon":"57.48250000"},
{"state":"North Khorasan","name":"Ivar","lat":"36.96991740","lon":"56.25472080"},
{"state":"North Khorasan","name":"Jajarm","lat":"37.01667000","lon":"56.68333000"},
{"state":"North Khorasan","name":"Lujali","lat":"37.60805600","lon":"57.85750000"},
{"state":"North Khorasan","name":"Maneh va Samalqan","lat":"37.70000000","lon":"56.60000000"},
{"state":"North Khorasan","name":"Pish Ghaleh","lat":"37.65006930","lon":"56.98857310"},
{"state":"North Khorasan","name":"Qazi","lat":"37.84754450","lon":"57.31184360"},
{"state":"North Khorasan","name":"Qushkhaneh","lat":"37.74660970","lon":"57.70606400"},
{"state":"North Khorasan","name":"Raz","lat":"37.93060000","lon":"57.11940000"},
{"state":"North Khorasan","name":"Safiabad","lat":"36.69452330","lon":"57.92146670"},
{"state":"North Khorasan","name":"Sankhast","lat":"37.10227080","lon":"56.85038560"},
{"state":"North Khorasan","name":"Shirvan","lat":"37.39669000","lon":"57.92952000"},
{"state":"North Khorasan","name":"Shoqan","lat":"37.34160420","lon":"56.87828070"},
{"state":"North Khorasan","name":"Titkanlu","lat":"37.22889760","lon":"58.29700970"},
{"state":"North Khorasan","name":"Ziarat","lat":"36.71608360","lon":"58.54554170"},
{"state":"Qazvin","name":"Abgarm","lat":"35.75687280","lon":"49.27735090"},
{"state":"Qazvin","name":"Abyek","lat":"36.04711650","lon":"50.51818350"},
{"state":"Qazvin","name":"Alborz","lat":"36.18861000","lon":"50.07829000"},
{"state":"Qazvin","name":"Alvand","lat":"36.18930000","lon":"50.06430000"},
{"state":"Qazvin","name":"Ardagh","lat":"36.05144880","lon":"49.81499430"},
{"state":"Qazvin","name":"Avaj","lat":"35.57685000","lon":"49.22241000"},
{"state":"Qazvin","name":"Bidestan","lat":"36.23084220","lon":"50.11218300"},
{"state":"Qazvin","name":"Buin Zahra","lat":"35.61667000","lon":"49.70000000"},
{"state":"Qazvin","name":"Danesfahan","lat":"35.81572280","lon":"49.72441600"},
{"state":"Qazvin","name":"Eqbaliyeh","lat":"36.22817470","lon":"49.90673640"},
{"state":"Qazvin","name":"Esfarvarin","lat":"35.93684050","lon":"49.74017140"},
{"state":"Qazvin","name":"Khakali","lat":"36.12998890","lon":"50.16708250"},
{"state":"Qazvin","name":"Khorramdasht","lat":"35.92802320","lon":"49.50336460"},
{"state":"Qazvin","name":"Kouhin","lat":"36.37223830","lon":"49.64941610"},
{"state":"Qazvin","name":"Mahmood Abad nemooneh","lat":"36.29230710","lon":"49.88979310"},
{"state":"Qazvin","name":"Moallem Kelayeh","lat":"36.44809600","lon":"50.46780100"},
{"state":"Qazvin","name":"Mohammadiyeh ","lat":"36.22255030","lon":"50.17574060"},
{"state":"Qazvin","name":"Narjeh","lat":"35.99594070","lon":"49.61054550"},
{"state":"Qazvin","name":"Qazvin","lat":"36.26877000","lon":"50.00410000"},
{"state":"Qazvin","name":"Razmian","lat":"36.54202690","lon":"50.19838920"},
{"state":"Qazvin","name":"Sagz Abad","lat":"35.76612540","lon":"49.91882790"},
{"state":"Qazvin","name":"Shal","lat":"35.89536650","lon":"49.75102890"},
{"state":"Qazvin","name":"Sharif Abad","lat":"36.21499430","lon":"50.14273880"},
{"state":"Qazvin","name":"Sirdan","lat":"36.64732350","lon":"49.18877350"},
{"state":"Qazvin","name":"Takestan","lat":"36.07057000","lon":"49.69571000"},
{"state":"Qazvin","name":"Ziaabad","lat":"35.99333300","lon":"49.44777800"},
{"state":"Qom","name":"Dastjerd","lat":"34.55380730","lon":"50.23906220"},
{"state":"Qom","name":"Jafarie","lat":"34.77450740","lon":"50.50651060"},
{"state":"Qom","name":"Kahak","lat":"34.39196580","lon":"50.85463990"},
{"state":"Qom","name":"Qanavat","lat":"34.61233580","lon":"51.01366270"},
{"state":"Qom","name":"Qom","lat":"34.64010000","lon":"50.87640000"},
{"state":"Qom","name":"Salafchegan","lat":"34.47660600","lon":"50.45501230"},
{"state":"Razavi Khorasan","name":"Ahmad-abad-e-Solat","lat":"35.11510780","lon":"60.68452830"},
{"state":"Razavi Khorasan","name":"Anabad","lat":"35.25017460","lon":"57.80098200"},
{"state":"Razavi Khorasan","name":"Bajestan","lat":"34.58333000","lon":"58.13333000"},
{"state":"Razavi Khorasan","name":"Bajgiran","lat":"37.62134430","lon":"58.41607690"},
{"state":"Razavi Khorasan","name":"Bakharz","lat":"35.01667000","lon":"60.28333000"},
{"state":"Razavi Khorasan","name":"Bar","lat":"36.49129220","lon":"58.70953140"},
{"state":"Razavi Khorasan","name":"Bardaskan","lat":"35.26667000","lon":"57.48333000"},
{"state":"Razavi Khorasan","name":"Bayg","lat":"35.37486070","lon":"59.03061380"},
{"state":"Razavi Khorasan","name":"Beydokht","lat":"34.34779140","lon":"58.74766210"},
{"state":"Razavi Khorasan","name":"Binalud","lat":"36.26667000","lon":"59.33333000"},
{"state":"Razavi Khorasan","name":"Chakaneh","lat":"36.81366450","lon":"58.49726210"},
{"state":"Razavi Khorasan","name":"Chapeshlu","lat":"37.35090120","lon":"59.06953800"},
{"state":"Razavi Khorasan","name":"Chenaran","lat":"36.64546000","lon":"59.12123000"},
{"state":"Razavi Khorasan","name":"Dargaz","lat":"37.33333000","lon":"59.08333000"},
{"state":"Razavi Khorasan","name":"Darrod","lat":"36.13789110","lon":"59.10554410"},
{"state":"Razavi Khorasan","name":"Davarzan","lat":"36.33333000","lon":"56.83333000"},
{"state":"Razavi Khorasan","name":"Dowlat Abad","lat":"35.28403960","lon":"59.51311110"},
{"state":"Razavi Khorasan","name":"Eshqabad","lat":"36.04380680","lon":"58.67441650"},
{"state":"Razavi Khorasan","name":"Farhadgerd","lat":"35.76448180","lon":"59.72416880"},
{"state":"Razavi Khorasan","name":"Fariman","lat":"35.70000000","lon":"59.83333000"},
{"state":"Razavi Khorasan","name":"Feyz Abad","lat":"35.01822080","lon":"58.76292930"},
{"state":"Razavi Khorasan","name":"Firouzeh","lat":"36.28288760","lon":"58.56768590"},
{"state":"Razavi Khorasan","name":"Firuzeh","lat":"36.30000000","lon":"58.41667000"},
{"state":"Razavi Khorasan","name":"Ghadamgah","lat":"36.11175410","lon":"59.04797300"},
{"state":"Razavi Khorasan","name":"Golbahar","lat":"36.56365510","lon":"59.13914620"},
{"state":"Razavi Khorasan","name":"Golmakan","lat":"36.48252780","lon":"59.15481090"},
{"state":"Razavi Khorasan","name":"Gonabad","lat":"34.35287000","lon":"58.68365000"},
{"state":"Razavi Khorasan","name":"Hemmatabad","lat":"36.29790420","lon":"58.45773920"},
{"state":"Razavi Khorasan","name":"Jangal","lat":"34.70746780","lon":"59.20638620"},
{"state":"Razavi Khorasan","name":"Joghatay","lat":"36.66667000","lon":"57.03333000"},
{"state":"Razavi Khorasan","name":"Joveyn","lat":"36.58333000","lon":"57.51667000"},
{"state":"Razavi Khorasan","name":"Kadkan","lat":"35.58739560","lon":"58.87465950"},
{"state":"Razavi Khorasan","name":"Kakhk","lat":"34.14457510","lon":"58.63607160"},
{"state":"Razavi Khorasan","name":"Kalat","lat":"36.90000000","lon":"59.90000000"},
{"state":"Razavi Khorasan","name":"Kariz","lat":"34.81501620","lon":"60.80636480"},
{"state":"Razavi Khorasan","name":"Kashmar","lat":"35.23831000","lon":"58.46558000"},
{"state":"Razavi Khorasan","name":"Khaf","lat":"34.56989720","lon":"60.09881910"},
{"state":"Razavi Khorasan","name":"Khalil Abad","lat":"35.25366100","lon":"58.27916620"},
{"state":"Razavi Khorasan","name":"Khalilabad","lat":"35.11667000","lon":"58.20000000"},
{"state":"Razavi Khorasan","name":"Kharv","lat":"36.15200430","lon":"58.98408620"},
{"state":"Razavi Khorasan","name":"Khowshab","lat":"36.43333000","lon":"58.06667000"},
{"state":"Razavi Khorasan","name":"Khvaf","lat":"34.50000000","lon":"60.00000000"},
{"state":"Razavi Khorasan","name":"Kondor","lat":"35.21201740","lon":"58.14243800"},
{"state":"Razavi Khorasan","name":"Lotfabad","lat":"36.17687250","lon":"58.72503510"},
{"state":"Razavi Khorasan","name":"Mah Velat","lat":"34.98333000","lon":"58.78333000"},
{"state":"Razavi Khorasan","name":"Mashhad","lat":"36.31559000","lon":"59.56796000"},
{"state":"Razavi Khorasan","name":"Mashhad Rizeh","lat":"34.79567270","lon":"60.49771780"},
{"state":"Razavi Khorasan","name":"Mazdavand","lat":"36.15644920","lon":"60.52641750"},
{"state":"Razavi Khorasan","name":"Molkabad","lat":"35.99376960","lon":"59.56460930"},
{"state":"Razavi Khorasan","name":"Nashtifan","lat":"34.43473260","lon":"60.15978070"},
{"state":"Razavi Khorasan","name":"Nasrabad","lat":"35.41792500","lon":"60.30567170"},
{"state":"Razavi Khorasan","name":"Neghab","lat":"36.70291640","lon":"57.39315730"},
{"state":"Razavi Khorasan","name":"Neyshabur","lat":"36.21329000","lon":"58.79575000"},
{"state":"Razavi Khorasan","name":"Nil Shahr","lat":"35.12525790","lon":"60.76576360"},
{"state":"Razavi Khorasan","name":"Nokhandan","lat":"37.51838840","lon":"58.98018830"},
{"state":"Razavi Khorasan","name":"Qalandarabad","lat":"35.60053760","lon":"59.93625620"},
{"state":"Razavi Khorasan","name":"Qasemabad","lat":"35.91017750","lon":"58.57594740"},
{"state":"Razavi Khorasan","name":"Quchan","lat":"37.10600000","lon":"58.50955000"},
{"state":"Razavi Khorasan","name":"Rashtkhar","lat":"34.97462940","lon":"59.61447710"},
{"state":"Razavi Khorasan","name":"Razaviye","lat":"36.20932450","lon":"59.76103310"},
{"state":"Razavi Khorasan","name":"Rivash","lat":"35.47893040","lon":"58.43782410"},
{"state":"Razavi Khorasan","name":"Robat-e-Sang","lat":"35.54844590","lon":"59.18669700"},
{"state":"Razavi Khorasan","name":"Roshtkhvar","lat":"34.91667000","lon":"59.36667000"},
{"state":"Razavi Khorasan","name":"Rudab","lat":"36.02367790","lon":"57.30447290"},
{"state":"Razavi Khorasan","name":"Sabzevar","lat":"36.21260000","lon":"57.68191000"},
{"state":"Razavi Khorasan","name":"Salami","lat":"34.74571990","lon":"59.96912950"},
{"state":"Razavi Khorasan","name":"Saleh Abad","lat":"35.69056280","lon":"61.08321190"},
{"state":"Razavi Khorasan","name":"Samen","lat":"36.42600420","lon":"59.38201710"},
{"state":"Razavi Khorasan","name":"Sangan","lat":"34.40055260","lon":"60.25382990"},
{"state":"Razavi Khorasan","name":"Sarakhs","lat":"36.54490000","lon":"61.15770000"},
{"state":"Razavi Khorasan","name":"Sefid Sang","lat":"35.66218570","lon":"60.08599370"},
{"state":"Razavi Khorasan","name":"Shadmehr","lat":"35.17244870","lon":"59.03391840"},
{"state":"Razavi Khorasan","name":"Shahrabad","lat":"32.57384110","lon":"50.99270600"},
{"state":"Razavi Khorasan","name":"Shahrezu","lat":"36.74907150","lon":"59.92741590"},
{"state":"Razavi Khorasan","name":"Shandiz","lat":"36.39505690","lon":"59.29064860"},
{"state":"Razavi Khorasan","name":"Sheshtamad","lat":"35.96042890","lon":"57.75027730"},
{"state":"Razavi Khorasan","name":"Soltanabad","lat":"36.14784690","lon":"58.86142020"},
{"state":"Razavi Khorasan","name":"Taybad","lat":"34.73333000","lon":"60.73333000"},
{"state":"Razavi Khorasan","name":"Torbat Heydariyeh","lat":"35.46667000","lon":"59.10000000"},
{"state":"Razavi Khorasan","name":"Torbat-e-Jam","lat":"35.24400000","lon":"60.62250000"},
{"state":"Razavi Khorasan","name":"Torghabeh","lat":"36.31474250","lon":"59.36767090"},
{"state":"Razavi Khorasan","name":"Yunesi","lat":"34.80527800","lon":"58.43750000"},
{"state":"Razavi Khorasan","name":"Zaveh","lat":"35.28333000","lon":"59.73333000"},
{"state":"Semnan","name":"Amiriyeh","lat":"36.02872950","lon":"54.13541820"},
{"state":"Semnan","name":"Aradan","lat":"35.24814880","lon":"52.48640420"},
{"state":"Semnan","name":"Bastam","lat":"36.48439080","lon":"54.99071350"},
{"state":"Semnan","name":"Biyārjomand","lat":"36.08175860","lon":"55.79998970"},
{"state":"Semnan","name":"Damghan","lat":"36.16790000","lon":"54.34292000"},
{"state":"Semnan","name":"Darjazin","lat":"35.62847530","lon":"53.30819540"},
{"state":"Semnan","name":"Dibaj","lat":"36.42948280","lon":"54.21929960"},
{"state":"Semnan","name":"Eyvanekey","lat":"35.34445670","lon":"52.06075470"},
{"state":"Semnan","name":"Garmsar","lat":"34.96362000","lon":"52.21270000"},
{"state":"Semnan","name":"kalāte Khij","lat":"36.67242800","lon":"55.29090640"},
{"state":"Semnan","name":"Kalāteh","lat":"36.35553790","lon":"54.13633340"},
{"state":"Semnan","name":"Kohanabad","lat":"35.22133420","lon":"52.51071700"},
{"state":"Semnan","name":"Mahdi Shahr","lat":"35.70734520","lon":"53.25079440"},
{"state":"Semnan","name":"Mahdishahr","lat":"35.70806000","lon":"53.35083000"},
{"state":"Semnan","name":"Mayamey","lat":"36.63333000","lon":"55.95000000"},
{"state":"Semnan","name":"Mojen","lat":"36.47922350","lon":"54.63925840"},
{"state":"Semnan","name":"Rodian","lat":"36.35044740","lon":"55.00128350"},
{"state":"Semnan","name":"Semnan","lat":"35.57691000","lon":"53.39205000"},
{"state":"Semnan","name":"Shahmirzad","lat":"35.77010410","lon":"53.31802350"},
{"state":"Semnan","name":"Shahroud","lat":"36.40570750","lon":"54.93884820"},
{"state":"Semnan","name":"Shahrud","lat":"36.41819000","lon":"54.97628000"},
{"state":"Semnan","name":"Sorkheh","lat":"35.46800540","lon":"53.20981120"},
{"state":"Sistan and Baluchestan","name":"Adimi","lat":"31.11497090","lon":"61.39258850"},
{"state":"Sistan and Baluchestan","name":"Bampour","lat":"27.19519200","lon":"60.44720640"},
{"state":"Sistan and Baluchestan","name":"Bazmān","lat":"27.85550560","lon":"60.16714090"},
{"state":"Sistan and Baluchestan","name":"Bent","lat":"26.28883260","lon":"59.50624450"},
{"state":"Sistan and Baluchestan","name":"Bonjār","lat":"31.03910860","lon":"61.55765160"},
{"state":"Sistan and Baluchestan","name":"Chabahar","lat":"25.29190000","lon":"60.64300000"},
{"state":"Sistan and Baluchestan","name":"Dalgan","lat":"27.31667000","lon":"59.30000000"},
{"state":"Sistan and Baluchestan","name":"Dust Mohammad","lat":"31.14661850","lon":"61.77382690"},
{"state":"Sistan and Baluchestan","name":"Espakeh","lat":"26.83722420","lon":"60.16413690"},
{"state":"Sistan and Baluchestan","name":"Fanouj","lat":"26.57336520","lon":"59.62992650"},
{"state":"Sistan and Baluchestan","name":"Fanuj","lat":"26.57468000","lon":"59.63856000"},
{"state":"Sistan and Baluchestan","name":"Golmorti","lat":"27.48143280","lon":"59.43818080"},
{"state":"Sistan and Baluchestan","name":"Gosht","lat":"27.78433780","lon":"61.92705620"},
{"state":"Sistan and Baluchestan","name":"Hamoon","lat":"30.93686000","lon":"61.33687000"},
{"state":"Sistan and Baluchestan","name":"Hidouj","lat":"27.00415440","lon":"62.10665690"},
{"state":"Sistan and Baluchestan","name":"Hirmand","lat":"31.25000000","lon":"61.61667000"},
{"state":"Sistan and Baluchestan","name":"Iranshahr","lat":"27.20245000","lon":"60.68476000"},
{"state":"Sistan and Baluchestan","name":"Jālq","lat":"27.59661720","lon":"62.68275240"},
{"state":"Sistan and Baluchestan","name":"Khash","lat":"28.22107000","lon":"61.21582000"},
{"state":"Sistan and Baluchestan","name":"Konarak","lat":"25.55000000","lon":"59.85000000"},
{"state":"Sistan and Baluchestan","name":"Mehrestan","lat":"27.05000000","lon":"61.53333000"},
{"state":"Sistan and Baluchestan","name":"Mirjaveh","lat":"29.01752000","lon":"61.45046000"},
{"state":"Sistan and Baluchestan","name":"Mohamadan","lat":"27.20214490","lon":"60.54998870"},
{"state":"Sistan and Baluchestan","name":"Mohammadābād","lat":"30.88253960","lon":"61.45724050"},
{"state":"Sistan and Baluchestan","name":"Mohammadi","lat":"27.33196300","lon":"62.38783200"},
{"state":"Sistan and Baluchestan","name":"Negour","lat":"25.38974400","lon":"61.13295070"},
{"state":"Sistan and Baluchestan","name":"Nikshahr","lat":"26.22580000","lon":"60.21430000"},
{"state":"Sistan and Baluchestan","name":"Nimruz","lat":"31.10333000","lon":"61.41601000"},
{"state":"Sistan and Baluchestan","name":"Nosrat Abad","lat":"29.85348390","lon":"59.95762810"},
{"state":"Sistan and Baluchestan","name":"Nosratabad","lat":"29.90000000","lon":"59.98333000"},
{"state":"Sistan and Baluchestan","name":"Noukābād","lat":"28.54068480","lon":"60.75332160"},
{"state":"Sistan and Baluchestan","name":"Pishin","lat":"26.08308740","lon":"61.68561400"},
{"state":"Sistan and Baluchestan","name":"Qasr-e-qand","lat":"26.24833000","lon":"60.75250000"},
{"state":"Sistan and Baluchestan","name":"Rāsk","lat":"26.24159410","lon":"61.38488520"},
{"state":"Sistan and Baluchestan","name":"Saravan","lat":"27.32351000","lon":"62.56796000"},
{"state":"Sistan and Baluchestan","name":"Sarbaz","lat":"26.43393000","lon":"61.48176000"},
{"state":"Sistan and Baluchestan","name":"Sib va Suran","lat":"27.33333000","lon":"61.91667000"},
{"state":"Sistan and Baluchestan","name":"Sirkān","lat":"26.82839760","lon":"62.63013830"},
{"state":"Sistan and Baluchestan","name":"Suran","lat":"27.28758420","lon":"61.98044280"},
{"state":"Sistan and Baluchestan","name":"Zabol","lat":"31.03060000","lon":"61.49490000"},
{"state":"Sistan and Baluchestan","name":"Zaboli","lat":"27.13388980","lon":"61.65462950"},
{"state":"Sistan and Baluchestan","name":"Zahak","lat":"30.89135860","lon":"61.66544420"},
{"state":"Sistan and Baluchestan","name":"Zahedan","lat":"29.49630000","lon":"60.86290000"},
{"state":"Sistan and Baluchestan","name":"Zarābād","lat":"25.58250060","lon":"59.37785270"},
{"state":"Sistan and Baluchestan","name":"Zehak","lat":"30.86667000","lon":"61.56667000"},
{"state":"South Khorasan","name":"Arian Shahr","lat":"33.33146920","lon":"59.22934410"},
{"state":"South Khorasan","name":"Asadieh","lat":"32.91389070","lon":"60.01498450"},
{"state":"South Khorasan","name":"Ayask","lat":"33.88666690","lon":"58.36903090"},
{"state":"South Khorasan","name":"Birjand","lat":"33.00669000","lon":"59.07223000"},
{"state":"South Khorasan","name":"Boshrouyeh","lat":"33.86371270","lon":"57.40532390"},
{"state":"South Khorasan","name":"Boshruyeh","lat":"34.16667000","lon":"57.41667000"},
{"state":"South Khorasan","name":"Darmian","lat":"32.95000000","lon":"60.16667000"},
{"state":"South Khorasan","name":"Deyhuk","lat":"33.29299580","lon":"57.50437250"},
{"state":"South Khorasan","name":"Eresk","lat":"33.70284870","lon":"57.36251580"},
{"state":"South Khorasan","name":"Esfedan","lat":"33.64611680","lon":"59.77098940"},
{"state":"South Khorasan","name":"Eshqabad","lat":"34.36694400","lon":"56.93111100"},
{"state":"South Khorasan","name":"Eslamiyeh","lat":"34.04555600","lon":"58.22027800"},
{"state":"South Khorasan","name":"Ferdows","lat":"34.01940280","lon":"58.15411070"},
{"state":"South Khorasan","name":"Gazik","lat":"32.99991820","lon":"60.21178420"},
{"state":"South Khorasan","name":"Ghayen","lat":"33.72482540","lon":"59.14322310"},
{"state":"South Khorasan","name":"Ghohestan","lat":"33.15183200","lon":"59.69687450"},
{"state":"South Khorasan","name":"Hajiabad","lat":"33.60327070","lon":"59.99037270"},
{"state":"South Khorasan","name":"Khezri Dashtebayaz","lat":"34.02110000","lon":"58.80779740"},
{"state":"South Khorasan","name":"Khusf","lat":"32.18333000","lon":"58.76667000"},
{"state":"South Khorasan","name":"Mohammad Shahr","lat":"35.74475930","lon":"50.87227770"},
{"state":"South Khorasan","name":"Mud","lat":"32.70890630","lon":"59.51680120"},
{"state":"South Khorasan","name":"Nehbandan","lat":"31.56667000","lon":"59.81667000"},
{"state":"South Khorasan","name":"Nimbolook","lat":"33.91169420","lon":"58.92362600"},
{"state":"South Khorasan","name":"Qaen","lat":"33.72654000","lon":"59.18439000"},
{"state":"South Khorasan","name":"Sarayan","lat":"33.41667000","lon":"58.31667000"},
{"state":"South Khorasan","name":"Sarbishe","lat":"32.49081810","lon":"59.48763620"},
{"state":"South Khorasan","name":"Sarbisheh","lat":"32.40000000","lon":"60.08333000"},
{"state":"South Khorasan","name":"Seh Qaleh","lat":"33.66052710","lon":"58.39830620"},
{"state":"South Khorasan","name":"Shusf","lat":"31.80557260","lon":"59.99816170"},
{"state":"South Khorasan","name":"Tabas","lat":"32.80304000","lon":"60.22146000"},
{"state":"South Khorasan","name":"Tabas Masina","lat":"32.80770990","lon":"60.21503440"},
{"state":"South Khorasan","name":"Zirkuh","lat":"33.58333000","lon":"60.30000000"},
{"state":"South Khorasan","name":"Zohaan","lat":"33.42331970","lon":"59.80727440"},
{"state":"Tehran","name":"Abali","lat":"35.76759600","lon":"51.94129930"},
{"state":"Tehran","name":"Absard","lat":"35.62931440","lon":"52.13407450"},
{"state":"Tehran","name":"Ahmadabad-E Mostowfi","lat":"35.63518510","lon":"51.20369200"},
{"state":"Tehran","name":"Andisheh","lat":"35.68030000","lon":"51.01930000"},
{"state":"Tehran","name":"Arjmand","lat":"35.81400170","lon":"52.50353330"},
{"state":"Tehran","name":"Baghershahr","lat":"35.53356180","lon":"51.39546910"},
{"state":"Tehran","name":"Baghestan","lat":"35.64247090","lon":"51.08020080"},
{"state":"Tehran","name":"Baharestan","lat":"35.53333000","lon":"51.15000000"},
{"state":"Tehran","name":"Bumehen","lat":"35.73364600","lon":"51.86812400"},
{"state":"Tehran","name":"Chahar Dangeh","lat":"35.59615900","lon":"51.31556500"},
{"state":"Tehran","name":"Damavand","lat":"35.63005000","lon":"52.13750000"},
{"state":"Tehran","name":"Eqbaliyeh","lat":"35.30220000","lon":"51.53580000"},
{"state":"Tehran","name":"Eslamshahr","lat":"35.55222000","lon":"51.23504000"},
{"state":"Tehran","name":"Fasham","lat":"35.93172150","lon":"51.51130900"},
{"state":"Tehran","name":"Ferdosiye","lat":"35.59729320","lon":"51.02402630"},
{"state":"Tehran","name":"Ferunabad","lat":"35.51456310","lon":"51.61007320"},
{"state":"Tehran","name":"Firuzkuh","lat":"35.72852000","lon":"52.74164000"},
{"state":"Tehran","name":"Golestan","lat":"35.52074490","lon":"51.17017500"},
{"state":"Tehran","name":"Hasanabad","lat":"35.36952280","lon":"51.22152310"},
{"state":"Tehran","name":"Javadabad","lat":"35.21020010","lon":"51.67277520"},
{"state":"Tehran","name":"Kahrizak","lat":"35.51683940","lon":"51.35078420"},
{"state":"Tehran","name":"Kilan","lat":"35.55267040","lon":"52.11622180"},
{"state":"Tehran","name":"Lavasan","lat":"35.82325020","lon":"51.60526000"},
{"state":"Tehran","name":"Malard","lat":"35.66590000","lon":"50.97670000"},
{"state":"Tehran","name":"Nasimshahr","lat":"35.56385880","lon":"51.13968360"},
{"state":"Tehran","name":"Nasirshahr","lat":"35.49031160","lon":"51.13230230"},
{"state":"Tehran","name":"Pakdasht","lat":"35.49448000","lon":"51.75302000"},
{"state":"Tehran","name":"Parand","lat":"35.49026110","lon":"50.91815410"},
{"state":"Tehran","name":"Pardis","lat":"35.74169000","lon":"51.77705000"},
{"state":"Tehran","name":"Pishva","lat":"35.30800000","lon":"51.72670000"},
{"state":"Tehran","name":"Qarchak","lat":"35.42867000","lon":"51.57544000"},
{"state":"Tehran","name":"Qods","lat":"35.71667000","lon":"51.06667000"},
{"state":"Tehran","name":"Rey","lat":"35.37448000","lon":"51.27743000"},
{"state":"Tehran","name":"Robat Karim","lat":"35.48460000","lon":"51.08290000"},
{"state":"Tehran","name":"Rudehen","lat":"35.73381290","lon":"51.89812650"},
{"state":"Tehran","name":"Sabashahr","lat":"35.58323760","lon":"51.08146840"},
{"state":"Tehran","name":"Safadasht","lat":"35.68448900","lon":"50.82465800"},
{"state":"Tehran","name":"salehie","lat":"35.59992120","lon":"51.28272270"},
{"state":"Tehran","name":"Shahedshahr","lat":"35.57269240","lon":"51.07882980"},
{"state":"Tehran","name":"Shahr-e-Rey","lat":"35.57258130","lon":"51.42336480"},
{"state":"Tehran","name":"Shahrak-e Emam Hasan","lat":"35.48846000","lon":"51.34567000"},
{"state":"Tehran","name":"Shahriar","lat":"35.62828000","lon":"51.06632000"},
{"state":"Tehran","name":"Sharifabad","lat":"35.42750000","lon":"51.78528000"},
{"state":"Tehran","name":"Shemiranat","lat":"35.93141000","lon":"51.58997000"},
{"state":"Tehran","name":"Shemshak","lat":"36.01128670","lon":"51.48654700"},
{"state":"Tehran","name":"Soleh Bon","lat":"35.76841000","lon":"52.56091000"},
{"state":"Tehran","name":"Tajrish","lat":"35.80464930","lon":"51.43132060"},
{"state":"Tehran","name":"Taleb abad","lat":"35.50130000","lon":"51.53147000"},
{"state":"Tehran","name":"Tehran","lat":"35.69439000","lon":"51.42151000"},
{"state":"Tehran","name":"Vahidieh","lat":"35.60483460","lon":"51.01625910"},
{"state":"Tehran","name":"Varamin","lat":"35.32420000","lon":"51.64570000"},
{"state":"West Azarbaijan","name":"Avajiq","lat":"39.31388900","lon":"44.16472200"},
{"state":"West Azarbaijan","name":"Baruq","lat":"36.95302880","lon":"46.31413220"},
{"state":"West Azarbaijan","name":"Bazargan","lat":"39.39093260","lon":"44.37321590"},
{"state":"West Azarbaijan","name":"Bukan","lat":"36.52100000","lon":"46.13030180"},
{"state":"West Azarbaijan","name":"Chaldoran","lat":"39.06667000","lon":"44.33333000"},
{"state":"West Azarbaijan","name":"Charburj","lat":"37.12187920","lon":"45.95898600"},
{"state":"West Azarbaijan","name":"Chaypareh","lat":"38.86667000","lon":"45.00000000"},
{"state":"West Azarbaijan","name":"Dizaj Diz","lat":"38.46128210","lon":"45.00725250"},
{"state":"West Azarbaijan","name":"Evogli","lat":"38.71139920","lon":"45.19790410"},
{"state":"West Azarbaijan","name":"Firuraq","lat":"38.58061010","lon":"44.84035480"},
{"state":"West Azarbaijan","name":"Gerd Kashaneh","lat":"36.81136290","lon":"45.24764300"},
{"state":"West Azarbaijan","name":"Keshavarz","lat":"36.83486050","lon":"46.35009520"},
{"state":"West Azarbaijan","name":"Khalifan","lat":"36.50681600","lon":"45.79090840"},
{"state":"West Azarbaijan","name":"Khowy","lat":"38.55030000","lon":"44.95210000"},
{"state":"West Azarbaijan","name":"Khoy","lat":"38.54849230","lon":"44.91661490"},
{"state":"West Azarbaijan","name":"Mahabad","lat":"36.76667000","lon":"45.73333000"},
{"state":"West Azarbaijan","name":"Mahmoodabad","lat":"36.71413790","lon":"46.49164870"},
{"state":"West Azarbaijan","name":"Maku","lat":"39.41669000","lon":"44.58336000"},
{"state":"West Azarbaijan","name":"Marganlar","lat":"39.14313890","lon":"44.92987620"},
{"state":"West Azarbaijan","name":"Miandoab","lat":"36.96667000","lon":"46.10961000"},
{"state":"West Azarbaijan","name":"Mirabad","lat":"36.40591310","lon":"45.36209820"},
{"state":"West Azarbaijan","name":"Mohammadyar","lat":"36.98351100","lon":"45.51034930"},
{"state":"West Azarbaijan","name":"Nalous","lat":"36.98381150","lon":"45.13960360"},
{"state":"West Azarbaijan","name":"Naqadeh","lat":"36.95530000","lon":"45.38800000"},
{"state":"West Azarbaijan","name":"Nazok-e Olya","lat":"39.01023010","lon":"45.05091900"},
{"state":"West Azarbaijan","name":"Noshin","lat":"37.73209770","lon":"45.03828030"},
{"state":"West Azarbaijan","name":"Oshnavieh","lat":"37.03578700","lon":"45.08183940"},
{"state":"West Azarbaijan","name":"Oshnaviyeh","lat":"37.03970000","lon":"45.09830000"},
{"state":"West Azarbaijan","name":"Piranshahr","lat":"36.70100000","lon":"45.14130000"},
{"state":"West Azarbaijan","name":"Poldasht","lat":"39.34800000","lon":"45.07100000"},
{"state":"West Azarbaijan","name":"Qarahziyaeddin","lat":"38.89150000","lon":"45.02550000"},
{"state":"West Azarbaijan","name":"Qotur","lat":"38.46538040","lon":"44.38811290"},
{"state":"West Azarbaijan","name":"Qushchi","lat":"37.98963410","lon":"45.02705810"},
{"state":"West Azarbaijan","name":"Rabat","lat":"36.20833300","lon":"45.55000000"},
{"state":"West Azarbaijan","name":"Salmas","lat":"38.19730000","lon":"44.76530000"},
{"state":"West Azarbaijan","name":"Sardasht","lat":"36.21670000","lon":"45.48320000"},
{"state":"West Azarbaijan","name":"Serow","lat":"37.72750000","lon":"44.64277800"},
{"state":"West Azarbaijan","name":"Shahin Dej","lat":"36.67930000","lon":"46.56690000"},
{"state":"West Azarbaijan","name":"Showt","lat":"39.22094680","lon":"44.74915970"},
{"state":"West Azarbaijan","name":"Siah Cheshmeh","lat":"39.06467800","lon":"44.36944470"},
{"state":"West Azarbaijan","name":"Silvana","lat":"37.42226160","lon":"44.84996790"},
{"state":"West Azarbaijan","name":"Simmineh","lat":"36.72972200","lon":"46.15111100"},
{"state":"West Azarbaijan","name":"Takab","lat":"36.40090000","lon":"47.11330000"},
{"state":"West Azarbaijan","name":"Taze Shar","lat":"38.17668750","lon":"44.68377820"},
{"state":"West Azarbaijan","name":"Urmia","lat":"37.55274000","lon":"45.07605000"},
{"state":"West Azarbaijan","name":"Zurabad","lat":"38.80220050","lon":"44.57706910"},
{"state":"Yazd","name":"Abarkooh","lat":"31.12628100","lon":"53.22159240"},
{"state":"Yazd","name":"Abarkuh","lat":"31.00000000","lon":"53.41667000"},
{"state":"Yazd","name":"Ahmadabad","lat":"32.35666700","lon":"53.99194400"},
{"state":"Yazd","name":"Aqda","lat":"32.44319900","lon":"53.62542610"},
{"state":"Yazd","name":"Ardakan","lat":"32.31001000","lon":"54.01747000"},
{"state":"Yazd","name":"Ashkezar","lat":"32.00000000","lon":"53.66667000"},
{"state":"Yazd","name":"Bafgh","lat":"31.61251830","lon":"55.38023410"},
{"state":"Yazd","name":"Bafq","lat":"31.60350000","lon":"55.40249000"},
{"state":"Yazd","name":"Bafruiyeh","lat":"32.26992120","lon":"53.98829480"},
{"state":"Yazd","name":"Bahabad","lat":"31.87022880","lon":"56.00460980"},
{"state":"Yazd","name":"Behabad","lat":"32.01667000","lon":"56.15000000"},
{"state":"Yazd","name":"Hamidia","lat":"31.82816140","lon":"54.37884800"},
{"state":"Yazd","name":"Harat","lat":"30.05011000","lon":"54.35108170"},
{"state":"Yazd","name":"Khatam","lat":"30.38333000","lon":"54.20000000"},
{"state":"Yazd","name":"Khavas Kuh","lat":"32.30611000","lon":"53.67444000"},
{"state":"Yazd","name":"Khezrabad","lat":"31.87049590","lon":"53.94642230"},
{"state":"Yazd","name":"Mahriz","lat":"31.58428000","lon":"54.44280000"},
{"state":"Yazd","name":"Marvast","lat":"30.47856150","lon":"54.20229430"},
{"state":"Yazd","name":"Mehrdasht","lat":"31.02277800","lon":"53.35638900"},
{"state":"Yazd","name":"Mehriz","lat":"31.57977540","lon":"54.40669420"},
{"state":"Yazd","name":"Meybod","lat":"32.18333000","lon":"53.93333000"},
{"state":"Yazd","name":"Nir","lat":"31.48225780","lon":"54.12075520"},
{"state":"Yazd","name":"Nodoushan","lat":"32.03013140","lon":"53.53182780"},
{"state":"Yazd","name":"Shahedieh","lat":"31.94539800","lon":"54.24602450"},
{"state":"Yazd","name":"Tabas","lat":"33.59586000","lon":"56.92437000"},
{"state":"Yazd","name":"Taft","lat":"31.74384000","lon":"54.20278000"},
{"state":"Yazd","name":"Yazd","lat":"31.89722000","lon":"54.36750000"},
{"state":"Yazd","name":"Zarach","lat":"31.98615350","lon":"54.22491050"},
{"state":"Zanjan","name":"Abbar","lat":"36.92958670","lon":"48.93254920"},
{"state":"Zanjan","name":"Abhar","lat":"36.14680000","lon":"49.21800000"},
{"state":"Zanjan","name":"Alvand","lat":"36.31885000","lon":"49.16773000"},
{"state":"Zanjan","name":"Armaqankhaneh","lat":"36.97756320","lon":"48.36331840"},
{"state":"Zanjan","name":"Chavarzagh","lat":"36.99800550","lon":"48.77238060"},
{"state":"Zanjan","name":"Dandi","lat":"36.54939420","lon":"47.59371740"},
{"state":"Zanjan","name":"Garmaab","lat":"35.84896910","lon":"48.19004780"},
{"state":"Zanjan","name":"Halab","lat":"36.29550690","lon":"48.05917740"},
{"state":"Zanjan","name":"Hidaj","lat":"36.25513060","lon":"49.12132140"},
{"state":"Zanjan","name":"Ijrud","lat":"36.33333000","lon":"48.25000000"},
{"state":"Zanjan","name":"Karasf","lat":"36.04488260","lon":"48.49918840"},
{"state":"Zanjan","name":"Khodabandeh","lat":"36.00000000","lon":"48.50000000"},
{"state":"Zanjan","name":"Khorramdarreh","lat":"36.23333000","lon":"49.20000000"},
{"state":"Zanjan","name":"Mahneshan","lat":"36.66667000","lon":"47.56667000"},
{"state":"Zanjan","name":"Nik Pey","lat":"36.84951730","lon":"48.17332150"},
{"state":"Zanjan","name":"Nurbahar","lat":"35.93777800","lon":"48.79472200"},
{"state":"Zanjan","name":"Qeydar","lat":"36.12227140","lon":"48.57544890"},
{"state":"Zanjan","name":"Sain Qaleh","lat":"36.30295080","lon":"49.06384700"},
{"state":"Zanjan","name":"Sohrevard","lat":"36.07305320","lon":"48.43168260"},
{"state":"Zanjan","name":"Sojas","lat":"36.23940950","lon":"48.54545110"},
{"state":"Zanjan","name":"Soltanieh","lat":"36.43235000","lon":"48.79393000"},
{"state":"Zanjan","name":"Tarom","lat":"36.95000000","lon":"48.90000000"},
{"state":"Zanjan","name":"Zanjan","lat":"36.67642000","lon":"48.49628000"},
{"state":"Zanjan","name":"Zarrin Abad","lat":"36.42352420","lon":"48.24708800"},
{"state":"Zanjan","name":"Zarrin Rood","lat":"35.75856190","lon":"48.47152940"}]