[{"state":"Capital Region","name":"Álftanes","lat":"64.10000000","lon":"-22.01667000"},
{"state":"Capital Region","name":"Garðabær","lat":"64.08865000","lon":"-21.92298000"},
{"state":"Capital Region","name":"Hafnarfjörður","lat":"64.06710000","lon":"-21.93774000"},
{"state":"Capital Region","name":"Kjósarhreppur","lat":"64.30644000","lon":"-21.49919000"},
{"state":"Capital Region","name":"Kópavogur","lat":"64.11234000","lon":"-21.91298000"},
{"state":"Capital Region","name":"Mosfellsbaer","lat":"64.15000000","lon":"-21.65000000"},
{"state":"Capital Region","name":"Mosfellsbær","lat":"64.16667000","lon":"-21.70000000"},
{"state":"Capital Region","name":"Reykjavík","lat":"64.13548000","lon":"-21.89541000"},
{"state":"Capital Region","name":"Seltjarnarnes","lat":"64.15309000","lon":"-21.99499000"},
{"state":"Eastern Region","name":"Borgarfjarðarhreppur","lat":"65.43401000","lon":"-13.82933000"},
{"state":"Eastern Region","name":"Breiðdalshreppur","lat":"64.83333000","lon":"-14.25000000"},
{"state":"Eastern Region","name":"Egilsstaðir","lat":"65.26687000","lon":"-14.39485000"},
{"state":"Eastern Region","name":"Eskifjörður","lat":"65.07306000","lon":"-14.01525000"},
{"state":"Eastern Region","name":"Fjarðabyggð","lat":"65.08333000","lon":"-14.00000000"},
{"state":"Eastern Region","name":"Fljótsdalshérað","lat":"65.25020000","lon":"-15.37211000"},
{"state":"Eastern Region","name":"Fljótsdalshreppur","lat":"64.85275000","lon":"-15.25680000"},
{"state":"Eastern Region","name":"Höfn","lat":"64.25388000","lon":"-15.21212000"},
{"state":"Eastern Region","name":"Neskaupstaður","lat":"65.14819000","lon":"-13.68368000"},
{"state":"Eastern Region","name":"Reyðarfjörður","lat":"65.03164000","lon":"-14.21832000"},
{"state":"Northeastern Region","name":"Akureyri","lat":"65.68353000","lon":"-18.08780000"},
{"state":"Northeastern Region","name":"Dalvík","lat":"65.97018000","lon":"-18.52861000"},
{"state":"Northeastern Region","name":"Dalvíkurbyggð","lat":"65.87318000","lon":"-18.60844000"},
{"state":"Northeastern Region","name":"Eyjafjarðarsveit","lat":"65.33333000","lon":"-18.16667000"},
{"state":"Northeastern Region","name":"Fjallabyggð","lat":"66.05962000","lon":"-18.78220000"},
{"state":"Northeastern Region","name":"Grýtubakkahreppur","lat":"65.98333000","lon":"-18.11667000"},
{"state":"Northeastern Region","name":"Hörgársveit","lat":"65.64828000","lon":"-18.49599000"},
{"state":"Northeastern Region","name":"Húsavík","lat":"66.04148000","lon":"-17.33834000"},
{"state":"Northeastern Region","name":"Langanesbyggð","lat":"66.05186000","lon":"-15.18969000"},
{"state":"Northeastern Region","name":"Laugar","lat":"65.72159000","lon":"-17.37352000"},
{"state":"Northeastern Region","name":"Siglufjörður","lat":"66.15198000","lon":"-18.90815000"},
{"state":"Northeastern Region","name":"Skútustaðahreppur","lat":"65.17177000","lon":"-16.77890000"},
{"state":"Northeastern Region","name":"Svalbarðsstrandarhreppur","lat":"65.74138000","lon":"-18.03513000"},
{"state":"Northeastern Region","name":"Tjörneshreppur","lat":"66.11667000","lon":"-17.20000000"},
{"state":"Northeastern Region","name":"Þingeyjarsveit","lat":"65.37229000","lon":"-17.59927000"},
{"state":"Northwestern Region","name":"Akrahreppur","lat":"65.35505000","lon":"-18.79572000"},
{"state":"Northwestern Region","name":"Húnaþing Vestra","lat":"65.25000000","lon":"-20.91667000"},
{"state":"Northwestern Region","name":"Sauðárkrókur","lat":"65.74611000","lon":"-19.63944000"},
{"state":"Northwestern Region","name":"Skagabyggð","lat":"65.95000000","lon":"-20.25000000"},
{"state":"Northwestern Region","name":"Sveitarfélagið Skagafjörður","lat":"65.50018000","lon":"-19.44566000"},
{"state":"Southern Peninsula Region","name":"Garður","lat":"64.06558000","lon":"-22.64656000"},
{"state":"Southern Peninsula Region","name":"Grindavík","lat":"63.83849000","lon":"-22.43931000"},
{"state":"Southern Peninsula Region","name":"Keflavík","lat":"64.00492000","lon":"-22.56242000"},
{"state":"Southern Peninsula Region","name":"Reykjanesbær","lat":"63.99813000","lon":"-22.56111000"},
{"state":"Southern Peninsula Region","name":"Sandgerði","lat":"64.03762000","lon":"-22.70799000"},
{"state":"Southern Peninsula Region","name":"Vogar","lat":"63.98160000","lon":"-22.38473000"},
{"state":"Southern Region","name":"Ásahreppur","lat":"63.87589000","lon":"-20.59484000"},
{"state":"Southern Region","name":"Bláskógabyggð","lat":"64.41667000","lon":"-20.33333000"},
{"state":"Southern Region","name":"Flóahreppur","lat":"63.89569000","lon":"-20.80159000"},
{"state":"Southern Region","name":"Grímsnes- og Grafningshreppur","lat":"64.08533000","lon":"-20.96710000"},
{"state":"Southern Region","name":"Hrunamannahreppur","lat":"64.40944000","lon":"-19.72237000"},
{"state":"Southern Region","name":"Hveragerði","lat":"64.00039000","lon":"-21.18602000"},
{"state":"Southern Region","name":"Mýrdalshreppur","lat":"63.50000000","lon":"-19.00000000"},
{"state":"Southern Region","name":"Selfoss","lat":"63.93311000","lon":"-20.99712000"},
{"state":"Southern Region","name":"Skaftárhreppur","lat":"63.95948000","lon":"-18.14491000"},
{"state":"Southern Region","name":"Skeiða- og Gnúpverjahreppur","lat":"64.34738000","lon":"-19.37757000"},
{"state":"Southern Region","name":"Vestmannaeyjabær","lat":"63.43877000","lon":"-20.26900000"},
{"state":"Southern Region","name":"Vestmannaeyjar","lat":"63.44273000","lon":"-20.27339000"},
{"state":"Southern Region","name":"Þorlákshöfn","lat":"63.85591000","lon":"-21.38337000"},
{"state":"Western Region","name":"Akranes","lat":"64.32179000","lon":"-22.07490000"},
{"state":"Western Region","name":"Borgarbyggð","lat":"64.71446000","lon":"-21.23788000"},
{"state":"Western Region","name":"Borgarnes","lat":"64.53834000","lon":"-21.92064000"},
{"state":"Western Region","name":"Dalabyggð","lat":"65.10121000","lon":"-21.72871000"},
{"state":"Western Region","name":"Eyja- og Miklaholtshreppur","lat":"64.85846000","lon":"-22.54557000"},
{"state":"Western Region","name":"Helgafellssveit","lat":"64.99069000","lon":"-22.78948000"},
{"state":"Western Region","name":"Hvalfjarðarsveit","lat":"64.44265000","lon":"-21.61086000"},
{"state":"Western Region","name":"Ólafsvík","lat":"64.89429000","lon":"-23.70918000"},
{"state":"Western Region","name":"Skorradalshreppur","lat":"64.51667000","lon":"-21.50000000"},
{"state":"Western Region","name":"Snæfellsbær","lat":"64.86667000","lon":"-23.50000000"},
{"state":"Western Region","name":"Stykkishólmur","lat":"65.07537000","lon":"-22.72977000"},
{"state":"Westfjords","name":"Ísafjarðarbær","lat":"66.07586000","lon":"-23.12794000"},
{"state":"Westfjords","name":"Ísafjörður","lat":"66.07475000","lon":"-23.13498000"},
{"state":"Westfjords","name":"Reykhólahreppur","lat":"65.60990000","lon":"-22.33324000"},
{"state":"Westfjords","name":"Strandabyggð","lat":"65.77455000","lon":"-21.95725000"},
{"state":"Westfjords","name":"Tálknafjarðarhreppur","lat":"65.61667000","lon":"-23.88333000"}]