[{"state":"Ajloun","name":"‘Ajlūn","lat":"32.33326000","lon":"35.75279000"},
{"state":"Ajloun","name":"‘Anjarah","lat":"32.30630000","lon":"35.75653000"},
{"state":"Ajloun","name":"‘Ayn Jannah","lat":"32.33466000","lon":"35.76370000"},
{"state":"Ajloun","name":"Ḩalāwah","lat":"32.38433000","lon":"35.66167000"},
{"state":"Ajloun","name":"Şakhrah","lat":"32.37087000","lon":"35.84267000"},
{"state":"Amman","name":"Al Jīzah","lat":"31.69893000","lon":"35.95530000"},
{"state":"Amman","name":"Al Jubayhah","lat":"32.01071000","lon":"35.89802000"},
{"state":"Amman","name":"Amman","lat":"31.95522000","lon":"35.94503000"},
{"state":"Amman","name":"Ḩayy al Bunayyāt","lat":"31.89603000","lon":"35.88465000"},
{"state":"Amman","name":"Ḩayy al Quwaysimah","lat":"31.91037000","lon":"35.94975000"},
{"state":"Amman","name":"Jāwā","lat":"31.85247000","lon":"35.93928000"},
{"state":"Amman","name":"Saḩāb","lat":"31.87032000","lon":"36.00479000"},
{"state":"Amman","name":"Umm as Summāq","lat":"31.88542000","lon":"35.85430000"},
{"state":"Amman","name":"Wādī as Sīr","lat":"31.95450000","lon":"35.81831000"},
{"state":"Aqaba","name":"Aqaba","lat":"29.52667000","lon":"35.00778000"},
{"state":"Aqaba","name":"Tala Bay","lat":"29.40842000","lon":"34.97918000"},
{"state":"Balqa","name":"Al Karāmah","lat":"31.95439000","lon":"35.58033000"},
{"state":"Balqa","name":"As Salţ","lat":"32.03917000","lon":"35.72722000"},
{"state":"Balqa","name":"Yarqā","lat":"31.97583000","lon":"35.69638000"},
{"state":"Irbid","name":"Ar Ramthā","lat":"32.55873000","lon":"36.00816000"},
{"state":"Irbid","name":"Ash Shajarah","lat":"32.64391000","lon":"35.94175000"},
{"state":"Irbid","name":"Aţ Ţayyibah","lat":"32.54304000","lon":"35.71756000"},
{"state":"Irbid","name":"Aţ Ţurrah","lat":"32.63979000","lon":"35.98943000"},
{"state":"Irbid","name":"Aydūn","lat":"32.50528000","lon":"35.85809000"},
{"state":"Irbid","name":"Bayt Īdis","lat":"32.43775000","lon":"35.69765000"},
{"state":"Irbid","name":"Bayt Yāfā","lat":"32.52253000","lon":"35.78618000"},
{"state":"Irbid","name":"Dayr Yūsuf","lat":"32.48701000","lon":"35.79635000"},
{"state":"Irbid","name":"Ḩakamā","lat":"32.59354000","lon":"35.88320000"},
{"state":"Irbid","name":"Ḩātim","lat":"32.64492000","lon":"35.77771000"},
{"state":"Irbid","name":"Irbid","lat":"32.55556000","lon":"35.85000000"},
{"state":"Irbid","name":"Judita","lat":"32.40792000","lon":"35.70802000"},
{"state":"Irbid","name":"Kafr Abīl","lat":"32.41752000","lon":"35.66305000"},
{"state":"Irbid","name":"Kafr Asad","lat":"32.59800000","lon":"35.71266000"},
{"state":"Irbid","name":"Kafr Sawm","lat":"32.68527000","lon":"35.80102000"},
{"state":"Irbid","name":"Kharjā","lat":"32.65988000","lon":"35.88782000"},
{"state":"Irbid","name":"Kitim","lat":"32.43834000","lon":"35.89677000"},
{"state":"Irbid","name":"Kurayyimah","lat":"32.27639000","lon":"35.59938000"},
{"state":"Irbid","name":"Malkā","lat":"32.67645000","lon":"35.74851000"},
{"state":"Irbid","name":"Qumaym","lat":"32.57174000","lon":"35.73452000"},
{"state":"Irbid","name":"Saḩam al Kaffārāt","lat":"32.69848000","lon":"35.77438000"},
{"state":"Irbid","name":"Sāl","lat":"32.56897000","lon":"35.91185000"},
{"state":"Irbid","name":"Şammā","lat":"32.57102000","lon":"35.68984000"},
{"state":"Irbid","name":"Tibnah","lat":"32.47521000","lon":"35.73056000"},
{"state":"Irbid","name":"Umm Qays","lat":"32.65348000","lon":"35.68457000"},
{"state":"Irbid","name":"Waqqāş","lat":"32.54214000","lon":"35.60508000"},
{"state":"Irbid","name":"Zaḩar","lat":"32.56670000","lon":"35.77811000"},
{"state":"Jerash","name":"Al Kittah","lat":"32.27685000","lon":"35.84114000"},
{"state":"Jerash","name":"Balīlā","lat":"32.39109000","lon":"35.93832000"},
{"state":"Jerash","name":"Burmā","lat":"32.21930000","lon":"35.78507000"},
{"state":"Jerash","name":"Jarash","lat":"32.28082000","lon":"35.89929000"},
{"state":"Jerash","name":"Qafqafā","lat":"32.34851000","lon":"35.93864000"},
{"state":"Jerash","name":"Raymūn","lat":"32.28202000","lon":"35.82779000"},
{"state":"Jerash","name":"Sakib","lat":"32.28431000","lon":"35.80909000"},
{"state":"Jerash","name":"Sūf","lat":"32.31372000","lon":"35.83713000"},
{"state":"Karak","name":"‘Ayy","lat":"31.13371000","lon":"35.64375000"},
{"state":"Karak","name":"‘Izrā","lat":"31.15889000","lon":"35.69278000"},
{"state":"Karak","name":"Adir","lat":"31.20217000","lon":"35.76155000"},
{"state":"Karak","name":"Al Khinzīrah","lat":"31.05056000","lon":"35.60606000"},
{"state":"Karak","name":"Al Mazār al Janūbī","lat":"31.06722000","lon":"35.69486000"},
{"state":"Karak","name":"Al Qaşr","lat":"31.31407000","lon":"35.74393000"},
{"state":"Karak","name":"Ar Rabbah","lat":"31.26923000","lon":"35.73829000"},
{"state":"Karak","name":"Karak City","lat":"31.16368000","lon":"35.76204000"},
{"state":"Karak","name":"Safi","lat":"31.03608000","lon":"35.46544000"},
{"state":"Ma'an","name":"Al Jafr","lat":"30.31840000","lon":"36.17775000"},
{"state":"Ma'an","name":"Al Quwayrah","lat":"29.80045000","lon":"35.31160000"},
{"state":"Ma'an","name":"Ash Shawbak","lat":"30.52134000","lon":"35.57135000"},
{"state":"Ma'an","name":"Aţ Ţayyibah","lat":"30.25125000","lon":"35.46570000"},
{"state":"Ma'an","name":"Ma'an","lat":"30.19624000","lon":"35.73405000"},
{"state":"Ma'an","name":"Petra","lat":"30.32096000","lon":"35.47895000"},
{"state":"Ma'an","name":"Qīr Moāv","lat":"31.18248000","lon":"35.69999000"},
{"state":"Madaba","name":"Mādabā","lat":"31.71599000","lon":"35.79392000"},
{"state":"Mafraq","name":"Al Ḩamrā’","lat":"32.44017000","lon":"36.15265000"},
{"state":"Mafraq","name":"Mafraq","lat":"32.34289000","lon":"36.20804000"},
{"state":"Mafraq","name":"Rehab","lat":"32.32341000","lon":"36.09087000"},
{"state":"Mafraq","name":"Rukban","lat":"33.31405000","lon":"38.70342000"},
{"state":"Mafraq","name":"Şabḩā","lat":"32.32696000","lon":"36.50159000"},
{"state":"Mafraq","name":"Umm al Qiţţayn","lat":"32.31449000","lon":"36.62826000"},
{"state":"Tafilah","name":"Aţ Ţafīlah","lat":"30.83752000","lon":"35.60442000"},
{"state":"Tafilah","name":"Buşayrā","lat":"30.73256000","lon":"35.60943000"},
{"state":"Zarqa","name":"Al Azraq ash Shamālī","lat":"31.88209000","lon":"36.83017000"},
{"state":"Zarqa","name":"Russeifa","lat":"32.01778000","lon":"36.04639000"},
{"state":"Zarqa","name":"Zarqa","lat":"32.07275000","lon":"36.08796000"}]