[{"state":"Aichi Prefecture","name":"Aisai-shi","lat":"35.17234000","lon":"136.69478000"},
{"state":"Aichi Prefecture","name":"Ama-gun","lat":"35.17174000","lon":"136.82308000"},
{"state":"Aichi Prefecture","name":"Anjō-shi","lat":"34.94341000","lon":"137.07165000"},
{"state":"Aichi Prefecture","name":"Chiryū","lat":"35.00000000","lon":"137.03333000"},
{"state":"Aichi Prefecture","name":"Chiryū-shi","lat":"34.99862000","lon":"137.05000000"},
{"state":"Aichi Prefecture","name":"Chita","lat":"35.00267000","lon":"136.86420000"},
{"state":"Aichi Prefecture","name":"Chita-shi","lat":"34.97048000","lon":"136.86490000"},
{"state":"Aichi Prefecture","name":"Gamagōri","lat":"34.83333000","lon":"137.23333000"},
{"state":"Aichi Prefecture","name":"Gamagōri-shi","lat":"34.82759000","lon":"137.22752000"},
{"state":"Aichi Prefecture","name":"Handa","lat":"34.88333000","lon":"136.93333000"},
{"state":"Aichi Prefecture","name":"Handa-shi","lat":"34.89903000","lon":"136.92660000"},
{"state":"Aichi Prefecture","name":"Hekinan","lat":"34.88333000","lon":"136.98333000"},
{"state":"Aichi Prefecture","name":"Hekinan-shi","lat":"34.87955000","lon":"136.99155000"},
{"state":"Aichi Prefecture","name":"Ichinomiya","lat":"35.30000000","lon":"136.80000000"},
{"state":"Aichi Prefecture","name":"Ichinomiya-shi","lat":"35.31037000","lon":"136.79237000"},
{"state":"Aichi Prefecture","name":"Inazawa","lat":"35.25000000","lon":"136.78333000"},
{"state":"Aichi Prefecture","name":"Inazawa-shi","lat":"35.24814000","lon":"136.77979000"},
{"state":"Aichi Prefecture","name":"Inuyama","lat":"35.37995000","lon":"136.94295000"},
{"state":"Aichi Prefecture","name":"Inuyama-shi","lat":"35.36232000","lon":"136.98072000"},
{"state":"Aichi Prefecture","name":"Ishiki","lat":"34.80000000","lon":"137.01667000"},
{"state":"Aichi Prefecture","name":"Iwakura","lat":"35.28333000","lon":"136.86667000"},
{"state":"Aichi Prefecture","name":"Iwakura-shi","lat":"35.27927000","lon":"136.86885000"},
{"state":"Aichi Prefecture","name":"Kanie","lat":"35.13333000","lon":"136.80000000"},
{"state":"Aichi Prefecture","name":"Kariya","lat":"34.98333000","lon":"136.98333000"},
{"state":"Aichi Prefecture","name":"Kariya-shi","lat":"35.01098000","lon":"137.00166000"},
{"state":"Aichi Prefecture","name":"Kasugai","lat":"35.24762000","lon":"136.97229000"},
{"state":"Aichi Prefecture","name":"Kasugai-shi","lat":"35.24762000","lon":"136.97226000"},
{"state":"Aichi Prefecture","name":"Kitanagoya","lat":"35.24702000","lon":"136.87832000"},
{"state":"Aichi Prefecture","name":"Kitanagoya-shi","lat":"35.24640000","lon":"136.87293000"},
{"state":"Aichi Prefecture","name":"Kiyosu-shi","lat":"35.21325000","lon":"136.84771000"},
{"state":"Aichi Prefecture","name":"Komaki","lat":"35.28333000","lon":"136.91667000"},
{"state":"Aichi Prefecture","name":"Komaki-shi","lat":"35.29103000","lon":"136.91196000"},
{"state":"Aichi Prefecture","name":"Kōnan","lat":"35.33165000","lon":"136.87042000"},
{"state":"Aichi Prefecture","name":"Kōnan-shi","lat":"35.33137000","lon":"136.87077000"},
{"state":"Aichi Prefecture","name":"Kozakai-chō","lat":"34.80000000","lon":"137.35889000"},
{"state":"Aichi Prefecture","name":"Kuroda","lat":"35.35000000","lon":"136.78333000"},
{"state":"Aichi Prefecture","name":"Miyoshi-shi","lat":"35.09480000","lon":"137.08870000"},
{"state":"Aichi Prefecture","name":"Nagakute-shi","lat":"35.18335000","lon":"137.04895000"},
{"state":"Aichi Prefecture","name":"Nagoya","lat":"35.18147000","lon":"136.90641000"},
{"state":"Aichi Prefecture","name":"Nishio","lat":"34.86667000","lon":"137.05000000"},
{"state":"Aichi Prefecture","name":"Nishio-shi","lat":"34.86223000","lon":"137.05433000"},
{"state":"Aichi Prefecture","name":"Nisshin-shi","lat":"35.13114000","lon":"137.03934000"},
{"state":"Aichi Prefecture","name":"Ōbu","lat":"35.01756000","lon":"136.94947000"},
{"state":"Aichi Prefecture","name":"Ōbu-shi","lat":"35.01920000","lon":"136.95424000"},
{"state":"Aichi Prefecture","name":"Okazaki-shi","lat":"34.95245000","lon":"137.25783000"},
{"state":"Aichi Prefecture","name":"Owariasahi-shi","lat":"35.21652000","lon":"137.03542000"},
{"state":"Aichi Prefecture","name":"Seto","lat":"35.23333000","lon":"137.10000000"},
{"state":"Aichi Prefecture","name":"Seto-shi","lat":"35.22340000","lon":"137.08414000"},
{"state":"Aichi Prefecture","name":"Shinshiro","lat":"34.90000000","lon":"137.50000000"},
{"state":"Aichi Prefecture","name":"Shinshiro-shi","lat":"34.96073000","lon":"137.54360000"},
{"state":"Aichi Prefecture","name":"Sobue","lat":"35.25000000","lon":"136.71667000"},
{"state":"Aichi Prefecture","name":"Tahara","lat":"34.66667000","lon":"137.26667000"},
{"state":"Aichi Prefecture","name":"Tahara-shi","lat":"34.64140000","lon":"137.18314000"},
{"state":"Aichi Prefecture","name":"Takahama","lat":"34.91667000","lon":"136.98333000"},
{"state":"Aichi Prefecture","name":"Takahama-shi","lat":"34.93337000","lon":"136.99490000"},
{"state":"Aichi Prefecture","name":"Taketoyo","lat":"34.85000000","lon":"136.91667000"},
{"state":"Aichi Prefecture","name":"Tōkai-shi","lat":"35.02676000","lon":"136.89846000"},
{"state":"Aichi Prefecture","name":"Tokoname","lat":"34.88333000","lon":"136.85000000"},
{"state":"Aichi Prefecture","name":"Tokoname-shi","lat":"34.88929000","lon":"136.85299000"},
{"state":"Aichi Prefecture","name":"Toyoake","lat":"35.03800000","lon":"136.99931000"},
{"state":"Aichi Prefecture","name":"Toyoake-shi","lat":"35.06248000","lon":"137.00887000"},
{"state":"Aichi Prefecture","name":"Toyohama","lat":"34.70933000","lon":"136.93425000"},
{"state":"Aichi Prefecture","name":"Toyohashi","lat":"34.76667000","lon":"137.38333000"},
{"state":"Aichi Prefecture","name":"Toyohashi-shi","lat":"34.74050000","lon":"137.40714000"},
{"state":"Aichi Prefecture","name":"Toyokawa","lat":"34.81667000","lon":"137.40000000"},
{"state":"Aichi Prefecture","name":"Toyokawa-shi","lat":"34.85032000","lon":"137.36175000"},
{"state":"Aichi Prefecture","name":"Toyota-shi","lat":"35.08700000","lon":"137.15000000"},
{"state":"Aichi Prefecture","name":"Tsushima","lat":"35.16667000","lon":"136.71667000"},
{"state":"Aichi Prefecture","name":"Tsushima-shi","lat":"35.17718000","lon":"136.74168000"},
{"state":"Aichi Prefecture","name":"Yatomi-shi","lat":"35.10938000","lon":"136.72451000"},
{"state":"Akita Prefecture","name":"Akita","lat":"39.71667000","lon":"140.11667000"},
{"state":"Akita Prefecture","name":"Akita Shi","lat":"39.71043000","lon":"140.23207000"},
{"state":"Akita Prefecture","name":"Daisen","lat":"39.44116000","lon":"140.48961000"},
{"state":"Akita Prefecture","name":"Daisen-shi","lat":"39.53710000","lon":"140.44139000"},
{"state":"Akita Prefecture","name":"Hanawa","lat":"40.18361000","lon":"140.78722000"},
{"state":"Akita Prefecture","name":"Kakunodatemachi","lat":"39.58926000","lon":"140.56724000"},
{"state":"Akita Prefecture","name":"Katagami","lat":"39.87869000","lon":"139.99767000"},
{"state":"Akita Prefecture","name":"Katagami-shi","lat":"39.87209000","lon":"140.04910000"},
{"state":"Akita Prefecture","name":"Kazuno Shi","lat":"40.21035000","lon":"140.83030000"},
{"state":"Akita Prefecture","name":"Kitaakita-shi","lat":"40.23446000","lon":"140.39978000"},
{"state":"Akita Prefecture","name":"Nikaho-shi","lat":"39.19677000","lon":"139.97305000"},
{"state":"Akita Prefecture","name":"Noshiro","lat":"40.20838000","lon":"140.02740000"},
{"state":"Akita Prefecture","name":"Noshiro Shi","lat":"40.20289000","lon":"140.14486000"},
{"state":"Akita Prefecture","name":"Ōdate","lat":"40.27178000","lon":"140.55756000"},
{"state":"Akita Prefecture","name":"Ōdate-shi","lat":"40.30000000","lon":"140.55000000"},
{"state":"Akita Prefecture","name":"Oga","lat":"39.87100000","lon":"139.84926000"},
{"state":"Akita Prefecture","name":"Oga-shi","lat":"39.93793000","lon":"139.83611000"},
{"state":"Akita Prefecture","name":"Ōmagari","lat":"39.45000000","lon":"140.48333000"},
{"state":"Akita Prefecture","name":"Semboku-shi","lat":"39.75709000","lon":"140.66998000"},
{"state":"Akita Prefecture","name":"Takanosu","lat":"40.22268000","lon":"140.36611000"},
{"state":"Akita Prefecture","name":"Tennō","lat":"39.90000000","lon":"139.96667000"},
{"state":"Akita Prefecture","name":"Yokote","lat":"39.31691000","lon":"140.55034000"},
{"state":"Akita Prefecture","name":"Yokote-shi","lat":"39.28369000","lon":"140.54432000"},
{"state":"Akita Prefecture","name":"Yurihonjō","lat":"39.38950000","lon":"140.05813000"},
{"state":"Akita Prefecture","name":"Yurihonjō-shi","lat":"39.29336000","lon":"140.16498000"},
{"state":"Akita Prefecture","name":"Yuzawa","lat":"39.16667000","lon":"140.50000000"},
{"state":"Akita Prefecture","name":"Yuzawa-shi","lat":"39.03658000","lon":"140.54267000"},
{"state":"Aomori Prefecture","name":"Aomori","lat":"40.81667000","lon":"140.73333000"},
{"state":"Aomori Prefecture","name":"Aomori Shi","lat":"40.77001000","lon":"140.75423000"},
{"state":"Aomori Prefecture","name":"Goshogawara","lat":"40.80444000","lon":"140.44139000"},
{"state":"Aomori Prefecture","name":"Goshogawara Shi","lat":"40.91657000","lon":"140.46998000"},
{"state":"Aomori Prefecture","name":"Hachinohe","lat":"40.50000000","lon":"141.50000000"},
{"state":"Aomori Prefecture","name":"Hachinohe Shi","lat":"40.47389000","lon":"141.48125000"},
{"state":"Aomori Prefecture","name":"Hirakawa","lat":"40.58728000","lon":"140.57107000"},
{"state":"Aomori Prefecture","name":"Hirakawa Shi","lat":"40.51832000","lon":"140.70048000"},
{"state":"Aomori Prefecture","name":"Hirosaki","lat":"40.59306000","lon":"140.47250000"},
{"state":"Aomori Prefecture","name":"Hirosaki Shi","lat":"40.60512000","lon":"140.38460000"},
{"state":"Aomori Prefecture","name":"Kuroishi","lat":"40.64581000","lon":"140.58354000"},
{"state":"Aomori Prefecture","name":"Kuroishi Shi","lat":"40.61709000","lon":"140.70467000"},
{"state":"Aomori Prefecture","name":"Misawa","lat":"40.68682000","lon":"141.38969000"},
{"state":"Aomori Prefecture","name":"Misawa Shi","lat":"40.74647000","lon":"141.38124000"},
{"state":"Aomori Prefecture","name":"Mutsu","lat":"41.28944000","lon":"141.21694000"},
{"state":"Aomori Prefecture","name":"Mutsu-shi","lat":"41.29090000","lon":"141.03327000"},
{"state":"Aomori Prefecture","name":"Namioka","lat":"40.71069000","lon":"140.59048000"},
{"state":"Aomori Prefecture","name":"Shimokizukuri","lat":"40.81609000","lon":"140.37539000"},
{"state":"Aomori Prefecture","name":"Towada Shi","lat":"40.56736000","lon":"141.05794000"},
{"state":"Aomori Prefecture","name":"Tsugaru","lat":"40.80357000","lon":"140.40299000"},
{"state":"Aomori Prefecture","name":"Tsugaru Shi","lat":"40.86988000","lon":"140.34963000"},
{"state":"Chiba Prefecture","name":"Abiko","lat":"35.86667000","lon":"140.01667000"},
{"state":"Chiba Prefecture","name":"Abiko-shi","lat":"35.86947000","lon":"140.06510000"},
{"state":"Chiba Prefecture","name":"Asahi-shi","lat":"35.73443000","lon":"140.65549000"},
{"state":"Chiba Prefecture","name":"Chiba","lat":"35.60000000","lon":"140.11667000"},
{"state":"Chiba Prefecture","name":"Chōshi-shi","lat":"35.74303000","lon":"140.77552000"},
{"state":"Chiba Prefecture","name":"Funabashi-shi","lat":"35.69455000","lon":"139.98255000"},
{"state":"Chiba Prefecture","name":"Futtsu","lat":"35.31080000","lon":"139.81877000"},
{"state":"Chiba Prefecture","name":"Hasaki","lat":"35.73333000","lon":"140.83333000"},
{"state":"Chiba Prefecture","name":"Honchō","lat":"35.70129000","lon":"139.98648000"},
{"state":"Chiba Prefecture","name":"Ichihara","lat":"35.51667000","lon":"140.08333000"},
{"state":"Chiba Prefecture","name":"Ichihara Shi","lat":"35.42484000","lon":"140.13725000"},
{"state":"Chiba Prefecture","name":"Ichikawa Shi","lat":"35.71865000","lon":"139.93294000"},
{"state":"Chiba Prefecture","name":"Inzai-shi","lat":"35.81207000","lon":"140.14098000"},
{"state":"Chiba Prefecture","name":"Isumi","lat":"35.23005000","lon":"140.40492000"},
{"state":"Chiba Prefecture","name":"Isumi Shi","lat":"35.27777000","lon":"140.34335000"},
{"state":"Chiba Prefecture","name":"Kamagaya Shi","lat":"35.77289000","lon":"139.99883000"},
{"state":"Chiba Prefecture","name":"Kamogawa","lat":"35.09690000","lon":"140.10030000"},
{"state":"Chiba Prefecture","name":"Kamogawa-shi","lat":"35.10000000","lon":"140.10000000"},
{"state":"Chiba Prefecture","name":"Kashiwa","lat":"35.86224000","lon":"139.97732000"},
{"state":"Chiba Prefecture","name":"Kashiwa Shi","lat":"35.86017000","lon":"139.99386000"},
{"state":"Chiba Prefecture","name":"Katori-shi","lat":"35.88333000","lon":"140.51667000"},
{"state":"Chiba Prefecture","name":"Katsuura","lat":"35.14621000","lon":"140.31507000"},
{"state":"Chiba Prefecture","name":"Katsuura-shi","lat":"35.17535000","lon":"140.26760000"},
{"state":"Chiba Prefecture","name":"Kimitsu","lat":"35.35043000","lon":"139.87029000"},
{"state":"Chiba Prefecture","name":"Kisarazu","lat":"35.38329000","lon":"139.93254000"},
{"state":"Chiba Prefecture","name":"Kisarazu Shi","lat":"35.36981000","lon":"139.98749000"},
{"state":"Chiba Prefecture","name":"Matsudo Shi","lat":"35.79574000","lon":"139.92908000"},
{"state":"Chiba Prefecture","name":"Minamibōsō Shi","lat":"35.03657000","lon":"139.92847000"},
{"state":"Chiba Prefecture","name":"Mobara","lat":"35.42583000","lon":"140.29608000"},
{"state":"Chiba Prefecture","name":"Mobara Shi","lat":"35.44981000","lon":"140.30163000"},
{"state":"Chiba Prefecture","name":"Nagareyama","lat":"35.85630000","lon":"139.90266000"},
{"state":"Chiba Prefecture","name":"Nagareyama-shi","lat":"35.85631000","lon":"139.90266000"},
{"state":"Chiba Prefecture","name":"Narashino-shi","lat":"35.68091000","lon":"140.03418000"},
{"state":"Chiba Prefecture","name":"Narita","lat":"35.78333000","lon":"140.31667000"},
{"state":"Chiba Prefecture","name":"Narita-shi","lat":"35.81547000","lon":"140.35757000"},
{"state":"Chiba Prefecture","name":"Narutō","lat":"35.60000000","lon":"140.41667000"},
{"state":"Chiba Prefecture","name":"Noda","lat":"35.94897000","lon":"139.86793000"},
{"state":"Chiba Prefecture","name":"Noda-shi","lat":"35.98516000","lon":"139.86215000"},
{"state":"Chiba Prefecture","name":"Ōami","lat":"35.51667000","lon":"140.31667000"},
{"state":"Chiba Prefecture","name":"Ōamishirasato-shi","lat":"35.51279000","lon":"140.34295000"},
{"state":"Chiba Prefecture","name":"Ōhara","lat":"35.24761000","lon":"140.39289000"},
{"state":"Chiba Prefecture","name":"Omigawa","lat":"35.85000000","lon":"140.61667000"},
{"state":"Chiba Prefecture","name":"Sakura","lat":"35.71667000","lon":"140.23333000"},
{"state":"Chiba Prefecture","name":"Sakura-shi","lat":"35.70619000","lon":"140.21326000"},
{"state":"Chiba Prefecture","name":"Sambu-gun","lat":"35.68843000","lon":"140.45346000"},
{"state":"Chiba Prefecture","name":"Sanmu","lat":"35.62756000","lon":"140.41762000"},
{"state":"Chiba Prefecture","name":"Sanmu-shi","lat":"35.62397000","lon":"140.42079000"},
{"state":"Chiba Prefecture","name":"Sawara","lat":"35.88333000","lon":"140.50000000"},
{"state":"Chiba Prefecture","name":"Shiroi","lat":"35.80000000","lon":"140.06667000"},
{"state":"Chiba Prefecture","name":"Shiroi-shi","lat":"35.80164000","lon":"140.06005000"},
{"state":"Chiba Prefecture","name":"Shisui","lat":"35.71667000","lon":"140.26667000"},
{"state":"Chiba Prefecture","name":"Sodegaura-shi","lat":"35.41642000","lon":"140.01771000"},
{"state":"Chiba Prefecture","name":"Sōsa-shi","lat":"35.69983000","lon":"140.55366000"},
{"state":"Chiba Prefecture","name":"Tateyama","lat":"34.98333000","lon":"139.86667000"},
{"state":"Chiba Prefecture","name":"Tateyama-shi","lat":"34.97156000","lon":"139.86163000"},
{"state":"Chiba Prefecture","name":"Tōgane","lat":"35.55000000","lon":"140.36667000"},
{"state":"Chiba Prefecture","name":"Tōgane-shi","lat":"35.56517000","lon":"140.36707000"},
{"state":"Chiba Prefecture","name":"Tomisato-shi","lat":"35.72024000","lon":"140.34080000"},
{"state":"Chiba Prefecture","name":"Urayasu-shi","lat":"35.64250000","lon":"139.90192000"},
{"state":"Chiba Prefecture","name":"Yachimata","lat":"35.65000000","lon":"140.31667000"},
{"state":"Chiba Prefecture","name":"Yachimata-shi","lat":"35.64241000","lon":"140.29686000"},
{"state":"Chiba Prefecture","name":"Yachiyo-shi","lat":"35.73921000","lon":"140.10502000"},
{"state":"Chiba Prefecture","name":"Yōkaichiba","lat":"35.70000000","lon":"140.55000000"},
{"state":"Chiba Prefecture","name":"Yotsukaidō","lat":"35.65000000","lon":"140.16667000"},
{"state":"Chiba Prefecture","name":"Yotsukaidō-shi","lat":"35.67167000","lon":"140.17912000"},
{"state":"Ehime Prefecture","name":"Hōjō","lat":"33.97661000","lon":"132.77767000"},
{"state":"Ehime Prefecture","name":"Imabari-shi","lat":"34.06667000","lon":"132.99791000"},
{"state":"Ehime Prefecture","name":"Iyo","lat":"33.75139000","lon":"132.70139000"},
{"state":"Ehime Prefecture","name":"Iyo-shi","lat":"33.68493000","lon":"132.68909000"},
{"state":"Ehime Prefecture","name":"Kawanoechō","lat":"34.01654000","lon":"133.57844000"},
{"state":"Ehime Prefecture","name":"Kihoku-chō","lat":"33.25592000","lon":"132.68343000"},
{"state":"Ehime Prefecture","name":"Masaki-chō","lat":"33.78757000","lon":"132.71124000"},
{"state":"Ehime Prefecture","name":"Matsuyama-shi","lat":"33.83568000","lon":"132.76224000"},
{"state":"Ehime Prefecture","name":"Niihama","lat":"33.96047000","lon":"133.30522000"},
{"state":"Ehime Prefecture","name":"Niihama-shi","lat":"33.90670000","lon":"133.33250000"},
{"state":"Ehime Prefecture","name":"Ōzu","lat":"33.50000000","lon":"132.55000000"},
{"state":"Ehime Prefecture","name":"Ōzu-shi","lat":"33.50619000","lon":"132.54430000"},
{"state":"Ehime Prefecture","name":"Saijō","lat":"33.91667000","lon":"133.18333000"},
{"state":"Ehime Prefecture","name":"Saijō-shi","lat":"33.86100000","lon":"133.10832000"},
{"state":"Ehime Prefecture","name":"Seiyo-shi","lat":"33.39408000","lon":"132.63262000"},
{"state":"Ehime Prefecture","name":"Shikoku-chūō Shi","lat":"33.93538000","lon":"133.53622000"},
{"state":"Ehime Prefecture","name":"Tōon-shi","lat":"33.79099000","lon":"132.87234000"},
{"state":"Ehime Prefecture","name":"Uwajima","lat":"33.22375000","lon":"132.56001000"},
{"state":"Ehime Prefecture","name":"Uwajima-shi","lat":"33.22325000","lon":"132.56069000"},
{"state":"Ehime Prefecture","name":"Yawatahama-shi","lat":"33.46302000","lon":"132.42336000"},
{"state":"Fukui Prefecture","name":"Asahi","lat":"35.97259000","lon":"136.12455000"},
{"state":"Fukui Prefecture","name":"Awara-shi","lat":"36.22777000","lon":"136.25154000"},
{"state":"Fukui Prefecture","name":"Echizen-shi","lat":"35.88946000","lon":"136.17723000"},
{"state":"Fukui Prefecture","name":"Fukui-shi","lat":"36.06667000","lon":"136.21667000"},
{"state":"Fukui Prefecture","name":"Katsuyama","lat":"36.06173000","lon":"136.50101000"},
{"state":"Fukui Prefecture","name":"Katsuyama Shi","lat":"36.08440000","lon":"136.52178000"},
{"state":"Fukui Prefecture","name":"Maruoka","lat":"36.15340000","lon":"136.27029000"},
{"state":"Fukui Prefecture","name":"Mikuni","lat":"36.21706000","lon":"136.15185000"},
{"state":"Fukui Prefecture","name":"Obama","lat":"35.49576000","lon":"135.74604000"},
{"state":"Fukui Prefecture","name":"Obama-shi","lat":"35.45000000","lon":"135.70000000"},
{"state":"Fukui Prefecture","name":"Ōi-gun","lat":"35.49238000","lon":"135.49311000"},
{"state":"Fukui Prefecture","name":"Ono","lat":"35.98106000","lon":"136.48727000"},
{"state":"Fukui Prefecture","name":"Ōno-shi","lat":"35.90837000","lon":"136.61696000"},
{"state":"Fukui Prefecture","name":"Sabae","lat":"35.94647000","lon":"136.18498000"},
{"state":"Fukui Prefecture","name":"Sabae-shi","lat":"35.95932000","lon":"136.21835000"},
{"state":"Fukui Prefecture","name":"Sakai-shi","lat":"36.16406000","lon":"136.25544000"},
{"state":"Fukui Prefecture","name":"Takefu","lat":"35.90393000","lon":"136.16687000"},
{"state":"Fukui Prefecture","name":"Tsuruga","lat":"35.64547000","lon":"136.05580000"},
{"state":"Fukui Prefecture","name":"Tsuruga-shi","lat":"35.63730000","lon":"136.08068000"},
{"state":"Fukuoka Prefecture","name":"Amagi","lat":"33.41804000","lon":"130.65413000"},
{"state":"Fukuoka Prefecture","name":"Asakura Shi","lat":"33.41684000","lon":"130.74167000"},
{"state":"Fukuoka Prefecture","name":"Buzen","lat":"33.61153000","lon":"131.13002000"},
{"state":"Fukuoka Prefecture","name":"Buzen-shi","lat":"33.56743000","lon":"131.08578000"},
{"state":"Fukuoka Prefecture","name":"Chikugo Shi","lat":"33.20748000","lon":"130.49122000"},
{"state":"Fukuoka Prefecture","name":"Chikushino-shi","lat":"33.49631000","lon":"130.51560000"},
{"state":"Fukuoka Prefecture","name":"Dazaifu-shi","lat":"33.50000000","lon":"130.53333000"},
{"state":"Fukuoka Prefecture","name":"Fukuoka","lat":"33.60000000","lon":"130.41667000"},
{"state":"Fukuoka Prefecture","name":"Fukuoka-shi","lat":"33.56894000","lon":"130.35764000"},
{"state":"Fukuoka Prefecture","name":"Fukutsu Shi","lat":"33.77982000","lon":"130.49804000"},
{"state":"Fukuoka Prefecture","name":"Iizuka","lat":"33.63654000","lon":"130.68678000"},
{"state":"Fukuoka Prefecture","name":"Iizuka Shi","lat":"33.61353000","lon":"130.66098000"},
{"state":"Fukuoka Prefecture","name":"Itoshima-shi","lat":"33.53317000","lon":"130.17975000"},
{"state":"Fukuoka Prefecture","name":"Kama Shi","lat":"33.53663000","lon":"130.74028000"},
{"state":"Fukuoka Prefecture","name":"Kanda","lat":"33.78333000","lon":"130.98333000"},
{"state":"Fukuoka Prefecture","name":"Kasuga Shi","lat":"33.52404000","lon":"130.45641000"},
{"state":"Fukuoka Prefecture","name":"Kawasaki","lat":"33.59993000","lon":"130.81495000"},
{"state":"Fukuoka Prefecture","name":"Kitakyushu","lat":"33.85181000","lon":"130.85034000"},
{"state":"Fukuoka Prefecture","name":"Koga","lat":"33.73333000","lon":"130.46667000"},
{"state":"Fukuoka Prefecture","name":"Koga-shi","lat":"33.72139000","lon":"130.49947000"},
{"state":"Fukuoka Prefecture","name":"Kurume","lat":"33.31667000","lon":"130.51667000"},
{"state":"Fukuoka Prefecture","name":"Kurume Shi","lat":"33.30358000","lon":"130.56549000"},
{"state":"Fukuoka Prefecture","name":"Maebaru-chūō","lat":"33.55916000","lon":"130.20148000"},
{"state":"Fukuoka Prefecture","name":"Miyama Shi","lat":"33.12369000","lon":"130.49540000"},
{"state":"Fukuoka Prefecture","name":"Miyata","lat":"33.70811000","lon":"130.65297000"},
{"state":"Fukuoka Prefecture","name":"Miyawaka Shi","lat":"33.71559000","lon":"130.61506000"},
{"state":"Fukuoka Prefecture","name":"Munakata-shi","lat":"33.80000000","lon":"130.55000000"},
{"state":"Fukuoka Prefecture","name":"Nakama","lat":"33.81688000","lon":"130.70962000"},
{"state":"Fukuoka Prefecture","name":"Nakama Shi","lat":"33.82081000","lon":"130.70862000"},
{"state":"Fukuoka Prefecture","name":"Nishifukuma","lat":"33.76627000","lon":"130.47461000"},
{"state":"Fukuoka Prefecture","name":"Nōgata","lat":"33.74051000","lon":"130.72263000"},
{"state":"Fukuoka Prefecture","name":"Nōgata Shi","lat":"33.75116000","lon":"130.74592000"},
{"state":"Fukuoka Prefecture","name":"Ogōri-shi","lat":"33.38333000","lon":"130.56667000"},
{"state":"Fukuoka Prefecture","name":"Ōkawa","lat":"33.20566000","lon":"130.37527000"},
{"state":"Fukuoka Prefecture","name":"Ōkawa-shi","lat":"33.20736000","lon":"130.38253000"},
{"state":"Fukuoka Prefecture","name":"Ōmuta","lat":"33.03333000","lon":"130.45000000"},
{"state":"Fukuoka Prefecture","name":"Ōmuta Shi","lat":"33.04616000","lon":"130.46912000"},
{"state":"Fukuoka Prefecture","name":"Onga-gun","lat":"33.85699000","lon":"130.63626000"},
{"state":"Fukuoka Prefecture","name":"Ōnojō","lat":"33.53567000","lon":"130.47861000"},
{"state":"Fukuoka Prefecture","name":"Ōnojō Shi","lat":"33.51302000","lon":"130.47925000"},
{"state":"Fukuoka Prefecture","name":"Sasaguri","lat":"33.61561000","lon":"130.55105000"},
{"state":"Fukuoka Prefecture","name":"Setakamachi-takayanagi","lat":"33.14858000","lon":"130.46548000"},
{"state":"Fukuoka Prefecture","name":"Shiida","lat":"33.65341000","lon":"131.05797000"},
{"state":"Fukuoka Prefecture","name":"Shingū","lat":"33.71399000","lon":"130.43130000"},
{"state":"Fukuoka Prefecture","name":"Tagawa","lat":"33.63333000","lon":"130.80000000"},
{"state":"Fukuoka Prefecture","name":"Tagawa Shi","lat":"33.63159000","lon":"130.79966000"},
{"state":"Fukuoka Prefecture","name":"Tanushimarumachi-toyoki","lat":"33.35000000","lon":"130.68333000"},
{"state":"Fukuoka Prefecture","name":"Tsuiki","lat":"33.67307000","lon":"131.03776000"},
{"state":"Fukuoka Prefecture","name":"Ukiha Shi","lat":"33.31184000","lon":"130.79325000"},
{"state":"Fukuoka Prefecture","name":"Umi","lat":"33.56826000","lon":"130.51009000"},
{"state":"Fukuoka Prefecture","name":"Yame Shi","lat":"33.23302000","lon":"130.62775000"},
{"state":"Fukuoka Prefecture","name":"Yanagawa","lat":"33.16667000","lon":"130.40000000"},
{"state":"Fukuoka Prefecture","name":"Yanagawa Shi","lat":"33.14932000","lon":"130.40725000"},
{"state":"Fukuoka Prefecture","name":"Yoshitomi","lat":"33.60247000","lon":"131.17599000"},
{"state":"Fukuoka Prefecture","name":"Yukuhashi","lat":"33.72873000","lon":"130.98300000"},
{"state":"Fukuoka Prefecture","name":"Yukuhashi Shi","lat":"33.71404000","lon":"130.97108000"},
{"state":"Fukushima Prefecture","name":"Aizu-wakamatsu Shi","lat":"37.45071000","lon":"139.96814000"},
{"state":"Fukushima Prefecture","name":"Date-shi","lat":"37.81667000","lon":"140.51667000"},
{"state":"Fukushima Prefecture","name":"Fukushima","lat":"37.75000000","lon":"140.46667000"},
{"state":"Fukushima Prefecture","name":"Fukushima Shi","lat":"37.78643000","lon":"140.38849000"},
{"state":"Fukushima Prefecture","name":"Funehikimachi-funehiki","lat":"37.44722000","lon":"140.57710000"},
{"state":"Fukushima Prefecture","name":"Hobaramachi","lat":"37.81667000","lon":"140.55000000"},
{"state":"Fukushima Prefecture","name":"Inawashiro","lat":"37.56667000","lon":"140.11667000"},
{"state":"Fukushima Prefecture","name":"Ishikawa","lat":"37.15000000","lon":"140.45000000"},
{"state":"Fukushima Prefecture","name":"Iwaki","lat":"37.05000000","lon":"140.88333000"},
{"state":"Fukushima Prefecture","name":"Iwaki-shi","lat":"37.08333000","lon":"140.83333000"},
{"state":"Fukushima Prefecture","name":"Kitakata","lat":"37.65000000","lon":"139.86667000"},
{"state":"Fukushima Prefecture","name":"Kitakata-shi","lat":"37.68333000","lon":"139.90000000"},
{"state":"Fukushima Prefecture","name":"Kōriyama","lat":"37.40000000","lon":"140.38333000"},
{"state":"Fukushima Prefecture","name":"Kōriyama Shi","lat":"37.41277000","lon":"140.29507000"},
{"state":"Fukushima Prefecture","name":"Miharu","lat":"37.43333000","lon":"140.48333000"},
{"state":"Fukushima Prefecture","name":"Minami-Sōma","lat":"37.62908000","lon":"140.97868000"},
{"state":"Fukushima Prefecture","name":"Minamisōma Shi","lat":"37.63108000","lon":"140.92852000"},
{"state":"Fukushima Prefecture","name":"Motomiya","lat":"37.51391000","lon":"140.40063000"},
{"state":"Fukushima Prefecture","name":"Motomiya-shi","lat":"37.51218000","lon":"140.39841000"},
{"state":"Fukushima Prefecture","name":"Namie","lat":"37.48333000","lon":"141.00000000"},
{"state":"Fukushima Prefecture","name":"Nihommatsu","lat":"37.58333000","lon":"140.43333000"},
{"state":"Fukushima Prefecture","name":"Nihonmatsu Shi","lat":"37.58402000","lon":"140.49543000"},
{"state":"Fukushima Prefecture","name":"Shirakawa Shi","lat":"37.12225000","lon":"140.24963000"},
{"state":"Fukushima Prefecture","name":"Sōma","lat":"37.79283000","lon":"140.92941000"},
{"state":"Fukushima Prefecture","name":"Sōma Shi","lat":"37.78193000","lon":"140.87321000"},
{"state":"Fukushima Prefecture","name":"Sukagawa","lat":"37.28333000","lon":"140.38333000"},
{"state":"Fukushima Prefecture","name":"Sukagawa Shi","lat":"37.29342000","lon":"140.31691000"},
{"state":"Fukushima Prefecture","name":"Tamura","lat":"37.43055000","lon":"140.60335000"},
{"state":"Fukushima Prefecture","name":"Tamura-shi","lat":"37.43793000","lon":"140.57384000"},
{"state":"Fukushima Prefecture","name":"Yanagawamachi-saiwaichō","lat":"37.85000000","lon":"140.60000000"},
{"state":"Gifu Prefecture","name":"Ena-shi","lat":"35.44722000","lon":"137.41810000"},
{"state":"Gifu Prefecture","name":"Gero","lat":"35.80000000","lon":"137.23333000"},
{"state":"Gifu Prefecture","name":"Gero-shi","lat":"35.75000000","lon":"137.25000000"},
{"state":"Gifu Prefecture","name":"Gifu-shi","lat":"35.44826000","lon":"136.76470000"},
{"state":"Gifu Prefecture","name":"Gōdo","lat":"35.41667000","lon":"136.60000000"},
{"state":"Gifu Prefecture","name":"Gujō","lat":"35.73691000","lon":"136.95852000"},
{"state":"Gifu Prefecture","name":"Gujō-shi","lat":"35.83298000","lon":"136.94561000"},
{"state":"Gifu Prefecture","name":"Hashima","lat":"35.32900000","lon":"136.68051000"},
{"state":"Gifu Prefecture","name":"Hashima-shi","lat":"35.30740000","lon":"136.70161000"},
{"state":"Gifu Prefecture","name":"Hida","lat":"36.24483000","lon":"137.17323000"},
{"state":"Gifu Prefecture","name":"Hida Shi","lat":"36.33272000","lon":"137.20568000"},
{"state":"Gifu Prefecture","name":"Kaizu-shi","lat":"35.21381000","lon":"136.62443000"},
{"state":"Gifu Prefecture","name":"Kakamigahara-shi","lat":"35.40283000","lon":"136.87829000"},
{"state":"Gifu Prefecture","name":"Kani-shi","lat":"35.40589000","lon":"137.06602000"},
{"state":"Gifu Prefecture","name":"Kasamatsuchō","lat":"35.36667000","lon":"136.76667000"},
{"state":"Gifu Prefecture","name":"Mino","lat":"35.53333000","lon":"136.91667000"},
{"state":"Gifu Prefecture","name":"Mino-shi","lat":"35.57892000","lon":"136.90120000"},
{"state":"Gifu Prefecture","name":"Minokamo","lat":"35.48199000","lon":"137.02166000"},
{"state":"Gifu Prefecture","name":"Minokamo-shi","lat":"35.48386000","lon":"137.02658000"},
{"state":"Gifu Prefecture","name":"Mitake","lat":"35.41667000","lon":"137.13333000"},
{"state":"Gifu Prefecture","name":"Mizuho-shi","lat":"35.39663000","lon":"136.67022000"},
{"state":"Gifu Prefecture","name":"Mizunami","lat":"35.36667000","lon":"137.25000000"},
{"state":"Gifu Prefecture","name":"Mizunami-shi","lat":"35.38935000","lon":"137.27360000"},
{"state":"Gifu Prefecture","name":"Motosu-shi","lat":"35.65553000","lon":"136.61991000"},
{"state":"Gifu Prefecture","name":"Nakatsugawa","lat":"35.48333000","lon":"137.50000000"},
{"state":"Gifu Prefecture","name":"Nakatsugawa-shi","lat":"35.56656000","lon":"137.47433000"},
{"state":"Gifu Prefecture","name":"Ōgaki-shi","lat":"35.36485000","lon":"136.60189000"},
{"state":"Gifu Prefecture","name":"Seki-shi","lat":"35.48333000","lon":"136.91667000"},
{"state":"Gifu Prefecture","name":"Tajimi","lat":"35.31667000","lon":"137.13333000"},
{"state":"Gifu Prefecture","name":"Tajimi-shi","lat":"35.33401000","lon":"137.11258000"},
{"state":"Gifu Prefecture","name":"Takayama Shi","lat":"36.13181000","lon":"137.28585000"},
{"state":"Gifu Prefecture","name":"Tarui","lat":"35.36667000","lon":"136.53333000"},
{"state":"Gifu Prefecture","name":"Toki","lat":"35.35000000","lon":"137.18333000"},
{"state":"Gifu Prefecture","name":"Toki-shi","lat":"35.32418000","lon":"137.20748000"},
{"state":"Gifu Prefecture","name":"Yamagata-shi","lat":"35.59892000","lon":"136.74311000"},
{"state":"Gunma Prefecture","name":"Agatsuma-gun","lat":"36.57368000","lon":"138.67243000"},
{"state":"Gunma Prefecture","name":"Annaka","lat":"36.33011000","lon":"138.89585000"},
{"state":"Gunma Prefecture","name":"Annaka Shi","lat":"36.34079000","lon":"138.77647000"},
{"state":"Gunma Prefecture","name":"Fujioka","lat":"36.24624000","lon":"139.07204000"},
{"state":"Gunma Prefecture","name":"Fujioka Shi","lat":"36.19213000","lon":"138.99918000"},
{"state":"Gunma Prefecture","name":"Isesaki","lat":"36.31667000","lon":"139.20000000"},
{"state":"Gunma Prefecture","name":"Isesaki Shi","lat":"36.32126000","lon":"139.21823000"},
{"state":"Gunma Prefecture","name":"Kanekomachi","lat":"36.41097000","lon":"138.99621000"},
{"state":"Gunma Prefecture","name":"Kiryū","lat":"36.40000000","lon":"139.33333000"},
{"state":"Gunma Prefecture","name":"Kiryū Shi","lat":"36.45702000","lon":"139.30962000"},
{"state":"Gunma Prefecture","name":"Maebashi","lat":"36.40000000","lon":"139.08333000"},
{"state":"Gunma Prefecture","name":"Maebashi Shi","lat":"36.41432000","lon":"139.13110000"},
{"state":"Gunma Prefecture","name":"Midori","lat":"36.44492000","lon":"139.28448000"},
{"state":"Gunma Prefecture","name":"Midori Shi","lat":"36.53044000","lon":"139.34728000"},
{"state":"Gunma Prefecture","name":"Nakanojōmachi","lat":"36.58717000","lon":"138.84083000"},
{"state":"Gunma Prefecture","name":"Numata","lat":"36.63333000","lon":"139.05000000"},
{"state":"Gunma Prefecture","name":"Numata Shi","lat":"36.67371000","lon":"139.18353000"},
{"state":"Gunma Prefecture","name":"Ōmamachō-ōmama","lat":"36.43181000","lon":"139.27534000"},
{"state":"Gunma Prefecture","name":"Ōta","lat":"36.30000000","lon":"139.36667000"},
{"state":"Gunma Prefecture","name":"Ōta-shi","lat":"36.30000000","lon":"139.36667000"},
{"state":"Gunma Prefecture","name":"Sakai-nakajima","lat":"36.26667000","lon":"139.25000000"},
{"state":"Gunma Prefecture","name":"Shibukawa","lat":"36.48333000","lon":"139.00000000"},
{"state":"Gunma Prefecture","name":"Shibukawa-shi","lat":"36.50000000","lon":"138.98333000"},
{"state":"Gunma Prefecture","name":"Takasaki","lat":"36.33333000","lon":"139.01667000"},
{"state":"Gunma Prefecture","name":"Takasaki Shi","lat":"36.40538000","lon":"138.89227000"},
{"state":"Gunma Prefecture","name":"Tamamura","lat":"36.30000000","lon":"139.11667000"},
{"state":"Gunma Prefecture","name":"Tatebayashi","lat":"36.25000000","lon":"139.53333000"},
{"state":"Gunma Prefecture","name":"Tatebayashi-shi","lat":"36.24597000","lon":"139.53533000"},
{"state":"Gunma Prefecture","name":"Tomioka","lat":"36.25411000","lon":"138.89813000"},
{"state":"Gunma Prefecture","name":"Tomioka-shi","lat":"36.25000000","lon":"138.88333000"},
{"state":"Gunma Prefecture","name":"Yoshii","lat":"36.25000000","lon":"138.98333000"},
{"state":"Hiroshima Prefecture","name":"Aki-takata Shi","lat":"34.70248000","lon":"132.67770000"},
{"state":"Hiroshima Prefecture","name":"Etajima-shi","lat":"34.21989000","lon":"132.44345000"},
{"state":"Hiroshima Prefecture","name":"Fuchū-shi","lat":"34.56667000","lon":"133.23333000"},
{"state":"Hiroshima Prefecture","name":"Fuchūchō","lat":"34.57350000","lon":"133.23513000"},
{"state":"Hiroshima Prefecture","name":"Fukuyama","lat":"34.48333000","lon":"133.36667000"},
{"state":"Hiroshima Prefecture","name":"Fukuyama Shi","lat":"34.52342000","lon":"133.33779000"},
{"state":"Hiroshima Prefecture","name":"Hatsukaichi","lat":"34.35000000","lon":"132.33333000"},
{"state":"Hiroshima Prefecture","name":"Hatsukaichi-shi","lat":"34.35000000","lon":"132.30000000"},
{"state":"Hiroshima Prefecture","name":"Higashihiroshima Shi","lat":"34.44755000","lon":"132.76116000"},
{"state":"Hiroshima Prefecture","name":"Hiroshima","lat":"34.40000000","lon":"132.45000000"},
{"state":"Hiroshima Prefecture","name":"Hiroshima-shi","lat":"34.47942000","lon":"132.45312000"},
{"state":"Hiroshima Prefecture","name":"Innoshima","lat":"34.28333000","lon":"133.18333000"},
{"state":"Hiroshima Prefecture","name":"Kannabechō-yahiro","lat":"34.55808000","lon":"133.41796000"},
{"state":"Hiroshima Prefecture","name":"Kure","lat":"34.23222000","lon":"132.56658000"},
{"state":"Hiroshima Prefecture","name":"Kure-shi","lat":"34.22448000","lon":"132.62914000"},
{"state":"Hiroshima Prefecture","name":"Mihara","lat":"34.40000000","lon":"133.08333000"},
{"state":"Hiroshima Prefecture","name":"Mihara Shi","lat":"34.45817000","lon":"133.00395000"},
{"state":"Hiroshima Prefecture","name":"Miyajima","lat":"34.29907000","lon":"132.32186000"},
{"state":"Hiroshima Prefecture","name":"Miyoshi","lat":"34.80000000","lon":"132.85000000"},
{"state":"Hiroshima Prefecture","name":"Miyoshi Shi","lat":"34.79201000","lon":"132.86435000"},
{"state":"Hiroshima Prefecture","name":"Ōno-hara","lat":"34.28333000","lon":"132.26667000"},
{"state":"Hiroshima Prefecture","name":"Onomichi","lat":"34.41667000","lon":"133.20000000"},
{"state":"Hiroshima Prefecture","name":"Onomichi-shi","lat":"34.42630000","lon":"133.16329000"},
{"state":"Hiroshima Prefecture","name":"Ōtake","lat":"34.20754000","lon":"132.22063000"},
{"state":"Hiroshima Prefecture","name":"Ōtake-shi","lat":"34.25787000","lon":"132.18756000"},
{"state":"Hiroshima Prefecture","name":"Shin’ichi","lat":"34.55543000","lon":"133.27297000"},
{"state":"Hiroshima Prefecture","name":"Shōbara","lat":"34.85000000","lon":"133.01667000"},
{"state":"Hiroshima Prefecture","name":"Shōbara-shi","lat":"34.94831000","lon":"133.06769000"},
{"state":"Hiroshima Prefecture","name":"Takehara","lat":"34.33833000","lon":"132.91667000"},
{"state":"Hiroshima Prefecture","name":"Takehara-shi","lat":"34.35000000","lon":"132.90000000"},
{"state":"Hokkaidō Prefecture","name":"Abashiri","lat":"44.02127000","lon":"144.26971000"},
{"state":"Hokkaidō Prefecture","name":"Abashiri Shi","lat":"43.98565000","lon":"144.21051000"},
{"state":"Hokkaidō Prefecture","name":"Akabira","lat":"43.55139000","lon":"142.05306000"},
{"state":"Hokkaidō Prefecture","name":"Akabira-shi","lat":"43.56790000","lon":"142.06281000"},
{"state":"Hokkaidō Prefecture","name":"Asahikawa","lat":"43.77063000","lon":"142.36489000"},
{"state":"Hokkaidō Prefecture","name":"Ashibetsu","lat":"43.50972000","lon":"142.18556000"},
{"state":"Hokkaidō Prefecture","name":"Ashibetsu-shi","lat":"43.42542000","lon":"142.20161000"},
{"state":"Hokkaidō Prefecture","name":"Bibai","lat":"43.32472000","lon":"141.85861000"},
{"state":"Hokkaidō Prefecture","name":"Chitose","lat":"42.81944000","lon":"141.65222000"},
{"state":"Hokkaidō Prefecture","name":"Chitose Shi","lat":"42.80048000","lon":"141.50951000"},
{"state":"Hokkaidō Prefecture","name":"Date","lat":"42.46806000","lon":"140.86806000"},
{"state":"Hokkaidō Prefecture","name":"Date-shi","lat":"42.49337000","lon":"140.89142000"},
{"state":"Hokkaidō Prefecture","name":"Ebetsu","lat":"43.10806000","lon":"141.55056000"},
{"state":"Hokkaidō Prefecture","name":"Eniwa-shi","lat":"42.88333000","lon":"141.56667000"},
{"state":"Hokkaidō Prefecture","name":"Fukagawa","lat":"43.70806000","lon":"142.03917000"},
{"state":"Hokkaidō Prefecture","name":"Fukagawa-shi","lat":"43.79334000","lon":"142.09923000"},
{"state":"Hokkaidō Prefecture","name":"Furano-shi","lat":"43.28182000","lon":"142.47349000"},
{"state":"Hokkaidō Prefecture","name":"Hakodate","lat":"41.77583000","lon":"140.73667000"},
{"state":"Hokkaidō Prefecture","name":"Hakodate Shi","lat":"41.83754000","lon":"140.92597000"},
{"state":"Hokkaidō Prefecture","name":"Hokuto","lat":"41.81626000","lon":"140.63472000"},
{"state":"Hokkaidō Prefecture","name":"Hokuto-shi","lat":"41.86411000","lon":"140.55424000"},
{"state":"Hokkaidō Prefecture","name":"Honchō","lat":"41.89440000","lon":"140.69386000"},
{"state":"Hokkaidō Prefecture","name":"Ishikari","lat":"43.23972000","lon":"141.35389000"},
{"state":"Hokkaidō Prefecture","name":"Ishikari-shi","lat":"43.46596000","lon":"141.44298000"},
{"state":"Hokkaidō Prefecture","name":"Iwamizawa","lat":"43.20028000","lon":"141.75972000"},
{"state":"Hokkaidō Prefecture","name":"Iwamizawa-shi","lat":"43.18086000","lon":"141.79744000"},
{"state":"Hokkaidō Prefecture","name":"Iwanai","lat":"42.97444000","lon":"140.50889000"},
{"state":"Hokkaidō Prefecture","name":"Kamiiso","lat":"41.82013000","lon":"140.64482000"},
{"state":"Hokkaidō Prefecture","name":"Kamikawa","lat":"43.84000000","lon":"142.77111000"},
{"state":"Hokkaidō Prefecture","name":"Kitahiroshima","lat":"42.97583000","lon":"141.56722000"},
{"state":"Hokkaidō Prefecture","name":"Kitahiroshima-shi","lat":"42.98581000","lon":"141.55678000"},
{"state":"Hokkaidō Prefecture","name":"Kitami","lat":"43.80306000","lon":"143.89083000"},
{"state":"Hokkaidō Prefecture","name":"Ktiami Shi","lat":"43.85160000","lon":"143.71520000"},
{"state":"Hokkaidō Prefecture","name":"Kushiro","lat":"42.97500000","lon":"144.37472000"},
{"state":"Hokkaidō Prefecture","name":"Kushiro Shi","lat":"43.15910000","lon":"144.06647000"},
{"state":"Hokkaidō Prefecture","name":"Makubetsu","lat":"45.37139000","lon":"141.82111000"},
{"state":"Hokkaidō Prefecture","name":"Mikasa","lat":"43.25581000","lon":"141.88818000"},
{"state":"Hokkaidō Prefecture","name":"Mikasa-shi","lat":"43.23976000","lon":"141.99273000"},
{"state":"Hokkaidō Prefecture","name":"Mombetsu","lat":"44.35250000","lon":"143.35250000"},
{"state":"Hokkaidō Prefecture","name":"Monbetsu Shi","lat":"44.20323000","lon":"143.29293000"},
{"state":"Hokkaidō Prefecture","name":"Motomachi","lat":"43.82634000","lon":"144.09638000"},
{"state":"Hokkaidō Prefecture","name":"Muroran","lat":"42.31722000","lon":"140.98806000"},
{"state":"Hokkaidō Prefecture","name":"Muroran-shi","lat":"42.36659000","lon":"140.98845000"},
{"state":"Hokkaidō Prefecture","name":"Nayoro","lat":"44.35056000","lon":"142.45778000"},
{"state":"Hokkaidō Prefecture","name":"Nayoro Shi","lat":"44.33951000","lon":"142.45932000"},
{"state":"Hokkaidō Prefecture","name":"Nemuro","lat":"43.32361000","lon":"145.57500000"},
{"state":"Hokkaidō Prefecture","name":"Nemuro-shi","lat":"43.33333000","lon":"145.61667000"},
{"state":"Hokkaidō Prefecture","name":"Niseko Town","lat":"42.77871000","lon":"140.66903000"},
{"state":"Hokkaidō Prefecture","name":"Noboribetsu","lat":"42.45215000","lon":"141.17914000"},
{"state":"Hokkaidō Prefecture","name":"Noboribetsu-shi","lat":"42.46565000","lon":"141.07578000"},
{"state":"Hokkaidō Prefecture","name":"Obihiro","lat":"42.91722000","lon":"143.20444000"},
{"state":"Hokkaidō Prefecture","name":"Obihiro Shi","lat":"42.75736000","lon":"143.03061000"},
{"state":"Hokkaidō Prefecture","name":"Otaru","lat":"43.18944000","lon":"141.00222000"},
{"state":"Hokkaidō Prefecture","name":"Otaru-shi","lat":"43.15628000","lon":"141.02572000"},
{"state":"Hokkaidō Prefecture","name":"Otofuke","lat":"42.99167000","lon":"143.20028000"},
{"state":"Hokkaidō Prefecture","name":"Rebun Gun","lat":"45.38263000","lon":"141.02839000"},
{"state":"Hokkaidō Prefecture","name":"Rishiri Gun","lat":"45.18244000","lon":"141.22859000"},
{"state":"Hokkaidō Prefecture","name":"Rishiri Town","lat":"45.15928000","lon":"141.19629000"},
{"state":"Hokkaidō Prefecture","name":"Rumoi","lat":"43.93444000","lon":"141.64278000"},
{"state":"Hokkaidō Prefecture","name":"Rumoi-shi","lat":"43.88560000","lon":"141.75567000"},
{"state":"Hokkaidō Prefecture","name":"Sapporo","lat":"43.06667000","lon":"141.35000000"},
{"state":"Hokkaidō Prefecture","name":"Sapporo-shi","lat":"43.06667000","lon":"141.35000000"},
{"state":"Hokkaidō Prefecture","name":"Shibetsu","lat":"43.65899000","lon":"145.13197000"},
{"state":"Hokkaidō Prefecture","name":"Shibetsu Shi","lat":"44.11522000","lon":"142.54054000"},
{"state":"Hokkaidō Prefecture","name":"Shimo-furano","lat":"43.35000000","lon":"142.38333000"},
{"state":"Hokkaidō Prefecture","name":"Shiraoi","lat":"42.55000000","lon":"141.35000000"},
{"state":"Hokkaidō Prefecture","name":"Shizunai-furukawachō","lat":"42.33389000","lon":"142.36694000"},
{"state":"Hokkaidō Prefecture","name":"Sunagawa","lat":"43.48639000","lon":"141.90556000"},
{"state":"Hokkaidō Prefecture","name":"Sunagawa-shi","lat":"43.50328000","lon":"141.93274000"},
{"state":"Hokkaidō Prefecture","name":"Takikawa","lat":"43.55278000","lon":"141.90639000"},
{"state":"Hokkaidō Prefecture","name":"Takikawa-shi","lat":"43.60837000","lon":"141.94988000"},
{"state":"Hokkaidō Prefecture","name":"Tōbetsu","lat":"43.21694000","lon":"141.51694000"},
{"state":"Hokkaidō Prefecture","name":"Tomakomai","lat":"42.63694000","lon":"141.60333000"},
{"state":"Hokkaidō Prefecture","name":"Tomakomai Shi","lat":"42.68226000","lon":"141.57948000"},
{"state":"Hokkaidō Prefecture","name":"Utashinai","lat":"43.51667000","lon":"142.05000000"},
{"state":"Hokkaidō Prefecture","name":"Utashinai-shi","lat":"43.49366000","lon":"142.03878000"},
{"state":"Hokkaidō Prefecture","name":"Wakkanai","lat":"45.40944000","lon":"141.67389000"},
{"state":"Hokkaidō Prefecture","name":"Wakkanai Shi","lat":"45.33243000","lon":"141.82831000"},
{"state":"Hokkaidō Prefecture","name":"Yoichi","lat":"43.20389000","lon":"140.77028000"},
{"state":"Hokkaidō Prefecture","name":"Yūbari","lat":"43.03778000","lon":"141.95778000"},
{"state":"Hokkaidō Prefecture","name":"Yūbari-shi","lat":"43.04336000","lon":"142.11065000"},
{"state":"Hyōgo Prefecture","name":"Aioi","lat":"34.80361000","lon":"134.46806000"},
{"state":"Hyōgo Prefecture","name":"Aioi Shi","lat":"34.82719000","lon":"134.46699000"},
{"state":"Hyōgo Prefecture","name":"Akashi","lat":"34.65524000","lon":"135.00687000"},
{"state":"Hyōgo Prefecture","name":"Akashi Shi","lat":"34.68277000","lon":"134.94029000"},
{"state":"Hyōgo Prefecture","name":"Amagasaki Shi","lat":"34.73544000","lon":"135.41181000"},
{"state":"Hyōgo Prefecture","name":"Asago-shi","lat":"35.26249000","lon":"134.82527000"},
{"state":"Hyōgo Prefecture","name":"Ashiya","lat":"34.72807000","lon":"135.30264000"},
{"state":"Hyōgo Prefecture","name":"Ashiya Shi","lat":"34.74853000","lon":"135.29759000"},
{"state":"Hyōgo Prefecture","name":"Awaji Shi","lat":"34.49749000","lon":"134.91331000"},
{"state":"Hyōgo Prefecture","name":"Fukura","lat":"34.25765000","lon":"134.71535000"},
{"state":"Hyōgo Prefecture","name":"Himeji","lat":"34.81667000","lon":"134.70000000"},
{"state":"Hyōgo Prefecture","name":"Himeji Shi","lat":"34.90134000","lon":"134.66316000"},
{"state":"Hyōgo Prefecture","name":"Itami","lat":"34.78427000","lon":"135.40126000"},
{"state":"Hyōgo Prefecture","name":"Itami Shi","lat":"34.78675000","lon":"135.40562000"},
{"state":"Hyōgo Prefecture","name":"Kakogawa Shi","lat":"34.78472000","lon":"134.84897000"},
{"state":"Hyōgo Prefecture","name":"Kakogawachō-honmachi","lat":"34.76943000","lon":"134.82905000"},
{"state":"Hyōgo Prefecture","name":"Kariya","lat":"34.75136000","lon":"134.38734000"},
{"state":"Hyōgo Prefecture","name":"Kasai Shi","lat":"34.92476000","lon":"134.85359000"},
{"state":"Hyōgo Prefecture","name":"Katō Shi","lat":"34.92714000","lon":"135.02134000"},
{"state":"Hyōgo Prefecture","name":"Kawanishi","lat":"34.81667000","lon":"135.41667000"},
{"state":"Hyōgo Prefecture","name":"Kawanishi Shi","lat":"34.87955000","lon":"135.40919000"},
{"state":"Hyōgo Prefecture","name":"Kobe","lat":"34.69130000","lon":"135.18300000"},
{"state":"Hyōgo Prefecture","name":"Miki","lat":"34.80000000","lon":"134.98333000"},
{"state":"Hyōgo Prefecture","name":"Miki Shi","lat":"34.83553000","lon":"135.05822000"},
{"state":"Hyōgo Prefecture","name":"Minamiawaji Shi","lat":"34.27530000","lon":"134.76465000"},
{"state":"Hyōgo Prefecture","name":"Nishinomiya Shi","lat":"34.78194000","lon":"135.30247000"},
{"state":"Hyōgo Prefecture","name":"Nishinomiya-hama","lat":"34.71562000","lon":"135.33199000"},
{"state":"Hyōgo Prefecture","name":"Nishiwaki","lat":"34.98419000","lon":"134.97407000"},
{"state":"Hyōgo Prefecture","name":"Nishiwaki-shi","lat":"35.01098000","lon":"134.99650000"},
{"state":"Hyōgo Prefecture","name":"Ono","lat":"34.85000000","lon":"134.93333000"},
{"state":"Hyōgo Prefecture","name":"Ono Shi","lat":"34.85750000","lon":"134.95129000"},
{"state":"Hyōgo Prefecture","name":"Sanda Shi","lat":"34.95506000","lon":"135.21660000"},
{"state":"Hyōgo Prefecture","name":"Sandachō","lat":"34.88444000","lon":"135.22694000"},
{"state":"Hyōgo Prefecture","name":"Sasayama","lat":"35.06667000","lon":"135.21667000"},
{"state":"Hyōgo Prefecture","name":"Sasayama-shi","lat":"35.07523000","lon":"135.23087000"},
{"state":"Hyōgo Prefecture","name":"Shirahamachō-usazakiminami","lat":"34.78333000","lon":"134.71667000"},
{"state":"Hyōgo Prefecture","name":"Shisō-shi","lat":"35.15466000","lon":"134.54337000"},
{"state":"Hyōgo Prefecture","name":"Sumoto","lat":"34.34322000","lon":"134.88911000"},
{"state":"Hyōgo Prefecture","name":"Sumoto Shi","lat":"34.34533000","lon":"134.85858000"},
{"state":"Hyōgo Prefecture","name":"Taka-gun","lat":"35.08473000","lon":"134.90474000"},
{"state":"Hyōgo Prefecture","name":"Takarazuka","lat":"34.79936000","lon":"135.35697000"},
{"state":"Hyōgo Prefecture","name":"Takarazuka Shi","lat":"34.86008000","lon":"135.33197000"},
{"state":"Hyōgo Prefecture","name":"Takasago Shi","lat":"34.77796000","lon":"134.78665000"},
{"state":"Hyōgo Prefecture","name":"Tanba-shi","lat":"35.17715000","lon":"135.04972000"},
{"state":"Hyōgo Prefecture","name":"Tatsuno-shi","lat":"34.88804000","lon":"134.51910000"},
{"state":"Hyōgo Prefecture","name":"Tatsunochō-tominaga","lat":"34.86437000","lon":"134.55200000"},
{"state":"Hyōgo Prefecture","name":"Toyooka","lat":"35.54008000","lon":"134.82038000"},
{"state":"Hyōgo Prefecture","name":"Toyooka-shi","lat":"35.51384000","lon":"134.82724000"},
{"state":"Hyōgo Prefecture","name":"Yabu","lat":"35.40304000","lon":"134.77118000"},
{"state":"Hyōgo Prefecture","name":"Yabu-shi","lat":"35.38333000","lon":"134.81667000"},
{"state":"Hyōgo Prefecture","name":"Yamazakichō-nakabirose","lat":"35.00000000","lon":"134.55000000"},
{"state":"Hyōgo Prefecture","name":"Yashiro","lat":"34.91667000","lon":"134.96667000"},
{"state":"Hyōgo Prefecture","name":"Yonedacho Sendo","lat":"34.77560000","lon":"134.82551000"},
{"state":"Ibaraki Prefecture","name":"Ami","lat":"36.03333000","lon":"140.20000000"},
{"state":"Ibaraki Prefecture","name":"Bandō","lat":"36.06997000","lon":"139.86705000"},
{"state":"Ibaraki Prefecture","name":"Bandō-shi","lat":"36.06384000","lon":"139.88787000"},
{"state":"Ibaraki Prefecture","name":"Chikusei","lat":"36.31600000","lon":"139.98238000"},
{"state":"Ibaraki Prefecture","name":"Chikusei-shi","lat":"36.28938000","lon":"139.98692000"},
{"state":"Ibaraki Prefecture","name":"Daigo","lat":"36.76667000","lon":"140.35000000"},
{"state":"Ibaraki Prefecture","name":"Edosaki","lat":"35.95000000","lon":"140.31667000"},
{"state":"Ibaraki Prefecture","name":"Fujishiro","lat":"35.91667000","lon":"140.11667000"},
{"state":"Ibaraki Prefecture","name":"Funaishikawa","lat":"36.46667000","lon":"140.56667000"},
{"state":"Ibaraki Prefecture","name":"Hitachi","lat":"36.60000000","lon":"140.65000000"},
{"state":"Ibaraki Prefecture","name":"Hitachi-Naka","lat":"36.39659000","lon":"140.53479000"},
{"state":"Ibaraki Prefecture","name":"Hitachi-ota","lat":"36.55130000","lon":"140.52821000"},
{"state":"Ibaraki Prefecture","name":"Hitachi-shi","lat":"36.62492000","lon":"140.61876000"},
{"state":"Ibaraki Prefecture","name":"Hitachinaka-shi","lat":"36.39596000","lon":"140.55789000"},
{"state":"Ibaraki Prefecture","name":"Hitachiōmiya-shi","lat":"36.61371000","lon":"140.33990000"},
{"state":"Ibaraki Prefecture","name":"Hitachiōta-shi","lat":"36.64836000","lon":"140.50536000"},
{"state":"Ibaraki Prefecture","name":"Hokota-shi","lat":"36.17337000","lon":"140.51993000"},
{"state":"Ibaraki Prefecture","name":"Inashiki","lat":"35.95633000","lon":"140.32356000"},
{"state":"Ibaraki Prefecture","name":"Inashiki-shi","lat":"35.94563000","lon":"140.36889000"},
{"state":"Ibaraki Prefecture","name":"Ishige","lat":"36.11667000","lon":"139.96667000"},
{"state":"Ibaraki Prefecture","name":"Ishioka","lat":"36.18333000","lon":"140.26667000"},
{"state":"Ibaraki Prefecture","name":"Ishioka-shi","lat":"36.22776000","lon":"140.21786000"},
{"state":"Ibaraki Prefecture","name":"Itako","lat":"35.93333000","lon":"140.55000000"},
{"state":"Ibaraki Prefecture","name":"Itako-shi","lat":"35.96100000","lon":"140.56210000"},
{"state":"Ibaraki Prefecture","name":"Iwai","lat":"36.05000000","lon":"139.90000000"},
{"state":"Ibaraki Prefecture","name":"Iwase","lat":"36.35000000","lon":"140.10000000"},
{"state":"Ibaraki Prefecture","name":"Jōsō-shi","lat":"36.06409000","lon":"139.96397000"},
{"state":"Ibaraki Prefecture","name":"Kamisu-shi","lat":"35.85126000","lon":"140.71171000"},
{"state":"Ibaraki Prefecture","name":"Kasama","lat":"36.38333000","lon":"140.26667000"},
{"state":"Ibaraki Prefecture","name":"Kasama-shi","lat":"36.35651000","lon":"140.26935000"},
{"state":"Ibaraki Prefecture","name":"Kashima-shi","lat":"35.96536000","lon":"140.64474000"},
{"state":"Ibaraki Prefecture","name":"Kasumigaura","lat":"36.15326000","lon":"140.24635000"},
{"state":"Ibaraki Prefecture","name":"Kasumigaura-shi","lat":"36.10937000","lon":"140.30205000"},
{"state":"Ibaraki Prefecture","name":"Katsuta","lat":"36.38333000","lon":"140.53333000"},
{"state":"Ibaraki Prefecture","name":"Kitaibaraki","lat":"36.78671000","lon":"140.74901000"},
{"state":"Ibaraki Prefecture","name":"Kitaibaraki-shi","lat":"36.83987000","lon":"140.68736000"},
{"state":"Ibaraki Prefecture","name":"Koga","lat":"36.18333000","lon":"139.71667000"},
{"state":"Ibaraki Prefecture","name":"Koga-shi","lat":"36.17975000","lon":"139.77534000"},
{"state":"Ibaraki Prefecture","name":"Makabe","lat":"36.26667000","lon":"140.10000000"},
{"state":"Ibaraki Prefecture","name":"Mito","lat":"36.35000000","lon":"140.45000000"},
{"state":"Ibaraki Prefecture","name":"Mito-shi","lat":"36.37053000","lon":"140.43559000"},
{"state":"Ibaraki Prefecture","name":"Mitsukaidō","lat":"36.01667000","lon":"139.98333000"},
{"state":"Ibaraki Prefecture","name":"Moriya","lat":"35.93333000","lon":"140.00000000"},
{"state":"Ibaraki Prefecture","name":"Moriya-shi","lat":"35.95140000","lon":"139.97539000"},
{"state":"Ibaraki Prefecture","name":"Naka","lat":"36.05000000","lon":"140.16667000"},
{"state":"Ibaraki Prefecture","name":"Naka-gun","lat":"36.46934000","lon":"140.47943000"},
{"state":"Ibaraki Prefecture","name":"Namegata","lat":"36.00705000","lon":"140.49623000"},
{"state":"Ibaraki Prefecture","name":"Namegata-shi","lat":"36.06526000","lon":"140.47173000"},
{"state":"Ibaraki Prefecture","name":"Ōarai","lat":"36.31409000","lon":"140.58389000"},
{"state":"Ibaraki Prefecture","name":"Okunoya","lat":"36.28333000","lon":"140.41667000"},
{"state":"Ibaraki Prefecture","name":"Omitama-shi","lat":"36.20403000","lon":"140.35980000"},
{"state":"Ibaraki Prefecture","name":"Ōmiya","lat":"36.55000000","lon":"140.41667000"},
{"state":"Ibaraki Prefecture","name":"Ryūgasaki","lat":"35.90000000","lon":"140.18333000"},
{"state":"Ibaraki Prefecture","name":"Ryūgasaki-shi","lat":"35.92249000","lon":"140.18527000"},
{"state":"Ibaraki Prefecture","name":"Sakai","lat":"36.10000000","lon":"139.80000000"},
{"state":"Ibaraki Prefecture","name":"Sakuragawa","lat":"36.25052000","lon":"140.11565000"},
{"state":"Ibaraki Prefecture","name":"Sakuragawa-shi","lat":"36.32746000","lon":"140.10792000"},
{"state":"Ibaraki Prefecture","name":"Shimodate","lat":"36.30000000","lon":"139.98333000"},
{"state":"Ibaraki Prefecture","name":"Shimotsuma-shi","lat":"36.18743000","lon":"139.96642000"},
{"state":"Ibaraki Prefecture","name":"Takahagi","lat":"36.71667000","lon":"140.71667000"},
{"state":"Ibaraki Prefecture","name":"Tomobe","lat":"36.35000000","lon":"140.30000000"},
{"state":"Ibaraki Prefecture","name":"Toride","lat":"35.90000000","lon":"140.08333000"},
{"state":"Ibaraki Prefecture","name":"Toride-shi","lat":"35.91286000","lon":"140.08009000"},
{"state":"Ibaraki Prefecture","name":"Tsuchiura-shi","lat":"36.08333000","lon":"140.20000000"},
{"state":"Ibaraki Prefecture","name":"Tsukuba","lat":"36.20000000","lon":"140.10000000"},
{"state":"Ibaraki Prefecture","name":"Tsukuba-shi","lat":"36.10532000","lon":"140.08174000"},
{"state":"Ibaraki Prefecture","name":"Tsukubamirai","lat":"35.98411000","lon":"140.00929000"},
{"state":"Ibaraki Prefecture","name":"Tsukubamirai-shi","lat":"35.98201000","lon":"140.03812000"},
{"state":"Ibaraki Prefecture","name":"Ushiku","lat":"35.96667000","lon":"140.13333000"},
{"state":"Ibaraki Prefecture","name":"Ushiku-shi","lat":"35.97175000","lon":"140.18578000"},
{"state":"Ibaraki Prefecture","name":"Yūki","lat":"36.30000000","lon":"139.88333000"},
{"state":"Ibaraki Prefecture","name":"Yūki-shi","lat":"36.26127000","lon":"139.86403000"},
{"state":"Ishikawa Prefecture","name":"Hakui","lat":"36.88333000","lon":"136.78333000"},
{"state":"Ishikawa Prefecture","name":"Hakui Shi","lat":"36.91136000","lon":"136.81626000"},
{"state":"Ishikawa Prefecture","name":"Hakusan Shi","lat":"36.27558000","lon":"136.66966000"},
{"state":"Ishikawa Prefecture","name":"Kaga Shi","lat":"36.25503000","lon":"136.37963000"},
{"state":"Ishikawa Prefecture","name":"Kahoku Shi","lat":"36.74365000","lon":"136.73273000"},
{"state":"Ishikawa Prefecture","name":"Kanazawa","lat":"36.60000000","lon":"136.61667000"},
{"state":"Ishikawa Prefecture","name":"Kanazawa-shi","lat":"36.51919000","lon":"136.70836000"},
{"state":"Ishikawa Prefecture","name":"Komatsu","lat":"36.40263000","lon":"136.45088000"},
{"state":"Ishikawa Prefecture","name":"Matsutō","lat":"36.51667000","lon":"136.56667000"},
{"state":"Ishikawa Prefecture","name":"Nanao Shi","lat":"37.07844000","lon":"136.92860000"},
{"state":"Ishikawa Prefecture","name":"Nomi Shi","lat":"36.43593000","lon":"136.54456000"},
{"state":"Ishikawa Prefecture","name":"Nonoichi","lat":"36.53333000","lon":"136.61667000"},
{"state":"Ishikawa Prefecture","name":"Nonoichi-shi","lat":"36.52288000","lon":"136.60589000"},
{"state":"Ishikawa Prefecture","name":"Suzu","lat":"37.43459000","lon":"137.26009000"},
{"state":"Ishikawa Prefecture","name":"Suzu Shi","lat":"37.45533000","lon":"137.22587000"},
{"state":"Ishikawa Prefecture","name":"Tsubata","lat":"36.67012000","lon":"136.74030000"},
{"state":"Ishikawa Prefecture","name":"Tsurugi-asahimachi","lat":"36.45000000","lon":"136.63333000"},
{"state":"Ishikawa Prefecture","name":"Wajima Shi","lat":"37.33753000","lon":"136.88757000"},
{"state":"Iwate Prefecture","name":"Hachimantai","lat":"39.89979000","lon":"141.12989000"},
{"state":"Iwate Prefecture","name":"Hachimantai Shi","lat":"40.02390000","lon":"140.99113000"},
{"state":"Iwate Prefecture","name":"Hanamaki","lat":"39.38333000","lon":"141.11667000"},
{"state":"Iwate Prefecture","name":"Hanamaki Shi","lat":"39.44187000","lon":"141.16751000"},
{"state":"Iwate Prefecture","name":"Ichinohe","lat":"40.21965000","lon":"141.28986000"},
{"state":"Iwate Prefecture","name":"Ichinoseki","lat":"38.91667000","lon":"141.13333000"},
{"state":"Iwate Prefecture","name":"Ichinoseki-shi","lat":"38.91667000","lon":"141.13333000"},
{"state":"Iwate Prefecture","name":"Iwate-gun","lat":"39.97238000","lon":"141.22719000"},
{"state":"Iwate Prefecture","name":"Kamaishi","lat":"39.27694000","lon":"141.86801000"},
{"state":"Iwate Prefecture","name":"Kamaishi-shi","lat":"39.28748000","lon":"141.79854000"},
{"state":"Iwate Prefecture","name":"Kitakami","lat":"39.28333000","lon":"141.11667000"},
{"state":"Iwate Prefecture","name":"Kitakami-shi","lat":"39.30765000","lon":"141.00795000"},
{"state":"Iwate Prefecture","name":"Kuji","lat":"40.18778000","lon":"141.76889000"},
{"state":"Iwate Prefecture","name":"Kuji-shi","lat":"40.14364000","lon":"141.65918000"},
{"state":"Iwate Prefecture","name":"Miyako","lat":"39.64691000","lon":"141.94057000"},
{"state":"Iwate Prefecture","name":"Miyako-shi","lat":"39.65724000","lon":"141.85144000"},
{"state":"Iwate Prefecture","name":"Mizusawa","lat":"39.13333000","lon":"141.13333000"},
{"state":"Iwate Prefecture","name":"Morioka","lat":"39.70000000","lon":"141.15000000"},
{"state":"Iwate Prefecture","name":"Morioka-shi","lat":"39.74546000","lon":"141.26915000"},
{"state":"Iwate Prefecture","name":"Ninohe","lat":"40.29081000","lon":"141.31334000"},
{"state":"Iwate Prefecture","name":"Ninohe Shi","lat":"40.23798000","lon":"141.19576000"},
{"state":"Iwate Prefecture","name":"Ōfunato","lat":"39.07167000","lon":"141.71667000"},
{"state":"Iwate Prefecture","name":"Ōfunato-shi","lat":"39.06667000","lon":"141.71667000"},
{"state":"Iwate Prefecture","name":"Ōshū","lat":"39.13927000","lon":"141.16850000"},
{"state":"Iwate Prefecture","name":"Ōshū-shi","lat":"39.12962000","lon":"141.09479000"},
{"state":"Iwate Prefecture","name":"Ōtsuchi","lat":"39.36667000","lon":"141.90000000"},
{"state":"Iwate Prefecture","name":"Rikuzentakata-shi","lat":"39.04082000","lon":"141.57703000"},
{"state":"Iwate Prefecture","name":"Shizukuishi","lat":"39.69414000","lon":"140.98442000"},
{"state":"Iwate Prefecture","name":"Takizawa-shi","lat":"39.80000000","lon":"141.06667000"},
{"state":"Iwate Prefecture","name":"Tōno","lat":"39.31667000","lon":"141.53333000"},
{"state":"Iwate Prefecture","name":"Tōno-shi","lat":"39.36479000","lon":"141.50922000"},
{"state":"Iwate Prefecture","name":"Yamada","lat":"39.46667000","lon":"141.95000000"},
{"state":"Kagawa Prefecture","name":"Higashikagawa Shi","lat":"34.21158000","lon":"134.33350000"},
{"state":"Kagawa Prefecture","name":"Kan’onji Shi","lat":"34.08457000","lon":"133.67448000"},
{"state":"Kagawa Prefecture","name":"Kan’onjichō","lat":"34.12760000","lon":"133.64598000"},
{"state":"Kagawa Prefecture","name":"Marugame","lat":"34.28333000","lon":"133.78333000"},
{"state":"Kagawa Prefecture","name":"Marugame Shi","lat":"34.28560000","lon":"133.81535000"},
{"state":"Kagawa Prefecture","name":"Mitoyo Shi","lat":"34.16176000","lon":"133.72282000"},
{"state":"Kagawa Prefecture","name":"Sakaide Shi","lat":"34.32403000","lon":"133.89222000"},
{"state":"Kagawa Prefecture","name":"Sakaidechō","lat":"34.32278000","lon":"133.83560000"},
{"state":"Kagawa Prefecture","name":"Sanuki-shi","lat":"34.26615000","lon":"134.20941000"},
{"state":"Kagawa Prefecture","name":"Shido","lat":"34.32333000","lon":"134.17333000"},
{"state":"Kagawa Prefecture","name":"Tadotsu","lat":"34.27500000","lon":"133.75000000"},
{"state":"Kagawa Prefecture","name":"Takamatsu","lat":"34.33333000","lon":"134.05000000"},
{"state":"Kagawa Prefecture","name":"Takamatsu Shi","lat":"34.26852000","lon":"134.05450000"},
{"state":"Kagawa Prefecture","name":"Tonoshō","lat":"34.48047000","lon":"134.17017000"},
{"state":"Kagawa Prefecture","name":"Zentsūji Shi","lat":"34.22581000","lon":"133.77692000"},
{"state":"Kagoshima Prefecture","name":"Aira Shi","lat":"31.78460000","lon":"130.60668000"},
{"state":"Kagoshima Prefecture","name":"Akune","lat":"32.01667000","lon":"130.20000000"},
{"state":"Kagoshima Prefecture","name":"Akune Shi","lat":"32.02516000","lon":"130.19768000"},
{"state":"Kagoshima Prefecture","name":"Amami","lat":"28.37690000","lon":"129.49379000"},
{"state":"Kagoshima Prefecture","name":"Amami Shi","lat":"28.34542000","lon":"129.50221000"},
{"state":"Kagoshima Prefecture","name":"Hamanoichi","lat":"31.71667000","lon":"130.73333000"},
{"state":"Kagoshima Prefecture","name":"Hioki","lat":"31.58333000","lon":"130.35000000"},
{"state":"Kagoshima Prefecture","name":"Hioki Shi","lat":"31.59929000","lon":"130.38208000"},
{"state":"Kagoshima Prefecture","name":"Ibusuki","lat":"31.23333000","lon":"130.65000000"},
{"state":"Kagoshima Prefecture","name":"Ibusuki Shi","lat":"31.22962000","lon":"130.58060000"},
{"state":"Kagoshima Prefecture","name":"Ichikikushikino Shi","lat":"31.73281000","lon":"130.28893000"},
{"state":"Kagoshima Prefecture","name":"Ijūin","lat":"31.61667000","lon":"130.40000000"},
{"state":"Kagoshima Prefecture","name":"Isa Shi","lat":"32.05835000","lon":"130.60104000"},
{"state":"Kagoshima Prefecture","name":"Izumi","lat":"32.08333000","lon":"130.36667000"},
{"state":"Kagoshima Prefecture","name":"Izumi Shi","lat":"32.06412000","lon":"130.36097000"},
{"state":"Kagoshima Prefecture","name":"Kagoshima","lat":"31.56667000","lon":"130.55000000"},
{"state":"Kagoshima Prefecture","name":"Kagoshima Shi","lat":"31.58003000","lon":"130.52806000"},
{"state":"Kagoshima Prefecture","name":"Kajiki","lat":"31.73333000","lon":"130.66667000"},
{"state":"Kagoshima Prefecture","name":"Kanoya","lat":"31.38333000","lon":"130.85000000"},
{"state":"Kagoshima Prefecture","name":"Kanoya Shi","lat":"31.42664000","lon":"130.86735000"},
{"state":"Kagoshima Prefecture","name":"Kaseda-shirakame","lat":"31.41667000","lon":"130.31667000"},
{"state":"Kagoshima Prefecture","name":"Kirishima Shi","lat":"31.80558000","lon":"130.78164000"},
{"state":"Kagoshima Prefecture","name":"Kokubu-matsuki","lat":"31.73333000","lon":"130.76667000"},
{"state":"Kagoshima Prefecture","name":"Koseda","lat":"30.38796000","lon":"130.64924000"},
{"state":"Kagoshima Prefecture","name":"Koshima","lat":"30.23461000","lon":"130.53517000"},
{"state":"Kagoshima Prefecture","name":"Kurio","lat":"30.27123000","lon":"130.42360000"},
{"state":"Kagoshima Prefecture","name":"Kushikino","lat":"31.71667000","lon":"130.26667000"},
{"state":"Kagoshima Prefecture","name":"Makurazaki","lat":"31.26667000","lon":"130.31667000"},
{"state":"Kagoshima Prefecture","name":"Makurazaki Shi","lat":"31.29139000","lon":"130.30681000"},
{"state":"Kagoshima Prefecture","name":"Minamikyushu Shi","lat":"31.34038000","lon":"130.43677000"},
{"state":"Kagoshima Prefecture","name":"Minamisatsuma Shi","lat":"31.38793000","lon":"130.26961000"},
{"state":"Kagoshima Prefecture","name":"Miyanoura","lat":"30.42690000","lon":"130.57151000"},
{"state":"Kagoshima Prefecture","name":"Nagata","lat":"30.39516000","lon":"130.42548000"},
{"state":"Kagoshima Prefecture","name":"Naze","lat":"28.36667000","lon":"129.48333000"},
{"state":"Kagoshima Prefecture","name":"Nishinoomote","lat":"30.73333000","lon":"131.00000000"},
{"state":"Kagoshima Prefecture","name":"Nishinoomote Shi","lat":"30.70536000","lon":"131.01521000"},
{"state":"Kagoshima Prefecture","name":"Ōkuchi-shinohara","lat":"32.06779000","lon":"130.62439000"},
{"state":"Kagoshima Prefecture","name":"Satsumasendai","lat":"31.81667000","lon":"130.30000000"},
{"state":"Kagoshima Prefecture","name":"Satsumasendai Shi","lat":"31.82376000","lon":"130.25899000"},
{"state":"Kagoshima Prefecture","name":"Shibushi","lat":"31.47600000","lon":"131.10114000"},
{"state":"Kagoshima Prefecture","name":"Shibushi-shi","lat":"31.48333000","lon":"131.10000000"},
{"state":"Kagoshima Prefecture","name":"Soo Shi","lat":"31.65615000","lon":"130.97470000"},
{"state":"Kagoshima Prefecture","name":"Sueyoshichō-ninokata","lat":"31.65000000","lon":"131.01667000"},
{"state":"Kagoshima Prefecture","name":"Tarumizu","lat":"31.48333000","lon":"130.70000000"},
{"state":"Kagoshima Prefecture","name":"Tarumizu Shi","lat":"31.51583000","lon":"130.76046000"},
{"state":"Kagoshima Prefecture","name":"Yudomari","lat":"30.23470000","lon":"130.47942000"},
{"state":"Kanagawa Prefecture","name":"Atsugi","lat":"35.44272000","lon":"139.36931000"},
{"state":"Kanagawa Prefecture","name":"Atsugi Shi","lat":"35.46513000","lon":"139.32707000"},
{"state":"Kanagawa Prefecture","name":"Ayase Shi","lat":"35.43995000","lon":"139.43089000"},
{"state":"Kanagawa Prefecture","name":"Chigasaki","lat":"35.33638000","lon":"139.40434000"},
{"state":"Kanagawa Prefecture","name":"Chigasaki Shi","lat":"35.34429000","lon":"139.40958000"},
{"state":"Kanagawa Prefecture","name":"Ebina Shi","lat":"35.43762000","lon":"139.39307000"},
{"state":"Kanagawa Prefecture","name":"Fujisawa","lat":"35.34926000","lon":"139.47666000"},
{"state":"Kanagawa Prefecture","name":"Fujisawa Shi","lat":"35.36814000","lon":"139.45899000"},
{"state":"Kanagawa Prefecture","name":"Hadano","lat":"35.37111000","lon":"139.22361000"},
{"state":"Kanagawa Prefecture","name":"Hadano-shi","lat":"35.40000000","lon":"139.20000000"},
{"state":"Kanagawa Prefecture","name":"Hakone","lat":"35.18945000","lon":"139.02649000"},
{"state":"Kanagawa Prefecture","name":"Hayama","lat":"35.27651000","lon":"139.57733000"},
{"state":"Kanagawa Prefecture","name":"Hiratsuka","lat":"35.32785000","lon":"139.33735000"},
{"state":"Kanagawa Prefecture","name":"Hiratsuka Shi","lat":"35.35099000","lon":"139.32013000"},
{"state":"Kanagawa Prefecture","name":"Isehara","lat":"35.39932000","lon":"139.31019000"},
{"state":"Kanagawa Prefecture","name":"Isehara Shi","lat":"35.41011000","lon":"139.29203000"},
{"state":"Kanagawa Prefecture","name":"Kamakura","lat":"35.30889000","lon":"139.55028000"},
{"state":"Kanagawa Prefecture","name":"Kamakura Shi","lat":"35.33000000","lon":"139.53798000"},
{"state":"Kanagawa Prefecture","name":"Kawasaki","lat":"35.52056000","lon":"139.71722000"},
{"state":"Kanagawa Prefecture","name":"Kawasaki-shi","lat":"35.56996000","lon":"139.62854000"},
{"state":"Kanagawa Prefecture","name":"Minamiashigara","lat":"35.31947000","lon":"139.10960000"},
{"state":"Kanagawa Prefecture","name":"Minamiashigara Shi","lat":"35.30991000","lon":"139.07016000"},
{"state":"Kanagawa Prefecture","name":"Minamirinkan","lat":"35.49527000","lon":"139.44279000"},
{"state":"Kanagawa Prefecture","name":"Miura","lat":"35.14000000","lon":"139.61917000"},
{"state":"Kanagawa Prefecture","name":"Miura Shi","lat":"35.16754000","lon":"139.64104000"},
{"state":"Kanagawa Prefecture","name":"Ninomiya","lat":"35.30150000","lon":"139.25581000"},
{"state":"Kanagawa Prefecture","name":"Odawara","lat":"35.25556000","lon":"139.15972000"},
{"state":"Kanagawa Prefecture","name":"Odawara-shi","lat":"35.25000000","lon":"139.13333000"},
{"state":"Kanagawa Prefecture","name":"Ōiso","lat":"35.31558000","lon":"139.31625000"},
{"state":"Kanagawa Prefecture","name":"Sagamihara-shi","lat":"35.55000000","lon":"139.35000000"},
{"state":"Kanagawa Prefecture","name":"Yamakita","lat":"35.36344000","lon":"139.07975000"},
{"state":"Kanagawa Prefecture","name":"Yamato-shi","lat":"35.46934000","lon":"139.46165000"},
{"state":"Kanagawa Prefecture","name":"Yokohama","lat":"35.43333000","lon":"139.65000000"},
{"state":"Kanagawa Prefecture","name":"Yokohama Shi","lat":"35.46225000","lon":"139.57645000"},
{"state":"Kanagawa Prefecture","name":"Yokosuka","lat":"35.28361000","lon":"139.66722000"},
{"state":"Kanagawa Prefecture","name":"Yokosuka Shi","lat":"35.24985000","lon":"139.66033000"},
{"state":"Kanagawa Prefecture","name":"Yugawara","lat":"35.15000000","lon":"139.06667000"},
{"state":"Kanagawa Prefecture","name":"Zama","lat":"35.48790000","lon":"139.39101000"},
{"state":"Kanagawa Prefecture","name":"Zama Shi","lat":"35.48752000","lon":"139.40925000"},
{"state":"Kanagawa Prefecture","name":"Zushi Shi","lat":"35.29900000","lon":"139.59125000"},
{"state":"Kōchi Prefecture","name":"Achi","lat":"35.44388889","lon":"137.74750000"},
{"state":"Kōchi Prefecture","name":"Agematsu","lat":"35.78388889","lon":"137.69416667"},
{"state":"Kōchi Prefecture","name":"Aki","lat":"33.50250000","lon":"133.90722222"},
{"state":"Kōchi Prefecture","name":"Anan","lat":"35.32361111","lon":"137.81611111"},
{"state":"Kōchi Prefecture","name":"Aoki","lat":"36.37000000","lon":"138.12861111"},
{"state":"Kōchi Prefecture","name":"Asahi","lat":"36.12361111","lon":"137.86638889"},
{"state":"Kōchi Prefecture","name":"Azumino","lat":"36.30388889","lon":"137.90555556"},
{"state":"Kōchi Prefecture","name":"Chikuhoku","lat":"36.42120000","lon":"138.04011000"},
{"state":"Kōchi Prefecture","name":"Chikuma","lat":"36.50624000","lon":"138.12352000"},
{"state":"Kōchi Prefecture","name":"Chino","lat":"35.99555556","lon":"138.15888889"},
{"state":"Kōchi Prefecture","name":"Fujimi","lat":"35.91472222","lon":"138.24083333"},
{"state":"Kōchi Prefecture","name":"Geisei","lat":"33.52694444","lon":"133.80916667"},
{"state":"Kōchi Prefecture","name":"Hakuba","lat":"36.70000000","lon":"137.86666667"},
{"state":"Kōchi Prefecture","name":"Hara","lat":"35.96444444","lon":"138.21750000"},
{"state":"Kōchi Prefecture","name":"Hidaka","lat":"33.53472222","lon":"133.37333333"},
{"state":"Kōchi Prefecture","name":"Hiraya","lat":"35.32333333","lon":"137.63027778"},
{"state":"Kōchi Prefecture","name":"Iida","lat":"35.51472222","lon":"137.82194444"},
{"state":"Kōchi Prefecture","name":"Iijima","lat":"35.67638889","lon":"137.91944444"},
{"state":"Kōchi Prefecture","name":"Iiyama","lat":"36.85166667","lon":"138.36555556"},
{"state":"Kōchi Prefecture","name":"Iizuna","lat":"36.75500000","lon":"138.23555556"},
{"state":"Kōchi Prefecture","name":"Ikeda","lat":"36.42138889","lon":"137.87472222"},
{"state":"Kōchi Prefecture","name":"Ikusaka","lat":"36.42527778","lon":"137.92750000"},
{"state":"Kōchi Prefecture","name":"Ina","lat":"35.82750000","lon":"137.95388889"},
{"state":"Kōchi Prefecture","name":"Ino","lat":"33.55000000","lon":"133.43333333"},
{"state":"Kōchi Prefecture","name":"Karuizawa","lat":"36.34833333","lon":"138.59694444"},
{"state":"Kōchi Prefecture","name":"Kawakami","lat":"35.97555556","lon":"138.57833333"},
{"state":"Kōchi Prefecture","name":"Kijimadaira","lat":"36.85861111","lon":"138.40666667"},
{"state":"Kōchi Prefecture","name":"Kiso","lat":"35.93638889","lon":"137.78305556"},
{"state":"Kōchi Prefecture","name":"Kitaaiki","lat":"36.05916667","lon":"138.55111111"},
{"state":"Kōchi Prefecture","name":"Kitagawa","lat":"33.44777778","lon":"134.04222222"},
{"state":"Kōchi Prefecture","name":"Kōchi","lat":"33.55888889","lon":"133.53138889"},
{"state":"Kōchi Prefecture","name":"Komoro","lat":"36.32750000","lon":"138.42583333"},
{"state":"Kōchi Prefecture","name":"Kōnan","lat":"33.56416667","lon":"133.70055556"},
{"state":"Kōchi Prefecture","name":"Kuroshio","lat":"33.02500000","lon":"133.01083333"},
{"state":"Kōchi Prefecture","name":"Matsukawa","lat":"35.59722222","lon":"137.90972222"},
{"state":"Kōchi Prefecture","name":"Matsumoto","lat":"36.23805556","lon":"137.97194444"},
{"state":"Kōchi Prefecture","name":"Mihara","lat":"32.90611111","lon":"132.84722222"},
{"state":"Kōchi Prefecture","name":"Minamiaiki","lat":"36.03611111","lon":"138.54694444"},
{"state":"Kōchi Prefecture","name":"Minamimaki","lat":"36.02083333","lon":"138.49222222"},
{"state":"Kōchi Prefecture","name":"Minamiminowa","lat":"35.87277778","lon":"137.97527778"},
{"state":"Kōchi Prefecture","name":"Minowa","lat":"35.91500000","lon":"137.98194444"},
{"state":"Kōchi Prefecture","name":"Mitsushima","lat":"35.27525100","lon":"137.85213700"},
{"state":"Kōchi Prefecture","name":"Miyada","lat":"35.76888889","lon":"137.94422222"},
{"state":"Kōchi Prefecture","name":"Miyota","lat":"36.32138889","lon":"138.50888889"},
{"state":"Kōchi Prefecture","name":"Motoyama","lat":"35.16402778","lon":"136.96361111"},
{"state":"Kōchi Prefecture","name":"Muroto","lat":"33.29000000","lon":"134.15194444"},
{"state":"Kōchi Prefecture","name":"Nagano","lat":"36.64861111","lon":"138.19277778"},
{"state":"Kōchi Prefecture","name":"Nagawa","lat":"36.25611111","lon":"138.26777778"},
{"state":"Kōchi Prefecture","name":"Nagiso","lat":"35.60361111","lon":"137.60888889"},
{"state":"Kōchi Prefecture","name":"Nahari","lat":"33.42416667","lon":"134.02111111"},
{"state":"Kōchi Prefecture","name":"Nakagawa","lat":"35.63444444","lon":"137.94611111"},
{"state":"Kōchi Prefecture","name":"Nakajō","lat":"36.61222222","lon":"138.03652778"},
{"state":"Kōchi Prefecture","name":"Nakamura","lat":"32.99138889","lon":"132.93375000"},
{"state":"Kōchi Prefecture","name":"Nakano","lat":"36.74194444","lon":"138.36944444"},
{"state":"Kōchi Prefecture","name":"Nakatosa","lat":"33.32750000","lon":"133.22833333"},
{"state":"Kōchi Prefecture","name":"Nankoku","lat":"33.57555556","lon":"133.64138889"},
{"state":"Kōchi Prefecture","name":"Neba","lat":"35.25305556","lon":"137.58111111"},
{"state":"Kōchi Prefecture","name":"Niyodogawa","lat":"33.57527778","lon":"133.16833333"},
{"state":"Kōchi Prefecture","name":"Nozawaonsen","lat":"36.92277778","lon":"138.44055556"},
{"state":"Kōchi Prefecture","name":"Obuse","lat":"36.69777778","lon":"138.31222222"},
{"state":"Kōchi Prefecture","name":"Ochi","lat":"33.53277778","lon":"133.25194444"},
{"state":"Kōchi Prefecture","name":"Ogawa","lat":"36.61694444","lon":"137.97444444"},
{"state":"Kōchi Prefecture","name":"Ōkawa","lat":"33.78361111","lon":"133.46666667"},
{"state":"Kōchi Prefecture","name":"Okaya","lat":"36.06694444","lon":"138.04944444"},
{"state":"Kōchi Prefecture","name":"Ōkuwa","lat":"35.68277778","lon":"137.66500000"},
{"state":"Kōchi Prefecture","name":"Ōmachi","lat":"36.50000000","lon":"137.85000000"},
{"state":"Kōchi Prefecture","name":"Omi","lat":"36.45611111","lon":"138.04527778"},
{"state":"Kōchi Prefecture","name":"Ōshika","lat":"35.57833333","lon":"138.03416667"},
{"state":"Kōchi Prefecture","name":"Ōtaki","lat":"35.80944444","lon":"137.55111111"},
{"state":"Kōchi Prefecture","name":"Otari","lat":"36.77916667","lon":"137.90833333"},
{"state":"Kōchi Prefecture","name":"Ōtoyo","lat":"33.76416667","lon":"133.66416667"},
{"state":"Kōchi Prefecture","name":"Ōtsuki","lat":"32.84138889","lon":"132.70694444"},
{"state":"Kōchi Prefecture","name":"Sakae","lat":"36.98750000","lon":"138.57750000"},
{"state":"Kōchi Prefecture","name":"Sakaki","lat":"36.46194444","lon":"138.18027778"},
{"state":"Kōchi Prefecture","name":"Sakawa","lat":"33.50083333","lon":"133.28666667"},
{"state":"Kōchi Prefecture","name":"Saku","lat":"36.24888889","lon":"138.47694444"},
{"state":"Kōchi Prefecture","name":"Sakuho","lat":"36.16111111","lon":"138.48333333"},
{"state":"Kōchi Prefecture","name":"Sanada","lat":"36.44088889","lon":"138.30361111"},
{"state":"Kōchi Prefecture","name":"Shimanto","lat":"33.20833333","lon":"133.13555556"},
{"state":"Kōchi Prefecture","name":"Shimojō","lat":"35.39750000","lon":"137.78611111"},
{"state":"Kōchi Prefecture","name":"Shimosuwa","lat":"36.06972222","lon":"138.08027778"},
{"state":"Kōchi Prefecture","name":"Shinano","lat":"36.80638889","lon":"138.20694444"},
{"state":"Kōchi Prefecture","name":"Shiojiri","lat":"36.11666667","lon":"137.95000000"},
{"state":"Kōchi Prefecture","name":"Sukumo","lat":"32.93888889","lon":"132.72611111"},
{"state":"Kōchi Prefecture","name":"Susaki","lat":"33.40083333","lon":"133.28305556"},
{"state":"Kōchi Prefecture","name":"Suwa","lat":"36.03916667","lon":"138.11416667"},
{"state":"Kōchi Prefecture","name":"Suzaka","lat":"36.65000000","lon":"138.31667000"},
{"state":"Kōchi Prefecture","name":"Takagi","lat":"35.51388889","lon":"137.87388889"},
{"state":"Kōchi Prefecture","name":"Takamori","lat":"35.55138889","lon":"137.87861111"},
{"state":"Kōchi Prefecture","name":"Takayama","lat":"36.67972222","lon":"138.36305556"},
{"state":"Kōchi Prefecture","name":"Tano","lat":"33.42777778","lon":"134.00833333"},
{"state":"Kōchi Prefecture","name":"Tateshina","lat":"36.27194444","lon":"138.31611111"},
{"state":"Kōchi Prefecture","name":"Tatsuno","lat":"35.98250000","lon":"137.98750000"},
{"state":"Kōchi Prefecture","name":"Togari","lat":"36.91666667","lon":"138.38333333"},
{"state":"Kōchi Prefecture","name":"Tōmi","lat":"36.35944444","lon":"138.33055556"},
{"state":"Kōchi Prefecture","name":"Tosa","lat":"33.49611111","lon":"133.42527778"},
{"state":"Kōchi Prefecture","name":"Tosashimizu","lat":"32.78138889","lon":"132.95500000"},
{"state":"Kōchi Prefecture","name":"Tōyō","lat":"33.52805556","lon":"134.28000000"},
{"state":"Kōchi Prefecture","name":"Toyooka","lat":"35.55138889","lon":"137.89583333"},
{"state":"Kōchi Prefecture","name":"Tsuno","lat":"33.44666667","lon":"133.19944444"},
{"state":"Kōchi Prefecture","name":"Ueda","lat":"36.40194444","lon":"138.24916667"},
{"state":"Kōchi Prefecture","name":"Umaji","lat":"33.55527778","lon":"134.04805556"},
{"state":"Kōchi Prefecture","name":"Urugi","lat":"35.27111111","lon":"137.71111111"},
{"state":"Kōchi Prefecture","name":"Usa","lat":"33.44936111","lon":"133.43711111"},
{"state":"Kōchi Prefecture","name":"Yamagata","lat":"36.16805556","lon":"137.87888889"},
{"state":"Kōchi Prefecture","name":"Yamanouchi","lat":"36.74472222","lon":"138.41250000"},
{"state":"Kōchi Prefecture","name":"Yasuda","lat":"33.43833333","lon":"133.98111111"},
{"state":"Kōchi Prefecture","name":"Yasuoka","lat":"35.37722222","lon":"137.84583333"},
{"state":"Kōchi Prefecture","name":"Yawata","lat":"36.51666667","lon":"138.10000000"},
{"state":"Kōchi Prefecture","name":"Yusuhara","lat":"33.39194444","lon":"132.92694444"},
{"state":"Kumamoto Prefecture","name":"Amakusa Gun","lat":"32.48513000","lon":"130.07240000"},
{"state":"Kumamoto Prefecture","name":"Amakusa Shi","lat":"32.38515000","lon":"130.15014000"},
{"state":"Kumamoto Prefecture","name":"Arao Shi","lat":"32.97619000","lon":"130.47562000"},
{"state":"Kumamoto Prefecture","name":"Aso-shi","lat":"32.95608000","lon":"131.09458000"},
{"state":"Kumamoto Prefecture","name":"Hitoyoshi","lat":"32.21667000","lon":"130.75000000"},
{"state":"Kumamoto Prefecture","name":"Hitoyoshi Shi","lat":"32.17298000","lon":"130.74013000"},
{"state":"Kumamoto Prefecture","name":"Hondomachi-hondo","lat":"32.45993000","lon":"130.16713000"},
{"state":"Kumamoto Prefecture","name":"Honmachi","lat":"32.50439000","lon":"130.59952000"},
{"state":"Kumamoto Prefecture","name":"Kamiamakusa Shi","lat":"32.49550000","lon":"130.40816000"},
{"state":"Kumamoto Prefecture","name":"Kikuchi","lat":"32.98333000","lon":"130.81667000"},
{"state":"Kumamoto Prefecture","name":"Kikuchi Shi","lat":"32.99107000","lon":"130.85523000"},
{"state":"Kumamoto Prefecture","name":"Kōshi Shi","lat":"32.89305000","lon":"130.76867000"},
{"state":"Kumamoto Prefecture","name":"Kumamoto","lat":"32.80589000","lon":"130.69181000"},
{"state":"Kumamoto Prefecture","name":"Kumamoto Shi","lat":"32.79733000","lon":"130.69171000"},
{"state":"Kumamoto Prefecture","name":"Matsubase","lat":"32.65000000","lon":"130.66667000"},
{"state":"Kumamoto Prefecture","name":"Minamata","lat":"32.21667000","lon":"130.40000000"},
{"state":"Kumamoto Prefecture","name":"Minamata Shi","lat":"32.17055000","lon":"130.46211000"},
{"state":"Kumamoto Prefecture","name":"Ōzu","lat":"32.88040000","lon":"130.87161000"},
{"state":"Kumamoto Prefecture","name":"Tamana","lat":"32.94716000","lon":"130.57446000"},
{"state":"Kumamoto Prefecture","name":"Tamana Shi","lat":"32.91550000","lon":"130.56018000"},
{"state":"Kumamoto Prefecture","name":"Uekimachi-mōno","lat":"32.89964000","lon":"130.68898000"},
{"state":"Kumamoto Prefecture","name":"Uki Shi","lat":"32.62669000","lon":"130.65491000"},
{"state":"Kumamoto Prefecture","name":"Ushibukamachi","lat":"32.20142000","lon":"130.02171000"},
{"state":"Kumamoto Prefecture","name":"Uto","lat":"32.68333000","lon":"130.66667000"},
{"state":"Kumamoto Prefecture","name":"Uto Shi","lat":"32.68092000","lon":"130.61308000"},
{"state":"Kumamoto Prefecture","name":"Yamaga Shi","lat":"33.05587000","lon":"130.72309000"},
{"state":"Kumamoto Prefecture","name":"Yatsushiro Shi","lat":"32.49063000","lon":"130.74972000"},
{"state":"Kyōto Prefecture","name":"Arashiyama","lat":"35.01481000","lon":"135.67755000"},
{"state":"Kyōto Prefecture","name":"Ayabe","lat":"35.30000000","lon":"135.25000000"},
{"state":"Kyōto Prefecture","name":"Ayabe-shi","lat":"35.35263000","lon":"135.34465000"},
{"state":"Kyōto Prefecture","name":"Fukuchiyama-shi","lat":"35.32404000","lon":"135.11332000"},
{"state":"Kyōto Prefecture","name":"Jōyō Shi","lat":"34.84566000","lon":"135.79760000"},
{"state":"Kyōto Prefecture","name":"Kameoka","lat":"35.00000000","lon":"135.58333000"},
{"state":"Kyōto Prefecture","name":"Kameoka-shi","lat":"35.01021000","lon":"135.53900000"},
{"state":"Kyōto Prefecture","name":"Kamigyō-ku","lat":"35.02954000","lon":"135.75666000"},
{"state":"Kyōto Prefecture","name":"Kizugawa-shi","lat":"34.73781000","lon":"135.82128000"},
{"state":"Kyōto Prefecture","name":"Kyōtanabe Shi","lat":"34.80779000","lon":"135.76300000"},
{"state":"Kyōto Prefecture","name":"Kyōtango-shi","lat":"35.63089000","lon":"135.04785000"},
{"state":"Kyōto Prefecture","name":"Kyoto","lat":"35.02107000","lon":"135.75385000"},
{"state":"Kyōto Prefecture","name":"Maizuru","lat":"35.45000000","lon":"135.33333000"},
{"state":"Kyōto Prefecture","name":"Maizuru-shi","lat":"35.47009000","lon":"135.34003000"},
{"state":"Kyōto Prefecture","name":"Miyazu","lat":"35.53333000","lon":"135.18333000"},
{"state":"Kyōto Prefecture","name":"Miyazu-shi","lat":"35.55596000","lon":"135.17662000"},
{"state":"Kyōto Prefecture","name":"Mukō Shi","lat":"34.94975000","lon":"135.70269000"},
{"state":"Kyōto Prefecture","name":"Nagaokakyō Shi","lat":"34.92840000","lon":"135.67881000"},
{"state":"Kyōto Prefecture","name":"Nantan-shi","lat":"35.22740000","lon":"135.55939000"},
{"state":"Kyōto Prefecture","name":"Tanabe","lat":"34.82242000","lon":"135.76604000"},
{"state":"Kyōto Prefecture","name":"Uji","lat":"34.89044000","lon":"135.80325000"},
{"state":"Kyōto Prefecture","name":"Uji Shi","lat":"34.90296000","lon":"135.82039000"},
{"state":"Kyōto Prefecture","name":"Yawata","lat":"34.87009000","lon":"135.70270000"},
{"state":"Kyōto Prefecture","name":"Yawata Shi","lat":"34.86662000","lon":"135.71470000"},
{"state":"Mie Prefecture","name":"Hisai-motomachi","lat":"34.66667000","lon":"136.46667000"},
{"state":"Mie Prefecture","name":"Iga-shi","lat":"34.76855000","lon":"136.13013000"},
{"state":"Mie Prefecture","name":"Inabe","lat":"35.11344000","lon":"136.57205000"},
{"state":"Mie Prefecture","name":"Inabe-shi","lat":"35.16061000","lon":"136.50788000"},
{"state":"Mie Prefecture","name":"Ise","lat":"34.48333000","lon":"136.70000000"},
{"state":"Mie Prefecture","name":"Ise-shi","lat":"34.46740000","lon":"136.71585000"},
{"state":"Mie Prefecture","name":"Kameyama","lat":"34.85000000","lon":"136.45000000"},
{"state":"Mie Prefecture","name":"Kameyama Shi","lat":"34.86866000","lon":"136.39345000"},
{"state":"Mie Prefecture","name":"Kawage","lat":"34.80447000","lon":"136.54645000"},
{"state":"Mie Prefecture","name":"Komono","lat":"35.00000000","lon":"136.51667000"},
{"state":"Mie Prefecture","name":"Kumano","lat":"33.90389000","lon":"136.12214000"},
{"state":"Mie Prefecture","name":"Kumano-shi","lat":"33.92290000","lon":"136.02646000"},
{"state":"Mie Prefecture","name":"Kuwana","lat":"35.05192000","lon":"136.66958000"},
{"state":"Mie Prefecture","name":"Kuwana-shi","lat":"35.06176000","lon":"136.68348000"},
{"state":"Mie Prefecture","name":"Matsuzaka-shi","lat":"34.56667000","lon":"136.53333000"},
{"state":"Mie Prefecture","name":"Nabari","lat":"34.61667000","lon":"136.08333000"},
{"state":"Mie Prefecture","name":"Nabari-shi","lat":"34.62643000","lon":"136.10825000"},
{"state":"Mie Prefecture","name":"Owase","lat":"34.06667000","lon":"136.20000000"},
{"state":"Mie Prefecture","name":"Shima","lat":"34.33333000","lon":"136.83333000"},
{"state":"Mie Prefecture","name":"Shima-shi","lat":"34.33795000","lon":"136.81336000"},
{"state":"Mie Prefecture","name":"Suzuka","lat":"34.88333000","lon":"136.58333000"},
{"state":"Mie Prefecture","name":"Suzuka-shi","lat":"34.88114000","lon":"136.58443000"},
{"state":"Mie Prefecture","name":"Toba","lat":"34.48330000","lon":"136.84186000"},
{"state":"Mie Prefecture","name":"Toba-shi","lat":"34.48333000","lon":"136.83333000"},
{"state":"Mie Prefecture","name":"Tsu","lat":"34.73333000","lon":"136.51667000"},
{"state":"Mie Prefecture","name":"Tsu-shi","lat":"34.71706000","lon":"136.50616000"},
{"state":"Mie Prefecture","name":"Ueno-ebisumachi","lat":"34.75856000","lon":"136.13108000"},
{"state":"Mie Prefecture","name":"Yokkaichi-shi","lat":"34.96475000","lon":"136.62443000"},
{"state":"Miyagi Prefecture","name":"Furukawa","lat":"38.57167000","lon":"140.95556000"},
{"state":"Miyagi Prefecture","name":"Higashimatshushima Shi","lat":"38.41089000","lon":"141.17717000"},
{"state":"Miyagi Prefecture","name":"Higashimatsushima","lat":"38.40886000","lon":"141.17901000"},
{"state":"Miyagi Prefecture","name":"Ishinomaki","lat":"38.41667000","lon":"141.30000000"},
{"state":"Miyagi Prefecture","name":"Ishinomaki Shi","lat":"38.47918000","lon":"141.37226000"},
{"state":"Miyagi Prefecture","name":"Iwanuma","lat":"38.10472000","lon":"140.85944000"},
{"state":"Miyagi Prefecture","name":"Iwanuma-shi","lat":"38.11667000","lon":"140.88333000"},
{"state":"Miyagi Prefecture","name":"Kakuda","lat":"37.97451000","lon":"140.77202000"},
{"state":"Miyagi Prefecture","name":"Kakuda Shi","lat":"37.98828000","lon":"140.77903000"},
{"state":"Miyagi Prefecture","name":"Kesennuma","lat":"38.90112000","lon":"141.57746000"},
{"state":"Miyagi Prefecture","name":"Kesennuma Shi","lat":"38.91377000","lon":"141.55711000"},
{"state":"Miyagi Prefecture","name":"Kogota","lat":"38.55000000","lon":"141.05000000"},
{"state":"Miyagi Prefecture","name":"Kurihara","lat":"38.75000000","lon":"141.00000000"},
{"state":"Miyagi Prefecture","name":"Kurihara Shi","lat":"38.80895000","lon":"140.94034000"},
{"state":"Miyagi Prefecture","name":"Marumori","lat":"37.91667000","lon":"140.76667000"},
{"state":"Miyagi Prefecture","name":"Matsushima","lat":"38.37357000","lon":"141.06105000"},
{"state":"Miyagi Prefecture","name":"Natori Shi","lat":"38.16729000","lon":"140.86666000"},
{"state":"Miyagi Prefecture","name":"Ōkawara","lat":"38.05000000","lon":"140.73361000"},
{"state":"Miyagi Prefecture","name":"Onagawa Chō","lat":"38.44660000","lon":"141.44794000"},
{"state":"Miyagi Prefecture","name":"Ōsaki","lat":"38.58866000","lon":"140.97300000"},
{"state":"Miyagi Prefecture","name":"Ōsaki Shi","lat":"38.68005000","lon":"140.84669000"},
{"state":"Miyagi Prefecture","name":"Rifu","lat":"38.33092000","lon":"140.97691000"},
{"state":"Miyagi Prefecture","name":"Sendai","lat":"38.26667000","lon":"140.86667000"},
{"state":"Miyagi Prefecture","name":"Shiogama","lat":"38.31667000","lon":"141.03333000"},
{"state":"Miyagi Prefecture","name":"Shiroishi","lat":"38.00333000","lon":"140.61833000"},
{"state":"Miyagi Prefecture","name":"Shiroishi Shi","lat":"37.99691000","lon":"140.57944000"},
{"state":"Miyagi Prefecture","name":"Tagajō Shi","lat":"38.29535000","lon":"140.99910000"},
{"state":"Miyagi Prefecture","name":"Tome Shi","lat":"38.68583000","lon":"141.25745000"},
{"state":"Miyagi Prefecture","name":"Tomiya","lat":"38.39306000","lon":"140.88611000"},
{"state":"Miyagi Prefecture","name":"Wakuya","lat":"38.54465000","lon":"141.13461000"},
{"state":"Miyagi Prefecture","name":"Watari","lat":"38.03500000","lon":"140.85111000"},
{"state":"Miyagi Prefecture","name":"Watari-gun","lat":"37.99640000","lon":"140.87909000"},
{"state":"Miyagi Prefecture","name":"Yamoto","lat":"38.42738000","lon":"141.21487000"},
{"state":"Miyazaki Prefecture","name":"Ebino-shi","lat":"32.01667000","lon":"130.80000000"},
{"state":"Miyazaki Prefecture","name":"Hyūga-shi","lat":"32.37710000","lon":"131.52275000"},
{"state":"Miyazaki Prefecture","name":"Kobayashi","lat":"31.98333000","lon":"130.98333000"},
{"state":"Miyazaki Prefecture","name":"Kobayashi Shi","lat":"32.04556000","lon":"131.02762000"},
{"state":"Miyazaki Prefecture","name":"Kushima","lat":"31.48621000","lon":"131.24210000"},
{"state":"Miyazaki Prefecture","name":"Kushima Shi","lat":"31.48571000","lon":"131.26485000"},
{"state":"Miyazaki Prefecture","name":"Miyakonojō","lat":"31.73333000","lon":"131.06667000"},
{"state":"Miyazaki Prefecture","name":"Miyakonojō Shi","lat":"31.80920000","lon":"131.07904000"},
{"state":"Miyazaki Prefecture","name":"Miyazaki","lat":"31.91667000","lon":"131.41667000"},
{"state":"Miyazaki Prefecture","name":"Miyazaki-shi","lat":"31.96192000","lon":"131.38455000"},
{"state":"Miyazaki Prefecture","name":"Nichinan","lat":"31.60000000","lon":"131.36667000"},
{"state":"Miyazaki Prefecture","name":"Nichinan Shi","lat":"31.63737000","lon":"131.33409000"},
{"state":"Miyazaki Prefecture","name":"Nobeoka","lat":"32.58333000","lon":"131.66667000"},
{"state":"Miyazaki Prefecture","name":"Nobeoka-shi","lat":"32.67238000","lon":"131.64311000"},
{"state":"Miyazaki Prefecture","name":"Saito-shi","lat":"32.17288000","lon":"131.31543000"},
{"state":"Miyazaki Prefecture","name":"Takanabe","lat":"32.13333000","lon":"131.50000000"},
{"state":"Miyazaki Prefecture","name":"Tsuma","lat":"32.10000000","lon":"131.40000000"},
{"state":"Nagano Prefecture","name":"Azumino-Shi","lat":"36.32716000","lon":"137.83988000"},
{"state":"Nagano Prefecture","name":"Chikuma Shi","lat":"36.50624000","lon":"138.12352000"},
{"state":"Nagano Prefecture","name":"Chino","lat":"35.99440000","lon":"138.15428000"},
{"state":"Nagano Prefecture","name":"Chino Shi","lat":"36.02522000","lon":"138.24668000"},
{"state":"Nagano Prefecture","name":"Hakuba","lat":"36.69818000","lon":"137.86185000"},
{"state":"Nagano Prefecture","name":"Hotaka","lat":"36.33960000","lon":"137.88254000"},
{"state":"Nagano Prefecture","name":"Iida","lat":"35.51965000","lon":"137.82074000"},
{"state":"Nagano Prefecture","name":"Iida-shi","lat":"35.42287000","lon":"137.89381000"},
{"state":"Nagano Prefecture","name":"Iiyama","lat":"36.85000000","lon":"138.36667000"},
{"state":"Nagano Prefecture","name":"Iiyama Shi","lat":"36.91249000","lon":"138.38345000"},
{"state":"Nagano Prefecture","name":"Ina","lat":"35.82756000","lon":"137.95378000"},
{"state":"Nagano Prefecture","name":"Ina-shi","lat":"35.79079000","lon":"138.07402000"},
{"state":"Nagano Prefecture","name":"Kamimaruko","lat":"36.31865000","lon":"138.27329000"},
{"state":"Nagano Prefecture","name":"Komagane","lat":"35.71657000","lon":"137.93745000"},
{"state":"Nagano Prefecture","name":"Komagane-shi","lat":"35.72770000","lon":"137.94783000"},
{"state":"Nagano Prefecture","name":"Komoro","lat":"36.31667000","lon":"138.43333000"},
{"state":"Nagano Prefecture","name":"Komoro Shi","lat":"36.33905000","lon":"138.43503000"},
{"state":"Nagano Prefecture","name":"Matsumoto","lat":"36.23333000","lon":"137.96667000"},
{"state":"Nagano Prefecture","name":"Matsumoto Shi","lat":"36.20418000","lon":"137.81419000"},
{"state":"Nagano Prefecture","name":"Nagano","lat":"36.65000000","lon":"138.18333000"},
{"state":"Nagano Prefecture","name":"Nagano Shi","lat":"36.65257000","lon":"138.11694000"},
{"state":"Nagano Prefecture","name":"Nakano Shi","lat":"36.76940000","lon":"138.34717000"},
{"state":"Nagano Prefecture","name":"Okaya","lat":"36.05659000","lon":"138.04510000"},
{"state":"Nagano Prefecture","name":"Okaya Shi","lat":"36.07917000","lon":"138.04805000"},
{"state":"Nagano Prefecture","name":"Ōmachi","lat":"36.50000000","lon":"137.86667000"},
{"state":"Nagano Prefecture","name":"Ōmachi-shi","lat":"36.55000000","lon":"137.75000000"},
{"state":"Nagano Prefecture","name":"Saku","lat":"36.21667000","lon":"138.48333000"},
{"state":"Nagano Prefecture","name":"Saku Shi","lat":"36.21577000","lon":"138.44529000"},
{"state":"Nagano Prefecture","name":"Shiojiri","lat":"36.10000000","lon":"137.96667000"},
{"state":"Nagano Prefecture","name":"Shiojiri-shi","lat":"36.08333000","lon":"137.93333000"},
{"state":"Nagano Prefecture","name":"Suwa","lat":"36.03799000","lon":"138.11308000"},
{"state":"Nagano Prefecture","name":"Suwa Shi","lat":"36.02899000","lon":"138.11357000"},
{"state":"Nagano Prefecture","name":"Suzaka","lat":"36.65000000","lon":"138.31667000"},
{"state":"Nagano Prefecture","name":"Suzaka-shi","lat":"36.65000000","lon":"138.31667000"},
{"state":"Nagano Prefecture","name":"Tatsuno","lat":"35.98426000","lon":"137.99721000"},
{"state":"Nagano Prefecture","name":"Tōmi","lat":"36.35582000","lon":"138.36093000"},
{"state":"Nagano Prefecture","name":"Tōmi Shi","lat":"36.37387000","lon":"138.36866000"},
{"state":"Nagano Prefecture","name":"Toyoshina","lat":"36.29991000","lon":"137.90108000"},
{"state":"Nagano Prefecture","name":"Ueda","lat":"36.40265000","lon":"138.28161000"},
{"state":"Nagano Prefecture","name":"Ueda Shi","lat":"36.38352000","lon":"138.24186000"},
{"state":"Nagasaki Prefecture","name":"Fukuechō","lat":"32.69732000","lon":"128.84561000"},
{"state":"Nagasaki Prefecture","name":"Gotō Shi","lat":"32.69892000","lon":"128.76871000"},
{"state":"Nagasaki Prefecture","name":"Hirado","lat":"33.36853000","lon":"129.55247000"},
{"state":"Nagasaki Prefecture","name":"Hirado Shi","lat":"33.31596000","lon":"129.48688000"},
{"state":"Nagasaki Prefecture","name":"Iki Shi","lat":"33.78554000","lon":"129.71670000"},
{"state":"Nagasaki Prefecture","name":"Isahaya","lat":"32.84111000","lon":"130.04306000"},
{"state":"Nagasaki Prefecture","name":"Isahaya-shi","lat":"32.86912000","lon":"130.06369000"},
{"state":"Nagasaki Prefecture","name":"Matsuura","lat":"33.34058000","lon":"129.69504000"},
{"state":"Nagasaki Prefecture","name":"Matsuura Shi","lat":"33.35334000","lon":"129.73504000"},
{"state":"Nagasaki Prefecture","name":"Minamishimabara-shi","lat":"32.67565000","lon":"130.25695000"},
{"state":"Nagasaki Prefecture","name":"Nagasaki","lat":"32.75000000","lon":"129.88333000"},
{"state":"Nagasaki Prefecture","name":"Nagasaki-shi","lat":"32.78206000","lon":"129.82715000"},
{"state":"Nagasaki Prefecture","name":"Obita","lat":"32.81667000","lon":"129.88333000"},
{"state":"Nagasaki Prefecture","name":"Ōmura","lat":"32.92139000","lon":"129.95389000"},
{"state":"Nagasaki Prefecture","name":"Ōmura-shi","lat":"32.93978000","lon":"129.99297000"},
{"state":"Nagasaki Prefecture","name":"Saikai-shi","lat":"32.99259000","lon":"129.68200000"},
{"state":"Nagasaki Prefecture","name":"Sasebo Shi","lat":"33.18992000","lon":"129.68960000"},
{"state":"Nagasaki Prefecture","name":"Shimabara","lat":"32.78333000","lon":"130.36667000"},
{"state":"Nagasaki Prefecture","name":"Shimabara-shi","lat":"32.79429000","lon":"130.32925000"},
{"state":"Nagasaki Prefecture","name":"Togitsu","lat":"32.83333000","lon":"129.85000000"},
{"state":"Nagasaki Prefecture","name":"Tsushima Shi","lat":"34.40845000","lon":"129.32599000"},
{"state":"Nagasaki Prefecture","name":"Unzen-shi","lat":"32.78390000","lon":"130.22828000"},
{"state":"Nara Prefecture","name":"Gojō","lat":"34.35000000","lon":"135.70000000"},
{"state":"Nara Prefecture","name":"Gojō-shi","lat":"34.35081000","lon":"135.69489000"},
{"state":"Nara Prefecture","name":"Gose","lat":"34.45000000","lon":"135.73333000"},
{"state":"Nara Prefecture","name":"Haibara-akanedai","lat":"34.53333000","lon":"135.95000000"},
{"state":"Nara Prefecture","name":"Hōryūji","lat":"34.61234000","lon":"135.73754000"},
{"state":"Nara Prefecture","name":"Ikoma","lat":"34.68333000","lon":"135.70000000"},
{"state":"Nara Prefecture","name":"Ikoma-shi","lat":"34.69187000","lon":"135.70057000"},
{"state":"Nara Prefecture","name":"Kashiba-shi","lat":"34.54107000","lon":"135.69918000"},
{"state":"Nara Prefecture","name":"Kashihara-shi","lat":"34.50352000","lon":"135.78986000"},
{"state":"Nara Prefecture","name":"Katsuragi","lat":"34.48562000","lon":"135.69698000"},
{"state":"Nara Prefecture","name":"Katsuragi Shi","lat":"34.49682000","lon":"135.70464000"},
{"state":"Nara Prefecture","name":"Nara-shi","lat":"34.68506000","lon":"135.80485000"},
{"state":"Nara Prefecture","name":"Sakurai","lat":"34.50000000","lon":"135.85000000"},
{"state":"Nara Prefecture","name":"Sakurai-shi","lat":"34.51816000","lon":"135.84320000"},
{"state":"Nara Prefecture","name":"Tawaramoto","lat":"34.55420000","lon":"135.79297000"},
{"state":"Nara Prefecture","name":"Tenri","lat":"34.58333000","lon":"135.83333000"},
{"state":"Nara Prefecture","name":"Tenri-shi","lat":"34.59619000","lon":"135.83736000"},
{"state":"Nara Prefecture","name":"Uda Shi","lat":"34.52035000","lon":"135.99787000"},
{"state":"Nara Prefecture","name":"Yamatokōriyama-shi","lat":"34.64917000","lon":"135.78278000"},
{"state":"Nara Prefecture","name":"Yamatotakada-shi","lat":"34.51490000","lon":"135.73660000"},
{"state":"Nara Prefecture","name":"Yoshino-chō","lat":"34.39611000","lon":"135.85768000"},
{"state":"Niigata Prefecture","name":"Agano Shi","lat":"37.81420000","lon":"139.25914000"},
{"state":"Niigata Prefecture","name":"Arai","lat":"37.00059000","lon":"138.22590000"},
{"state":"Niigata Prefecture","name":"Gosen","lat":"37.73333000","lon":"139.16667000"},
{"state":"Niigata Prefecture","name":"Gosen Shi","lat":"37.65643000","lon":"139.22634000"},
{"state":"Niigata Prefecture","name":"Itoigawa","lat":"37.03333000","lon":"137.85000000"},
{"state":"Niigata Prefecture","name":"Itoigawa Shi","lat":"36.96626000","lon":"137.89402000"},
{"state":"Niigata Prefecture","name":"Jōetsu","lat":"37.14828000","lon":"138.23642000"},
{"state":"Niigata Prefecture","name":"Jōetsu Shi","lat":"37.12010000","lon":"138.33752000"},
{"state":"Niigata Prefecture","name":"Kameda-honchō","lat":"37.87214000","lon":"139.10990000"},
{"state":"Niigata Prefecture","name":"Kamo","lat":"37.66442000","lon":"139.03502000"},
{"state":"Niigata Prefecture","name":"Kamo Shi","lat":"37.62209000","lon":"139.11068000"},
{"state":"Niigata Prefecture","name":"Kashiwazaki","lat":"37.36667000","lon":"138.55000000"},
{"state":"Niigata Prefecture","name":"Kashiwazaki Shi","lat":"37.29913000","lon":"138.58654000"},
{"state":"Niigata Prefecture","name":"Maki","lat":"37.75000000","lon":"138.88333000"},