[{"state":"Baringo","name":"Baringo","lat":"0.46667000","lon":"35.96667000"},
{"state":"Baringo","name":"Eldama Ravine","lat":"0.05196000","lon":"35.72734000"},
{"state":"Baringo","name":"Kabarnet","lat":"0.49194000","lon":"35.74303000"},
{"state":"Bomet","name":"Sotik","lat":"-0.69069000","lon":"35.11102000"},
{"state":"Bomet","name":"Sotik Post","lat":"-0.78129000","lon":"35.34156000"},
{"state":"Bungoma","name":"Bungoma","lat":"0.56350000","lon":"34.56055000"},
{"state":"Bungoma","name":"Malikisi","lat":"0.67694000","lon":"34.42167000"},
{"state":"Bungoma","name":"Webuye","lat":"0.60040000","lon":"34.77119000"},
{"state":"Busia","name":"Busia","lat":"0.46005000","lon":"34.11169000"},
{"state":"Busia","name":"Luanda","lat":"0.31354000","lon":"34.07146000"},
{"state":"Busia","name":"Lugulu","lat":"0.39337000","lon":"34.30399000"},
{"state":"Busia","name":"Malaba","lat":"0.63513000","lon":"34.28165000"},
{"state":"Busia","name":"Nambare","lat":"0.45813000","lon":"34.25353000"},
{"state":"Busia","name":"Port Victoria","lat":"0.09809000","lon":"33.97248000"},
{"state":"Embu","name":"Embu","lat":"-0.53987000","lon":"37.45743000"},
{"state":"Garissa","name":"Garissa","lat":"-0.45275000","lon":"39.64601000"},
{"state":"Homa Bay","name":"Homa Bay","lat":"-0.52731000","lon":"34.45714000"},
{"state":"Homa Bay","name":"Oyugis","lat":"-0.50974000","lon":"34.73067000"},
{"state":"Homa Bay","name":"Rachuonyo District","lat":"-0.44000000","lon":"34.73900000"},
{"state":"Isiolo","name":"Isiolo","lat":"0.35462000","lon":"37.58218000"},
{"state":"Kajiado","name":"Kajiado","lat":"-1.85238000","lon":"36.77683000"},
{"state":"Kajiado","name":"Magadi","lat":"-1.90122000","lon":"36.28700000"},
{"state":"Kajiado","name":"Ngong","lat":"-1.35270000","lon":"36.66990000"},
{"state":"Kakamega","name":"Butere","lat":"0.20694000","lon":"34.49006000"},
{"state":"Kakamega","name":"Kakamega","lat":"0.28422000","lon":"34.75229000"},
{"state":"Kakamega","name":"Mumias","lat":"0.33474000","lon":"34.48796000"},
{"state":"Kericho","name":"Kericho","lat":"-0.36774000","lon":"35.28314000"},
{"state":"Kericho","name":"Kipkelion","lat":"-0.19982000","lon":"35.46735000"},
{"state":"Kericho","name":"Litein","lat":"-0.58249000","lon":"35.18969000"},
{"state":"Kericho","name":"Londiani","lat":"-0.16552000","lon":"35.59359000"},
{"state":"Kiambu","name":"Kiambu","lat":"-1.17139000","lon":"36.83556000"},
{"state":"Kiambu","name":"Kikuyu","lat":"-1.24627000","lon":"36.66291000"},
{"state":"Kiambu","name":"Limuru","lat":"-1.11360000","lon":"36.64205000"},
{"state":"Kiambu","name":"Thika","lat":"-1.03326000","lon":"37.06933000"},
{"state":"Kilifi","name":"Iten","lat":"0.67028000","lon":"35.50806000"},
{"state":"Kilifi","name":"Kapsowar","lat":"0.97890000","lon":"35.55854000"},
{"state":"Kilifi","name":"Kilifi","lat":"-3.63045000","lon":"39.84992000"},
{"state":"Kilifi","name":"Malindi","lat":"-3.21799000","lon":"40.11692000"},
{"state":"Kilifi","name":"Mariakani","lat":"-3.86261000","lon":"39.47458000"},
{"state":"Kilifi","name":"Takaungu","lat":"-3.68350000","lon":"39.85687000"},
{"state":"Kirinyaga","name":"Kerugoya","lat":"-0.49887000","lon":"37.28031000"},
{"state":"Kirinyaga","name":"Sagana","lat":"-0.66806000","lon":"37.20875000"},
{"state":"Kisii","name":"Kisii","lat":"-0.68174000","lon":"34.76666000"},
{"state":"Kisii","name":"Ogembo","lat":"-0.80116000","lon":"34.72579000"},
{"state":"Kisumu","name":"Ahero","lat":"-0.17359000","lon":"34.91890000"},
{"state":"Kisumu","name":"Kisumu","lat":"-0.10221000","lon":"34.76171000"},
{"state":"Kisumu","name":"Muhoroni","lat":"-0.15816000","lon":"35.19645000"},
{"state":"Kitui","name":"Kitui","lat":"-1.36696000","lon":"38.01055000"},
{"state":"Kitui","name":"Mwingi","lat":"-0.93605000","lon":"38.05955000"},
{"state":"Kwale","name":"Gazi","lat":"-4.42402000","lon":"39.50588000"},
{"state":"Kwale","name":"Kinango","lat":"-4.13723000","lon":"39.31528000"},
{"state":"Kwale","name":"Kwale","lat":"-4.17375000","lon":"39.45206000"},
{"state":"Kwale","name":"Sawa Sawa","lat":"-4.47166000","lon":"39.48463000"},
{"state":"Kwale","name":"Shimoni","lat":"-4.64756000","lon":"39.38175000"},
{"state":"Laikipia","name":"Nanyuki","lat":"0.00624000","lon":"37.07398000"},
{"state":"Laikipia","name":"Nyahururu","lat":"0.03813000","lon":"36.36339000"},
{"state":"Laikipia","name":"Rumuruti","lat":"0.27250000","lon":"36.53806000"},
{"state":"Lamu","name":"Lamu","lat":"-2.27169000","lon":"40.90201000"},
{"state":"Lamu","name":"Witu","lat":"-2.38892000","lon":"40.43827000"},
{"state":"Machakos","name":"Athi River","lat":"-1.45630000","lon":"36.97826000"},
{"state":"Machakos","name":"Kangundo","lat":"-1.30342000","lon":"37.34813000"},
{"state":"Machakos","name":"Konza","lat":"-1.73947000","lon":"37.13195000"},
{"state":"Machakos","name":"Machakos","lat":"-1.52233000","lon":"37.26521000"},
{"state":"Makueni","name":"Makueni Boma","lat":"-1.80388000","lon":"37.62405000"},
{"state":"Makueni","name":"Mtito Andei","lat":"-2.68987000","lon":"38.16687000"},
{"state":"Makueni","name":"Wote","lat":"-1.78079000","lon":"37.62882000"},
{"state":"Mandera","name":"Mandera","lat":"3.93726000","lon":"41.85688000"},
{"state":"Marsabit","name":"Marsabit","lat":"2.33468000","lon":"37.99086000"},
{"state":"Marsabit","name":"Moyale","lat":"3.52661000","lon":"39.05610000"},
{"state":"Meru","name":"Maua","lat":"0.23320000","lon":"37.94086000"},
{"state":"Meru","name":"Meru","lat":"0.04626000","lon":"37.65587000"},
{"state":"Migori","name":"Kihancha","lat":"-1.19347000","lon":"34.61967000"},
{"state":"Migori","name":"Migori","lat":"-1.06343000","lon":"34.47313000"},
{"state":"Mombasa","name":"Mombasa","lat":"-4.05466000","lon":"39.66359000"},
{"state":"Murang'a","name":"Kangema","lat":"-0.68553000","lon":"36.96463000"},
{"state":"Murang'a","name":"Karuri","lat":"-0.70000000","lon":"37.18333000"},
{"state":"Murang'a","name":"Maragua","lat":"-0.79602000","lon":"37.13292000"},
{"state":"Murang'a","name":"Murangâ€™a","lat":"-0.72104000","lon":"37.15259000"},
{"state":"Nairobi City","name":"Nairobi","lat":"-1.28333000","lon":"36.81667000"},
{"state":"Nairobi City","name":"Pumwani","lat":"-1.28333000","lon":"36.85000000"},
{"state":"Nakuru","name":"Kijabe","lat":"-0.93334000","lon":"36.57233000"},
{"state":"Nakuru","name":"Molo","lat":"-0.24849000","lon":"35.73194000"},
{"state":"Nakuru","name":"Naivasha","lat":"-0.71383000","lon":"36.43261000"},
{"state":"Nakuru","name":"Nakuru","lat":"-0.30719000","lon":"36.07225000"},
{"state":"Nakuru","name":"Rongai","lat":"-0.17344000","lon":"35.86313000"},
{"state":"Nandi","name":"Kapsabet","lat":"0.20387000","lon":"35.10500000"},
{"state":"Nandi","name":"Nandi Hills","lat":"0.10366000","lon":"35.18426000"},
{"state":"Narok","name":"Narok","lat":"-1.08083000","lon":"35.87111000"},
{"state":"Nyamira","name":"Keroka","lat":"-0.77612000","lon":"34.94678000"},
{"state":"Nyamira","name":"Nyamira","lat":"-0.56333000","lon":"34.93583000"},
{"state":"Nyandarua","name":"Ol Kalou","lat":"-0.27088000","lon":"36.37917000"},
{"state":"Nyeri","name":"Naro Moru","lat":"-0.16357000","lon":"37.01773000"},
{"state":"Nyeri","name":"Nyeri","lat":"-0.42013000","lon":"36.94759000"},
{"state":"Nyeri","name":"Othaya","lat":"-0.54655000","lon":"36.93178000"},
{"state":"Samburu","name":"Maralal","lat":"1.09667000","lon":"36.69806000"},
{"state":"Siaya","name":"Bondo","lat":"0.23522000","lon":"34.28086000"},
{"state":"Siaya","name":"Siaya","lat":"0.06070000","lon":"34.28806000"},
{"state":"Siaya","name":"Yala","lat":"0.09438000","lon":"34.53602000"},
{"state":"Tana River","name":"Hola","lat":"-1.48256000","lon":"40.03341000"},
{"state":"Tana River","name":"Kipini","lat":"-2.52565000","lon":"40.52620000"},
{"state":"Tharaka-Nithi","name":"Chuka","lat":"-0.33316000","lon":"37.64587000"},
{"state":"Trans Nzoia","name":"Kitale","lat":"1.01572000","lon":"35.00622000"},
{"state":"Turkana","name":"Lodwar","lat":"3.11988000","lon":"35.59642000"},
{"state":"Uasin Gishu","name":"Eldoret","lat":"0.52036000","lon":"35.26993000"},
{"state":"Wajir","name":"Wajir","lat":"1.74710000","lon":"40.05732000"},
{"state":"West Pokot","name":"Chepareria","lat":"1.30583000","lon":"35.20365000"},
{"state":"West Pokot","name":"Kapenguria","lat":"1.23889000","lon":"35.11194000"},
{"state":"West Pokot","name":"Taveta","lat":"-3.39879000","lon":"37.68336000"},
{"state":"West Pokot","name":"Voi","lat":"-3.39605000","lon":"38.55609000"},
{"state":"West Pokot","name":"Wundanyi","lat":"-3.39642000","lon":"38.35729000"}]