[{"state":"Batken Region","name":"Aydarken","lat":"39.94319000","lon":"71.34184000"},
{"state":"Batken Region","name":"Batken","lat":"40.06259000","lon":"70.81939000"},
{"state":"Batken Region","name":"Iradan","lat":"40.26667000","lon":"72.10000000"},
{"state":"Batken Region","name":"Isfana","lat":"39.83895000","lon":"69.52760000"},
{"state":"Batken Region","name":"Karavan","lat":"40.29513000","lon":"72.18627000"},
{"state":"Batken Region","name":"Kyzyl-Kyya","lat":"40.25684000","lon":"72.12793000"},
{"state":"Batken Region","name":"Suluktu","lat":"39.93652000","lon":"69.56779000"},
{"state":"Bishkek","name":"Bishkek","lat":"42.87000000","lon":"74.59000000"},
{"state":"Chuy Region","name":"Alamudunskiy Rayon","lat":"42.81985000","lon":"74.59398000"},
{"state":"Chuy Region","name":"Belovodskoye","lat":"42.82944000","lon":"74.10830000"},
{"state":"Chuy Region","name":"Chuyskiy Rayon","lat":"42.66667000","lon":"75.33333000"},
{"state":"Chuy Region","name":"Ivanovka","lat":"42.88778000","lon":"75.08500000"},
{"state":"Chuy Region","name":"Kaindy","lat":"42.82469000","lon":"73.67585000"},
{"state":"Chuy Region","name":"Kant","lat":"42.89106000","lon":"74.85077000"},
{"state":"Chuy Region","name":"Kara-Balta","lat":"42.81423000","lon":"73.84813000"},
{"state":"Chuy Region","name":"Kemin","lat":"42.78611000","lon":"75.69167000"},
{"state":"Chuy Region","name":"Lebedinovka","lat":"42.88454000","lon":"74.67819000"},
{"state":"Chuy Region","name":"Sokulukskiy Rayon","lat":"42.83333000","lon":"74.33333000"},
{"state":"Chuy Region","name":"Sosnovka","lat":"42.63707000","lon":"73.89608000"},
{"state":"Chuy Region","name":"Tokmok","lat":"42.84194000","lon":"75.30149000"},
{"state":"Chuy Region","name":"Ysyk-Ata","lat":"42.72665000","lon":"75.07444000"},
{"state":"Issyk-Kul Region","name":"Ak-Suu","lat":"42.49948000","lon":"78.52702000"},
{"state":"Issyk-Kul Region","name":"Balykchy","lat":"42.46017000","lon":"76.18709000"},
{"state":"Issyk-Kul Region","name":"Cholpon-Ata","lat":"42.64944000","lon":"77.08225000"},
{"state":"Issyk-Kul Region","name":"Kadzhi-Say","lat":"42.14107000","lon":"77.17848000"},
{"state":"Issyk-Kul Region","name":"Karakol","lat":"42.49068000","lon":"78.39362000"},
{"state":"Issyk-Kul Region","name":"Kyzyl-Suu","lat":"42.34211000","lon":"78.00644000"},
{"state":"Issyk-Kul Region","name":"Tyup","lat":"42.72760000","lon":"78.36476000"},
{"state":"Jalal-Abad Region","name":"Ala-Buka","lat":"41.40806000","lon":"71.46306000"},
{"state":"Jalal-Abad Region","name":"Bazar-Korgon","lat":"41.03760000","lon":"72.74586000"},
{"state":"Jalal-Abad Region","name":"Jalal-Abad","lat":"40.93333000","lon":"73.00000000"},
{"state":"Jalal-Abad Region","name":"Kazarman","lat":"41.40500000","lon":"74.03700000"},
{"state":"Jalal-Abad Region","name":"Kerben","lat":"41.49399000","lon":"71.75826000"},
{"state":"Jalal-Abad Region","name":"Kochkor-Ata","lat":"41.03709000","lon":"72.48320000"},
{"state":"Jalal-Abad Region","name":"Suzak","lat":"40.89820000","lon":"72.90481000"},
{"state":"Jalal-Abad Region","name":"Tash-Kumyr","lat":"41.34612000","lon":"72.21707000"},
{"state":"Jalal-Abad Region","name":"Toktogul","lat":"41.87442000","lon":"72.94192000"},
{"state":"Jalal-Abad Region","name":"Toktogul District","lat":"41.75000000","lon":"73.00000000"},
{"state":"Naryn Region","name":"At-Bashi","lat":"41.16951000","lon":"75.80099000"},
{"state":"Naryn Region","name":"Jumgal","lat":"41.94924000","lon":"74.40566000"},
{"state":"Naryn Region","name":"Naryn","lat":"41.42866000","lon":"75.99111000"},
{"state":"Osh Region","name":"Chong-Alay District","lat":"39.47614000","lon":"72.33017000"},
{"state":"Osh Region","name":"Daroot-Korgon","lat":"39.55274000","lon":"72.20518000"},
{"state":"Osh Region","name":"Kara Kulja","lat":"40.64095000","lon":"73.49411000"},
{"state":"Osh Region","name":"Kara Suu","lat":"40.70460000","lon":"72.86666000"},
{"state":"Osh Region","name":"Kyzyl-Eshme","lat":"39.56559000","lon":"72.27153000"},
{"state":"Osh Region","name":"Nookat","lat":"40.26597000","lon":"72.61834000"},
{"state":"Osh Region","name":"Osh","lat":"40.52828000","lon":"72.79850000"},
{"state":"Osh Region","name":"Uzgen","lat":"40.76994000","lon":"73.30068000"},
{"state":"Osh Region","name":"Uzgen District","lat":"40.55000000","lon":"73.30000000"},
{"state":"Talas Region","name":"Kara-Buurinskiy Rayon","lat":"42.50000000","lon":"71.41667000"},
{"state":"Talas Region","name":"Talas","lat":"42.52277000","lon":"72.24274000"},
{"state":"Talas Region","name":"Talasskiy Rayon","lat":"42.18647000","lon":"72.69408000"}]