[{"state":"Banteay Meanchey","name":"Mongkol Borei","lat":"13.45531000","lon":"102.99186000"},
{"state":"Banteay Meanchey","name":"Paoy Paet","lat":"13.65805000","lon":"102.56365000"},
{"state":"Banteay Meanchey","name":"Sisophon","lat":"13.58588000","lon":"102.97369000"},
{"state":"Banteay Meanchey","name":"Srŏk Malai","lat":"13.49902000","lon":"102.60164000"},
{"state":"Banteay Meanchey","name":"Srŏk Svay Chék","lat":"13.81305000","lon":"102.95269000"},
{"state":"Battambang","name":"Battambang","lat":"13.10271000","lon":"103.19822000"},
{"state":"Battambang","name":"Srŏk Âk Phnŭm","lat":"13.23621000","lon":"103.45894000"},
{"state":"Battambang","name":"Srŏk Banăn","lat":"12.97067000","lon":"103.04742000"},
{"state":"Battambang","name":"Srŏk Bâvĭl","lat":"13.23601000","lon":"102.82910000"},
{"state":"Battambang","name":"Srŏk Rotanak Mondol","lat":"12.84048000","lon":"102.88700000"},
{"state":"Kampong Cham","name":"Cheung Prey","lat":"12.10000000","lon":"105.07000000"},
{"state":"Kampong Cham","name":"Kampong Cham","lat":"11.98000000","lon":"105.44500000"},
{"state":"Kampong Cham","name":"Srŏk Bathéay","lat":"12.02986000","lon":"104.93171000"},
{"state":"Kampong Chhnang","name":"Baribour","lat":"12.43000000","lon":"104.47000000"},
{"state":"Kampong Chhnang","name":"Kampong Chhnang","lat":"12.26000000","lon":"104.67000000"},
{"state":"Kampong Chhnang","name":"Rolea B'ier","lat":"12.21000000","lon":"104.61000000"},
{"state":"Kampong Chhnang","name":"Srŏk Chol Kiri","lat":"12.15861000","lon":"104.82287000"},
{"state":"Kampong Chhnang","name":"Srŏk Sameakki Mean Chey","lat":"11.86788000","lon":"104.55549000"},
{"state":"Kampong Speu","name":"Kampong Speu","lat":"11.45332000","lon":"104.52085000"},
{"state":"Kampong Speu","name":"Krŏng Chbar Mon","lat":"11.47091000","lon":"104.50655000"},
{"state":"Kampong Speu","name":"Srŏk Basedth","lat":"11.18432000","lon":"104.53584000"},
{"state":"Kampong Speu","name":"Srŏk Kông Pĭsei","lat":"11.31648000","lon":"104.65992000"},
{"state":"Kampong Speu","name":"Srŏk Ŏdŏngk","lat":"11.66845000","lon":"104.61224000"},
{"state":"Kampot","name":"Angkor Chey","lat":"10.76667000","lon":"104.65000000"},
{"state":"Kampot","name":"Banteay Meas","lat":"10.61667000","lon":"104.53333000"},
{"state":"Kampot","name":"Chhouk District","lat":"10.81667000","lon":"104.45000000"},
{"state":"Kampot","name":"Kampong Bay","lat":"10.59554000","lon":"104.17136000"},
{"state":"Kampot","name":"Kampong Tranch","lat":"10.55000000","lon":"104.46667000"},
{"state":"Kampot","name":"Kampot","lat":"10.61041000","lon":"104.18145000"},
{"state":"Kampot","name":"Srŏk Chŭm Kiri","lat":"11.00540000","lon":"104.44207000"},
{"state":"Kampot","name":"Srŏk Dângtóng","lat":"10.70733000","lon":"104.42229000"},
{"state":"Kampot","name":"Srok Tuek Chhou","lat":"10.74557000","lon":"104.11013000"},
{"state":"Kandal","name":"Krŏng Ta Khmau","lat":"11.45474000","lon":"104.94350000"},
{"state":"Kandal","name":"Srŏk Khsăch Kândal","lat":"11.69224000","lon":"105.03732000"},
{"state":"Kandal","name":"Ta Khmau","lat":"11.48333000","lon":"104.95000000"},
{"state":"Kep","name":"Krong Kep","lat":"10.48291000","lon":"104.31672000"},
{"state":"Kep","name":"Srŏk Dâmnăk Châng’aeur","lat":"10.53394000","lon":"104.34855000"},
{"state":"Koh Kong","name":"Koh Kong","lat":"11.61531000","lon":"102.98380000"},
{"state":"Koh Kong","name":"Smach Mean Chey","lat":"11.54665000","lon":"103.03569000"},
{"state":"Koh Kong","name":"Srae Ambel","lat":"11.10968000","lon":"103.76226000"},
{"state":"Koh Kong","name":"Srŏk Batum Sakôr","lat":"11.11465000","lon":"103.38993000"},
{"state":"Koh Kong","name":"Srŏk Môndôl Seima","lat":"11.81292000","lon":"103.01159000"},
{"state":"Kratie","name":"Kracheh","lat":"12.57000000","lon":"106.20000000"},
{"state":"Kratie","name":"Kratié","lat":"12.48811000","lon":"106.01879000"},
{"state":"Kratie","name":"Snuol","lat":"12.19373000","lon":"106.47361000"},
{"state":"Mondulkiri","name":"Krŏng Sênmônoŭrôm","lat":"12.50480000","lon":"107.15525000"},
{"state":"Mondulkiri","name":"Sen Monorom","lat":"12.45583000","lon":"107.18811000"},
{"state":"Mondulkiri","name":"Srŏk Kaev Seima","lat":"12.41722000","lon":"106.77025000"},
{"state":"Mondulkiri","name":"Srŏk Pech Chreada","lat":"12.72780000","lon":"107.09480000"},
{"state":"Oddar Meanchey","name":"Samraong","lat":"14.18175000","lon":"103.51761000"},
{"state":"Oddar Meanchey","name":"Srŏk Bântéay Âmpĭl","lat":"14.18590000","lon":"103.25925000"},
{"state":"Oddar Meanchey","name":"Srŏk Sâmraông","lat":"14.25039000","lon":"103.62739000"},
{"state":"Oddar Meanchey","name":"Srŏk Trâpeăng Prasat","lat":"14.25809000","lon":"104.30835000"},
{"state":"Pailin","name":"Khan Sala Krau","lat":"12.97984000","lon":"102.63957000"},
{"state":"Pailin","name":"Pailin","lat":"12.84895000","lon":"102.60928000"},
{"state":"Phnom Penh","name":"Khan 7 Makara","lat":"11.56254000","lon":"104.91405000"},
{"state":"Phnom Penh","name":"Khan Châmkar Mon","lat":"11.54390000","lon":"104.92175000"},
{"state":"Phnom Penh","name":"Khan Dângkaô","lat":"11.52457000","lon":"104.83944000"},
{"state":"Phnom Penh","name":"Khan Duŏn Pénh","lat":"11.57561000","lon":"104.92025000"},
{"state":"Phnom Penh","name":"Khan Méan Chey","lat":"11.51976000","lon":"104.95467000"},
{"state":"Phnom Penh","name":"Khan Russey Keo","lat":"11.61946000","lon":"104.90990000"},
{"state":"Phnom Penh","name":"Khan Saen Sokh","lat":"11.61289000","lon":"104.86078000"},
{"state":"Phnom Penh","name":"Phnom Penh","lat":"11.56245000","lon":"104.91601000"},
{"state":"Preah Vihear","name":"Sangkom Thmei","lat":"13.47395000","lon":"104.77051000"},
{"state":"Preah Vihear","name":"Srŏk Ch’êh Sên","lat":"13.58215000","lon":"105.34533000"},
{"state":"Preah Vihear","name":"Srŏk Chhêb","lat":"13.91077000","lon":"105.46180000"},
{"state":"Preah Vihear","name":"Srŏk Kulén","lat":"13.78597000","lon":"104.61052000"},
{"state":"Preah Vihear","name":"Srŏk Rôviĕng","lat":"13.35105000","lon":"105.09956000"},
{"state":"Preah Vihear","name":"Srŏk Tbêng Méanchey","lat":"13.78622000","lon":"105.01586000"},
{"state":"Preah Vihear","name":"Tbeng Meanchey","lat":"13.80731000","lon":"104.98046000"},
{"state":"Prey Veng","name":"Prey Veng","lat":"11.48682000","lon":"105.32533000"},
{"state":"Prey Veng","name":"Srŏk Kâmpóng Léav","lat":"11.50970000","lon":"105.30110000"},
{"state":"Prey Veng","name":"Srŏk Mésang","lat":"11.35528000","lon":"105.57235000"},
{"state":"Prey Veng","name":"Srŏk Preăh Sdéch","lat":"11.08690000","lon":"105.37497000"},
{"state":"Pursat","name":"Bakan","lat":"12.78000000","lon":"103.79000000"},
{"state":"Pursat","name":"Krakor","lat":"12.48000000","lon":"104.19000000"},
{"state":"Pursat","name":"Pursat","lat":"12.53878000","lon":"103.91920000"},
{"state":"Pursat","name":"Sampov Meas","lat":"12.47055000","lon":"103.91817000"},
{"state":"Pursat","name":"Srŏk Kândiĕng","lat":"12.71245000","lon":"104.02592000"},
{"state":"Pursat","name":"Srŏk Véal Vêng","lat":"12.24230000","lon":"103.13444000"},
{"state":"Ratanakiri","name":"Banlung","lat":"13.73939000","lon":"106.98727000"},
{"state":"Ratanakiri","name":"Lumphat","lat":"13.49146000","lon":"106.98022000"},
{"state":"Ratanakiri","name":"Srŏk Ândong Méas","lat":"13.93352000","lon":"107.31155000"},
{"state":"Ratanakiri","name":"Srŏk Bâ Kêv","lat":"13.70749000","lon":"107.19442000"},
{"state":"Ratanakiri","name":"Srŏk Ban Lŭng","lat":"13.68200000","lon":"107.03025000"},
{"state":"Ratanakiri","name":"Srŏk Koun Mom","lat":"13.51772000","lon":"106.75142000"},
{"state":"Ratanakiri","name":"Srŏk Ou Chum","lat":"13.84069000","lon":"107.03469000"},
{"state":"Ratanakiri","name":"Srŏk Ou Ya Dav","lat":"13.54328000","lon":"107.44636000"},
{"state":"Ratanakiri","name":"Srŏk Ta Vêng","lat":"14.29192000","lon":"107.24031000"},
{"state":"Siem Reap","name":"Siem Reap","lat":"13.36179000","lon":"103.86056000"},
{"state":"Siem Reap","name":"Srŏk Ângkôr Thum","lat":"13.57881000","lon":"103.85645000"},
{"state":"Siem Reap","name":"Srŏk Prasat Bakong","lat":"13.21031000","lon":"103.97689000"},
{"state":"Siem Reap","name":"Svay Leu","lat":"13.69168000","lon":"104.27446000"},
{"state":"Siem Reap","name":"Varin","lat":"13.83574000","lon":"103.89968000"},
{"state":"Sihanoukville","name":"Sihanoukville","lat":"10.60932000","lon":"103.52958000"},
{"state":"Sihanoukville","name":"Srok Stueng Hav","lat":"10.85249000","lon":"103.74016000"},
{"state":"Stung Treng","name":"Srŏk Srêsén","lat":"13.60530000","lon":"106.35819000"},
{"state":"Stung Treng","name":"Stueng Traeng","lat":"13.65000000","lon":"106.07000000"},
{"state":"Stung Treng","name":"Stung Treng","lat":"13.52586000","lon":"105.96830000"},
{"state":"Svay Rieng","name":"Srŏk Svay Chrŭm","lat":"11.11160000","lon":"105.69814000"},
{"state":"Svay Rieng","name":"Svay Rieng","lat":"11.08785000","lon":"105.79935000"},
{"state":"Takeo","name":"Krŏng Doun Kaev","lat":"10.99459000","lon":"104.79550000"},
{"state":"Takeo","name":"Phumĭ Véal Srê","lat":"10.98081000","lon":"104.77828000"},
{"state":"Takeo","name":"Srŏk Ângkôr Borei","lat":"10.99291000","lon":"104.95177000"},
{"state":"Takeo","name":"Srŏk Borei Cholsar","lat":"10.81414000","lon":"104.98994000"},
{"state":"Takeo","name":"Takeo","lat":"10.99081000","lon":"104.78498000"}]