[{"state":"Gilbert Islands","name":"Abaiang","lat":"1.85293000","lon":"172.94369000"},
{"state":"Gilbert Islands","name":"Abemama","lat":"0.40000000","lon":"173.86667000"},
{"state":"Gilbert Islands","name":"Ambo Village","lat":"1.35317000","lon":"173.04259000"},
{"state":"Gilbert Islands","name":"Aranuka","lat":"0.16428000","lon":"173.60579000"},
{"state":"Gilbert Islands","name":"Arorae","lat":"-2.63493000","lon":"176.82229000"},
{"state":"Gilbert Islands","name":"Bairiki Village","lat":"1.32924000","lon":"172.97522000"},
{"state":"Gilbert Islands","name":"Banaba","lat":"-0.85500000","lon":"169.53800000"},
{"state":"Gilbert Islands","name":"Banraeaba Village","lat":"1.34540000","lon":"173.03464000"},
{"state":"Gilbert Islands","name":"Beru","lat":"-1.32957000","lon":"175.98072000"},
{"state":"Gilbert Islands","name":"Betio Village","lat":"1.35797000","lon":"172.92105000"},
{"state":"Gilbert Islands","name":"Bikenibeu Village","lat":"1.36730000","lon":"173.12415000"},
{"state":"Gilbert Islands","name":"Bonriki Village","lat":"1.38081000","lon":"173.13887000"},
{"state":"Gilbert Islands","name":"Buota Village","lat":"1.39078000","lon":"173.13082000"},
{"state":"Gilbert Islands","name":"Butaritari","lat":"3.17205000","lon":"172.79675000"},
{"state":"Gilbert Islands","name":"Eita Village","lat":"1.36154000","lon":"173.08113000"},
{"state":"Gilbert Islands","name":"Kuria","lat":"0.26522000","lon":"173.38881000"},
{"state":"Gilbert Islands","name":"Maiana","lat":"0.91869000","lon":"172.99759000"},
{"state":"Gilbert Islands","name":"Makin","lat":"3.38816000","lon":"172.99656000"},
{"state":"Gilbert Islands","name":"Makin Village","lat":"3.36440000","lon":"172.98352000"},
{"state":"Gilbert Islands","name":"Marakei","lat":"2.01077000","lon":"173.27637000"},
{"state":"Gilbert Islands","name":"Nawerewere Village","lat":"1.36362000","lon":"173.13935000"},
{"state":"Gilbert Islands","name":"Nikunau","lat":"-1.36567000","lon":"176.46412000"},
{"state":"Gilbert Islands","name":"Nonouti","lat":"-0.66667000","lon":"174.35000000"},
{"state":"Gilbert Islands","name":"Onotoa","lat":"-1.88587000","lon":"175.56393000"},
{"state":"Gilbert Islands","name":"Rawannawi Village","lat":"2.05379000","lon":"173.26354000"},
{"state":"Gilbert Islands","name":"Tabiteuea","lat":"-1.42241000","lon":"174.89805000"},
{"state":"Gilbert Islands","name":"Tamana","lat":"-2.50113000","lon":"175.98621000"},
{"state":"Gilbert Islands","name":"Tarawa","lat":"1.32780000","lon":"172.97696000"},
{"state":"Gilbert Islands","name":"Teaoraereke Village","lat":"1.33309000","lon":"173.01162000"},
{"state":"Gilbert Islands","name":"Temaiku Village","lat":"1.36292000","lon":"173.16226000"},
{"state":"Line Islands","name":"Banana Village","lat":"1.98329000","lon":"-157.36526000"},
{"state":"Line Islands","name":"Kiritimati","lat":"1.94000000","lon":"-157.47500000"},
{"state":"Line Islands","name":"London Village","lat":"1.98487000","lon":"-157.47502000"},
{"state":"Line Islands","name":"Napari Village","lat":"3.90806000","lon":"-159.38832000"},
{"state":"Line Islands","name":"Tabuaeran","lat":"3.86667000","lon":"-159.33333000"},
{"state":"Line Islands","name":"Tabwakea Village","lat":"2.01643000","lon":"-157.48773000"},
{"state":"Line Islands","name":"Teraina","lat":"4.68764000","lon":"-160.38803000"},
{"state":"Phoenix Islands","name":"Kanton","lat":"-2.81000000","lon":"-171.67800000"}]