[{"state":"Anjouan","name":"Adda-Douéni","lat":"-12.29250000","lon":"44.49722000"},
{"state":"Anjouan","name":"Antsahé","lat":"-12.35639000","lon":"44.52250000"},
{"state":"Anjouan","name":"Assimpao","lat":"-12.23306000","lon":"44.31972000"},
{"state":"Anjouan","name":"Bambao","lat":"-12.20325000","lon":"44.51638000"},
{"state":"Anjouan","name":"Bandajou","lat":"-12.19167000","lon":"44.28694000"},
{"state":"Anjouan","name":"Barakani","lat":"-12.13861000","lon":"44.43026000"},
{"state":"Anjouan","name":"Bimbini","lat":"-12.18833000","lon":"44.23556000"},
{"state":"Anjouan","name":"Boungouéni","lat":"-12.20556000","lon":"44.29944000"},
{"state":"Anjouan","name":"Chandra","lat":"-12.19500000","lon":"44.46472000"},
{"state":"Anjouan","name":"Chironkamba","lat":"-12.19111000","lon":"44.35250000"},
{"state":"Anjouan","name":"Chitrouni","lat":"-12.18583000","lon":"44.33556000"},
{"state":"Anjouan","name":"Daji","lat":"-12.32583000","lon":"44.48861000"},
{"state":"Anjouan","name":"Domoni","lat":"-12.25694000","lon":"44.53194000"},
{"state":"Anjouan","name":"Dziani","lat":"-12.18333000","lon":"44.48333000"},
{"state":"Anjouan","name":"Hajoho","lat":"-12.12434000","lon":"44.48881000"},
{"state":"Anjouan","name":"Harembo","lat":"-12.15108000","lon":"44.49828000"},
{"state":"Anjouan","name":"Kangani","lat":"-12.32102000","lon":"44.47270000"},
{"state":"Anjouan","name":"Kavani","lat":"-12.19194000","lon":"44.26944000"},
{"state":"Anjouan","name":"Koki","lat":"-12.17139000","lon":"44.44167000"},
{"state":"Anjouan","name":"Koni-Djodjo","lat":"-12.22972000","lon":"44.48167000"},
{"state":"Anjouan","name":"Koni-Ngani","lat":"-12.21583000","lon":"44.48000000"},
{"state":"Anjouan","name":"Kyo","lat":"-12.33222000","lon":"44.51917000"},
{"state":"Anjouan","name":"Limbi","lat":"-12.23944000","lon":"44.50528000"},
{"state":"Anjouan","name":"Lingoni","lat":"-12.25583000","lon":"44.41833000"},
{"state":"Anjouan","name":"Magnassini-Nindri","lat":"-12.27806000","lon":"44.41583000"},
{"state":"Anjouan","name":"Maraharé","lat":"-12.23083000","lon":"44.31333000"},
{"state":"Anjouan","name":"Mirontsi","lat":"-12.15667000","lon":"44.40806000"},
{"state":"Anjouan","name":"Mjamaoué","lat":"-12.19361000","lon":"44.31000000"},
{"state":"Anjouan","name":"Mjimandra","lat":"-12.19167000","lon":"44.37028000"},
{"state":"Anjouan","name":"Moutsamoudou","lat":"-12.16672000","lon":"44.39944000"},
{"state":"Anjouan","name":"Moya","lat":"-12.30967000","lon":"44.43685000"},
{"state":"Anjouan","name":"Mramani","lat":"-12.34639000","lon":"44.52861000"},
{"state":"Anjouan","name":"Mrémani","lat":"-12.30833000","lon":"44.49861000"},
{"state":"Anjouan","name":"Ongoni","lat":"-12.17028000","lon":"44.50694000"},
{"state":"Anjouan","name":"Ouani","lat":"-12.13554000","lon":"44.42493000"},
{"state":"Anjouan","name":"Ouzini","lat":"-12.26722000","lon":"44.47972000"},
{"state":"Anjouan","name":"Pajé","lat":"-12.16972000","lon":"44.38806000"},
{"state":"Anjouan","name":"Patsi","lat":"-12.15556000","lon":"44.43722000"},
{"state":"Anjouan","name":"Sima","lat":"-12.19556000","lon":"44.27667000"},
{"state":"Anjouan","name":"Tsimbeo","lat":"-12.20583000","lon":"44.46472000"},
{"state":"Anjouan","name":"Vouani","lat":"-12.24417000","lon":"44.37444000"},
{"state":"Grande Comore","name":"Bahani","lat":"-11.63972000","lon":"43.28417000"},
{"state":"Grande Comore","name":"Bambadjani","lat":"-11.47861000","lon":"43.37722000"},
{"state":"Grande Comore","name":"Bouni","lat":"-11.48694000","lon":"43.38833000"},
{"state":"Grande Comore","name":"Chezani","lat":"-11.43140000","lon":"43.39625000"},
{"state":"Grande Comore","name":"Chindini","lat":"-11.92328000","lon":"43.49109000"},
{"state":"Grande Comore","name":"Chouani","lat":"-11.82330000","lon":"43.29429000"},
{"state":"Grande Comore","name":"Dembéni","lat":"-11.87361000","lon":"43.39778000"},
{"state":"Grande Comore","name":"Douniani","lat":"-11.42111000","lon":"43.28889000"},
{"state":"Grande Comore","name":"Dzahadjou","lat":"-11.85287000","lon":"43.34987000"},
{"state":"Grande Comore","name":"Foumbouni","lat":"-11.86537000","lon":"43.49529000"},
{"state":"Grande Comore","name":"Hantsindzi","lat":"-11.43178000","lon":"43.41102000"},
{"state":"Grande Comore","name":"Héroumbili","lat":"-11.54389000","lon":"43.37972000"},
{"state":"Grande Comore","name":"Itsandra","lat":"-11.67111000","lon":"43.25472000"},
{"state":"Grande Comore","name":"Itsandzéni","lat":"-11.47278000","lon":"43.38444000"},
{"state":"Grande Comore","name":"Ivouani","lat":"-11.39157000","lon":"43.39454000"},
{"state":"Grande Comore","name":"Koua","lat":"-11.42083000","lon":"43.27639000"},
{"state":"Grande Comore","name":"Madjeouéni","lat":"-11.82167000","lon":"43.27806000"},
{"state":"Grande Comore","name":"Mandza","lat":"-11.41806000","lon":"43.29528000"},
{"state":"Grande Comore","name":"Mavingouni","lat":"-11.71639000","lon":"43.25250000"},
{"state":"Grande Comore","name":"Mbéni","lat":"-11.50139000","lon":"43.37750000"},
{"state":"Grande Comore","name":"Mitsamiouli","lat":"-11.38472000","lon":"43.28444000"},
{"state":"Grande Comore","name":"Mitsoudjé","lat":"-11.81209000","lon":"43.28043000"},
{"state":"Grande Comore","name":"Mnoungou","lat":"-11.51778000","lon":"43.37389000"},
{"state":"Grande Comore","name":"Mohoro","lat":"-11.82701000","lon":"43.45436000"},
{"state":"Grande Comore","name":"Moroni","lat":"-11.70216000","lon":"43.25506000"},
{"state":"Grande Comore","name":"Mtsamdou","lat":"-11.60694000","lon":"43.38056000"},
{"state":"Grande Comore","name":"Mvouni","lat":"-11.71611000","lon":"43.26472000"},
{"state":"Grande Comore","name":"Nioumamilima","lat":"-11.85461000","lon":"43.44607000"},
{"state":"Grande Comore","name":"Ntsaouéni","lat":"-11.46583000","lon":"43.26278000"},
{"state":"Grande Comore","name":"Ntsoudjini","lat":"-11.65972000","lon":"43.26139000"},
{"state":"Grande Comore","name":"Ouellah","lat":"-11.39028000","lon":"43.33194000"},
{"state":"Grande Comore","name":"Ouhozi","lat":"-11.40500000","lon":"43.28222000"},
{"state":"Grande Comore","name":"Ourovéni","lat":"-11.91375000","lon":"43.49804000"},
{"state":"Grande Comore","name":"Oussivo","lat":"-11.58500000","lon":"43.26722000"},
{"state":"Grande Comore","name":"Salimani","lat":"-11.81150000","lon":"43.26823000"},
{"state":"Grande Comore","name":"Séléa","lat":"-11.78444000","lon":"43.26083000"},
{"state":"Grande Comore","name":"Singani","lat":"-11.84784000","lon":"43.31731000"},
{"state":"Grande Comore","name":"Tsidjé","lat":"-11.69806000","lon":"43.26194000"},
{"state":"Grande Comore","name":"Vanadjou","lat":"-11.60750000","lon":"43.27611000"},
{"state":"Grande Comore","name":"Vanambouani","lat":"-11.61139000","lon":"43.25306000"},
{"state":"Mohéli","name":"Djoyézi","lat":"-12.30587000","lon":"43.77425000"},
{"state":"Mohéli","name":"Fomboni","lat":"-12.28759000","lon":"43.74344000"},
{"state":"Mohéli","name":"Hoani","lat":"-12.25083000","lon":"43.67472000"},
{"state":"Mohéli","name":"Mtakoudja","lat":"-12.26111000","lon":"43.70361000"},
{"state":"Mohéli","name":"Nioumachoua","lat":"-12.36139000","lon":"43.71528000"},
{"state":"Mohéli","name":"Ouanani","lat":"-12.33750000","lon":"43.79750000"},
{"state":"Mohéli","name":"Ziroudani","lat":"-12.33250000","lon":"43.77750000"}]