[{"state":"Christ Church Nichola Town Parish","name":"Nicola Town","lat":"17.37956000","lon":"-62.75318000"},
{"state":"Saint Anne Sandy Point Parish","name":"Sandy Point Town","lat":"17.35908000","lon":"-62.84858000"},
{"state":"Saint George Gingerland Parish","name":"Market Shop","lat":"17.13218000","lon":"-62.57267000"},
{"state":"Saint James Windward Parish","name":"Newcastle","lat":"17.20000000","lon":"-62.58333000"},
{"state":"Saint John Capisterre Parish","name":"Dieppe Bay Town","lat":"17.41473000","lon":"-62.81390000"},
{"state":"Saint John Figtree Parish","name":"Fig Tree","lat":"17.12623000","lon":"-62.60265000"},
{"state":"Saint Mary Cayon Parish","name":"Cayon","lat":"17.35000000","lon":"-62.73333000"},
{"state":"Saint Paul Capisterre Parish","name":"Saint Paulâ€™s","lat":"17.40605000","lon":"-62.83562000"},
{"state":"Saint Paul Charlestown Parish","name":"Charlestown","lat":"17.13333000","lon":"-62.61667000"},
{"state":"Saint Peter Basseterre Parish","name":"Monkey Hill","lat":"17.32327000","lon":"-62.72914000"},
{"state":"Saint Thomas Lowland Parish","name":"Cotton Ground","lat":"17.16667000","lon":"-62.61667000"},
{"state":"Saint Thomas Middle Island Parish","name":"Middle Island","lat":"17.32590000","lon":"-62.81055000"},
{"state":"Trinity Palmetto Point Parish","name":"Trinity","lat":"17.30037000","lon":"-62.77584000"}]