[{"state":"Chagang Province","name":"Changgang-gun","lat":"41.06333000","lon":"126.72556000"},
{"state":"Chagang Province","name":"Chasŏng","lat":"41.46083000","lon":"126.64139000"},
{"state":"Chagang Province","name":"Kanggye","lat":"40.96946000","lon":"126.58523000"},
{"state":"Chagang Province","name":"Manp’o","lat":"41.15472000","lon":"126.28944000"},
{"state":"Kangwon Province","name":"Anbyŏn-ŭp","lat":"39.04250000","lon":"127.52389000"},
{"state":"Kangwon Province","name":"Hoeyang","lat":"38.71028000","lon":"127.59833000"},
{"state":"Kangwon Province","name":"Kosan","lat":"38.85583000","lon":"127.41806000"},
{"state":"Kangwon Province","name":"T’ongch’ŏn-ŭp","lat":"38.95389000","lon":"127.89167000"},
{"state":"Kangwon Province","name":"Wŏnsan","lat":"39.15278000","lon":"127.44361000"},
{"state":"North Hamgyong Province","name":"Aoji","lat":"42.52448000","lon":"130.39718000"},
{"state":"North Hamgyong Province","name":"Chongjin","lat":"41.79556000","lon":"129.77583000"},
{"state":"North Hamgyong Province","name":"Hau-ri","lat":"41.20056000","lon":"129.47028000"},
{"state":"North Hamgyong Province","name":"Hoemul-li","lat":"41.43389000","lon":"129.67000000"},
{"state":"North Hamgyong Province","name":"Hoeryŏng","lat":"42.44113000","lon":"129.74601000"},
{"state":"North Hamgyong Province","name":"Kilju","lat":"40.96417000","lon":"129.32778000"},
{"state":"North Hamgyong Province","name":"Kimch’aek-si","lat":"40.66889000","lon":"129.18972000"},
{"state":"North Hamgyong Province","name":"Komusan Il-tong","lat":"42.10914000","lon":"129.69997000"},
{"state":"North Hamgyong Province","name":"Kyŏngsŏng","lat":"41.58778000","lon":"129.60611000"},
{"state":"North Hamgyong Province","name":"Kyŏngwŏn","lat":"42.81361000","lon":"130.15278000"},
{"state":"North Hamgyong Province","name":"Musan-ŭp","lat":"42.22609000","lon":"129.20776000"},
{"state":"North Hamgyong Province","name":"Namyang-dong","lat":"42.95000000","lon":"129.86667000"},
{"state":"North Hamgyong Province","name":"Nanam","lat":"41.71361000","lon":"129.68444000"},
{"state":"North Hamgyong Province","name":"Onsŏng","lat":"42.95722000","lon":"129.99333000"},
{"state":"North Hamgyong Province","name":"Puryŏng","lat":"42.06056000","lon":"129.71167000"},
{"state":"North Hamgyong Province","name":"Sŭngam-nodongjagu","lat":"41.66972000","lon":"129.66889000"},
{"state":"North Hwanghae Province","name":"Anak","lat":"38.51083000","lon":"125.49417000"},
{"state":"North Hwanghae Province","name":"Hŭkkyo-ri","lat":"38.79861000","lon":"125.79194000"},
{"state":"North Hwanghae Province","name":"Hwangju-ŭp","lat":"38.67028000","lon":"125.77611000"},
{"state":"North Hwanghae Province","name":"Koksan","lat":"38.78194000","lon":"126.66639000"},
{"state":"North Hwanghae Province","name":"Sariwŏn","lat":"38.50722000","lon":"125.75583000"},
{"state":"North Hwanghae Province","name":"Sinmak","lat":"38.41667000","lon":"126.23333000"},
{"state":"North Hwanghae Province","name":"Songnim","lat":"38.75417000","lon":"125.64500000"},
{"state":"North Pyongan Province","name":"Chŏngju","lat":"39.69333000","lon":"125.21028000"},
{"state":"North Pyongan Province","name":"Chŏngju-gun","lat":"39.70944000","lon":"125.25278000"},
{"state":"North Pyongan Province","name":"Kujang-ŭp","lat":"39.86722000","lon":"126.03028000"},
{"state":"North Pyongan Province","name":"Kusŏng","lat":"39.98111000","lon":"125.24472000"},
{"state":"North Pyongan Province","name":"Kwaksan","lat":"39.68750000","lon":"125.08278000"},
{"state":"North Pyongan Province","name":"Panghyŏn-dong","lat":"39.88722000","lon":"125.24139000"},
{"state":"North Pyongan Province","name":"Pukchil-lodongjagu","lat":"40.20194000","lon":"125.74833000"},
{"state":"North Pyongan Province","name":"Sakchu-ŭp","lat":"40.38944000","lon":"125.04667000"},
{"state":"North Pyongan Province","name":"Sinŭiju","lat":"40.10056000","lon":"124.39806000"},
{"state":"North Pyongan Province","name":"Ŭiju","lat":"40.19944000","lon":"124.53167000"},
{"state":"North Pyongan Province","name":"Yŏmju-ŭp","lat":"39.89333000","lon":"124.59806000"},
{"state":"North Pyongan Province","name":"Yŏngbyŏn","lat":"39.81333000","lon":"125.80417000"},
{"state":"Pyongyang","name":"Chunghwa","lat":"38.86389000","lon":"125.80000000"},
{"state":"Pyongyang","name":"Kangdong-ŭp","lat":"39.14250000","lon":"126.09611000"},
{"state":"Pyongyang","name":"Pyongyang","lat":"39.03385000","lon":"125.75432000"},
{"state":"Pyongyang","name":"Sunan","lat":"39.19833000","lon":"125.69000000"},
{"state":"Pyongyang","name":"Sŭngho 1-tong","lat":"38.99139000","lon":"125.97778000"},
{"state":"Rason","name":"Sŏnbong","lat":"42.35118000","lon":"130.38307000"},
{"state":"Rason","name":"Ungsang-nodongjagu","lat":"42.35778000","lon":"130.46222000"},
{"state":"Ryanggang Province","name":"Hyesan","lat":"41.40167000","lon":"128.17778000"},
{"state":"Ryanggang Province","name":"Hyesan-dong","lat":"41.39756000","lon":"128.17873000"},
{"state":"Ryanggang Province","name":"Kapsan-ŭp","lat":"41.09028000","lon":"128.29333000"},
{"state":"Ryanggang Province","name":"Sŭngjibaegam","lat":"41.24278000","lon":"128.79889000"},
{"state":"South Hamgyong Province","name":"Hamhŭng","lat":"39.91833000","lon":"127.53639000"},
{"state":"South Hamgyong Province","name":"Hongwŏn","lat":"40.02528000","lon":"127.95583000"},
{"state":"South Hamgyong Province","name":"Hŭngnam","lat":"39.83167000","lon":"127.61861000"},
{"state":"South Hamgyong Province","name":"Iwŏn-ŭp","lat":"40.32306000","lon":"128.65528000"},
{"state":"South Hamgyong Province","name":"Kowŏn-ŭp","lat":"39.43806000","lon":"127.24306000"},
{"state":"South Hamgyong Province","name":"Samho-rodongjagu","lat":"39.94750000","lon":"127.87111000"},
{"state":"South Hamgyong Province","name":"Sinsang-ni","lat":"39.65028000","lon":"127.40583000"},
{"state":"South Hamgyong Province","name":"Yŏnggwang-ŭp","lat":"40.01833000","lon":"127.45472000"},
{"state":"South Hamgyong Province","name":"Yuktae-dong","lat":"40.02472000","lon":"128.15972000"},
{"state":"South Hwanghae Province","name":"Ayang-ni","lat":"38.24306000","lon":"125.78000000"},
{"state":"South Hwanghae Province","name":"Chaeryŏng-ŭp","lat":"38.39917000","lon":"125.61556000"},
{"state":"South Hwanghae Province","name":"Changyŏn","lat":"38.25083000","lon":"125.09611000"},
{"state":"South Hwanghae Province","name":"Haeju","lat":"38.04056000","lon":"125.71472000"},
{"state":"South Hwanghae Province","name":"Kaesŏng","lat":"37.97083000","lon":"126.55444000"},
{"state":"South Hwanghae Province","name":"Ongjin","lat":"37.93472000","lon":"125.36194000"},
{"state":"South Hwanghae Province","name":"Pyŏksŏng-ŭp","lat":"38.04750000","lon":"125.55667000"},
{"state":"South Hwanghae Province","name":"Yŏnan-ŭp","lat":"37.90889000","lon":"126.16111000"},
{"state":"South Pyongan Province","name":"Anju","lat":"39.61778000","lon":"125.66472000"},
{"state":"South Pyongan Province","name":"Namp’o","lat":"38.73750000","lon":"125.40778000"},
{"state":"South Pyongan Province","name":"P’yŏngsŏng","lat":"39.24639000","lon":"125.87194000"},
{"state":"South Pyongan Province","name":"Sangsŏng-ni","lat":"39.16944000","lon":"126.88556000"},
{"state":"South Pyongan Province","name":"Sil-li","lat":"39.49472000","lon":"125.47361000"},
{"state":"South Pyongan Province","name":"Sinanju","lat":"39.59806000","lon":"125.60972000"},
{"state":"South Pyongan Province","name":"Sunch’ŏn","lat":"39.43167000","lon":"125.93278000"},
{"state":"South Pyongan Province","name":"Yonggang-ŭp","lat":"38.85611000","lon":"125.42444000"}]