[{"state":"Busan","name":"Buk-gu","lat":"35.19724000","lon":"128.99134000"},
{"state":"Busan","name":"Busan","lat":"35.10168000","lon":"129.03004000"},
{"state":"Busan","name":"Dongnae-gu","lat":"35.20447000","lon":"129.07800000"},
{"state":"Busan","name":"Gangseo-gu","lat":"35.15930000","lon":"128.93300000"},
{"state":"Busan","name":"Geumjeong-gu","lat":"35.25863000","lon":"129.09010000"},
{"state":"Busan","name":"Gijang","lat":"35.24417000","lon":"129.21389000"},
{"state":"Busan","name":"Gijang-gun","lat":"35.29721000","lon":"129.20076000"},
{"state":"Busan","name":"Haeundae-gu","lat":"35.16665000","lon":"129.16792000"},
{"state":"Busan","name":"Jung-gu","lat":"35.10594000","lon":"129.03331000"},
{"state":"Busan","name":"Nam-gu","lat":"35.13648000","lon":"129.08266000"},
{"state":"Busan","name":"Saha-gu","lat":"35.08552000","lon":"128.98725000"},
{"state":"Busan","name":"Sasang-gu","lat":"35.14479000","lon":"128.97986000"},
{"state":"Busan","name":"Seo-gu","lat":"35.12529000","lon":"129.01946000"},
{"state":"Busan","name":"Suyeong-gu","lat":"35.15627000","lon":"129.11253000"},
{"state":"Busan","name":"Yeongdo-gu","lat":"35.07849000","lon":"129.06483000"},
{"state":"Daegu","name":"Daegu","lat":"35.87028000","lon":"128.59111000"},
{"state":"Daegu","name":"Dalseo-gu","lat":"35.82569000","lon":"128.52403000"},
{"state":"Daegu","name":"Dalseong-gun","lat":"35.77467000","lon":"128.42955000"},
{"state":"Daegu","name":"Dong-gu","lat":"35.88566000","lon":"128.63296000"},
{"state":"Daegu","name":"Hwawŏn","lat":"35.80167000","lon":"128.50083000"},
{"state":"Daegu","name":"Jung-gu","lat":"35.86678000","lon":"128.59538000"},
{"state":"Daegu","name":"Seo-gu","lat":"35.87465000","lon":"128.55109000"},
{"state":"Daegu","name":"Suseong-gu","lat":"35.85905000","lon":"128.62625000"},
{"state":"Daejeon","name":"Daejeon","lat":"36.34913000","lon":"127.38493000"},
{"state":"Daejeon","name":"Seo-gu","lat":"36.27211000","lon":"127.33100000"},
{"state":"Daejeon","name":"Sintansin","lat":"36.45361000","lon":"127.43111000"},
{"state":"Daejeon","name":"Songgangdong","lat":"36.43387000","lon":"127.37587000"},
{"state":"Daejeon","name":"Yuseong-gu","lat":"36.36685000","lon":"127.32700000"},
{"state":"Gangwon Province","name":"Cheorwon-gun","lat":"38.24391000","lon":"127.44522000"},
{"state":"Gangwon Province","name":"Chuncheon","lat":"37.87472000","lon":"127.73417000"},
{"state":"Gangwon Province","name":"Chuncheon-si","lat":"37.88048000","lon":"127.72776000"},
{"state":"Gangwon Province","name":"Donghae-si","lat":"37.52345000","lon":"129.11357000"},
{"state":"Gangwon Province","name":"Gangneung","lat":"37.75266000","lon":"128.87239000"},
{"state":"Gangwon Province","name":"Gangneung-si","lat":"37.75190000","lon":"128.87825000"},
{"state":"Gangwon Province","name":"Goseong-gun","lat":"38.37945000","lon":"128.46755000"},
{"state":"Gangwon Province","name":"Hoengseong-gun","lat":"37.48817000","lon":"127.98570000"},
{"state":"Gangwon Province","name":"Hongch’ŏn","lat":"37.69180000","lon":"127.88570000"},
{"state":"Gangwon Province","name":"Hongcheon-gun","lat":"37.76058000","lon":"128.02823000"},
{"state":"Gangwon Province","name":"Hwacheon","lat":"38.10705000","lon":"127.70632000"},
{"state":"Gangwon Province","name":"Hwacheon-gun","lat":"38.14212000","lon":"127.67615000"},
{"state":"Gangwon Province","name":"Inje-gun","lat":"38.04416000","lon":"128.27876000"},
{"state":"Gangwon Province","name":"Jeongseon-gun","lat":"37.38911000","lon":"128.72995000"},
{"state":"Gangwon Province","name":"Kosong","lat":"38.37881000","lon":"128.46760000"},
{"state":"Gangwon Province","name":"Neietsu","lat":"37.18447000","lon":"128.46821000"},
{"state":"Gangwon Province","name":"Pyeongchang","lat":"37.37028000","lon":"128.39306000"},
{"state":"Gangwon Province","name":"Pyeongchang-gun","lat":"37.36820000","lon":"128.39550000"},
{"state":"Gangwon Province","name":"Samcheok-si","lat":"37.45013000","lon":"129.16626000"},
{"state":"Gangwon Province","name":"Santyoku","lat":"37.44056000","lon":"129.17083000"},
{"state":"Gangwon Province","name":"Sokcho","lat":"38.20701000","lon":"128.59181000"},
{"state":"Gangwon Province","name":"Sokcho-si","lat":"38.20725000","lon":"128.59275000"},
{"state":"Gangwon Province","name":"T’aebaek","lat":"37.17590000","lon":"128.98890000"},
{"state":"Gangwon Province","name":"Taebaek-si","lat":"37.16520000","lon":"128.98570000"},
{"state":"Gangwon Province","name":"Tonghae","lat":"37.54389000","lon":"129.10694000"},
{"state":"Gangwon Province","name":"Wŏnju","lat":"37.35139000","lon":"127.94528000"},
{"state":"Gangwon Province","name":"Wonju-si","lat":"37.32104000","lon":"127.92132000"},
{"state":"Gangwon Province","name":"Yanggu","lat":"38.10583000","lon":"127.98944000"},
{"state":"Gangwon Province","name":"Yanggu-gun","lat":"38.10160000","lon":"127.98555000"},
{"state":"Gangwon Province","name":"Yangyang-gun","lat":"38.06215000","lon":"128.61471000"},
{"state":"Gwangju","name":"Gwangju","lat":"35.15472000","lon":"126.91556000"},
{"state":"Gwangju","name":"Gwangsan-gu","lat":"35.16158000","lon":"126.80810000"},
{"state":"Gwangju","name":"Masan","lat":"35.12725000","lon":"126.83149000"},
{"state":"Gyeonggi Province","name":"Ansan-si","lat":"37.32361000","lon":"126.82194000"},
{"state":"Gyeonggi Province","name":"Anseong","lat":"37.01083000","lon":"127.27028000"},
{"state":"Gyeonggi Province","name":"Anyang-si","lat":"37.39250000","lon":"126.92694000"},
{"state":"Gyeonggi Province","name":"Bucheon-si","lat":"37.50440000","lon":"126.76625000"},
{"state":"Gyeonggi Province","name":"Dongducheon","lat":"37.91889000","lon":"127.06897000"},
{"state":"Gyeonggi Province","name":"Gapyeong","lat":"37.83101000","lon":"127.51059000"},
{"state":"Gyeonggi Province","name":"Gapyeong-gun","lat":"37.83080000","lon":"127.51522000"},
{"state":"Gyeonggi Province","name":"Gimpo-si","lat":"37.63637000","lon":"126.69270000"},
{"state":"Gyeonggi Province","name":"Goyang-si","lat":"37.65639000","lon":"126.83500000"},
{"state":"Gyeonggi Province","name":"Gunpo-si","lat":"37.34261000","lon":"126.92149000"},
{"state":"Gyeonggi Province","name":"Guri-si","lat":"37.59860000","lon":"127.13940000"},
{"state":"Gyeonggi Province","name":"Gwacheon-si","lat":"37.43407000","lon":"126.99989000"},
{"state":"Gyeonggi Province","name":"Gwangju","lat":"37.41000000","lon":"127.25722000"},
{"state":"Gyeonggi Province","name":"Gwangju-si","lat":"37.40329000","lon":"127.29855000"},
{"state":"Gyeonggi Province","name":"Gwangmyeong-si","lat":"37.44435000","lon":"126.86499000"},
{"state":"Gyeonggi Province","name":"Hanam","lat":"37.54000000","lon":"127.20556000"},
{"state":"Gyeonggi Province","name":"Hanam-si","lat":"37.53895000","lon":"127.21250000"},
{"state":"Gyeonggi Province","name":"Hwado","lat":"37.65250000","lon":"127.30750000"},
{"state":"Gyeonggi Province","name":"Hwaseong-si","lat":"37.20682000","lon":"126.81690000"},
{"state":"Gyeonggi Province","name":"Icheon-si","lat":"37.27642000","lon":"127.43692000"},
{"state":"Gyeonggi Province","name":"Kwangmyŏng","lat":"37.47722000","lon":"126.86639000"},
{"state":"Gyeonggi Province","name":"Munsan","lat":"37.85944000","lon":"126.78500000"},
{"state":"Gyeonggi Province","name":"Namyangju","lat":"37.63667000","lon":"127.21417000"},
{"state":"Gyeonggi Province","name":"Namyangju-si","lat":"37.65217000","lon":"127.24010000"},
{"state":"Gyeonggi Province","name":"Osan","lat":"37.15222000","lon":"127.07056000"},
{"state":"Gyeonggi Province","name":"Osan-si","lat":"37.16230000","lon":"127.05246000"},
{"state":"Gyeonggi Province","name":"Paju-si","lat":"37.75952000","lon":"126.77772000"},
{"state":"Gyeonggi Province","name":"Pocheon-si","lat":"37.89370000","lon":"127.20028000"},
{"state":"Gyeonggi Province","name":"Pubal","lat":"37.29167000","lon":"127.50778000"},
{"state":"Gyeonggi Province","name":"Pyeongtaek","lat":"37.01372000","lon":"126.98748000"},
{"state":"Gyeonggi Province","name":"Seongnam-si","lat":"37.41875000","lon":"127.12877000"},
{"state":"Gyeonggi Province","name":"Siheung","lat":"37.39067000","lon":"126.78880000"},
{"state":"Gyeonggi Province","name":"Suwon","lat":"37.29111000","lon":"127.00889000"},
{"state":"Gyeonggi Province","name":"Uijeongbu-si","lat":"37.73865000","lon":"127.04770000"},
{"state":"Gyeonggi Province","name":"Uiwang-si","lat":"37.34500000","lon":"126.97575000"},
{"state":"Gyeonggi Province","name":"Wabu","lat":"37.58972000","lon":"127.22028000"},
{"state":"Gyeonggi Province","name":"Yangju","lat":"37.83311000","lon":"127.06169000"},
{"state":"Gyeonggi Province","name":"Yangju-si","lat":"37.81732000","lon":"127.04600000"},
{"state":"Gyeonggi Province","name":"Yangp'yŏng","lat":"37.48972000","lon":"127.49056000"},
{"state":"Gyeonggi Province","name":"Yangpyeong-gun","lat":"37.48880000","lon":"127.49222000"},
{"state":"Gyeonggi Province","name":"Yeoju-si","lat":"37.29562000","lon":"127.63668000"},
{"state":"Gyeonggi Province","name":"Yeoncheon-gun","lat":"38.09404000","lon":"127.07577000"},
{"state":"Gyeonggi Province","name":"Yongin-si","lat":"37.23825000","lon":"127.17795000"},
{"state":"Incheon","name":"Bupyeong-gu","lat":"37.49720000","lon":"126.71107000"},
{"state":"Incheon","name":"Incheon","lat":"37.45646000","lon":"126.70515000"},
{"state":"Incheon","name":"Michuhol","lat":"37.46362000","lon":"126.65000000"},
{"state":"Incheon","name":"Yeonsu-gu","lat":"37.41911000","lon":"126.66489000"},
{"state":"Jeju","name":"Gaigeturi","lat":"33.46444000","lon":"126.31833000"},
{"state":"Jeju","name":"Jeju City","lat":"33.50972000","lon":"126.52194000"},
{"state":"Jeju","name":"Jeju-si","lat":"33.45578000","lon":"126.53928000"},
{"state":"Jeju","name":"Seogwipo","lat":"33.25333000","lon":"126.56181000"},
{"state":"North Chungcheong Province","name":"Boeun-gun","lat":"36.49489000","lon":"127.72865000"},
{"state":"North Chungcheong Province","name":"Cheongju-si","lat":"36.63722000","lon":"127.48972000"},
{"state":"North Chungcheong Province","name":"Chinch'ŏn","lat":"36.85667000","lon":"127.44333000"},
{"state":"North Chungcheong Province","name":"Chungju-si","lat":"37.01791000","lon":"127.87713000"},
{"state":"North Chungcheong Province","name":"Danyang-gun","lat":"36.98615000","lon":"128.36945000"},
{"state":"North Chungcheong Province","name":"Eumseong-gun","lat":"36.92602000","lon":"127.68070000"},
{"state":"North Chungcheong Province","name":"Goesan-gun","lat":"36.77179000","lon":"127.81426000"},
{"state":"North Chungcheong Province","name":"Jecheon-si","lat":"37.06206000","lon":"128.14065000"},
{"state":"North Chungcheong Province","name":"Jeungpyeong-gun","lat":"36.78377000","lon":"127.59858000"},
{"state":"North Chungcheong Province","name":"Jincheon-gun","lat":"36.88281000","lon":"127.42768000"},
{"state":"North Chungcheong Province","name":"Koesan","lat":"36.81083000","lon":"127.79472000"},
{"state":"North Chungcheong Province","name":"Okcheon","lat":"36.30120000","lon":"127.56800000"},
{"state":"North Chungcheong Province","name":"Okcheon-gun","lat":"36.26642000","lon":"127.58324000"},
{"state":"North Chungcheong Province","name":"Yeongdong","lat":"36.17500000","lon":"127.77639000"},
{"state":"North Chungcheong Province","name":"Yeongdong-gun","lat":"36.21658000","lon":"127.79374000"},
{"state":"North Gyeongsang Province","name":"Andong","lat":"36.56636000","lon":"128.72275000"},
{"state":"North Gyeongsang Province","name":"Andong-si","lat":"36.56667000","lon":"128.71667000"},
{"state":"North Gyeongsang Province","name":"Bonghwa-gun","lat":"36.88951000","lon":"128.73573000"},
{"state":"North Gyeongsang Province","name":"Cheongdo-gun","lat":"35.67166000","lon":"128.78509000"},
{"state":"North Gyeongsang Province","name":"Cheongsong gun","lat":"36.43351000","lon":"129.05700000"},
{"state":"North Gyeongsang Province","name":"Cheongsong-gun","lat":"36.43288000","lon":"129.05159000"},
{"state":"North Gyeongsang Province","name":"Chilgok-gun","lat":"36.01512000","lon":"128.46138000"},
{"state":"North Gyeongsang Province","name":"Eisen","lat":"36.82167000","lon":"128.63083000"},
{"state":"North Gyeongsang Province","name":"Gimcheon","lat":"36.12176000","lon":"128.11981000"},
{"state":"North Gyeongsang Province","name":"Gimcheon-si","lat":"36.14481000","lon":"128.11157000"},
{"state":"North Gyeongsang Province","name":"Goryeong-gun","lat":"35.74959000","lon":"128.29707000"},
{"state":"North Gyeongsang Province","name":"Gumi-si","lat":"36.21009000","lon":"128.35442000"},
{"state":"North Gyeongsang Province","name":"Gunwi-gun","lat":"36.16995000","lon":"128.64705000"},
{"state":"North Gyeongsang Province","name":"Gyeongju","lat":"35.84278000","lon":"129.21167000"},
{"state":"North Gyeongsang Province","name":"Gyeongsan-si","lat":"35.83333000","lon":"128.80000000"},
{"state":"North Gyeongsang Province","name":"Hayang","lat":"35.91333000","lon":"128.82000000"},
{"state":"North Gyeongsang Province","name":"Heunghae","lat":"36.10945000","lon":"129.34517000"},
{"state":"North Gyeongsang Province","name":"Jenzan","lat":"36.24083000","lon":"128.29750000"},
{"state":"North Gyeongsang Province","name":"Kunwi","lat":"36.23472000","lon":"128.57278000"},
{"state":"North Gyeongsang Province","name":"Mungyeong","lat":"36.59458000","lon":"128.19946000"},
{"state":"North Gyeongsang Province","name":"Mungyeong-si","lat":"36.58755000","lon":"128.18624000"},
{"state":"North Gyeongsang Province","name":"Pohang","lat":"36.02917000","lon":"129.36481000"},
{"state":"North Gyeongsang Province","name":"Pohang-si","lat":"36.08333000","lon":"129.36667000"},
{"state":"North Gyeongsang Province","name":"Sangju","lat":"36.41528000","lon":"128.16056000"},
{"state":"North Gyeongsang Province","name":"Seongju-gun","lat":"35.91888000","lon":"128.28838000"},
{"state":"North Gyeongsang Province","name":"Uiseong-gun","lat":"36.36122000","lon":"128.61517000"},
{"state":"North Gyeongsang Province","name":"Uljin-gun","lat":"36.91968000","lon":"129.31966000"},
{"state":"North Gyeongsang Province","name":"Ulleung-gun","lat":"37.50442000","lon":"130.86084000"},
{"state":"North Gyeongsang Province","name":"Waegwan","lat":"35.99251000","lon":"128.39785000"},
{"state":"North Gyeongsang Province","name":"Yecheon-gun","lat":"36.65272000","lon":"128.43007000"},
{"state":"North Gyeongsang Province","name":"Yeongcheon-si","lat":"36.00000000","lon":"129.00000000"},
{"state":"North Gyeongsang Province","name":"Yeongdeok-gun","lat":"36.48125000","lon":"129.31078000"},
{"state":"North Gyeongsang Province","name":"Yeongju-si","lat":"36.87459000","lon":"128.58631000"},
{"state":"North Gyeongsang Province","name":"Yeongyang-gun","lat":"36.69592000","lon":"129.14196000"},
{"state":"North Gyeongsang Province","name":"Yeonil","lat":"35.99526000","lon":"129.35162000"},
{"state":"North Jeolla Province","name":"Buan-gun","lat":"35.70000000","lon":"126.66667000"},
{"state":"North Jeolla Province","name":"Changsu","lat":"35.64842000","lon":"127.51523000"},
{"state":"North Jeolla Province","name":"Gimje-si","lat":"35.80701000","lon":"126.90755000"},
{"state":"North Jeolla Province","name":"Gochang-gun","lat":"35.43483000","lon":"126.70047000"},
{"state":"North Jeolla Province","name":"Gunsan","lat":"35.97861000","lon":"126.71139000"},
{"state":"North Jeolla Province","name":"Gunsan-si","lat":"35.93583000","lon":"126.68338000"},
{"state":"North Jeolla Province","name":"Iksan","lat":"35.94389000","lon":"126.95444000"},
{"state":"North Jeolla Province","name":"Iksan-si","lat":"36.03718000","lon":"126.98897000"},
{"state":"North Jeolla Province","name":"Imsil","lat":"35.61306000","lon":"127.27944000"},
{"state":"North Jeolla Province","name":"Imsil-gun","lat":"35.62160000","lon":"127.23187000"},
{"state":"North Jeolla Province","name":"Jangsu-gun","lat":"35.62504000","lon":"127.56358000"},
{"state":"North Jeolla Province","name":"Jeongeup","lat":"35.60004000","lon":"126.91699000"},
{"state":"North Jeolla Province","name":"Jeongeup-si","lat":"35.60000000","lon":"126.91667000"},
{"state":"North Jeolla Province","name":"Jeonju","lat":"35.82194000","lon":"127.14889000"},
{"state":"North Jeolla Province","name":"Jeonju-si","lat":"35.83333000","lon":"127.15000000"},
{"state":"North Jeolla Province","name":"Jinan-gun","lat":"35.80472000","lon":"127.47579000"},
{"state":"North Jeolla Province","name":"Kimje","lat":"35.80167000","lon":"126.88889000"},
{"state":"North Jeolla Province","name":"Koch'ang","lat":"35.43333000","lon":"126.70000000"},
{"state":"North Jeolla Province","name":"Muju-gun","lat":"35.93172000","lon":"127.71118000"},
{"state":"North Jeolla Province","name":"Namwon","lat":"35.44821000","lon":"127.38007000"},
{"state":"North Jeolla Province","name":"Nangen","lat":"35.41000000","lon":"127.38583000"},
{"state":"North Jeolla Province","name":"Puan","lat":"35.72806000","lon":"126.73194000"},
{"state":"North Jeolla Province","name":"Sunchang-gun","lat":"35.37651000","lon":"127.14967000"},
{"state":"North Jeolla Province","name":"Wanju","lat":"35.84509000","lon":"127.14752000"},
{"state":"Sejong City","name":"Sejong","lat":"36.59245000","lon":"127.29223000"},
{"state":"Seoul","name":"Dobong-gu","lat":"37.65066000","lon":"127.03011000"},
{"state":"Seoul","name":"Dongdaemun-gu","lat":"37.58189000","lon":"127.05408000"},
{"state":"Seoul","name":"Dongjak-gu","lat":"37.50056000","lon":"126.95149000"},
{"state":"Seoul","name":"Eunpyeong-gu","lat":"37.61846000","lon":"126.92780000"},
{"state":"Seoul","name":"Gangbuk-gu","lat":"37.63490000","lon":"127.02015000"},
{"state":"Seoul","name":"Gangdong-gu","lat":"37.55274000","lon":"127.14546000"},
{"state":"Seoul","name":"Gangnam-gu","lat":"37.49510000","lon":"127.06278000"},
{"state":"Seoul","name":"Gangseo-gu","lat":"37.56227000","lon":"126.81622000"},
{"state":"Seoul","name":"Geumcheon-gu","lat":"37.47486000","lon":"126.89106000"},
{"state":"Seoul","name":"Guro-gu","lat":"37.49447000","lon":"126.85020000"},
{"state":"Seoul","name":"Gwanak-gu","lat":"37.47876000","lon":"126.95235000"},
{"state":"Seoul","name":"Gwangjin-gu","lat":"37.53913000","lon":"127.08366000"},
{"state":"Seoul","name":"Jongno-gu","lat":"37.57290000","lon":"126.97928000"},
{"state":"Seoul","name":"Jung-gu","lat":"37.55986000","lon":"126.99398000"},
{"state":"Seoul","name":"Jungnang-gu","lat":"37.60199000","lon":"127.10461000"},
{"state":"Seoul","name":"Mapo-gu","lat":"37.55438000","lon":"126.90926000"},
{"state":"Seoul","name":"Nowon-gu","lat":"37.66045000","lon":"127.06718000"},
{"state":"Seoul","name":"Seocho-gu","lat":"37.49447000","lon":"127.01088000"},
{"state":"Seoul","name":"Seodaemun-gu","lat":"37.57809000","lon":"126.93506000"},
{"state":"Seoul","name":"Seongbuk-gu","lat":"37.60267000","lon":"127.01448000"},
{"state":"Seoul","name":"Seongdong-gu","lat":"37.54784000","lon":"127.02461000"},
{"state":"Seoul","name":"Seoul","lat":"37.56600000","lon":"126.97840000"},
{"state":"Seoul","name":"Songpa-gu","lat":"37.50210000","lon":"127.11113000"},
{"state":"Seoul","name":"Yangcheon-gu","lat":"37.52157000","lon":"126.85827000"},
{"state":"Seoul","name":"Yeongdeungpo-gu","lat":"37.52606000","lon":"126.90308000"},
{"state":"Seoul","name":"Yongsan-dong","lat":"37.54450000","lon":"126.98370000"},
{"state":"Seoul","name":"Yongsan-gu","lat":"37.53391000","lon":"126.97750000"},
{"state":"South Chungcheong Province","name":"Asan","lat":"36.78361000","lon":"127.00417000"},
{"state":"South Chungcheong Province","name":"Asan-si","lat":"36.80791000","lon":"126.97769000"},
{"state":"South Chungcheong Province","name":"Boryeong","lat":"36.34931000","lon":"126.59772000"},
{"state":"South Chungcheong Province","name":"Boryeong-si","lat":"36.35649000","lon":"126.59444000"},
{"state":"South Chungcheong Province","name":"Buyeo","lat":"36.27472000","lon":"126.90906000"},
{"state":"South Chungcheong Province","name":"Buyeo-gun","lat":"36.26257000","lon":"126.85802000"},
{"state":"South Chungcheong Province","name":"Cheonan","lat":"36.80650000","lon":"127.15220000"},
{"state":"South Chungcheong Province","name":"Cheonan-si","lat":"36.80488000","lon":"127.19431000"},
{"state":"South Chungcheong Province","name":"Cheongyang-gun","lat":"36.41676000","lon":"126.79419000"},
{"state":"South Chungcheong Province","name":"Geumsan-gun","lat":"36.13381000","lon":"127.48062000"},
{"state":"South Chungcheong Province","name":"Gongju","lat":"36.45556000","lon":"127.12472000"},
{"state":"South Chungcheong Province","name":"Gongju-si","lat":"36.50000000","lon":"127.08333000"},
{"state":"South Chungcheong Province","name":"Gyeryong-si","lat":"36.29304000","lon":"127.22575000"},
{"state":"South Chungcheong Province","name":"Hongseong","lat":"36.60090000","lon":"126.66500000"},
{"state":"South Chungcheong Province","name":"Hongseong-gun","lat":"36.56705000","lon":"126.62626000"},
{"state":"South Chungcheong Province","name":"Kinzan","lat":"36.10306000","lon":"127.48889000"},
{"state":"South Chungcheong Province","name":"Nonsan","lat":"36.20389000","lon":"127.08472000"},
{"state":"South Chungcheong Province","name":"Nonsan-si","lat":"36.19774000","lon":"127.12143000"},
{"state":"South Chungcheong Province","name":"Seocheon-gun","lat":"36.10600000","lon":"126.69716000"},
{"state":"South Chungcheong Province","name":"Seonghwan","lat":"36.91556000","lon":"127.13139000"},
{"state":"South Chungcheong Province","name":"Seosan","lat":"36.78167000","lon":"126.45222000"},
{"state":"South Chungcheong Province","name":"Seosan-si","lat":"36.78518000","lon":"126.46568000"},
{"state":"South Chungcheong Province","name":"Taean-gun","lat":"36.70036000","lon":"126.28391000"},
{"state":"South Chungcheong Province","name":"Taesal-li","lat":"36.97140000","lon":"126.45420000"},
{"state":"South Chungcheong Province","name":"Tangjin","lat":"36.89444000","lon":"126.62972000"},
{"state":"South Chungcheong Province","name":"Yesan","lat":"36.67756000","lon":"126.84272000"},
{"state":"South Chungcheong Province","name":"Yesan-gun","lat":"36.68218000","lon":"126.79592000"},
{"state":"South Chungcheong Province","name":"Yŏnmu","lat":"36.12944000","lon":"127.10000000"},
{"state":"South Gyeongsang Province","name":"Changnyeong","lat":"35.54145000","lon":"128.49506000"},
{"state":"South Gyeongsang Province","name":"Changnyeong-gun","lat":"35.50822000","lon":"128.49020000"},
{"state":"South Gyeongsang Province","name":"Changwon","lat":"35.22806000","lon":"128.68111000"},
{"state":"South Gyeongsang Province","name":"Changwon-si","lat":"35.27533000","lon":"128.65152000"},
{"state":"South Gyeongsang Province","name":"Chinju","lat":"35.19278000","lon":"128.08472000"},
{"state":"South Gyeongsang Province","name":"Geochang-gun","lat":"35.73034000","lon":"127.90149000"},
{"state":"South Gyeongsang Province","name":"Geoje-si","lat":"34.90000000","lon":"128.66666000"},
{"state":"South Gyeongsang Province","name":"Gimhae-si","lat":"35.25000000","lon":"128.86667000"},
{"state":"South Gyeongsang Province","name":"Goseong","lat":"34.97631000","lon":"128.32361000"},
{"state":"South Gyeongsang Province","name":"Goseong-gun","lat":"35.01478000","lon":"128.28244000"},
{"state":"South Gyeongsang Province","name":"Hadong-gun","lat":"35.13628000","lon":"127.77291000"},
{"state":"South Gyeongsang Province","name":"Haman-gun","lat":"35.29117000","lon":"128.42970000"},
{"state":"South Gyeongsang Province","name":"Hapcheon-gun","lat":"35.57410000","lon":"128.13841000"},
{"state":"South Gyeongsang Province","name":"Jinju-si","lat":"35.20445000","lon":"128.12408000"},
{"state":"South Gyeongsang Province","name":"Kimhae","lat":"35.23417000","lon":"128.88111000"},
{"state":"South Gyeongsang Province","name":"Kyosai","lat":"34.85028000","lon":"128.58861000"},
{"state":"South Gyeongsang Province","name":"Miryang","lat":"35.49333000","lon":"128.74889000"},
{"state":"South Gyeongsang Province","name":"Miryang-si","lat":"35.49750000","lon":"128.78690000"},
{"state":"South Gyeongsang Province","name":"Naesŏ","lat":"35.24972000","lon":"128.52000000"},
{"state":"South Gyeongsang Province","name":"Namhae-gun","lat":"34.80433000","lon":"127.92708000"},
{"state":"South Gyeongsang Province","name":"Sacheon-si","lat":"35.00385000","lon":"128.06857000"},
{"state":"South Gyeongsang Province","name":"Sancheong-gun","lat":"35.36625000","lon":"127.87065000"},
{"state":"South Gyeongsang Province","name":"Sinhyeon","lat":"34.88250000","lon":"128.62667000"},
{"state":"South Gyeongsang Province","name":"Uiryeong-gun","lat":"35.39230000","lon":"128.26917000"},
{"state":"South Gyeongsang Province","name":"Ungsang","lat":"35.40611000","lon":"129.16861000"},
{"state":"South Gyeongsang Province","name":"Yangsan","lat":"35.34199000","lon":"129.03358000"},
{"state":"South Jeolla Province","name":"Beolgyo","lat":"34.84897000","lon":"127.34052000"},
{"state":"South Jeolla Province","name":"Boseong-gun","lat":"34.84622000","lon":"127.22189000"},
{"state":"South Jeolla Province","name":"Damyang-gun","lat":"35.33976000","lon":"126.99125000"},
{"state":"South Jeolla Province","name":"Gangjin-gun","lat":"34.61787000","lon":"126.76758000"},
{"state":"South Jeolla Province","name":"Goheung-gun","lat":"34.58333000","lon":"127.33333000"},
{"state":"South Jeolla Province","name":"Gokseong-gun","lat":"35.21449000","lon":"127.26280000"},
{"state":"South Jeolla Province","name":"Gurye-gun","lat":"35.23616000","lon":"127.50129000"},
{"state":"South Jeolla Province","name":"Gwangyang","lat":"34.94140000","lon":"127.69569000"},
{"state":"South Jeolla Province","name":"Gwangyang-si","lat":"35.04007000","lon":"127.60949000"},
{"state":"South Jeolla Province","name":"Haenam","lat":"34.57111000","lon":"126.59889000"},
{"state":"South Jeolla Province","name":"Haenam-gun","lat":"34.54047000","lon":"126.51870000"},
{"state":"South Jeolla Province","name":"Hampyeong-gun","lat":"35.14988000","lon":"126.53337000"},
{"state":"South Jeolla Province","name":"Hwasun","lat":"35.06125000","lon":"126.98746000"},
{"state":"South Jeolla Province","name":"Hwasun-gun","lat":"35.00468000","lon":"127.02648000"},
{"state":"South Jeolla Province","name":"Jangheung-gun","lat":"34.70555000","lon":"126.94905000"},
{"state":"South Jeolla Province","name":"Jangseong-gun","lat":"35.32734000","lon":"126.76817000"},
{"state":"South Jeolla Province","name":"Jindo-gun","lat":"34.41958000","lon":"126.22599000"},
{"state":"South Jeolla Province","name":"Kurye","lat":"35.20944000","lon":"127.46444000"},
{"state":"South Jeolla Province","name":"Kwangyang","lat":"34.97528000","lon":"127.58917000"},
{"state":"South Jeolla Province","name":"Mokpo","lat":"34.81282000","lon":"126.39181000"},
{"state":"South Jeolla Province","name":"Mokpo-si","lat":"34.81226000","lon":"126.39179000"},
{"state":"South Jeolla Province","name":"Muan","lat":"34.99014000","lon":"126.47899000"},
{"state":"South Jeolla Province","name":"Muan-gun","lat":"34.95642000","lon":"126.44041000"},
{"state":"South Jeolla Province","name":"Naju","lat":"35.02920000","lon":"126.71750000"},
{"state":"South Jeolla Province","name":"Naju-si","lat":"35.05683000","lon":"126.67362000"},
{"state":"South Jeolla Province","name":"Sinan","lat":"34.82620000","lon":"126.10863000"},
{"state":"South Jeolla Province","name":"Sinan-gun","lat":"34.83107000","lon":"126.09872000"},
{"state":"South Jeolla Province","name":"Suncheon","lat":"34.95050000","lon":"127.48784000"},
{"state":"South Jeolla Province","name":"Suncheon-si","lat":"34.97162000","lon":"127.46096000"},
{"state":"South Jeolla Province","name":"Wando-gun","lat":"34.31182000","lon":"126.73845000"},
{"state":"South Jeolla Province","name":"Yeongam","lat":"34.80059000","lon":"126.69669000"},
{"state":"South Jeolla Province","name":"Yeongam-gun","lat":"34.79790000","lon":"126.62651000"},
{"state":"South Jeolla Province","name":"Yeonggwang","lat":"35.27814000","lon":"126.51181000"},
{"state":"South Jeolla Province","name":"Yeonggwang-gun","lat":"35.28711000","lon":"126.43616000"},
{"state":"South Jeolla Province","name":"Yeosu","lat":"34.76062000","lon":"127.66215000"},
{"state":"Ulsan","name":"Buk-gu","lat":"35.58243000","lon":"129.36049000"},
{"state":"Ulsan","name":"Dong-gu","lat":"35.50470000","lon":"129.41860000"},
{"state":"Ulsan","name":"Jung-gu","lat":"35.56840000","lon":"129.33226000"},
{"state":"Ulsan","name":"Nam-gu","lat":"35.54382000","lon":"129.32917000"},
{"state":"Ulsan","name":"Ulju-gun","lat":"35.56233000","lon":"129.12690000"},
{"state":"Ulsan","name":"Ulsan","lat":"35.53722000","lon":"129.31667000"}]