[{"state":"Al Ahmadi","name":"Al Aḩmadī","lat":"29.07694000","lon":"48.08389000"},
{"state":"Al Ahmadi","name":"Al Faḩāḩīl","lat":"29.08250000","lon":"48.13028000"},
{"state":"Al Ahmadi","name":"Al Finţās","lat":"29.17389000","lon":"48.12111000"},
{"state":"Al Ahmadi","name":"Al Mahbūlah","lat":"29.14500000","lon":"48.13028000"},
{"state":"Al Ahmadi","name":"Al Manqaf","lat":"29.09611000","lon":"48.13278000"},
{"state":"Al Ahmadi","name":"Al Wafrah","lat":"28.63917000","lon":"47.93056000"},
{"state":"Al Ahmadi","name":"Ar Riqqah","lat":"29.14583000","lon":"48.09472000"},
{"state":"Al Farwaniyah","name":"Al Farwānīyah","lat":"29.27750000","lon":"47.95861000"},
{"state":"Al Farwaniyah","name":"Janūb as Surrah","lat":"29.26917000","lon":"47.97806000"},
{"state":"Al Jahra","name":"Al Jahrā’","lat":"29.33750000","lon":"47.65806000"},
{"state":"Capital","name":"Ad Dasmah","lat":"29.36500000","lon":"48.00139000"},
{"state":"Capital","name":"Ar Rābiyah","lat":"29.29500000","lon":"47.93306000"},
{"state":"Capital","name":"Ash Shāmīyah","lat":"29.34722000","lon":"47.96167000"},
{"state":"Capital","name":"Az Zawr","lat":"29.44250000","lon":"48.27472000"},
{"state":"Capital","name":"Kuwait City","lat":"29.36972000","lon":"47.97833000"},
{"state":"Hawalli","name":"Ar Rumaythīyah","lat":"29.31167000","lon":"48.07417000"},
{"state":"Hawalli","name":"As Sālimīyah","lat":"29.33389000","lon":"48.07611000"},
{"state":"Hawalli","name":"Bayān","lat":"29.30320000","lon":"48.04881000"},
{"state":"Hawalli","name":"Ḩawallī","lat":"29.33278000","lon":"48.02861000"},
{"state":"Hawalli","name":"Salwá","lat":"29.29583000","lon":"48.07861000"},
{"state":"Mubarak Al-Kabeer","name":"Abu Al Hasaniya","lat":"29.19076000","lon":"48.11355000"},
{"state":"Mubarak Al-Kabeer","name":"Abu Fatira","lat":"29.19746000","lon":"48.10278000"},
{"state":"Mubarak Al-Kabeer","name":"Al Funayţīs","lat":"29.22528000","lon":"48.10167000"},
{"state":"Mubarak Al-Kabeer","name":"Al-Masayel","lat":"29.23930000","lon":"48.08862000"},
{"state":"Mubarak Al-Kabeer","name":"Şabāḩ as Sālim","lat":"29.25722000","lon":"48.05722000"}]