[{"state":"Akmola Region","name":"Akkol","lat":"51.99374000","lon":"70.94704000"},
{"state":"Akmola Region","name":"Akkol’","lat":"53.29617000","lon":"69.59997000"},
{"state":"Akmola Region","name":"Aksu","lat":"52.44422000","lon":"71.95761000"},
{"state":"Akmola Region","name":"Astrakhan","lat":"51.53092000","lon":"69.79684000"},
{"state":"Akmola Region","name":"Atbasar","lat":"51.80652000","lon":"68.35996000"},
{"state":"Akmola Region","name":"Balkashino","lat":"52.51779000","lon":"68.75160000"},
{"state":"Akmola Region","name":"Bestobe","lat":"52.49795000","lon":"73.09592000"},
{"state":"Akmola Region","name":"Derzhavīnsk","lat":"51.09922000","lon":"66.31557000"},
{"state":"Akmola Region","name":"Egindiköl","lat":"51.05412000","lon":"69.47928000"},
{"state":"Akmola Region","name":"Esil","lat":"51.95495000","lon":"66.40841000"},
{"state":"Akmola Region","name":"Kokshetau","lat":"53.28333000","lon":"69.40000000"},
{"state":"Akmola Region","name":"Krasnogorskiy","lat":"52.24560000","lon":"66.52081000"},
{"state":"Akmola Region","name":"Makinsk","lat":"52.63290000","lon":"70.41911000"},
{"state":"Akmola Region","name":"Shantobe","lat":"52.45376000","lon":"68.17475000"},
{"state":"Akmola Region","name":"Shchuchinsk","lat":"52.93592000","lon":"70.18895000"},
{"state":"Akmola Region","name":"Shortandy","lat":"51.69946000","lon":"70.99457000"},
{"state":"Akmola Region","name":"Stepnogorsk","lat":"52.35062000","lon":"71.88161000"},
{"state":"Akmola Region","name":"Stepnyak","lat":"52.83489000","lon":"70.78861000"},
{"state":"Akmola Region","name":"Yermentau","lat":"51.62364000","lon":"73.10265000"},
{"state":"Akmola Region","name":"Zavodskoy","lat":"52.47031000","lon":"72.01514000"},
{"state":"Akmola Region","name":"Zhaqsy","lat":"51.91058000","lon":"67.31665000"},
{"state":"Akmola Region","name":"Zholymbet","lat":"51.74211000","lon":"71.71245000"},
{"state":"Aktobe Region","name":"Aktobe","lat":"50.27969000","lon":"57.20718000"},
{"state":"Aktobe Region","name":"Batamshinskiy","lat":"50.56022000","lon":"58.27715000"},
{"state":"Aktobe Region","name":"Bayganin","lat":"48.68975000","lon":"55.87512000"},
{"state":"Aktobe Region","name":"Embi","lat":"48.82981000","lon":"58.15042000"},
{"state":"Aktobe Region","name":"Kandyagash","lat":"49.46912000","lon":"57.41914000"},
{"state":"Aktobe Region","name":"Khromtau","lat":"50.25117000","lon":"58.44003000"},
{"state":"Aktobe Region","name":"Martuk","lat":"50.74746000","lon":"56.50611000"},
{"state":"Aktobe Region","name":"Shalqar","lat":"47.83333000","lon":"59.60000000"},
{"state":"Aktobe Region","name":"Shubarkuduk","lat":"49.14391000","lon":"56.48196000"},
{"state":"Aktobe Region","name":"Shubarshi","lat":"48.58022000","lon":"57.18289000"},
{"state":"Aktobe Region","name":"Temir","lat":"49.14132000","lon":"57.12855000"},
{"state":"Aktobe Region","name":"Yrghyz","lat":"48.61667000","lon":"61.26667000"},
{"state":"Almaty","name":"Almaty","lat":"43.25667000","lon":"76.92861000"},
{"state":"Almaty Region","name":"Bakanas","lat":"44.80838000","lon":"76.27214000"},
{"state":"Almaty Region","name":"Balpyk Bī","lat":"44.90225000","lon":"78.23157000"},
{"state":"Almaty Region","name":"Burunday","lat":"43.35567000","lon":"76.85477000"},
{"state":"Almaty Region","name":"Chemolgan","lat":"43.37633000","lon":"76.62456000"},
{"state":"Almaty Region","name":"Druzhba","lat":"45.25332000","lon":"82.48044000"},
{"state":"Almaty Region","name":"Esik","lat":"43.35520000","lon":"77.45245000"},
{"state":"Almaty Region","name":"Kapshagay","lat":"43.86681000","lon":"77.06304000"},
{"state":"Almaty Region","name":"Kegen","lat":"43.02143000","lon":"79.22055000"},
{"state":"Almaty Region","name":"Lepsy","lat":"46.23500000","lon":"78.94556000"},
{"state":"Almaty Region","name":"Matay","lat":"45.89500000","lon":"78.71806000"},
{"state":"Almaty Region","name":"Otegen Batyra","lat":"43.41949000","lon":"77.02020000"},
{"state":"Almaty Region","name":"Pervomayka","lat":"43.37361000","lon":"76.94000000"},
{"state":"Almaty Region","name":"Sarkand","lat":"45.41126000","lon":"79.91545000"},
{"state":"Almaty Region","name":"Saryozek","lat":"44.36178000","lon":"77.97279000"},
{"state":"Almaty Region","name":"Taldykorgan","lat":"45.01556000","lon":"78.37389000"},
{"state":"Almaty Region","name":"Talghar","lat":"43.30348000","lon":"77.24085000"},
{"state":"Almaty Region","name":"Tekeli","lat":"44.83322000","lon":"78.83089000"},
{"state":"Almaty Region","name":"Turgen","lat":"43.40056000","lon":"77.59333000"},
{"state":"Almaty Region","name":"Ülken","lat":"45.21194000","lon":"73.97861000"},
{"state":"Almaty Region","name":"Ush-Tyube","lat":"45.25201000","lon":"77.98007000"},
{"state":"Almaty Region","name":"Zharkent","lat":"44.16660000","lon":"80.00655000"},
{"state":"Atyrau Region","name":"Akkol’","lat":"48.77177000","lon":"53.18580000"},
{"state":"Atyrau Region","name":"Atyrau","lat":"47.11667000","lon":"51.88333000"},
{"state":"Atyrau Region","name":"Balykshi","lat":"47.06667000","lon":"51.86667000"},
{"state":"Atyrau Region","name":"Bayshonas","lat":"47.24139000","lon":"52.94111000"},
{"state":"Atyrau Region","name":"Dossor","lat":"47.52722000","lon":"52.98111000"},
{"state":"Atyrau Region","name":"Inderbor","lat":"48.55000000","lon":"51.78333000"},
{"state":"Atyrau Region","name":"Makhambet","lat":"47.66667000","lon":"51.58333000"},
{"state":"Atyrau Region","name":"Maloye Ganyushkino","lat":"46.60000000","lon":"49.26667000"},
{"state":"Atyrau Region","name":"Maqat","lat":"47.65000000","lon":"53.31667000"},
{"state":"Atyrau Region","name":"Miyaly","lat":"48.88504000","lon":"53.79194000"},
{"state":"Atyrau Region","name":"Qaraton","lat":"46.43528000","lon":"53.48639000"},
{"state":"Atyrau Region","name":"Qulsary","lat":"46.95307000","lon":"54.01978000"},
{"state":"Atyrau Region","name":"Shalkar","lat":"48.03333000","lon":"48.90000000"},
{"state":"Baikonur","name":"Baikonur","lat":"45.61667000","lon":"63.31667000"},
{"state":"East Kazakhstan Region","name":"Altayskiy","lat":"50.24593000","lon":"82.36252000"},
{"state":"East Kazakhstan Region","name":"Aqtoghay","lat":"46.95000000","lon":"79.66667000"},
{"state":"East Kazakhstan Region","name":"Asūbulaq","lat":"49.55688000","lon":"83.06355000"},
{"state":"East Kazakhstan Region","name":"Auezov","lat":"49.71003000","lon":"81.58018000"},
{"state":"East Kazakhstan Region","name":"Ayagoz","lat":"47.96447000","lon":"80.43437000"},
{"state":"East Kazakhstan Region","name":"Belogorskīy","lat":"49.47698000","lon":"83.14803000"},
{"state":"East Kazakhstan Region","name":"Belousovka","lat":"50.13287000","lon":"82.52481000"},
{"state":"East Kazakhstan Region","name":"Borodulikha","lat":"50.71841000","lon":"80.92950000"},
{"state":"East Kazakhstan Region","name":"Georgīevka","lat":"49.32671000","lon":"81.57373000"},
{"state":"East Kazakhstan Region","name":"Glubokoye","lat":"50.13887000","lon":"82.31114000"},
{"state":"East Kazakhstan Region","name":"Kurchatov","lat":"50.75617000","lon":"78.54188000"},
{"state":"East Kazakhstan Region","name":"Kurchum","lat":"48.56603000","lon":"83.66146000"},
{"state":"East Kazakhstan Region","name":"Maleyevsk","lat":"49.81441000","lon":"84.29102000"},
{"state":"East Kazakhstan Region","name":"Ognevka","lat":"49.68351000","lon":"83.01674000"},
{"state":"East Kazakhstan Region","name":"Priisk Boko","lat":"49.06028000","lon":"81.64528000"},
{"state":"East Kazakhstan Region","name":"Qaraūyl","lat":"48.94509000","lon":"79.25502000"},
{"state":"East Kazakhstan Region","name":"Ridder","lat":"50.34413000","lon":"83.51287000"},
{"state":"East Kazakhstan Region","name":"Semey","lat":"50.42675000","lon":"80.26669000"},
{"state":"East Kazakhstan Region","name":"Shar","lat":"49.58720000","lon":"81.04883000"},
{"state":"East Kazakhstan Region","name":"Shemonaīkha","lat":"50.62811000","lon":"81.91213000"},
{"state":"East Kazakhstan Region","name":"Suykbulak","lat":"49.70837000","lon":"81.04854000"},
{"state":"East Kazakhstan Region","name":"Tūghyl","lat":"47.72521000","lon":"84.20629000"},
{"state":"East Kazakhstan Region","name":"Urzhar","lat":"47.09302000","lon":"81.62939000"},
{"state":"East Kazakhstan Region","name":"Ust-Kamenogorsk","lat":"49.97143000","lon":"82.60586000"},
{"state":"East Kazakhstan Region","name":"Ūst’-Talovka","lat":"50.54927000","lon":"81.84997000"},
{"state":"East Kazakhstan Region","name":"Zaysan","lat":"47.46657000","lon":"84.87144000"},
{"state":"East Kazakhstan Region","name":"Zhalghyztobe","lat":"49.21094000","lon":"81.21596000"},
{"state":"East Kazakhstan Region","name":"Zhanga Buqtyrma","lat":"49.62950000","lon":"83.52475000"},
{"state":"East Kazakhstan Region","name":"Zhezkent","lat":"50.93112000","lon":"81.36150000"},
{"state":"East Kazakhstan Region","name":"Zyryanovsk","lat":"49.72654000","lon":"84.27318000"},
{"state":"Jambyl Region","name":"Aqbaqay","lat":"45.00000000","lon":"72.78333000"},
{"state":"Jambyl Region","name":"Chu","lat":"43.60334000","lon":"73.75919000"},
{"state":"Jambyl Region","name":"Georgiyevka","lat":"43.03882000","lon":"74.71287000"},
{"state":"Jambyl Region","name":"Granitogorsk","lat":"42.74400000","lon":"73.46848000"},
{"state":"Jambyl Region","name":"Karatau","lat":"43.17869000","lon":"70.46768000"},
{"state":"Jambyl Region","name":"Khantaū","lat":"44.22744000","lon":"73.79555000"},
{"state":"Jambyl Region","name":"Lugovoy","lat":"42.94197000","lon":"72.76098000"},
{"state":"Jambyl Region","name":"Lugovoye","lat":"42.91010000","lon":"72.72066000"},
{"state":"Jambyl Region","name":"Merke","lat":"42.86976000","lon":"73.18463000"},
{"state":"Jambyl Region","name":"Moyynkum","lat":"44.28461000","lon":"72.93920000"},
{"state":"Jambyl Region","name":"Mynaral","lat":"45.41611000","lon":"73.68444000"},
{"state":"Jambyl Region","name":"Oytal","lat":"42.90573000","lon":"73.26972000"},
{"state":"Jambyl Region","name":"Sarykemer","lat":"43.00000000","lon":"71.50000000"},
{"state":"Jambyl Region","name":"Shyghanaq","lat":"44.83056000","lon":"70.00194000"},
{"state":"Jambyl Region","name":"Taraz","lat":"42.90000000","lon":"71.36667000"},
{"state":"Jambyl Region","name":"Zhangatas","lat":"43.56222000","lon":"69.73428000"},
{"state":"Karaganda Region","name":"Abay","lat":"49.63575000","lon":"72.86164000"},
{"state":"Karaganda Region","name":"Abay Qalasy","lat":"49.63333000","lon":"72.88333000"},
{"state":"Karaganda Region","name":"Aksu-Ayuly","lat":"48.76788000","lon":"73.67272000"},
{"state":"Karaganda Region","name":"Aktas","lat":"49.77952000","lon":"72.96128000"},
{"state":"Karaganda Region","name":"Aktau","lat":"48.03333000","lon":"72.83333000"},
{"state":"Karaganda Region","name":"Aktogay","lat":"48.16667000","lon":"75.30000000"},
{"state":"Karaganda Region","name":"Aqadyr","lat":"48.26014000","lon":"72.85851000"},
{"state":"Karaganda Region","name":"Aqshataū","lat":"47.98917000","lon":"74.05750000"},
{"state":"Karaganda Region","name":"Aqtoghay Aūdany","lat":"48.50000000","lon":"74.75000000"},
{"state":"Karaganda Region","name":"Atasū","lat":"48.68659000","lon":"71.64469000"},
{"state":"Karaganda Region","name":"Balqash","lat":"46.84806000","lon":"74.99500000"},
{"state":"Karaganda Region","name":"Bukhar-Zhyrau","lat":"49.85658000","lon":"73.68118000"},
{"state":"Karaganda Region","name":"Dolinka","lat":"49.67685000","lon":"72.67822000"},
{"state":"Karaganda Region","name":"Karagandy","lat":"49.80187000","lon":"73.10211000"},
{"state":"Karaganda Region","name":"Kīevka","lat":"50.26212000","lon":"71.54839000"},
{"state":"Karaganda Region","name":"Koktal","lat":"49.65000000","lon":"73.51667000"},
{"state":"Karaganda Region","name":"Kushoky","lat":"50.23091000","lon":"73.40146000"},
{"state":"Karaganda Region","name":"Kyzylzhar","lat":"49.98197000","lon":"72.60761000"},
{"state":"Karaganda Region","name":"Moyynty","lat":"47.22111000","lon":"73.36694000"},
{"state":"Karaganda Region","name":"Novodolinskiy","lat":"49.70650000","lon":"72.70807000"},
{"state":"Karaganda Region","name":"Osakarovka","lat":"50.56219000","lon":"72.57089000"},
{"state":"Karaganda Region","name":"Prigorodnoye","lat":"49.69244000","lon":"75.58438000"},
{"state":"Karaganda Region","name":"Priozersk","lat":"46.03106000","lon":"73.70247000"},
{"state":"Karaganda Region","name":"Qarazhal","lat":"48.00627000","lon":"70.79607000"},
{"state":"Karaganda Region","name":"Qarqaraly","lat":"49.41287000","lon":"75.47286000"},
{"state":"Karaganda Region","name":"Saryshaghan","lat":"46.11917000","lon":"73.61917000"},
{"state":"Karaganda Region","name":"Sayaq","lat":"47.00000000","lon":"77.26667000"},
{"state":"Karaganda Region","name":"Shakhan","lat":"49.81958000","lon":"72.65407000"},
{"state":"Karaganda Region","name":"Shakhtinsk","lat":"49.70885000","lon":"72.59212000"},
{"state":"Karaganda Region","name":"Shashūbay","lat":"46.81694000","lon":"75.04028000"},
{"state":"Karaganda Region","name":"Shubarköl","lat":"48.88222000","lon":"68.80722000"},
{"state":"Karaganda Region","name":"Soran","lat":"49.79080000","lon":"72.83744000"},
{"state":"Karaganda Region","name":"Temirtau","lat":"50.05494000","lon":"72.96464000"},
{"state":"Karaganda Region","name":"Tokarevka","lat":"50.11573000","lon":"73.16034000"},
{"state":"Karaganda Region","name":"Verkhniye Kayrakty","lat":"48.68333000","lon":"73.28333000"},
{"state":"Karaganda Region","name":"Zhambyl","lat":"47.20694000","lon":"71.39694000"},
{"state":"Karaganda Region","name":"Zharyk","lat":"48.85692000","lon":"72.83598000"},
{"state":"Karaganda Region","name":"Zhezqazghan","lat":"47.78333000","lon":"67.76667000"},
{"state":"Kostanay Region","name":"Arkalyk","lat":"50.24915000","lon":"66.92027000"},
{"state":"Kostanay Region","name":"Ayat","lat":"52.83554000","lon":"62.52078000"},
{"state":"Kostanay Region","name":"Borovskoy","lat":"53.79270000","lon":"64.18268000"},
{"state":"Kostanay Region","name":"Dzhetygara","lat":"52.19019000","lon":"61.19894000"},
{"state":"Kostanay Region","name":"Fyodorovka","lat":"53.63809000","lon":"62.69653000"},
{"state":"Kostanay Region","name":"Karasu","lat":"52.65995000","lon":"65.48421000"},
{"state":"Kostanay Region","name":"Komsomolets","lat":"53.75019000","lon":"62.05840000"},
{"state":"Kostanay Region","name":"Kostanay","lat":"53.21435000","lon":"63.62463000"},
{"state":"Kostanay Region","name":"Lisakovsk","lat":"52.54707000","lon":"62.49987000"},
{"state":"Kostanay Region","name":"Ordzhonikidze","lat":"52.44772000","lon":"61.74942000"},
{"state":"Kostanay Region","name":"Qashar","lat":"53.36799000","lon":"62.86839000"},
{"state":"Kostanay Region","name":"Qusmuryn","lat":"52.45107000","lon":"64.61977000"},
{"state":"Kostanay Region","name":"Rudnyy","lat":"52.97290000","lon":"63.11677000"},
{"state":"Kostanay Region","name":"Tobol","lat":"52.69366000","lon":"62.59140000"},
{"state":"Kostanay Region","name":"Torghay","lat":"49.63389000","lon":"63.49806000"},
{"state":"Kostanay Region","name":"Troyebratskiy","lat":"54.44306000","lon":"66.07982000"},
{"state":"Kyzylorda Region","name":"Aral","lat":"46.80000000","lon":"61.66667000"},
{"state":"Kyzylorda Region","name":"Ayteke Bi","lat":"45.84607000","lon":"62.15264000"},
{"state":"Kyzylorda Region","name":"Belköl","lat":"44.81162000","lon":"65.58796000"},
{"state":"Kyzylorda Region","name":"Dzhalagash","lat":"45.08333000","lon":"64.66667000"},
{"state":"Kyzylorda Region","name":"Kyzylorda","lat":"44.85278000","lon":"65.50917000"},
{"state":"Kyzylorda Region","name":"Qazaly","lat":"45.76278000","lon":"62.10750000"},
{"state":"Kyzylorda Region","name":"Sekseūil","lat":"47.09000000","lon":"61.15194000"},
{"state":"Kyzylorda Region","name":"Shalqīya","lat":"44.00947000","lon":"67.41062000"},
{"state":"Kyzylorda Region","name":"Shīeli","lat":"44.16882000","lon":"66.73887000"},
{"state":"Kyzylorda Region","name":"Tasböget","lat":"44.77384000","lon":"65.55227000"},
{"state":"Kyzylorda Region","name":"Terenozek","lat":"45.05053000","lon":"64.98395000"},
{"state":"Kyzylorda Region","name":"Yanykurgan","lat":"43.90652000","lon":"67.24637000"},
{"state":"Kyzylorda Region","name":"Zhosaly","lat":"45.48778000","lon":"64.07806000"},
{"state":"Mangystau Region","name":"Aktau","lat":"43.65000000","lon":"51.16667000"},
{"state":"Mangystau Region","name":"Baūtīno","lat":"44.54479000","lon":"50.24629000"},
{"state":"Mangystau Region","name":"Beyneu","lat":"45.31667000","lon":"55.20000000"},
{"state":"Mangystau Region","name":"Fort-Shevchenko","lat":"44.50654000","lon":"50.26388000"},
{"state":"Mangystau Region","name":"Munayshy","lat":"43.49111000","lon":"52.10861000"},
{"state":"Mangystau Region","name":"Ömirzaq","lat":"43.59786000","lon":"51.24171000"},
{"state":"Mangystau Region","name":"Sayötesh","lat":"44.32781000","lon":"53.53246000"},
{"state":"Mangystau Region","name":"Shetpe","lat":"44.16667000","lon":"52.11667000"},
{"state":"Mangystau Region","name":"Taūshyq","lat":"44.34678000","lon":"51.34932000"},
{"state":"Mangystau Region","name":"Yeraliyev","lat":"43.18032000","lon":"51.68116000"},
{"state":"Mangystau Region","name":"Zhanaozen","lat":"43.34116000","lon":"52.86192000"},
{"state":"Mangystau Region","name":"Zhetibay","lat":"43.59417000","lon":"52.07889000"},
{"state":"North Kazakhstan Region","name":"Birlestik","lat":"53.58414000","lon":"68.35382000"},
{"state":"North Kazakhstan Region","name":"Bishkul","lat":"54.77763000","lon":"69.09951000"},
{"state":"North Kazakhstan Region","name":"Bulayevo","lat":"54.90596000","lon":"70.44155000"},
{"state":"North Kazakhstan Region","name":"Būrabay","lat":"53.08382000","lon":"70.31379000"},
{"state":"North Kazakhstan Region","name":"Kzyltu","lat":"53.63589000","lon":"72.34079000"},
{"state":"North Kazakhstan Region","name":"Novoishimskiy","lat":"53.19806000","lon":"66.76944000"},
{"state":"North Kazakhstan Region","name":"Petropavl","lat":"54.86667000","lon":"69.15000000"},
{"state":"North Kazakhstan Region","name":"Sergeyevka","lat":"53.88139000","lon":"67.40882000"},
{"state":"North Kazakhstan Region","name":"Smirnovo","lat":"54.51480000","lon":"69.42732000"},
{"state":"North Kazakhstan Region","name":"Taiynsha","lat":"53.84796000","lon":"69.76773000"},
{"state":"North Kazakhstan Region","name":"Talshik","lat":"53.63736000","lon":"71.87404000"},
{"state":"North Kazakhstan Region","name":"Timiryazevo","lat":"53.74947000","lon":"66.48852000"},
{"state":"North Kazakhstan Region","name":"Volodarskoye","lat":"53.29270000","lon":"68.10500000"},
{"state":"North Kazakhstan Region","name":"Yavlenka","lat":"54.34525000","lon":"68.45740000"},
{"state":"Nur-Sultan","name":"Nur-Sultan","lat":"51.18010000","lon":"71.44598000"},
{"state":"Pavlodar Region","name":"Aksu","lat":"52.04023000","lon":"76.92748000"},
{"state":"Pavlodar Region","name":"Bayanaul","lat":"50.79304000","lon":"75.70123000"},
{"state":"Pavlodar Region","name":"Belogor’ye","lat":"51.52983000","lon":"77.47146000"},
{"state":"Pavlodar Region","name":"Ekibastuz","lat":"51.72371000","lon":"75.32287000"},
{"state":"Pavlodar Region","name":"Irtyshsk","lat":"53.33365000","lon":"75.45775000"},
{"state":"Pavlodar Region","name":"Kalkaman","lat":"51.95349000","lon":"76.02723000"},
{"state":"Pavlodar Region","name":"Leninskiy","lat":"52.25346000","lon":"76.78211000"},
{"state":"Pavlodar Region","name":"Mayqayyng","lat":"51.45981000","lon":"75.80232000"},
{"state":"Pavlodar Region","name":"Pavlodar","lat":"52.28333000","lon":"76.96667000"},
{"state":"Pavlodar Region","name":"Qashyr","lat":"53.06649000","lon":"76.10489000"},
{"state":"Pavlodar Region","name":"Zhelezinka","lat":"53.53880000","lon":"75.31326000"},
{"state":"Turkestan Region","name":"Arys","lat":"42.43015000","lon":"68.80870000"},
{"state":"Turkestan Region","name":"Ashchysay","lat":"43.55370000","lon":"68.89792000"},
{"state":"Turkestan Region","name":"Asyqata","lat":"40.89460000","lon":"68.36430000"},
{"state":"Turkestan Region","name":"Atakent","lat":"40.84782000","lon":"68.50643000"},
{"state":"Turkestan Region","name":"Bayzhansay","lat":"43.16708000","lon":"69.91459000"},
{"state":"Turkestan Region","name":"Belyye Vody","lat":"42.42193000","lon":"69.82709000"},
{"state":"Turkestan Region","name":"Chardara","lat":"41.25832000","lon":"67.96991000"},
{"state":"Turkestan Region","name":"Chayan","lat":"43.03399000","lon":"69.38048000"},
{"state":"Turkestan Region","name":"Chulakkurgan","lat":"43.76453000","lon":"69.17856000"},
{"state":"Turkestan Region","name":"Kantagi","lat":"43.52786000","lon":"68.58287000"},
{"state":"Turkestan Region","name":"Kentau","lat":"43.51672000","lon":"68.50463000"},
{"state":"Turkestan Region","name":"Kokterek","lat":"42.49442000","lon":"70.25478000"},
{"state":"Turkestan Region","name":"Lenger","lat":"42.18152000","lon":"69.88582000"},
{"state":"Turkestan Region","name":"Leninskoye","lat":"41.75640000","lon":"69.38390000"},
{"state":"Turkestan Region","name":"Maqtaaral Aūdany","lat":"40.75000000","lon":"68.58333000"},
{"state":"Turkestan Region","name":"Myrzakent","lat":"40.66338000","lon":"68.54510000"},
{"state":"Turkestan Region","name":"Qogham","lat":"42.82774000","lon":"68.28074000"},
{"state":"Turkestan Region","name":"Saryaghash","lat":"41.46042000","lon":"69.16791000"},
{"state":"Turkestan Region","name":"Saryaghash Aūdany","lat":"41.66667000","lon":"68.83333000"},
{"state":"Turkestan Region","name":"Sastobe","lat":"42.55330000","lon":"69.99835000"},
{"state":"Turkestan Region","name":"Sozaq Aūdany","lat":"44.83333000","lon":"68.50000000"},
{"state":"Turkestan Region","name":"Temirlanovka","lat":"42.59998000","lon":"69.25836000"},
{"state":"Turkestan Region","name":"Turar Ryskulov","lat":"42.53340000","lon":"70.34960000"},
{"state":"Turkestan Region","name":"Turkestan","lat":"43.29733000","lon":"68.25175000"},
{"state":"Turkestan Region","name":"Tyul’kubas","lat":"42.48578000","lon":"70.29601000"},
{"state":"Turkestan Region","name":"Zhabagly","lat":"42.43781000","lon":"70.47841000"},
{"state":"West Kazakhstan Province","name":"Aqsay","lat":"51.16810000","lon":"52.99782000"},
{"state":"West Kazakhstan Province","name":"Burlin","lat":"51.42724000","lon":"52.71392000"},
{"state":"West Kazakhstan Province","name":"Chapaev","lat":"50.20000000","lon":"51.16667000"},
{"state":"West Kazakhstan Province","name":"Chingirlau","lat":"51.09878000","lon":"54.08426000"},
{"state":"West Kazakhstan Province","name":"Dzhambeyty","lat":"50.25676000","lon":"52.59895000"},
{"state":"West Kazakhstan Province","name":"Fedorovka","lat":"51.22102000","lon":"51.95723000"},
{"state":"West Kazakhstan Province","name":"Kaztalovka","lat":"49.76612000","lon":"48.68903000"},
{"state":"West Kazakhstan Province","name":"Krūgloozernoe","lat":"51.07854000","lon":"51.28992000"},
{"state":"West Kazakhstan Province","name":"Oral","lat":"51.23333000","lon":"51.36667000"},
{"state":"West Kazakhstan Province","name":"Peremetnoe","lat":"51.19925000","lon":"50.85544000"},
{"state":"West Kazakhstan Province","name":"Saykhin","lat":"48.85611000","lon":"46.83361000"},
{"state":"West Kazakhstan Province","name":"Tasqala","lat":"51.11073000","lon":"50.29454000"},
{"state":"West Kazakhstan Province","name":"Zhänibek","lat":"49.42207000","lon":"46.84705000"}]