[{"state":"Attapeu Province","name":"Attapeu","lat":"14.81071000","lon":"106.83184000"},
{"state":"Attapeu Province","name":"Muang Phouvong","lat":"14.56821000","lon":"107.01087000"},
{"state":"Attapeu Province","name":"Muang Samakhixai","lat":"14.80539000","lon":"106.78164000"},
{"state":"Attapeu Province","name":"Muang Sanamxai","lat":"14.73807000","lon":"106.41328000"},
{"state":"Attapeu Province","name":"Muang Sanxai","lat":"15.02944000","lon":"107.23158000"},
{"state":"Attapeu Province","name":"Muang Xaiséttha","lat":"14.90594000","lon":"106.97894000"},
{"state":"Bokeo Province","name":"Ban Houakhoua","lat":"20.24670000","lon":"100.45401000"},
{"state":"Bokeo Province","name":"Ban Houayxay","lat":"20.27000000","lon":"100.41780000"},
{"state":"Bokeo Province","name":"Muang Houayxay","lat":"20.38763000","lon":"100.62687000"},
{"state":"Bokeo Province","name":"Muang Meung","lat":"20.67585000","lon":"100.52639000"},
{"state":"Bokeo Province","name":"Muang Paktha","lat":"20.09108000","lon":"100.59940000"},
{"state":"Bokeo Province","name":"Muang Pha Oudôm","lat":"20.18744000","lon":"100.92600000"},
{"state":"Bokeo Province","name":"Muang Tônpheung","lat":"20.53465000","lon":"100.29624000"},
{"state":"Bolikhamsai Province","name":"Ban Nahin","lat":"18.24253000","lon":"104.21281000"},
{"state":"Bolikhamsai Province","name":"Pakxan","lat":"18.39420000","lon":"103.66110000"},
{"state":"Champasak Province","name":"Champasak","lat":"14.89204000","lon":"105.87787000"},
{"state":"Champasak Province","name":"Muang Bachiangchaleunsook","lat":"15.24426000","lon":"105.96716000"},
{"state":"Champasak Province","name":"Muang Champasak","lat":"14.85704000","lon":"105.75334000"},
{"state":"Champasak Province","name":"Muang Không","lat":"14.14696000","lon":"105.95938000"},
{"state":"Champasak Province","name":"Muang Mounlapamôk","lat":"14.28922000","lon":"105.56832000"},
{"state":"Champasak Province","name":"Muang Pakxé","lat":"15.13139000","lon":"105.81612000"},
{"state":"Champasak Province","name":"Muang Pakxong","lat":"15.09810000","lon":"106.43398000"},
{"state":"Champasak Province","name":"Muang Pathoumphon","lat":"14.68453000","lon":"106.06357000"},
{"state":"Champasak Province","name":"Muang Phônthong","lat":"15.10669000","lon":"105.64890000"},
{"state":"Champasak Province","name":"Muang Soukhouma","lat":"14.62560000","lon":"105.67520000"},
{"state":"Champasak Province","name":"Muang Xanasômboun","lat":"15.34107000","lon":"105.73703000"},
{"state":"Champasak Province","name":"Pakse","lat":"15.12022000","lon":"105.79898000"},
{"state":"Champasak Province","name":"Pakxong","lat":"15.18154000","lon":"106.23038000"},
{"state":"Houaphanh Province","name":"Xam Neua","lat":"20.40764000","lon":"104.06560000"},
{"state":"Houaphanh Province","name":"Xam Nua","lat":"20.41640000","lon":"104.04500000"},
{"state":"Khammouane Province","name":"Muang Thakhèk","lat":"17.40880000","lon":"104.82639000"},
{"state":"Khammouane Province","name":"Thakhèk","lat":"17.41027000","lon":"104.83068000"},
{"state":"Luang Namtha Province","name":"Luang Namtha","lat":"20.94860000","lon":"101.40188000"},
{"state":"Luang Namtha Province","name":"Muang Louang Namtha","lat":"21.00424000","lon":"101.44785000"},
{"state":"Luang Prabang Province","name":"Luang Prabang","lat":"19.88601000","lon":"102.13503000"},
{"state":"Oudomxay Province","name":"Muang Xay","lat":"20.69229000","lon":"101.98368000"},
{"state":"Phongsaly Province","name":"Phôngsali","lat":"21.68080000","lon":"102.10030000"},
{"state":"Sainyabuli Province","name":"Sainyabuli","lat":"19.25756000","lon":"101.71032000"},
{"state":"Salavan Province","name":"Muang Khôngxédôn","lat":"15.54626000","lon":"105.77051000"},
{"state":"Salavan Province","name":"Muang Lakhonphéng","lat":"15.83308000","lon":"105.59745000"},
{"state":"Salavan Province","name":"Muang Laongam","lat":"15.47745000","lon":"106.14111000"},
{"state":"Salavan Province","name":"Muang Samouay","lat":"16.35868000","lon":"106.87480000"},
{"state":"Salavan Province","name":"Muang Saravan","lat":"15.71587000","lon":"106.36158000"},
{"state":"Salavan Province","name":"Muang Ta-Ôy","lat":"16.07765000","lon":"106.70304000"},
{"state":"Salavan Province","name":"Muang Toumlan","lat":"16.02236000","lon":"106.23837000"},
{"state":"Salavan Province","name":"Muang Vapi","lat":"15.75005000","lon":"105.95529000"},
{"state":"Salavan Province","name":"Salavan","lat":"15.71652000","lon":"106.41744000"},
{"state":"Savannakhet Province","name":"Kaysone Phomvihane","lat":"16.54943000","lon":"104.82339000"},
{"state":"Savannakhet Province","name":"Muang Alsaphangthong","lat":"16.72645000","lon":"105.39326000"},
{"state":"Savannakhet Province","name":"Muang Atsaphan","lat":"16.94740000","lon":"105.40290000"},
{"state":"Savannakhet Province","name":"Muang Champhon","lat":"16.49363000","lon":"105.22020000"},
{"state":"Savannakhet Province","name":"Muang Nong","lat":"16.38458000","lon":"106.50419000"},
{"state":"Savannakhet Province","name":"Muang Outhoumphon","lat":"16.66667000","lon":"105.05000000"},
{"state":"Savannakhet Province","name":"Muang Phin","lat":"16.44316000","lon":"106.03019000"},
{"state":"Savannakhet Province","name":"Muang Songkhon","lat":"16.17116000","lon":"105.30729000"},
{"state":"Savannakhet Province","name":"Muang Thapangthong","lat":"16.09132000","lon":"105.81038000"},
{"state":"Savannakhet Province","name":"Muang Vilabouli","lat":"16.94067000","lon":"105.93677000"},
{"state":"Savannakhet Province","name":"Muang Xaibouli","lat":"16.94432000","lon":"104.92312000"},
{"state":"Savannakhet Province","name":"Muang Xayphoothong","lat":"16.37370000","lon":"105.02165000"},
{"state":"Savannakhet Province","name":"Muang Xônbouli","lat":"16.40036000","lon":"105.57388000"},
{"state":"Savannakhet Province","name":"Savannakhet","lat":"16.57030000","lon":"104.76220000"},
{"state":"Savannakhet Province","name":"Thaphalanxay","lat":"16.70000000","lon":"105.60000000"},
{"state":"Sekong Province","name":"Ban Thatèng","lat":"15.43317000","lon":"106.38272000"},
{"state":"Sekong Province","name":"Lamam","lat":"15.41705000","lon":"106.69461000"},
{"state":"Sekong Province","name":"Muang Dakchung","lat":"15.38199000","lon":"107.31847000"},
{"state":"Sekong Province","name":"Muang Khaleum","lat":"15.79886000","lon":"107.04529000"},
{"state":"Sekong Province","name":"Muang Laman","lat":"15.41273000","lon":"106.81706000"},
{"state":"Sekong Province","name":"Muang Thatèng","lat":"15.42745000","lon":"106.48149000"},
{"state":"Vientiane Prefecture","name":"Vientiane","lat":"17.96667000","lon":"102.60000000"},
{"state":"Vientiane Province","name":"Muang Phôn-Hông","lat":"18.49530000","lon":"102.41530000"},
{"state":"Vientiane Province","name":"Vangviang","lat":"18.92350000","lon":"102.44784000"},
{"state":"Xaisomboun Province","name":"Anouvong district","lat":"18.89731000","lon":"103.09274000"},
{"state":"Xaisomboun Province","name":"Longchaeng","lat":"18.89394000","lon":"103.14274000"},
{"state":"Xaisomboun Province","name":"Muang Longxan","lat":"18.61782000","lon":"102.88079000"},
{"state":"Xaisomboun Province","name":"Muang Thathôm","lat":"19.00130000","lon":"103.61572000"},
{"state":"Xiangkhouang Province","name":"Muang Phônsavan","lat":"19.44940000","lon":"103.19170000"}]