[{"state":"Akkar","name":"Caza de Aakkar","lat":"34.53333000","lon":"36.16667000"},
{"state":"Baalbek-Hermel","name":"Baalbek","lat":"34.00583000","lon":"36.21806000"},
{"state":"Baalbek-Hermel","name":"Caza de Baalbek","lat":"34.09822000","lon":"36.27157000"},
{"state":"Beirut","name":"Beirut","lat":"33.89332000","lon":"35.50157000"},
{"state":"Beirut","name":"Ra’s Bayrūt","lat":"33.90000000","lon":"35.48333000"},
{"state":"Beqaa","name":"Aanjar","lat":"33.72778000","lon":"35.93111000"},
{"state":"Beqaa","name":"Zahlé","lat":"33.84675000","lon":"35.90203000"},
{"state":"Mount Lebanon","name":"Baabda","lat":"33.83389000","lon":"35.54417000"},
{"state":"Mount Lebanon","name":"Bhamdoun","lat":"33.79500000","lon":"35.65111000"},
{"state":"Mount Lebanon","name":"Bhamdoûn el Mhatta","lat":"33.80861000","lon":"35.65972000"},
{"state":"Mount Lebanon","name":"Caza de Baabda","lat":"33.84592000","lon":"35.66791000"},
{"state":"Mount Lebanon","name":"Jbaïl","lat":"34.12111000","lon":"35.64806000"},
{"state":"Mount Lebanon","name":"Jounieh","lat":"33.98083000","lon":"35.61778000"},
{"state":"Nabatieh","name":"Ain Ebel","lat":"33.11023000","lon":"35.40251000"},
{"state":"Nabatieh","name":"Caza de Bent Jbaïl","lat":"33.15964000","lon":"35.41137000"},
{"state":"Nabatieh","name":"Caza de Nabatîyé","lat":"33.39435000","lon":"35.44483000"},
{"state":"Nabatieh","name":"Habboûch","lat":"33.40729000","lon":"35.48169000"},
{"state":"Nabatieh","name":"Marjayoûn","lat":"33.36028000","lon":"35.59111000"},
{"state":"Nabatieh","name":"Nabatîyé et Tahta","lat":"33.37889000","lon":"35.48389000"},
{"state":"North","name":"Batroûn","lat":"34.25528000","lon":"35.65806000"},
{"state":"North","name":"Bcharré","lat":"34.25083000","lon":"36.01056000"},
{"state":"North","name":"Tripoli","lat":"34.43352000","lon":"35.84415000"},
{"state":"South","name":"En Nâqoûra","lat":"33.11806000","lon":"35.13972000"},
{"state":"South","name":"Ghazieh","lat":"33.51750000","lon":"35.36889000"},
{"state":"South","name":"Sidon","lat":"33.55751000","lon":"35.37148000"},
{"state":"South","name":"Tyre","lat":"33.27333000","lon":"35.19389000"}]