[{"state":"Anse la Raye Quarter","name":"Anse La Raye","lat":"13.94619000","lon":"-61.03879000"},
{"state":"Anse la Raye Quarter","name":"Au Tabor","lat":"13.94540000","lon":"-61.04112000"},
{"state":"Anse la Raye Quarter","name":"Au Tabor Hill","lat":"13.94457000","lon":"-61.03559000"},
{"state":"Anse la Raye Quarter","name":"Bois D'Inde","lat":"13.94148000","lon":"-61.00966000"},
{"state":"Anse la Raye Quarter","name":"Caico/Millet","lat":"13.91948000","lon":"-60.99264000"},
{"state":"Anse la Raye Quarter","name":"Canaries","lat":"13.90224000","lon":"-61.06459000"},
{"state":"Anse la Raye Quarter","name":"Champen Estate","lat":"13.93575000","lon":"-61.02991000"},
{"state":"Anse la Raye Quarter","name":"Derriere Lagoon","lat":"13.94168000","lon":"-61.01891000"},
{"state":"Anse la Raye Quarter","name":"Durandeau","lat":"13.92277000","lon":"-60.99512000"},
{"state":"Anse la Raye Quarter","name":"Enbar Pwin","lat":"13.91175000","lon":"-60.99266000"},
{"state":"Anse la Raye Quarter","name":"Jacmel","lat":"13.94796000","lon":"-61.01297000"},
{"state":"Anse la Raye Quarter","name":"Jean Baptiste","lat":"13.94704000","lon":"-61.01578000"},
{"state":"Anse la Raye Quarter","name":"La Trielle","lat":"13.94014000","lon":"-60.99729000"},
{"state":"Anse la Raye Quarter","name":"Massacre","lat":"13.94872000","lon":"-61.03544000"},
{"state":"Anse la Raye Quarter","name":"Millet","lat":"13.90985000","lon":"-60.98884000"},
{"state":"Anse la Raye Quarter","name":"Morne Ciseaux","lat":"13.93597000","lon":"-61.00330000"},
{"state":"Anse la Raye Quarter","name":"Morne D'Or","lat":"13.94931000","lon":"-61.00601000"},
{"state":"Anse la Raye Quarter","name":"Roseau Valley","lat":"13.95317000","lon":"-61.02676000"},
{"state":"Anse la Raye Quarter","name":"St Lawrence","lat":"13.93852000","lon":"-61.02503000"},
{"state":"Anse la Raye Quarter","name":"St Lawrence Estate","lat":"13.94236000","lon":"-61.04248000"},
{"state":"Anse la Raye Quarter","name":"Tete Chemin","lat":"13.89092000","lon":"-60.99785000"},
{"state":"Anse la Raye Quarter","name":"Vanard","lat":"13.93558000","lon":"-60.99363000"},
{"state":"Anse la Raye Quarter","name":"Venus","lat":"13.91558000","lon":"-61.01676000"},
{"state":"Anse la Raye Quarter","name":"Village","lat":"13.93939000","lon":"-61.04150000"},
{"state":"Anse la Raye Quarter","name":"Village/Petite Bourgh","lat":"13.93801000","lon":"-61.04184000"},
{"state":"Canaries","name":"Anse Cochon","lat":"13.92261000","lon":"-61.05250000"},
{"state":"Canaries","name":"Anse Galet","lat":"13.93221000","lon":"-61.04290000"},
{"state":"Canaries","name":"Anse La Verdue","lat":"13.90964000","lon":"-61.04755000"},
{"state":"Canaries","name":"Belvedere","lat":"13.89122000","lon":"-61.05550000"},
{"state":"Canaries","name":"Chalon","lat":"13.92018000","lon":"-61.04412000"},
{"state":"Canaries","name":"Riverside Road","lat":"13.89408000","lon":"-61.04989000"},
{"state":"Canaries","name":"Theodrine","lat":"13.92878000","lon":"-61.04972000"},
{"state":"Canaries","name":"Village","lat":"13.90526000","lon":"-61.06108000"},
{"state":"Castries Quarter","name":"Active Hill","lat":"14.01940000","lon":"-60.97767000"},
{"state":"Castries Quarter","name":"Agard Lands/Morne Dudon","lat":"14.00768000","lon":"-60.96462000"},
{"state":"Castries Quarter","name":"Almondale","lat":"14.01848000","lon":"-60.96162000"},
{"state":"Castries Quarter","name":"Aurendel Hill","lat":"14.00069000","lon":"-60.98670000"},
{"state":"Castries Quarter","name":"Babonneau Proper","lat":"14.00535000","lon":"-60.94640000"},
{"state":"Castries Quarter","name":"Bagatelle","lat":"13.99797000","lon":"-60.98156000"},
{"state":"Castries Quarter","name":"Balata","lat":"14.01471000","lon":"-60.95167000"},
{"state":"Castries Quarter","name":"Banannes Bay","lat":"14.01087000","lon":"-61.00135000"},
{"state":"Castries Quarter","name":"Barnard Hill","lat":"14.01423000","lon":"-60.98924000"},
{"state":"Castries Quarter","name":"Barre Denis","lat":"13.96809000","lon":"-60.99073000"},
{"state":"Castries Quarter","name":"Barre Duchaussee","lat":"13.96190000","lon":"-60.99678000"},
{"state":"Castries Quarter","name":"Barre St.Joseph","lat":"13.97247000","lon":"-61.01829000"},
{"state":"Castries Quarter","name":"Belair","lat":"13.95283000","lon":"-60.99747000"},
{"state":"Castries Quarter","name":"Bella Rosa","lat":"14.00777000","lon":"-60.99628000"},
{"state":"Castries Quarter","name":"Bexon","lat":"13.96077000","lon":"-60.97497000"},
{"state":"Castries Quarter","name":"Bisee","lat":"14.02429000","lon":"-60.97445000"},
{"state":"Castries Quarter","name":"Bishop'S Gap","lat":"14.00019000","lon":"-60.98498000"},
{"state":"Castries Quarter","name":"Bissee","lat":"14.02255000","lon":"-60.97489000"},
{"state":"Castries Quarter","name":"Black Mallet","lat":"14.00457000","lon":"-60.98811000"},
{"state":"Castries Quarter","name":"Bocage","lat":"14.00199000","lon":"-60.96954000"},
{"state":"Castries Quarter","name":"Bois Catchet","lat":"14.00399000","lon":"-60.99437000"},
{"state":"Castries Quarter","name":"Bois Patat","lat":"14.00892000","lon":"-60.98214000"},
{"state":"Castries Quarter","name":"Cabiche/Babonneau","lat":"14.00583000","lon":"-60.95432000"},
{"state":"Castries Quarter","name":"Cacoa/Babonneau","lat":"13.98875000","lon":"-60.95113000"},
{"state":"Castries Quarter","name":"Calvary","lat":"14.01391000","lon":"-60.98664000"},
{"state":"Castries Quarter","name":"Capital Hill","lat":"13.99307000","lon":"-60.99097000"},
{"state":"Castries Quarter","name":"Carellie","lat":"14.01889000","lon":"-60.96851000"},
{"state":"Castries Quarter","name":"Castries","lat":"13.99570000","lon":"-61.00614000"},
{"state":"Castries Quarter","name":"Cedars","lat":"14.00601000","lon":"-60.98232000"},
{"state":"Castries Quarter","name":"Chase Gardens","lat":"14.01481000","lon":"-60.97395000"},
{"state":"Castries Quarter","name":"Chassin/Babonneau","lat":"13.99100000","lon":"-60.92187000"},
{"state":"Castries Quarter","name":"Choppin Ridge/Sarot","lat":"13.95597000","lon":"-60.98624000"},
{"state":"Castries Quarter","name":"Ciceron","lat":"13.99296000","lon":"-61.00878000"},
{"state":"Castries Quarter","name":"City","lat":"14.00946000","lon":"-60.99027000"},
{"state":"Castries Quarter","name":"City Gate/La Clery","lat":"14.02124000","lon":"-60.98149000"},
{"state":"Castries Quarter","name":"Conway/Waterfront","lat":"14.01389000","lon":"-60.99055000"},
{"state":"Castries Quarter","name":"Coolie Town","lat":"13.95684000","lon":"-61.01437000"},
{"state":"Castries Quarter","name":"Coubaril","lat":"14.00223000","lon":"-61.00919000"},
{"state":"Castries Quarter","name":"Crownlands/Marc","lat":"13.95174000","lon":"-60.97150000"},
{"state":"Castries Quarter","name":"Cul De Sac","lat":"13.98084000","lon":"-61.00645000"},
{"state":"Castries Quarter","name":"Darling Road","lat":"14.01355000","lon":"-60.98779000"},
{"state":"Castries Quarter","name":"Deglos","lat":"13.97727000","lon":"-60.97329000"},
{"state":"Castries Quarter","name":"Derierre Fort/Old Victoria Road","lat":"13.99474000","lon":"-60.98513000"},
{"state":"Castries Quarter","name":"Dubrassay","lat":"13.98382000","lon":"-60.97154000"},
{"state":"Castries Quarter","name":"En Pois Doux/Babonneau","lat":"13.98853000","lon":"-60.94099000"},
{"state":"Castries Quarter","name":"Entrepot","lat":"13.99978000","lon":"-60.97953000"},
{"state":"Castries Quarter","name":"Faux A Chaud","lat":"14.00878000","lon":"-60.99558000"},
{"state":"Castries Quarter","name":"Ferrand","lat":"13.98684000","lon":"-60.98494000"},
{"state":"Castries Quarter","name":"Floissac/Marc","lat":"13.96283000","lon":"-60.95880000"},
{"state":"Castries Quarter","name":"Fond Assau/Babonneau","lat":"13.99491000","lon":"-60.93626000"},
{"state":"Castries Quarter","name":"Fond Canie","lat":"13.99195000","lon":"-60.95954000"},
{"state":"Castries Quarter","name":"Forestiere","lat":"13.97775000","lon":"-60.95766000"},
{"state":"Castries Quarter","name":"George Charles Boulevard","lat":"14.00499000","lon":"-60.98673000"},
{"state":"Castries Quarter","name":"Girard","lat":"14.00004000","lon":"-60.95960000"},
{"state":"Castries Quarter","name":"Goergeville","lat":"14.01311000","lon":"-60.98446000"},
{"state":"Castries Quarter","name":"Goodlands","lat":"13.99121000","lon":"-60.99840000"},
{"state":"Castries Quarter","name":"Grass Street","lat":"14.00706000","lon":"-60.98763000"},
{"state":"Castries Quarter","name":"Green Gold","lat":"13.99603000","lon":"-60.95284000"},
{"state":"Castries Quarter","name":"Guesneau","lat":"13.99084000","lon":"-60.96486000"},
{"state":"Castries Quarter","name":"Hill 20/Babonneau","lat":"13.99941000","lon":"-60.94988000"},
{"state":"Castries Quarter","name":"Hillcrest Gardens","lat":"14.01115000","lon":"-60.97083000"},
{"state":"Castries Quarter","name":"Hospital Road","lat":"14.00914000","lon":"-60.99906000"},
{"state":"Castries Quarter","name":"Independence City","lat":"14.00199000","lon":"-60.97879000"},
{"state":"Castries Quarter","name":"John Compton Highway","lat":"14.01909000","lon":"-60.99110000"},
{"state":"Castries Quarter","name":"L'Anse Road","lat":"14.01875000","lon":"-60.98799000"},
{"state":"Castries Quarter","name":"La Carierre","lat":"14.01806000","lon":"-60.98723000"},
{"state":"Castries Quarter","name":"La Clery","lat":"14.01846000","lon":"-60.98422000"},
{"state":"Castries Quarter","name":"La Croix Maingot","lat":"13.96569000","lon":"-61.00582000"},
{"state":"Castries Quarter","name":"La Pansee","lat":"14.01368000","lon":"-60.98187000"},
{"state":"Castries Quarter","name":"La Toc","lat":"14.00824000","lon":"-61.00404000"},
{"state":"Castries Quarter","name":"Labayee","lat":"13.94044000","lon":"-60.97316000"},
{"state":"Castries Quarter","name":"Lastic Hill","lat":"14.00755000","lon":"-60.98321000"},
{"state":"Castries Quarter","name":"Leslie Land","lat":"14.00752000","lon":"-60.98674000"},
{"state":"Castries Quarter","name":"Marc","lat":"13.95688000","lon":"-60.95724000"},
{"state":"Castries Quarter","name":"Marchand","lat":"14.00415000","lon":"-60.98532000"},
{"state":"Castries Quarter","name":"Marigot","lat":"13.96212000","lon":"-61.02205000"},
{"state":"Castries Quarter","name":"Maynard Hill","lat":"14.00314000","lon":"-60.98966000"},
{"state":"Castries Quarter","name":"Miami/Bexon","lat":"13.92295000","lon":"-60.96945000"},
{"state":"Castries Quarter","name":"Monkey Town Ciceron","lat":"13.98885000","lon":"-61.00615000"},
{"state":"Castries Quarter","name":"Morne Assau/Babonneau","lat":"13.99079000","lon":"-60.93241000"},
{"state":"Castries Quarter","name":"Morne Dudon","lat":"14.01194000","lon":"-60.96378000"},
{"state":"Castries Quarter","name":"Morne Road","lat":"14.00544000","lon":"-60.99693000"},
{"state":"Castries Quarter","name":"Morne Rouge/Marc","lat":"13.95838000","lon":"-60.96972000"},
{"state":"Castries Quarter","name":"Mount Pleasant","lat":"14.01494000","lon":"-60.98576000"},
{"state":"Castries Quarter","name":"New Village","lat":"14.01104000","lon":"-60.98456000"},
{"state":"Castries Quarter","name":"Odsan","lat":"13.97479000","lon":"-60.98319000"},
{"state":"Castries Quarter","name":"Parker'S Hill","lat":"14.00378000","lon":"-60.99049000"},
{"state":"Castries Quarter","name":"Patterson'S Gap","lat":"14.00655000","lon":"-60.98473000"},
{"state":"Castries Quarter","name":"Pavee","lat":"14.00282000","lon":"-60.99191000"},
{"state":"Castries Quarter","name":"Peart'S Gap","lat":"14.01035000","lon":"-60.98598000"},
{"state":"Castries Quarter","name":"Perou","lat":"13.95960000","lon":"-61.00726000"},
{"state":"Castries Quarter","name":"Pointe Seraphine","lat":"14.01575000","lon":"-60.99305000"},
{"state":"Castries Quarter","name":"Quarte Chemins","lat":"13.99136000","lon":"-60.97630000"},
{"state":"Castries Quarter","name":"Ravine Chabot","lat":"14.00051000","lon":"-60.97617000"},
{"state":"Castries Quarter","name":"Ravine Poisson","lat":"13.93156000","lon":"-60.96849000"},
{"state":"Castries Quarter","name":"Ravine Touterelle","lat":"14.00325000","lon":"-60.98806000"},
{"state":"Castries Quarter","name":"Resinard/Babonneau","lat":"14.00289000","lon":"-60.94200000"},
{"state":"Castries Quarter","name":"Rock Hall","lat":"14.00009000","lon":"-60.98928000"},
{"state":"Castries Quarter","name":"Rose Hill","lat":"14.00816000","lon":"-60.98560000"},
{"state":"Castries Quarter","name":"San Soucis","lat":"14.01695000","lon":"-60.98985000"},
{"state":"Castries Quarter","name":"Sand De Feu","lat":"13.92781000","lon":"-60.98026000"},
{"state":"Castries Quarter","name":"Sarot","lat":"13.94212000","lon":"-60.98489000"},
{"state":"Castries Quarter","name":"Summersdale","lat":"14.02582000","lon":"-60.97644000"},
{"state":"Castries Quarter","name":"Sunbilt","lat":"14.00561000","lon":"-60.97922000"},
{"state":"Castries Quarter","name":"Sunny Acres","lat":"14.02810000","lon":"-60.97361000"},
{"state":"Castries Quarter","name":"Talvern","lat":"13.99578000","lon":"-60.94410000"},
{"state":"Castries Quarter","name":"Tapion","lat":"14.01383000","lon":"-61.00489000"},
{"state":"Castries Quarter","name":"The Morne","lat":"13.99778000","lon":"-60.99620000"},
{"state":"Castries Quarter","name":"Ti Colon","lat":"13.97071000","lon":"-61.00229000"},
{"state":"Castries Quarter","name":"Ti Rocher","lat":"13.99490000","lon":"-60.97110000"},
{"state":"Castries Quarter","name":"Trois Piton","lat":"13.98890000","lon":"-60.97259000"},
{"state":"Castries Quarter","name":"Trou Cochan/Marc","lat":"13.94220000","lon":"-60.96199000"},
{"state":"Castries Quarter","name":"Trou Florent/Marc","lat":"13.94525000","lon":"-60.95382000"},
{"state":"Castries Quarter","name":"Trou Rouge","lat":"14.00602000","lon":"-60.98950000"},
{"state":"Castries Quarter","name":"Vide Bouteille","lat":"14.02439000","lon":"-60.98066000"},
{"state":"Castries Quarter","name":"Vigie","lat":"14.02053000","lon":"-60.99611000"},
{"state":"Castries Quarter","name":"Waterworks","lat":"14.00498000","lon":"-60.97635000"},
{"state":"Castries Quarter","name":"Wilton'S Yard/Grave Yard","lat":"14.00968000","lon":"-60.98639000"},
{"state":"Castries Quarter","name":"Yorke Hill","lat":"14.01694000","lon":"-60.97919000"},
{"state":"Choiseul Quarter","name":"Belle Vue","lat":"13.80510000","lon":"-61.03615000"},
{"state":"Choiseul Quarter","name":"Bois Dinde","lat":"13.80463000","lon":"-61.04952000"},
{"state":"Choiseul Quarter","name":"Caffiere","lat":"13.78409000","lon":"-61.03554000"},
{"state":"Choiseul Quarter","name":"Cedars/Chu Tigre","lat":"13.76995000","lon":"-61.04716000"},
{"state":"Choiseul Quarter","name":"Choiseul","lat":"13.77273000","lon":"-61.04931000"},
{"state":"Choiseul Quarter","name":"Christian Hill","lat":"13.77354000","lon":"-61.04694000"},
{"state":"Choiseul Quarter","name":"Dacretin","lat":"13.79617000","lon":"-61.03574000"},
{"state":"Choiseul Quarter","name":"Debreuil","lat":"13.79033000","lon":"-61.02585000"},
{"state":"Choiseul Quarter","name":"Delcer","lat":"13.80121000","lon":"-61.05892000"},
{"state":"Choiseul Quarter","name":"Derriere Morne","lat":"13.80916000","lon":"-61.05101000"},
{"state":"Choiseul Quarter","name":"Dugard","lat":"13.80386000","lon":"-61.02831000"},
{"state":"Choiseul Quarter","name":"Dupre","lat":"13.79435000","lon":"-61.02947000"},
{"state":"Choiseul Quarter","name":"Esperance","lat":"13.80775000","lon":"-61.05331000"},
{"state":"Choiseul Quarter","name":"Franciou","lat":"13.80400000","lon":"-61.05448000"},
{"state":"Choiseul Quarter","name":"Industry","lat":"13.79127000","lon":"-61.05992000"},
{"state":"Choiseul Quarter","name":"La Fargue","lat":"13.77197000","lon":"-61.04124000"},
{"state":"Choiseul Quarter","name":"La Pointe","lat":"13.79443000","lon":"-61.06497000"},
{"state":"Choiseul Quarter","name":"Lamaze","lat":"13.80649000","lon":"-61.01906000"},
{"state":"Choiseul Quarter","name":"Le Riche","lat":"13.78365000","lon":"-61.04815000"},
{"state":"Choiseul Quarter","name":"Mailly Motete","lat":"13.81788000","lon":"-61.02772000"},
{"state":"Choiseul Quarter","name":"Martin","lat":"13.78941000","lon":"-61.04542000"},
{"state":"Choiseul Quarter","name":"Mongouge","lat":"13.80301000","lon":"-61.04524000"},
{"state":"Choiseul Quarter","name":"Monzie","lat":"13.80669000","lon":"-61.02297000"},
{"state":"Choiseul Quarter","name":"Morne Jacques","lat":"13.81162000","lon":"-61.03165000"},
{"state":"Choiseul Quarter","name":"Morne Sion","lat":"13.79246000","lon":"-61.05467000"},
{"state":"Choiseul Quarter","name":"Motete","lat":"13.81325000","lon":"-61.02320000"},
{"state":"Choiseul Quarter","name":"New Field/Fiette","lat":"13.78815000","lon":"-61.05216000"},
{"state":"Choiseul Quarter","name":"Ponyon","lat":"13.79639000","lon":"-61.04360000"},
{"state":"Choiseul Quarter","name":"Raveneau","lat":"13.81018000","lon":"-61.04642000"},
{"state":"Choiseul Quarter","name":"Reunion","lat":"13.77861000","lon":"-61.04531000"},
{"state":"Choiseul Quarter","name":"River Doree","lat":"13.76769000","lon":"-61.03646000"},
{"state":"Choiseul Quarter","name":"Roblot","lat":"13.80323000","lon":"-61.02297000"},
{"state":"Choiseul Quarter","name":"Sauzay","lat":"13.77743000","lon":"-61.03368000"},
{"state":"Choiseul Quarter","name":"Savannesgeorge/Constitution","lat":"13.77855000","lon":"-61.05139000"},
{"state":"Choiseul Quarter","name":"Victoria","lat":"13.81116000","lon":"-61.03963000"},
{"state":"Choiseul Quarter","name":"Village","lat":"13.77464000","lon":"-61.05020000"},
{"state":"Dennery Quarter","name":"Anse Canot","lat":"13.90871000","lon":"-60.90440000"},
{"state":"Dennery Quarter","name":"Athens","lat":"13.90574000","lon":"-60.89184000"},
{"state":"Dennery Quarter","name":"Au Leon","lat":"13.95245000","lon":"-60.90456000"},
{"state":"Dennery Quarter","name":"Bara Bara","lat":"13.95911000","lon":"-60.93414000"},
{"state":"Dennery Quarter","name":"Bazile","lat":"13.91082000","lon":"-60.92430000"},
{"state":"Dennery Quarter","name":"Belmont","lat":"13.95044000","lon":"-60.93276000"},
{"state":"Dennery Quarter","name":"Bois Joli","lat":"13.92020000","lon":"-60.91409000"},
{"state":"Dennery Quarter","name":"Bordelais","lat":"13.89552000","lon":"-60.90092000"},
{"state":"Dennery Quarter","name":"Bosquet D'Or","lat":"13.92886000","lon":"-60.91127000"},
{"state":"Dennery Quarter","name":"Delaide","lat":"13.92993000","lon":"-60.90584000"},
{"state":"Dennery Quarter","name":"Dennery","lat":"13.91409000","lon":"-60.89132000"},
{"state":"Dennery Quarter","name":"Dennery By Pass","lat":"13.91164000","lon":"-60.89454000"},
{"state":"Dennery Quarter","name":"Dennery By Pass/Green Mountain","lat":"13.91094000","lon":"-60.89810000"},
{"state":"Dennery Quarter","name":"Dennery By Pass/Rocky Lane","lat":"13.91443000","lon":"-60.90017000"},
{"state":"Dennery Quarter","name":"Dennery By Pass/White Rock Gardens","lat":"13.91424000","lon":"-60.89333000"},
{"state":"Dennery Quarter","name":"Dennery Village","lat":"13.91099000","lon":"-60.89122000"},
{"state":"Dennery Quarter","name":"Derniere Riviere","lat":"13.95679000","lon":"-60.92578000"},
{"state":"Dennery Quarter","name":"Derniere Riviere/Fond Maricient","lat":"13.95130000","lon":"-60.92218000"},
{"state":"Dennery Quarter","name":"Derniere Riviere/Mardi Gras/Morne Caca Cochon","lat":"13.96288000","lon":"-60.92029000"},
{"state":"Dennery Quarter","name":"Derniere Riviere/Morne Panache","lat":"13.95252000","lon":"-60.92919000"},
{"state":"Dennery Quarter","name":"Despinoze","lat":"13.94971000","lon":"-60.91182000"},
{"state":"Dennery Quarter","name":"Dubonnaire","lat":"13.92808000","lon":"-60.92336000"},
{"state":"Dennery Quarter","name":"Gadette","lat":"13.95937000","lon":"-60.91029000"},
{"state":"Dennery Quarter","name":"Grande Ravine","lat":"13.94263000","lon":"-60.93404000"},
{"state":"Dennery Quarter","name":"Grande Riviere","lat":"13.93306000","lon":"-60.93239000"},
{"state":"Dennery Quarter","name":"Grande Riviere/Des Branch","lat":"13.93383000","lon":"-60.93499000"},
{"state":"Dennery Quarter","name":"Grande Riviere/En Leur Morne/Discompere","lat":"13.93223000","lon":"-60.93461000"},
{"state":"Dennery Quarter","name":"Grande Riviere/Funier","lat":"13.93240000","lon":"-60.93305000"},
{"state":"Dennery Quarter","name":"Grande Riviere/Morne Caca Cochon","lat":"13.92960000","lon":"-60.93794000"},
{"state":"Dennery Quarter","name":"La Caye","lat":"13.93290000","lon":"-60.90434000"},
{"state":"Dennery Quarter","name":"La Pelle","lat":"13.94096000","lon":"-60.90569000"},
{"state":"Dennery Quarter","name":"La Pointe","lat":"13.91525000","lon":"-60.88830000"},
{"state":"Dennery Quarter","name":"La Ressource","lat":"13.94293000","lon":"-60.91585000"},
{"state":"Dennery Quarter","name":"Lumiere","lat":"13.93928000","lon":"-60.88889000"},
{"state":"Dennery Quarter","name":"Morne Panache","lat":"13.92167000","lon":"-60.93654000"},
{"state":"Dennery Quarter","name":"Riche Fond","lat":"13.93644000","lon":"-60.92026000"},
{"state":"Dennery Quarter","name":"Riche Fond/La Belle Vie","lat":"13.93782000","lon":"-60.92908000"},
{"state":"Dennery Quarter","name":"Riche Fond/New Village","lat":"13.93648000","lon":"-60.92394000"},
{"state":"Dennery Quarter","name":"St. Joseph Estate","lat":"13.90066000","lon":"-60.91444000"},
{"state":"Dennery Quarter","name":"Thamazo","lat":"13.93245000","lon":"-60.94786000"},
{"state":"Gros Islet Quarter","name":"Beausejour","lat":"14.07647000","lon":"-60.93780000"},
{"state":"Gros Islet Quarter","name":"Beausejour/Fostin'S Development","lat":"14.07445000","lon":"-60.92929000"},
{"state":"Gros Islet Quarter","name":"Beausejour/Ndc","lat":"14.07733000","lon":"-60.92683000"},
{"state":"Gros Islet Quarter","name":"Bella Rosa","lat":"14.07711000","lon":"-60.94568000"},
{"state":"Gros Islet Quarter","name":"Belle Vue","lat":"14.08470000","lon":"-60.94342000"},
{"state":"Gros Islet Quarter","name":"Belle Vue Estate","lat":"14.08840000","lon":"-60.94613000"},
{"state":"Gros Islet Quarter","name":"Boguis","lat":"14.01548000","lon":"-60.92089000"},
{"state":"Gros Islet Quarter","name":"Boguis/Desa Blond","lat":"14.01057000","lon":"-60.92565000"},
{"state":"Gros Islet Quarter","name":"Bois D'Orange","lat":"14.05803000","lon":"-60.95992000"},
{"state":"Gros Islet Quarter","name":"Bois D'Ornange/Trouya","lat":"14.06198000","lon":"-60.96914000"},
{"state":"Gros Islet Quarter","name":"Bonneterre","lat":"14.06994000","lon":"-60.94146000"},
{"state":"Gros Islet Quarter","name":"Bonneterre Gardens","lat":"14.06737000","lon":"-60.93393000"},
{"state":"Gros Islet Quarter","name":"Cap Estate","lat":"14.09410000","lon":"-60.93592000"},
{"state":"Gros Islet Quarter","name":"Cap Estate/Becune Point","lat":"14.09270000","lon":"-60.95161000"},
{"state":"Gros Islet Quarter","name":"Cap Estate/Caribbean Park","lat":"14.10019000","lon":"-60.92446000"},
{"state":"Gros Islet Quarter","name":"Cap Estate/Golf Park","lat":"14.09998000","lon":"-60.93705000"},
{"state":"Gros Islet Quarter","name":"Cap Estate/Lower Saline Point","lat":"14.10515000","lon":"-60.94310000"},
{"state":"Gros Islet Quarter","name":"Cap Estate/Mon Du Cap","lat":"14.10554000","lon":"-60.93758000"},
{"state":"Gros Islet Quarter","name":"Cap Estate/Ranch Site","lat":"14.10437000","lon":"-60.93360000"},
{"state":"Gros Islet Quarter","name":"Cap Estate/Saddlec Back","lat":"14.10023000","lon":"-60.94246000"},
{"state":"Gros Islet Quarter","name":"Cap Estate/Upper Saline Point","lat":"14.10740000","lon":"-60.94487000"},
{"state":"Gros Islet Quarter","name":"Cas En Bas","lat":"14.08328000","lon":"-60.93209000"},
{"state":"Gros Islet Quarter","name":"Caye Manje'","lat":"14.06629000","lon":"-60.93560000"},
{"state":"Gros Islet Quarter","name":"Corinth","lat":"14.04710000","lon":"-60.96046000"},
{"state":"Gros Islet Quarter","name":"Corinth Estate","lat":"14.04336000","lon":"-60.95388000"},
{"state":"Gros Islet Quarter","name":"Corinth/La Bel Lair","lat":"14.04469000","lon":"-60.94484000"},
{"state":"Gros Islet Quarter","name":"Dauphin","lat":"14.05647000","lon":"-60.90188000"},
{"state":"Gros Islet Quarter","name":"Des Barras","lat":"13.99949000","lon":"-60.90166000"},
{"state":"Gros Islet Quarter","name":"Des Barras/Cacolie","lat":"14.01687000","lon":"-60.90097000"},
{"state":"Gros Islet Quarter","name":"Desrameaux","lat":"14.03681000","lon":"-60.92697000"},
{"state":"Gros Islet Quarter","name":"Garrand","lat":"14.00424000","lon":"-60.93270000"},
{"state":"Gros Islet Quarter","name":"Grand Riviere","lat":"14.03546000","lon":"-60.95152000"},
{"state":"Gros Islet Quarter","name":"Grande Riviere/Assou Canal","lat":"14.03975000","lon":"-60.95121000"},
{"state":"Gros Islet Quarter","name":"Grande Riviere/Ingle Woods","lat":"14.03091000","lon":"-60.95592000"},
{"state":"Gros Islet Quarter","name":"Grande Riviere/Morne Serpent","lat":"14.03509000","lon":"-60.96060000"},
{"state":"Gros Islet Quarter","name":"Grande Riviere/Norbert","lat":"14.04317000","lon":"-60.94933000"},
{"state":"Gros Islet Quarter","name":"Grande Riviere/Piat","lat":"14.03926000","lon":"-60.94361000"},
{"state":"Gros Islet Quarter","name":"Grande Riviere/White Rock","lat":"14.03618000","lon":"-60.95556000"},
{"state":"Gros Islet Quarter","name":"Gros Islet","lat":"14.06667000","lon":"-60.95000000"},
{"state":"Gros Islet Quarter","name":"Gros Islet Town","lat":"14.08080000","lon":"-60.95312000"},
{"state":"Gros Islet Quarter","name":"Gros Islet/Edge Water","lat":"14.07912000","lon":"-60.94973000"},
{"state":"Gros Islet Quarter","name":"L'Hermitage","lat":"14.06521000","lon":"-60.93967000"},
{"state":"Gros Islet Quarter","name":"La Croix Chabourgh","lat":"14.01147000","lon":"-60.94025000"},
{"state":"Gros Islet Quarter","name":"La Guerre","lat":"14.02191000","lon":"-60.92491000"},
{"state":"Gros Islet Quarter","name":"La Guerre/Chicken Back Street","lat":"14.02387000","lon":"-60.93108000"},
{"state":"Gros Islet Quarter","name":"Marisule","lat":"14.04621000","lon":"-60.97063000"},
{"state":"Gros Islet Quarter","name":"Marisule/Bon Air","lat":"14.05062000","lon":"-60.97124000"},
{"state":"Gros Islet Quarter","name":"Marisule/East Winds","lat":"14.05407000","lon":"-60.96849000"},
{"state":"Gros Islet Quarter","name":"Marisule/La Brellotte","lat":"14.05710000","lon":"-60.97183000"},
{"state":"Gros Islet Quarter","name":"Marisule/Top Of The World","lat":"14.04385000","lon":"-60.96885000"},
{"state":"Gros Islet Quarter","name":"Marquis Estate","lat":"14.02960000","lon":"-60.90732000"},
{"state":"Gros Islet Quarter","name":"Massade","lat":"14.08292000","lon":"-60.94946000"},
{"state":"Gros Islet Quarter","name":"Monchy","lat":"14.05502000","lon":"-60.92623000"},
{"state":"Gros Islet Quarter","name":"Monchy/Careffe","lat":"14.05930000","lon":"-60.95069000"},
{"state":"Gros Islet Quarter","name":"Monchy/Cletus Village","lat":"14.05137000","lon":"-60.92380000"},
{"state":"Gros Islet Quarter","name":"Monchy/La Borne","lat":"14.04628000","lon":"-60.91961000"},
{"state":"Gros Islet Quarter","name":"Monchy/La Borne/Sans Souci","lat":"14.04504000","lon":"-60.89961000"},
{"state":"Gros Islet Quarter","name":"Monchy/La Retraite","lat":"14.06421000","lon":"-60.94564000"},
{"state":"Gros Islet Quarter","name":"Monchy/Lafeuillee","lat":"14.05950000","lon":"-60.94086000"},
{"state":"Gros Islet Quarter","name":"Monchy/Lawi Fwen","lat":"14.05802000","lon":"-60.92906000"},
{"state":"Gros Islet Quarter","name":"Monchy/Malgretoute","lat":"14.04108000","lon":"-60.91912000"},
{"state":"Gros Islet Quarter","name":"Monchy/Moulin A Vent","lat":"14.06283000","lon":"-60.95025000"},
{"state":"Gros Islet Quarter","name":"Monchy/Ravine Macock","lat":"14.04789000","lon":"-60.92511000"},
{"state":"Gros Islet Quarter","name":"Monchy/Riviere Mitan","lat":"14.04987000","lon":"-60.94029000"},
{"state":"Gros Islet Quarter","name":"Monchy/Ti Dauphin","lat":"14.04081000","lon":"-60.93225000"},
{"state":"Gros Islet Quarter","name":"Monchy/Vieux Sucreic","lat":"14.04996000","lon":"-60.94992000"},
{"state":"Gros Islet Quarter","name":"Monchy/Vieux Sucreic/Bois D'Inde","lat":"14.05613000","lon":"-60.95151000"},
{"state":"Gros Islet Quarter","name":"Monchy/Vieux Sucreic/Careffe","lat":"14.05652000","lon":"-60.94948000"},
{"state":"Gros Islet Quarter","name":"Mongiraud","lat":"14.06287000","lon":"-60.95722000"},
{"state":"Gros Islet Quarter","name":"Monier","lat":"14.02951000","lon":"-60.94098000"},
{"state":"Gros Islet Quarter","name":"Morne Citon","lat":"14.03004000","lon":"-60.92813000"},
{"state":"Gros Islet Quarter","name":"Paix Bouche","lat":"14.01755000","lon":"-60.93852000"},
{"state":"Gros Islet Quarter","name":"Pigeon Island","lat":"14.08965000","lon":"-60.95724000"},
{"state":"Gros Islet Quarter","name":"Plateau","lat":"14.02612000","lon":"-60.93474000"},
{"state":"Gros Islet Quarter","name":"Reduit","lat":"14.06829000","lon":"-60.96145000"},
{"state":"Gros Islet Quarter","name":"Reduit Orchard","lat":"14.06594000","lon":"-60.95340000"},
{"state":"Gros Islet Quarter","name":"Reduit Park","lat":"14.06622000","lon":"-60.95560000"},
{"state":"Gros Islet Quarter","name":"Rodney Bay","lat":"14.07292000","lon":"-60.95443000"},
{"state":"Gros Islet Quarter","name":"Rodney Heights","lat":"14.06731000","lon":"-60.94906000"},
{"state":"Gros Islet Quarter","name":"Union","lat":"14.02907000","lon":"-60.96480000"},
{"state":"Gros Islet Quarter","name":"Union Terrace","lat":"14.02654000","lon":"-60.95710000"},
{"state":"Gros Islet Quarter","name":"Union/Ti Morne","lat":"14.02283000","lon":"-60.95272000"},
{"state":"Laborie Quarter","name":"Annus","lat":"13.77449000","lon":"-61.00511000"},
{"state":"Laborie Quarter","name":"Balca","lat":"13.77117000","lon":"-61.02389000"},
{"state":"Laborie Quarter","name":"Balca/En Leur Ba","lat":"13.77638000","lon":"-61.01931000"},
{"state":"Laborie Quarter","name":"Balembouche","lat":"13.75992000","lon":"-61.02840000"},
{"state":"Laborie Quarter","name":"Banse","lat":"13.79211000","lon":"-60.99282000"},
{"state":"Laborie Quarter","name":"Banse La Grace","lat":"13.78150000","lon":"-60.99840000"},
{"state":"Laborie Quarter","name":"Bongalo","lat":"13.76666000","lon":"-61.02991000"},
{"state":"Laborie Quarter","name":"Daban","lat":"13.80490000","lon":"-61.00435000"},
{"state":"Laborie Quarter","name":"Fond Berange","lat":"13.78238000","lon":"-61.00346000"},
{"state":"Laborie Quarter","name":"Gayabois","lat":"13.78643000","lon":"-61.01835000"},
{"state":"Laborie Quarter","name":"Gentil","lat":"13.76816000","lon":"-60.98877000"},
{"state":"Laborie Quarter","name":"Getrine","lat":"13.78192000","lon":"-61.00741000"},
{"state":"Laborie Quarter","name":"Giraud","lat":"13.79254000","lon":"-61.00843000"},
{"state":"Laborie Quarter","name":"H'Erelle","lat":"13.75599000","lon":"-60.98698000"},
{"state":"Laborie Quarter","name":"Kennedy Highway/Laborie Bypass","lat":"13.75380000","lon":"-60.99594000"},
{"state":"Laborie Quarter","name":"La Haut","lat":"13.79207000","lon":"-61.00014000"},
{"state":"Laborie Quarter","name":"La Perle","lat":"13.76483000","lon":"-61.02088000"},
{"state":"Laborie Quarter","name":"Laborie","lat":"13.75000000","lon":"-60.98333000"},
{"state":"Laborie Quarter","name":"Londonderry","lat":"13.77623000","lon":"-61.01362000"},
{"state":"Laborie Quarter","name":"Macdomel","lat":"13.77497000","lon":"-60.98508000"},
{"state":"Laborie Quarter","name":"Morne Gomier","lat":"13.76552000","lon":"-60.99524000"},
{"state":"Laborie Quarter","name":"Morne Le Blanc","lat":"13.75868000","lon":"-60.99913000"},
{"state":"Laborie Quarter","name":"Olibo","lat":"13.77628000","lon":"-60.99931000"},
{"state":"Laborie Quarter","name":"Parc Estate","lat":"13.79639000","lon":"-61.01613000"},
{"state":"Laborie Quarter","name":"Piaye","lat":"13.75628000","lon":"-61.02279000"},
{"state":"Laborie Quarter","name":"Saltibus","lat":"13.81211000","lon":"-61.00982000"},
{"state":"Laborie Quarter","name":"Saphire","lat":"13.75670000","lon":"-61.01209000"},
{"state":"Laborie Quarter","name":"Tete Morne","lat":"13.76160000","lon":"-61.03397000"},
{"state":"Laborie Quarter","name":"Village","lat":"13.74927000","lon":"-60.99375000"},
{"state":"Laborie Quarter","name":"Warwick/Daban","lat":"13.81084000","lon":"-61.00047000"},
{"state":"Micoud Quarter","name":"Anse Ger","lat":"13.79567000","lon":"-60.91567000"},
{"state":"Micoud Quarter","name":"Beauchamp","lat":"13.81778000","lon":"-60.91528000"},
{"state":"Micoud Quarter","name":"Blanchard","lat":"13.80616000","lon":"-60.94630000"},
{"state":"Micoud Quarter","name":"Canelles","lat":"13.78515000","lon":"-60.91789000"},
{"state":"Micoud Quarter","name":"Cazuca","lat":"13.80002000","lon":"-60.90481000"},
{"state":"Micoud Quarter","name":"Chique/Blanchard","lat":"13.80120000","lon":"-60.94970000"},
{"state":"Micoud Quarter","name":"Coolie Town","lat":"13.85429000","lon":"-60.91380000"},
{"state":"Micoud Quarter","name":"Delomel","lat":"13.80338000","lon":"-60.92927000"},
{"state":"Micoud Quarter","name":"Des Blanchard","lat":"13.81155000","lon":"-60.93423000"},
{"state":"Micoud Quarter","name":"Desruisseaux","lat":"13.79640000","lon":"-60.93540000"},
{"state":"Micoud Quarter","name":"Dugard","lat":"13.81090000","lon":"-60.91415000"},
{"state":"Micoud Quarter","name":"Escap","lat":"13.83031000","lon":"-60.89673000"},
{"state":"Micoud Quarter","name":"Fond D'Lor/Dugard","lat":"13.81069000","lon":"-60.92119000"},
{"state":"Micoud Quarter","name":"Fond Estate","lat":"13.84243000","lon":"-60.91862000"},
{"state":"Micoud Quarter","name":"Fond/Desruisseaux","lat":"13.79421000","lon":"-60.94128000"},
{"state":"Micoud Quarter","name":"Gomier","lat":"13.81485000","lon":"-60.95252000"},
{"state":"Micoud Quarter","name":"Gouette","lat":"13.80650000","lon":"-60.93964000"},
{"state":"Micoud Quarter","name":"Honeymoon Beach","lat":"13.77746000","lon":"-60.90493000"},
{"state":"Micoud Quarter","name":"L'Eau Mineau","lat":"13.80672000","lon":"-60.92103000"},
{"state":"Micoud Quarter","name":"La Courville","lat":"13.81056000","lon":"-60.92766000"},
{"state":"Micoud Quarter","name":"La Pointe","lat":"13.84593000","lon":"-60.89332000"},
{"state":"Micoud Quarter","name":"La Tille","lat":"13.82744000","lon":"-60.91716000"},
{"state":"Micoud Quarter","name":"Lezy","lat":"13.80372000","lon":"-60.93906000"},
{"state":"Micoud Quarter","name":"Lombard","lat":"13.85772000","lon":"-60.91510000"},
{"state":"Micoud Quarter","name":"Mahaut","lat":"13.84391000","lon":"-60.95397000"},
{"state":"Micoud Quarter","name":"Malgretoute","lat":"13.84199000","lon":"-60.90411000"},
{"state":"Micoud Quarter","name":"Mamiku","lat":"13.86744000","lon":"-60.90184000"},
{"state":"Micoud Quarter","name":"Micoud","lat":"13.81667000","lon":"-60.90000000"},
{"state":"Micoud Quarter","name":"Mon Repos","lat":"13.85865000","lon":"-60.89591000"},
{"state":"Micoud Quarter","name":"Moreau","lat":"13.82676000","lon":"-60.94238000"},
{"state":"Micoud Quarter","name":"Morne Vient","lat":"13.80646000","lon":"-60.95241000"},
{"state":"Micoud Quarter","name":"Myette Gardens","lat":"13.81862000","lon":"-60.90440000"},
{"state":"Micoud Quarter","name":"New Village","lat":"13.82446000","lon":"-60.89864000"},
{"state":"Micoud Quarter","name":"Paix Bouche","lat":"13.81556000","lon":"-60.94073000"},
{"state":"Micoud Quarter","name":"Palmiste Estate","lat":"13.85377000","lon":"-60.96007000"},
{"state":"Micoud Quarter","name":"Patience","lat":"13.85000000","lon":"-60.90874000"},
{"state":"Micoud Quarter","name":"Planard","lat":"13.80521000","lon":"-60.91540000"},
{"state":"Micoud Quarter","name":"Praslin","lat":"13.87545000","lon":"-60.89717000"},
{"state":"Micoud Quarter","name":"Rameau","lat":"13.83055000","lon":"-60.92375000"},
{"state":"Micoud Quarter","name":"Saint Marie Road","lat":"13.85444000","lon":"-60.91803000"},
{"state":"Micoud Quarter","name":"Saut","lat":"13.81272000","lon":"-60.94375000"},
{"state":"Micoud Quarter","name":"Savannes","lat":"13.77098000","lon":"-60.92017000"},
{"state":"Micoud Quarter","name":"St Helen Estate","lat":"13.78735000","lon":"-60.90726000"},
{"state":"Micoud Quarter","name":"Ti Riviere","lat":"13.83006000","lon":"-60.93774000"},
{"state":"Micoud Quarter","name":"Ti Rocher","lat":"13.81734000","lon":"-60.92858000"},
{"state":"Micoud Quarter","name":"Troumassee","lat":"13.80892000","lon":"-60.90341000"},
{"state":"Micoud Quarter","name":"Village","lat":"13.81904000","lon":"-60.89692000"},
{"state":"Micoud Quarter","name":"Volet","lat":"13.82626000","lon":"-60.90789000"},
{"state":"Soufrière Quarter","name":"Anse Chastanet","lat":"13.86426000","lon":"-61.07016000"},
{"state":"Soufrière Quarter","name":"Barons Drive/Coin De L'Anse","lat":"13.85138000","lon":"-61.05939000"},
{"state":"Soufrière Quarter","name":"Beasejour/Myers Bridge","lat":"13.82147000","lon":"-61.03396000"},
{"state":"Soufrière Quarter","name":"Belle Plaine","lat":"13.82700000","lon":"-61.03127000"},
{"state":"Soufrière Quarter","name":"Bellefond","lat":"13.82753000","lon":"-61.04269000"},
{"state":"Soufrière Quarter","name":"Belvedere","lat":"13.83440000","lon":"-61.01771000"},
{"state":"Soufrière Quarter","name":"Bois D'Inde","lat":"13.83650000","lon":"-61.03491000"},
{"state":"Soufrière Quarter","name":"Bouton","lat":"13.87936000","lon":"-61.06449000"},
{"state":"Soufrière Quarter","name":"Calvary/Calvaire","lat":"13.85035000","lon":"-61.05620000"},
{"state":"Soufrière Quarter","name":"Cenac","lat":"13.87207000","lon":"-61.04243000"},
{"state":"Soufrière Quarter","name":"Chateau Belair","lat":"13.81830000","lon":"-61.05350000"},
{"state":"Soufrière Quarter","name":"Colombette","lat":"13.86861000","lon":"-61.04990000"},
{"state":"Soufrière Quarter","name":"Compar","lat":"13.83586000","lon":"-61.05934000"},
{"state":"Soufrière Quarter","name":"Cresslands","lat":"13.85999000","lon":"-61.04032000"},
{"state":"Soufrière Quarter","name":"Deville","lat":"13.81372000","lon":"-61.05049000"},
{"state":"Soufrière Quarter","name":"Diamond/Diamond Estate","lat":"13.85168000","lon":"-61.04352000"},
{"state":"Soufrière Quarter","name":"Esperance","lat":"13.84562000","lon":"-61.03713000"},
{"state":"Soufrière Quarter","name":"Etangs","lat":"13.81902000","lon":"-61.04056000"},
{"state":"Soufrière Quarter","name":"Fond Bernier","lat":"13.85845000","lon":"-61.05949000"},
{"state":"Soufrière Quarter","name":"Fond Cacoa","lat":"13.85442000","lon":"-61.05077000"},
{"state":"Soufrière Quarter","name":"Fond Doux","lat":"13.82096000","lon":"-61.04952000"},
{"state":"Soufrière Quarter","name":"Fond Gens Libre","lat":"13.80791000","lon":"-61.06259000"},
{"state":"Soufrière Quarter","name":"Jalousie","lat":"13.82811000","lon":"-61.05891000"},
{"state":"Soufrière Quarter","name":"La Haut","lat":"13.86276000","lon":"-61.05584000"},
{"state":"Soufrière Quarter","name":"La Pearle","lat":"13.85740000","lon":"-61.04760000"},
{"state":"Soufrière Quarter","name":"Lenny Hill","lat":"13.85059000","lon":"-61.05906000"},
{"state":"Soufrière Quarter","name":"Malgretoute","lat":"13.84233000","lon":"-61.05998000"},
{"state":"Soufrière Quarter","name":"Migny","lat":"13.84166000","lon":"-61.01808000"},
{"state":"Soufrière Quarter","name":"Mocha","lat":"13.83117000","lon":"-61.02503000"},
{"state":"Soufrière Quarter","name":"Morne Bonin","lat":"13.83174000","lon":"-61.03285000"},
{"state":"Soufrière Quarter","name":"Morne La Croix","lat":"13.81762000","lon":"-61.06146000"},
{"state":"Soufrière Quarter","name":"Morne Lastic/Desruisseaux","lat":"13.86628000","lon":"-61.05894000"},
{"state":"Soufrière Quarter","name":"New Development","lat":"13.86176000","lon":"-61.04791000"},
{"state":"Soufrière Quarter","name":"Palmiste","lat":"13.85843000","lon":"-61.05575000"},
{"state":"Soufrière Quarter","name":"Plat Pays","lat":"13.84085000","lon":"-61.05571000"},
{"state":"Soufrière Quarter","name":"Rabot","lat":"13.83380000","lon":"-61.04540000"},
{"state":"Soufrière Quarter","name":"Ravine Claire","lat":"13.85262000","lon":"-61.02892000"},
{"state":"Soufrière Quarter","name":"Ruby Estate","lat":"13.85812000","lon":"-61.04983000"},
{"state":"Soufrière Quarter","name":"Soufrière","lat":"13.85616000","lon":"-61.05660000"},
{"state":"Soufrière Quarter","name":"Soufriere Estate","lat":"13.85174000","lon":"-61.05420000"},
{"state":"Soufrière Quarter","name":"St Phillip","lat":"13.84432000","lon":"-61.02766000"},
{"state":"Soufrière Quarter","name":"Stonefield","lat":"13.84513000","lon":"-61.05990000"},
{"state":"Soufrière Quarter","name":"Sulphur Springs","lat":"13.84002000","lon":"-61.04512000"},
{"state":"Soufrière Quarter","name":"Ti Boug","lat":"13.83744000","lon":"-61.02460000"},
{"state":"Soufrière Quarter","name":"Ti Delcer","lat":"13.83386000","lon":"-61.06410000"},
{"state":"Soufrière Quarter","name":"Toraille","lat":"13.85704000","lon":"-61.03296000"},
{"state":"Soufrière Quarter","name":"Town","lat":"13.85491000","lon":"-61.05764000"},
{"state":"Soufrière Quarter","name":"Union Vale","lat":"13.81103000","lon":"-61.05686000"},
{"state":"Soufrière Quarter","name":"Zenon","lat":"13.85953000","lon":"-61.03394000"},
{"state":"Vieux Fort Quarter","name":"Augier","lat":"13.76669000","lon":"-60.98063000"},
{"state":"Vieux Fort Quarter","name":"Beane Field","lat":"13.73976000","lon":"-60.94741000"},
{"state":"Vieux Fort Quarter","name":"Beausejour","lat":"13.75229000","lon":"-60.95519000"},
{"state":"Vieux Fort Quarter","name":"Belle Vue","lat":"13.79218000","lon":"-60.95379000"},
{"state":"Vieux Fort Quarter","name":"Black Bay","lat":"13.74330000","lon":"-60.98272000"},
{"state":"Vieux Fort Quarter","name":"Bruceville/Shanty Town","lat":"13.72558000","lon":"-60.94907000"},
{"state":"Vieux Fort Quarter","name":"Cacoa","lat":"13.77889000","lon":"-60.93862000"},
{"state":"Vieux Fort Quarter","name":"Cantonement","lat":"13.75665000","lon":"-60.97662000"},
{"state":"Vieux Fort Quarter","name":"Carierre","lat":"13.78514000","lon":"-60.96721000"},
{"state":"Vieux Fort Quarter","name":"Catin","lat":"13.77694000","lon":"-60.97973000"},
{"state":"Vieux Fort Quarter","name":"Cocoa Dan","lat":"13.73087000","lon":"-60.97195000"},
{"state":"Vieux Fort Quarter","name":"Coolie Town","lat":"13.76911000","lon":"-60.96680000"},
{"state":"Vieux Fort Quarter","name":"De Mailly","lat":"13.79649000","lon":"-60.94938000"},
{"state":"Vieux Fort Quarter","name":"Derierre Bois","lat":"13.76807000","lon":"-60.97725000"},
{"state":"Vieux Fort Quarter","name":"Derierre Morne","lat":"13.74126000","lon":"-60.96057000"},
{"state":"Vieux Fort Quarter","name":"Docamel/La Resource","lat":"13.74202000","lon":"-60.95604000"},
{"state":"Vieux Fort Quarter","name":"Eau Piquant/St Urbain","lat":"13.76025000","lon":"-60.94012000"},
{"state":"Vieux Fort Quarter","name":"En Bamboo","lat":"13.78155000","lon":"-60.94763000"},
{"state":"Vieux Fort Quarter","name":"Esperance","lat":"13.78854000","lon":"-60.96108000"},
{"state":"Vieux Fort Quarter","name":"Fond Capeche","lat":"13.77449000","lon":"-60.94835000"},
{"state":"Vieux Fort Quarter","name":"Fond Sabot","lat":"13.77659000","lon":"-60.95546000"},
{"state":"Vieux Fort Quarter","name":"Grace","lat":"13.77678000","lon":"-60.96637000"},
{"state":"Vieux Fort Quarter","name":"Hewanorra Orchard","lat":"13.74486000","lon":"-60.97284000"},
{"state":"Vieux Fort Quarter","name":"Hope Estate","lat":"13.76477000","lon":"-60.95831000"},
{"state":"Vieux Fort Quarter","name":"Industrial Estate","lat":"13.74096000","lon":"-60.97393000"},
{"state":"Vieux Fort Quarter","name":"Joyeux","lat":"13.78313000","lon":"-60.96068000"},
{"state":"Vieux Fort Quarter","name":"La Resource","lat":"13.74799000","lon":"-60.96237000"},
{"state":"Vieux Fort Quarter","name":"La Retraite","lat":"13.75944000","lon":"-60.96632000"},
{"state":"Vieux Fort Quarter","name":"La Tourney/Cedar Heights","lat":"13.74114000","lon":"-60.96517000"},
{"state":"Vieux Fort Quarter","name":"Maganier","lat":"13.79450000","lon":"-60.98513000"},
{"state":"Vieux Fort Quarter","name":"Morne Cayenne","lat":"13.78349000","lon":"-60.95506000"},
{"state":"Vieux Fort Quarter","name":"Morne Vert","lat":"13.77899000","lon":"-60.97617000"},
{"state":"Vieux Fort Quarter","name":"Moule A Chique","lat":"13.71458000","lon":"-60.94835000"},
{"state":"Vieux Fort Quarter","name":"Obrier","lat":"13.76831000","lon":"-60.97313000"},
{"state":"Vieux Fort Quarter","name":"Pierrot","lat":"13.76857000","lon":"-60.94381000"},
{"state":"Vieux Fort Quarter","name":"Plut","lat":"13.77417000","lon":"-60.96076000"},
{"state":"Vieux Fort Quarter","name":"Pomme","lat":"13.75792000","lon":"-60.98147000"},
{"state":"Vieux Fort Quarter","name":"St Jude'S Highway","lat":"13.75867000","lon":"-60.97360000"},
{"state":"Vieux Fort Quarter","name":"Tete Morne/Morne Andrew","lat":"13.77114000","lon":"-60.95194000"},
{"state":"Vieux Fort Quarter","name":"Town","lat":"13.72835000","lon":"-60.95408000"},
{"state":"Vieux Fort Quarter","name":"Vieux Fort","lat":"13.71667000","lon":"-60.95000000"},
{"state":"Vieux Fort Quarter","name":"Vieux Fort/Laborie Highway","lat":"13.73197000","lon":"-60.95477000"},
{"state":"Vieux Fort Quarter","name":"Vige'","lat":"13.78692000","lon":"-60.93550000"},
{"state":"Vieux Fort Quarter","name":"Westall Group/The Mangue","lat":"13.72707000","lon":"-60.95312000"}]