[{"state":"Central Province","name":"Dambulla","lat":"7.86000000","lon":"80.65167000"},
{"state":"Central Province","name":"Hatton","lat":"6.89160000","lon":"80.59550000"},
{"state":"Central Province","name":"Kandy","lat":"7.29060000","lon":"80.63360000"},
{"state":"Central Province","name":"Kandy District","lat":"7.30440000","lon":"80.70730000"},
{"state":"Central Province","name":"Matale","lat":"7.46980000","lon":"80.62170000"},
{"state":"Central Province","name":"Matale District","lat":"7.65980000","lon":"80.70730000"},
{"state":"Central Province","name":"Nuwara Eliya","lat":"6.97078000","lon":"80.78286000"},
{"state":"Central Province","name":"Nuwara Eliya District","lat":"6.97850000","lon":"80.71330000"},
{"state":"Central Province","name":"Sigiriya","lat":"7.94946000","lon":"80.75037000"},
{"state":"Central Province","name":"Talawakele","lat":"6.93710000","lon":"80.65810000"},
{"state":"Colombo District","name":"Dehiwala-Mount Lavinia","lat":"6.84019000","lon":"79.87116000"},
{"state":"Colombo District","name":"Homagama","lat":"6.84879896","lon":"80.00467300"},
{"state":"Colombo District","name":"Kaduwela","lat":"6.93106260","lon":"79.97944220"},
{"state":"Colombo District","name":"Kesbewa","lat":"6.78425894","lon":"79.94665276"},
{"state":"Colombo District","name":"Kolonnawa","lat":"6.92893463","lon":"79.89495168"},
{"state":"Colombo District","name":"Kotte","lat":"6.88932048","lon":"79.90359501"},
{"state":"Colombo District","name":"Maharagama","lat":"6.84954886","lon":"79.92507313"},
{"state":"Colombo District","name":"Moratuwa","lat":"6.78149272","lon":"79.88347117"},
{"state":"Colombo District","name":"Padukka","lat":"6.84794680","lon":"80.10153292"},
{"state":"Colombo District","name":"Ratmalana","lat":"6.82105987","lon":"79.88023083"},
{"state":"Colombo District","name":"Seethawaka","lat":"6.92959912","lon":"80.14979867"},
{"state":"Colombo District","name":"Thimbirigasyaya","lat":"6.90214217","lon":"79.86957578"},
{"state":"Eastern Province","name":"Ampara","lat":"7.29754000","lon":"81.68202000"},
{"state":"Eastern Province","name":"Ampara District","lat":"7.08330000","lon":"81.75000000"},
{"state":"Eastern Province","name":"Batticaloa","lat":"7.71020000","lon":"81.69240000"},
{"state":"Eastern Province","name":"Batticaloa District","lat":"7.75000000","lon":"81.49970000"},
{"state":"Eastern Province","name":"Eravur Town","lat":"7.77820000","lon":"81.60380000"},
{"state":"Eastern Province","name":"Kalmunai","lat":"7.40902000","lon":"81.83472000"},
{"state":"Eastern Province","name":"Trincomalee","lat":"8.57780000","lon":"81.22890000"},
{"state":"Eastern Province","name":"Trincomalee District","lat":"8.58333000","lon":"81.08333000"},
{"state":"Eastern Province","name":"Vakarai","lat":"8.13333000","lon":"81.43333000"},
{"state":"Kandy District","name":"Akurana","lat":"7.36500000","lon":"80.61722200"},
{"state":"Kandy District","name":"Alawatugoda","lat":"7.41048962","lon":"80.60918933"},
{"state":"Kandy District","name":"Ambatenna","lat":"7.35252855","lon":"80.61378113"},
{"state":"Kandy District","name":"Daskara","lat":"7.20902217","lon":"80.57764643"},
{"state":"Kandy District","name":"Daulagala","lat":"7.22882494","lon":"80.57756073"},
{"state":"Kandy District","name":"Delthota","lat":"7.18491721","lon":"80.70488697"},
{"state":"Kandy District","name":"Doluwa","lat":"7.18518536","lon":"80.60573450"},
{"state":"Kandy District","name":"Galagedara","lat":"7.36833300","lon":"80.52750000"},
{"state":"Kandy District","name":"Galhinna","lat":"7.41614200","lon":"80.56884200"},
{"state":"Kandy District","name":"Gampola","lat":"7.16430000","lon":"80.56960000"},
{"state":"Kandy District","name":"Ganga Ihala Korale","lat":"7.11455516","lon":"80.51448810"},
{"state":"Kandy District","name":"Hanguranketa","lat":"7.16666700","lon":"80.78333300"},
{"state":"Kandy District","name":"Hapugastalawa","lat":"7.05872498","lon":"80.57137014"},
{"state":"Kandy District","name":"Harispattuwa","lat":"7.33016007","lon":"80.58765149"},
{"state":"Kandy District","name":"Hatharaliyadda","lat":"7.33032982","lon":"80.47875881"},
{"state":"Kandy District","name":"Kadugannawa","lat":"7.25470000","lon":"80.52420000"},
{"state":"Kandy District","name":"Kandy Four Gravets","lat":"7.28318748","lon":"80.63527585"},
{"state":"Kandy District","name":"Katugastota","lat":"7.33333300","lon":"80.61666700"},
{"state":"Kandy District","name":"Kundasale","lat":"7.30391594","lon":"80.71230408"},
{"state":"Kandy District","name":"Madawala","lat":"7.32833100","lon":"80.67355200"},
{"state":"Kandy District","name":"Medadumbara","lat":"7.30425996","lon":"80.77519844"},
{"state":"Kandy District","name":"Menikdiwela","lat":"7.08333300","lon":"80.73333300"},
{"state":"Kandy District","name":"Minipe","lat":"7.22638754","lon":"81.00116732"},
{"state":"Kandy District","name":"Nawalapitiya","lat":"7.03696481","lon":"80.51626688"},
{"state":"Kandy District","name":"Pallekele","lat":"7.28333300","lon":"80.70000000"},
{"state":"Kandy District","name":"Panvila","lat":"7.40929750","lon":"80.73966228"},
{"state":"Kandy District","name":"Pasbage Korale","lat":"7.01510450","lon":"80.54078073"},
{"state":"Kandy District","name":"Pathadumbara","lat":"7.34931196","lon":"80.66303689"},
{"state":"Kandy District","name":"Pathahewaheta","lat":"7.23139207","lon":"80.70848937"},
{"state":"Kandy District","name":"Peradeniya","lat":"7.26666700","lon":"80.60000000"},
{"state":"Kandy District","name":"Pilimathalawa","lat":"7.27000000","lon":"80.57000000"},
{"state":"Kandy District","name":"Poojapitiya","lat":"7.38093796","lon":"80.58913708"},
{"state":"Kandy District","name":"Pussellawa","lat":"7.10533300","lon":"80.63666700"},
{"state":"Kandy District","name":"Talatuoya","lat":"7.25000000","lon":"80.68333300"},
{"state":"Kandy District","name":"Teldeniya","lat":"7.30000000","lon":"80.76666700"},
{"state":"Kandy District","name":"Thumpane","lat":"7.36616728","lon":"80.51587048"},
{"state":"Kandy District","name":"Udadumbara","lat":"7.35000000","lon":"80.83333300"},
{"state":"Kandy District","name":"Udapalatha","lat":"7.11515526","lon":"80.60248340"},
{"state":"Kandy District","name":"Ududumbara","lat":"7.31434839","lon":"80.87707756"},
{"state":"Kandy District","name":"Udunuwara","lat":"7.22777866","lon":"80.55894578"},
{"state":"Kandy District","name":"Ulapane","lat":"7.10277800","lon":"80.56111100"},
{"state":"Kandy District","name":"Watadeniya","lat":"7.19501100","lon":"80.55249400"},
{"state":"Kandy District","name":"Wattegama","lat":"7.35027800","lon":"80.68250000"},
{"state":"Kandy District","name":"Welamboda","lat":"7.20000000","lon":"80.55000000"},
{"state":"Kandy District","name":"Yatinuwara","lat":"7.28584509","lon":"80.53516168"},
{"state":"North Central Province","name":"Anuradhapura","lat":"8.31223000","lon":"80.41306000"},
{"state":"North Central Province","name":"Anuradhapura District","lat":"8.33333000","lon":"80.50000000"},
{"state":"North Central Province","name":"Mihintale","lat":"8.35930000","lon":"80.51030000"},
{"state":"North Central Province","name":"Polonnaruwa","lat":"7.93965000","lon":"81.00274000"},
{"state":"North Central Province","name":"Polonnaruwa District","lat":"8.00000000","lon":"81.00000000"},
{"state":"North Western Province","name":"Chilaw","lat":"7.57583000","lon":"79.79528000"},
{"state":"North Western Province","name":"Kuliyapitiya","lat":"7.46880000","lon":"80.04010000"},
{"state":"North Western Province","name":"Kurunegala","lat":"7.48390000","lon":"80.36830000"},
{"state":"North Western Province","name":"Kurunegala District","lat":"7.75000000","lon":"80.25000000"},
{"state":"North Western Province","name":"Puttalam","lat":"8.03620000","lon":"79.82830000"},
{"state":"North Western Province","name":"Puttalam District","lat":"8.04540000","lon":"79.93190000"},
{"state":"Northern Province","name":"Jaffna","lat":"9.66845000","lon":"80.00742000"},
{"state":"Northern Province","name":"Jaffna District","lat":"9.75000000","lon":"80.08333000"},
{"state":"Northern Province","name":"Kilinochchi","lat":"9.39610000","lon":"80.39820000"},
{"state":"Northern Province","name":"Kilinochchi District","lat":"9.39487000","lon":"80.40894000"},
{"state":"Northern Province","name":"Point Pedro","lat":"9.81667000","lon":"80.23333000"},
{"state":"Northern Province","name":"Valvedditturai","lat":"9.81667000","lon":"80.16667000"},
{"state":"Northern Province","name":"Vavuniya","lat":"8.75140000","lon":"80.49710000"},
{"state":"Northern Province","name":"Vavuniya District","lat":"8.86134000","lon":"80.47576000"},
{"state":"Sabaragamuwa Province","name":"Kegalle","lat":"7.25230000","lon":"80.34360000"},
{"state":"Sabaragamuwa Province","name":"Kegalle District","lat":"7.11670000","lon":"80.33330000"},
{"state":"Sabaragamuwa Province","name":"Ratnapura","lat":"6.68580000","lon":"80.40360000"},
{"state":"Sabaragamuwa Province","name":"Ratnapura District","lat":"6.58310000","lon":"80.58330000"},
{"state":"Southern Province","name":"Ambalangoda","lat":"6.23550000","lon":"80.05380000"},
{"state":"Southern Province","name":"Bentota","lat":"6.42598000","lon":"79.99575000"},
{"state":"Southern Province","name":"Devinuwara","lat":"5.92825000","lon":"80.58880000"},
{"state":"Southern Province","name":"Galle","lat":"6.04610000","lon":"80.21030000"},
{"state":"Southern Province","name":"Galle District","lat":"6.25000000","lon":"80.25000000"},
{"state":"Southern Province","name":"Hambantota District","lat":"6.25440000","lon":"81.11110000"},
{"state":"Southern Province","name":"Hikkaduwa","lat":"6.14070000","lon":"80.10120000"},
{"state":"Southern Province","name":"Koggala","lat":"5.98860000","lon":"80.32860000"},
{"state":"Southern Province","name":"Matara","lat":"5.94851000","lon":"80.53528000"},
{"state":"Southern Province","name":"Matara District","lat":"6.13290000","lon":"80.52800000"},
{"state":"Southern Province","name":"Mirissa city","lat":"5.94655000","lon":"80.45831000"},
{"state":"Southern Province","name":"Talpe","lat":"5.99990000","lon":"80.27870000"},
{"state":"Southern Province","name":"Tangalle","lat":"6.02338000","lon":"80.79738000"},
{"state":"Southern Province","name":"Unawatuna","lat":"6.02120000","lon":"80.25030000"},
{"state":"Southern Province","name":"Weligama","lat":"5.97501000","lon":"80.42968000"},
{"state":"Uva Province","name":"Badulla","lat":"6.98020000","lon":"81.05770000"},
{"state":"Uva Province","name":"Badulla District","lat":"6.98472000","lon":"81.05639000"},
{"state":"Uva Province","name":"Ella Town","lat":"6.87560000","lon":"81.04630000"},
{"state":"Uva Province","name":"Haputale","lat":"6.76566000","lon":"80.95104000"},
{"state":"Uva Province","name":"Kataragama","lat":"6.41340000","lon":"81.33460000"},
{"state":"Uva Province","name":"Monaragala","lat":"6.87140000","lon":"81.34870000"},
{"state":"Uva Province","name":"Moneragala District","lat":"6.66667000","lon":"81.33333000"},
{"state":"Uva Province","name":"Wellawaya","lat":"6.73694000","lon":"81.10279000"},
{"state":"Western Province","name":"Battaramulla South","lat":"6.89640000","lon":"79.91810000"},
{"state":"Western Province","name":"Beruwala","lat":"6.47880000","lon":"79.98280000"},
{"state":"Western Province","name":"Colombo","lat":"6.93548000","lon":"79.84868000"},
{"state":"Western Province","name":"Colombo District","lat":"6.86640000","lon":"80.01660000"},
{"state":"Western Province","name":"Gampaha","lat":"7.08970000","lon":"79.99250000"},
{"state":"Western Province","name":"Gampaha District","lat":"7.13330000","lon":"80.00000000"},
{"state":"Western Province","name":"Hanwella Ihala","lat":"6.90120000","lon":"80.08520000"},
{"state":"Western Province","name":"Hendala","lat":"6.99090000","lon":"79.88300000"},
{"state":"Western Province","name":"Horana South","lat":"6.71590000","lon":"80.06260000"},
{"state":"Western Province","name":"Horawala Junction","lat":"6.48088000","lon":"80.12708000"},
{"state":"Western Province","name":"Ja Ela","lat":"7.07440000","lon":"79.89190000"},
{"state":"Western Province","name":"Kalutara","lat":"6.58310000","lon":"79.95930000"},
{"state":"Western Province","name":"Kandana","lat":"7.04800000","lon":"79.89370000"},
{"state":"Western Province","name":"Katunayaka","lat":"7.16992000","lon":"79.88837000"},
{"state":"Western Province","name":"Kelaniya","lat":"6.95530000","lon":"79.92200000"},
{"state":"Western Province","name":"Kotikawatta","lat":"6.92690000","lon":"79.90950000"},
{"state":"Western Province","name":"Minuwangoda","lat":"7.16630000","lon":"79.95330000"},
{"state":"Western Province","name":"Mulleriyawa","lat":"6.93300000","lon":"79.92970000"},
{"state":"Western Province","name":"Negombo","lat":"7.20830000","lon":"79.83580000"},
{"state":"Western Province","name":"Panadura","lat":"6.71320000","lon":"79.90260000"},
{"state":"Western Province","name":"Peliyagoda","lat":"6.96850000","lon":"79.88360000"},
{"state":"Western Province","name":"Pita Kotte","lat":"6.89050000","lon":"79.90150000"},
{"state":"Western Province","name":"Sri Jayewardenepura Kotte","lat":"6.88297000","lon":"79.90708000"},
{"state":"Western Province","name":"Wattala","lat":"6.98918000","lon":"79.89167000"},
{"state":"Western Province","name":"Welisara","lat":"7.02810000","lon":"79.90140000"}]