[{"name":"Bomi County","native":null,"cities":[{"name":"Tubmanburg","native":null,"lat":"6.87064000","lon":"-10.82110000"}]},{"name":"Bong County","native":null,"cities":[{"name":"Gbarnga","native":null,"lat":"6.99543000","lon":"-9.47122000"}]},{"name":"Gbarpolu County","native":null,"cities":[{"name":"Bopolu","native":null,"lat":"7.06667000","lon":"-10.48750000"}]},{"name":"Grand Bassa County","native":null,"cities":[{"name":"Buchanan","native":null,"lat":"5.87693000","lon":"-10.04964000"}]},{"name":"Grand Cape Mount County","native":null,"cities":[{"name":"Robertsport","native":null,"lat":"6.75329000","lon":"-11.36710000"}]},{"name":"Grand Gedeh County","native":null,"cities":[{"name":"Zwedru","native":null,"lat":"6.06846000","lon":"-8.13559000"}]},{"name":"Grand Kru County","native":null,"cities":[{"name":"Barclayville","native":null,"lat":"4.67443000","lon":"-8.23306000"}]},{"name":"Lofa County","native":null,"cities":[{"name":"Voinjama","native":null,"lat":"8.42194000","lon":"-9.74778000"}]},{"name":"Margibi County","native":null,"cities":[{"name":"Kakata","native":null,"lat":"6.53104000","lon":"-10.35368000"}]},{"name":"Maryland County","native":null,"cities":[{"name":"Harper","native":null,"lat":"4.37820000","lon":"-7.71081000"}]},{"name":"Montserrado County","native":null,"cities":[{"name":"Bensonville","native":null,"lat":"6.44716000","lon":"-10.61283000"},{"name":"Monrovia","native":null,"lat":"6.30054000","lon":"-10.79690000"}]},{"name":"Nimba","native":null,"cities":[{"name":"Ganta","native":null,"lat":"7.30222000","lon":"-8.53083000"},{"name":"New Yekepa","native":null,"lat":"7.57944000","lon":"-8.53778000"},{"name":"Sanniquellie","native":null,"lat":"7.36215000","lon":"-8.71326000"}]},{"name":"River Cess County","native":null,"cities":[{"name":"Cestos City","native":null,"lat":"5.45683000","lon":"-9.58167000"}]},{"name":"River Gee County","native":null,"cities":[{"name":"Fish Town","native":null,"lat":"5.19739000","lon":"-7.87579000"}]},{"name":"Sinoe County","native":null,"cities":[{"name":"Greenville","native":null,"lat":"5.01133000","lon":"-9.03880000"}]}]