[{"state":"Bomi County","name":"Tubmanburg","lat":"6.87064000","lon":"-10.82110000"},
{"state":"Bong County","name":"Gbarnga","lat":"6.99543000","lon":"-9.47122000"},
{"state":"Gbarpolu County","name":"Bopolu","lat":"7.06667000","lon":"-10.48750000"},
{"state":"Grand Bassa County","name":"Buchanan","lat":"5.87693000","lon":"-10.04964000"},
{"state":"Grand Cape Mount County","name":"Robertsport","lat":"6.75329000","lon":"-11.36710000"},
{"state":"Grand Gedeh County","name":"Zwedru","lat":"6.06846000","lon":"-8.13559000"},
{"state":"Grand Kru County","name":"Barclayville","lat":"4.67443000","lon":"-8.23306000"},
{"state":"Lofa County","name":"Voinjama","lat":"8.42194000","lon":"-9.74778000"},
{"state":"Margibi County","name":"Kakata","lat":"6.53104000","lon":"-10.35368000"},
{"state":"Maryland County","name":"Harper","lat":"4.37820000","lon":"-7.71081000"},
{"state":"Montserrado County","name":"Bensonville","lat":"6.44716000","lon":"-10.61283000"},
{"state":"Montserrado County","name":"Monrovia","lat":"6.30054000","lon":"-10.79690000"},
{"state":"Nimba","name":"Ganta","lat":"7.30222000","lon":"-8.53083000"},
{"state":"Nimba","name":"New Yekepa","lat":"7.57944000","lon":"-8.53778000"},
{"state":"Nimba","name":"Sanniquellie","lat":"7.36215000","lon":"-8.71326000"},
{"state":"River Cess County","name":"Cestos City","lat":"5.45683000","lon":"-9.58167000"},
{"state":"River Gee County","name":"Fish Town","lat":"5.19739000","lon":"-7.87579000"},
{"state":"Sinoe County","name":"Greenville","lat":"5.01133000","lon":"-9.03880000"}]