[{"state":"Alytus City Municipality","name":"Alytus","lat":"54.39635000","lon":"24.04142000"},
{"state":"Alytus City Municipality","name":"Daugai","lat":"54.36667000","lon":"24.33333000"},
{"state":"Alytus City Municipality","name":"Druskininkai","lat":"54.01573000","lon":"23.98703000"},
{"state":"Alytus City Municipality","name":"Lazdijai","lat":"54.23333000","lon":"23.51667000"},
{"state":"Alytus City Municipality","name":"Simnas","lat":"54.38200000","lon":"23.64600000"},
{"state":"Alytus City Municipality","name":"Varėna","lat":"54.21667000","lon":"24.56667000"},
{"state":"Alytus City Municipality","name":"Veisiejai","lat":"54.10110000","lon":"23.69614000"},
{"state":"Kaunas City Municipality","name":"Akademija (Kaunas)","lat":"54.89640000","lon":"23.82411000"},
{"state":"Kaunas City Municipality","name":"Aleksotas","lat":"54.88037000","lon":"23.90842000"},
{"state":"Kaunas City Municipality","name":"Ariogala","lat":"55.26200000","lon":"23.47700000"},
{"state":"Kaunas City Municipality","name":"Birštonas","lat":"54.61667000","lon":"24.03333000"},
{"state":"Kaunas City Municipality","name":"Dainava (Kaunas)","lat":"54.91525000","lon":"23.96831000"},
{"state":"Kaunas City Municipality","name":"Eiguliai","lat":"54.93133000","lon":"23.93243000"},
{"state":"Kaunas City Municipality","name":"Ežerėlis","lat":"54.88315000","lon":"23.60396000"},
{"state":"Kaunas City Municipality","name":"Garliava","lat":"54.82139000","lon":"23.87130000"},
{"state":"Kaunas City Municipality","name":"Jieznas","lat":"54.59937000","lon":"24.17593000"},
{"state":"Kaunas City Municipality","name":"Jonava","lat":"55.08333000","lon":"24.28333000"},
{"state":"Kaunas City Municipality","name":"Kaišiadorys","lat":"54.86667000","lon":"24.45000000"},
{"state":"Kaunas City Municipality","name":"Karmėlava","lat":"54.97055000","lon":"24.06182000"},
{"state":"Kaunas City Municipality","name":"Kaunas","lat":"54.90272000","lon":"23.90961000"},
{"state":"Kaunas City Municipality","name":"Kėdainiai","lat":"55.28333000","lon":"23.96667000"},
{"state":"Kaunas City Municipality","name":"Kulautuva","lat":"54.94212000","lon":"23.64218000"},
{"state":"Kaunas City Municipality","name":"Mastaiciai","lat":"54.81998000","lon":"23.84462000"},
{"state":"Kaunas City Municipality","name":"Prienai","lat":"54.63333000","lon":"23.95000000"},
{"state":"Kaunas City Municipality","name":"Ramučiai","lat":"54.94830000","lon":"24.03050000"},
{"state":"Kaunas City Municipality","name":"Raseiniai","lat":"55.36667000","lon":"23.11667000"},
{"state":"Kaunas City Municipality","name":"Sargėnai","lat":"54.94933000","lon":"23.88316000"},
{"state":"Kaunas City Municipality","name":"Šilainiai","lat":"54.92911000","lon":"23.88599000"},
{"state":"Kaunas City Municipality","name":"Vilkija","lat":"55.04609000","lon":"23.58552000"},
{"state":"Kaunas City Municipality","name":"Žiežmariai","lat":"54.80725000","lon":"24.44073000"},
{"state":"Klaipėda District Municipality","name":"Gargždai","lat":"55.70951000","lon":"21.39441000"},
{"state":"Klaipėda District Municipality","name":"Klaipėda","lat":"55.71667000","lon":"21.11667000"},
{"state":"Klaipėda District Municipality","name":"Kretinga","lat":"55.88880000","lon":"21.24448000"},
{"state":"Klaipėda District Municipality","name":"Neringa","lat":"55.36667000","lon":"21.06667000"},
{"state":"Klaipėda District Municipality","name":"Nida","lat":"55.30860000","lon":"20.99651000"},
{"state":"Klaipėda District Municipality","name":"Palanga","lat":"55.91750000","lon":"21.06861000"},
{"state":"Klaipėda District Municipality","name":"Priekulė","lat":"55.55427000","lon":"21.31903000"},
{"state":"Klaipėda District Municipality","name":"Rusnė","lat":"55.29820000","lon":"21.37120000"},
{"state":"Klaipėda District Municipality","name":"Salantai","lat":"56.05650000","lon":"21.56890000"},
{"state":"Klaipėda District Municipality","name":"Silute","lat":"55.34889000","lon":"21.48306000"},
{"state":"Klaipėda District Municipality","name":"Skuodas","lat":"56.26667000","lon":"21.53333000"},
{"state":"Klaipėda District Municipality","name":"Šventoji","lat":"56.02610000","lon":"21.08411000"},
{"state":"Klaipėda District Municipality","name":"Žemaičių Naumiestis","lat":"55.35941000","lon":"21.70364000"},
{"state":"Marijampolė Municipality","name":"Gelgaudiškis","lat":"55.07688000","lon":"22.97699000"},
{"state":"Marijampolė Municipality","name":"Kalvarija","lat":"54.41700000","lon":"23.22300000"},
{"state":"Marijampolė Municipality","name":"Kalvarija Municipality","lat":"54.41468000","lon":"23.22484000"},
{"state":"Marijampolė Municipality","name":"Kazlų Rūda","lat":"54.74900000","lon":"23.49000000"},
{"state":"Marijampolė Municipality","name":"Kazlų Rūda Municipality","lat":"54.74751000","lon":"23.49272000"},
{"state":"Marijampolė Municipality","name":"Kudirkos Naumiestis","lat":"54.77353000","lon":"22.86138000"},
{"state":"Marijampolė Municipality","name":"Kybartai","lat":"54.63858000","lon":"22.76316000"},
{"state":"Marijampolė Municipality","name":"Marijampolė","lat":"54.55991000","lon":"23.35412000"},
{"state":"Marijampolė Municipality","name":"Marijampolė Municipality","lat":"54.56667000","lon":"23.35000000"},
{"state":"Marijampolė Municipality","name":"Sakiai","lat":"54.95000000","lon":"23.05000000"},
{"state":"Marijampolė Municipality","name":"Vilkaviskis","lat":"54.65167000","lon":"23.03222000"},
{"state":"Marijampolė Municipality","name":"Vilkaviškis District Municipality","lat":"54.65000000","lon":"23.03333000"},
{"state":"Marijampolė Municipality","name":"Virbalis","lat":"54.62858000","lon":"22.82272000"},
{"state":"Panevėžys District Municipality","name":"Birzai","lat":"56.20000000","lon":"24.75000000"},
{"state":"Panevėžys District Municipality","name":"Juodupė","lat":"56.08700000","lon":"25.60700000"},
{"state":"Panevėžys District Municipality","name":"Kupiskis","lat":"55.84027000","lon":"24.97976000"},
{"state":"Panevėžys District Municipality","name":"Obeliai","lat":"55.96895000","lon":"25.15648000"},
{"state":"Panevėžys District Municipality","name":"Panevėžys","lat":"55.73333000","lon":"24.35000000"},
{"state":"Panevėžys District Municipality","name":"Panevėžys City","lat":"55.73600000","lon":"24.34347000"},
{"state":"Panevėžys District Municipality","name":"Panevėžys District Municipality","lat":"55.73301000","lon":"24.37609000"},
{"state":"Panevėžys District Municipality","name":"Pasvalys","lat":"56.06667000","lon":"24.40000000"},
{"state":"Panevėžys District Municipality","name":"Ramygala","lat":"55.51400000","lon":"24.30000000"},
{"state":"Panevėžys District Municipality","name":"Rokiškis","lat":"55.96667000","lon":"25.58333000"},
{"state":"Panevėžys District Municipality","name":"Vabalninkas","lat":"55.98151000","lon":"24.74828000"},
{"state":"Šiauliai City Municipality","name":"Akmenė","lat":"56.25000000","lon":"22.75000000"},
{"state":"Šiauliai City Municipality","name":"Joniškis","lat":"56.23333000","lon":"23.61667000"},
{"state":"Šiauliai City Municipality","name":"Kelmė","lat":"55.63333000","lon":"22.93333000"},
{"state":"Šiauliai City Municipality","name":"Kuršėnai","lat":"56.00318000","lon":"22.93662000"},
{"state":"Šiauliai City Municipality","name":"Linkuva","lat":"56.08596000","lon":"23.97061000"},
{"state":"Šiauliai City Municipality","name":"Naujoji Akmene","lat":"56.31667000","lon":"22.90000000"},
{"state":"Šiauliai City Municipality","name":"Pakruojis","lat":"55.96667000","lon":"23.86667000"},
{"state":"Šiauliai City Municipality","name":"Radviliskis","lat":"55.81667000","lon":"23.53333000"},
{"state":"Šiauliai City Municipality","name":"Šeduva","lat":"55.74930000","lon":"23.75610000"},
{"state":"Šiauliai City Municipality","name":"Šiauliai","lat":"55.93333000","lon":"23.31667000"},
{"state":"Šiauliai City Municipality","name":"Tytuvėnėliai","lat":"55.62345000","lon":"23.17162000"},
{"state":"Šiauliai City Municipality","name":"Venta","lat":"56.19162000","lon":"22.69528000"},
{"state":"Šiauliai City Municipality","name":"Žagarė","lat":"56.36149000","lon":"23.25094000"},
{"state":"Tauragė County","name":"Būgai","lat":"55.41387000","lon":"22.60894000"},
{"state":"Tauragė County","name":"Jurbarkas","lat":"55.10859000","lon":"22.79885000"},
{"state":"Tauragė County","name":"Pagėgiai","lat":"55.13400000","lon":"21.90446000"},
{"state":"Tauragė County","name":"Šilalė","lat":"55.46667000","lon":"22.20000000"},
{"state":"Tauragė County","name":"Taurage","lat":"55.25222000","lon":"22.28972000"},
{"state":"Telšiai District Municipality","name":"Mazeikiai","lat":"56.31667000","lon":"22.33333000"},
{"state":"Telšiai District Municipality","name":"Plateliai","lat":"56.04657000","lon":"21.81615000"},
{"state":"Telšiai District Municipality","name":"Plunge","lat":"55.91139000","lon":"21.84417000"},
{"state":"Telšiai District Municipality","name":"Rietavas","lat":"55.72375000","lon":"21.93266000"},
{"state":"Telšiai District Municipality","name":"Seda","lat":"56.16854000","lon":"22.09071000"},
{"state":"Telšiai District Municipality","name":"Telsiai","lat":"55.98139000","lon":"22.24722000"},
{"state":"Telšiai District Municipality","name":"Varniai","lat":"55.74435000","lon":"22.37251000"},
{"state":"Telšiai District Municipality","name":"Viekšniai","lat":"56.23598000","lon":"22.51667000"},
{"state":"Utena County","name":"Anyksciai","lat":"55.52557000","lon":"25.10264000"},
{"state":"Utena County","name":"Dūkštas","lat":"55.52200000","lon":"26.32100000"},
{"state":"Utena County","name":"Ignalina","lat":"55.35000000","lon":"26.16667000"},
{"state":"Utena County","name":"Moletai","lat":"55.23333000","lon":"25.41667000"},
{"state":"Utena County","name":"Utena","lat":"55.49764000","lon":"25.59918000"},
{"state":"Utena County","name":"Visaginas","lat":"55.60000000","lon":"26.41667000"},
{"state":"Utena County","name":"Zarasai","lat":"55.73333000","lon":"26.25000000"},
{"state":"Vilnius City Municipality","name":"Aukstadvaris","lat":"54.57946000","lon":"24.52683000"},
{"state":"Vilnius City Municipality","name":"Baltoji Vokė","lat":"54.60002000","lon":"25.19318000"},
{"state":"Vilnius City Municipality","name":"Eišiškės","lat":"54.17414000","lon":"24.99917000"},
{"state":"Vilnius City Municipality","name":"Elektrėnai","lat":"54.78544000","lon":"24.66302000"},
{"state":"Vilnius City Municipality","name":"Fabijoniškės","lat":"54.73333000","lon":"25.24167000"},
{"state":"Vilnius City Municipality","name":"Grigiškės","lat":"54.68333000","lon":"25.08333000"},
{"state":"Vilnius City Municipality","name":"Justiniškės","lat":"54.71664000","lon":"25.21740000"},
{"state":"Vilnius City Municipality","name":"Lazdynai","lat":"54.66815000","lon":"25.20684000"},
{"state":"Vilnius City Municipality","name":"Lentvaris","lat":"54.64364000","lon":"25.05162000"},
{"state":"Vilnius City Municipality","name":"Naujamiestis","lat":"54.67951000","lon":"25.26855000"},
{"state":"Vilnius City Municipality","name":"Nemenčinė","lat":"54.84776000","lon":"25.46992000"},
{"state":"Vilnius City Municipality","name":"Pabradė","lat":"54.98100000","lon":"25.76100000"},
{"state":"Vilnius City Municipality","name":"Pašilaičiai","lat":"54.73429000","lon":"25.21912000"},
{"state":"Vilnius City Municipality","name":"Pilaitė","lat":"54.69981000","lon":"25.18393000"},
{"state":"Vilnius City Municipality","name":"Rasos","lat":"54.67877000","lon":"25.31173000"},
{"state":"Vilnius City Municipality","name":"Rūdiškės","lat":"54.51609000","lon":"24.83084000"},
{"state":"Vilnius City Municipality","name":"Šalčininkai","lat":"54.30000000","lon":"25.38333000"},
{"state":"Vilnius City Municipality","name":"Senieji Trakai","lat":"54.60900000","lon":"24.98000000"},
{"state":"Vilnius City Municipality","name":"Šeškinė","lat":"54.70972000","lon":"25.25053000"},
{"state":"Vilnius City Municipality","name":"Sirvintos","lat":"55.05000000","lon":"24.95000000"},
{"state":"Vilnius City Municipality","name":"Skaidiškės","lat":"54.61398000","lon":"25.39573000"},
{"state":"Vilnius City Municipality","name":"Švenčionėliai","lat":"55.16163000","lon":"26.00177000"},
{"state":"Vilnius City Municipality","name":"Svencionys","lat":"55.15000000","lon":"26.16667000"},
{"state":"Vilnius City Municipality","name":"Trakai","lat":"54.63783000","lon":"24.93433000"},
{"state":"Vilnius City Municipality","name":"Ukmerge","lat":"55.25000000","lon":"24.75000000"},
{"state":"Vilnius City Municipality","name":"Vievis","lat":"54.76667000","lon":"24.80000000"},
{"state":"Vilnius City Municipality","name":"Vilkpėdė","lat":"54.66969000","lon":"25.24770000"},
{"state":"Vilnius City Municipality","name":"Vilnius","lat":"54.68916000","lon":"25.27980000"},
{"state":"Vilnius City Municipality","name":"Vilnius District Municipality","lat":"54.73333000","lon":"25.38333000"}]