[{"name":"Canton of Capellen","native":null,"cities":[{"name":"Bascharage","native":null,"lat":"49.56727000","lon":"5.90730000"},{"name":"Bridel","native":null,"lat":"49.65579000","lon":"6.07999000"},{"name":"Capellen","native":null,"lat":"49.64500000","lon":"5.99083000"},{"name":"Clemency","native":null,"lat":"49.59667000","lon":"5.87583000"},{"name":"Dippach","native":null,"lat":"49.58701000","lon":"5.98330000"},{"name":"Eischen","native":null,"lat":"49.68556000","lon":"5.87861000"},{"name":"Garnich","native":null,"lat":"49.61667000","lon":"5.95250000"},{"name":"Hautcharage","native":null,"lat":"49.57499000","lon":"5.90970000"},{"name":"Hobscheid","native":null,"lat":"49.68861000","lon":"5.91472000"},{"name":"Käerjeng","native":null,"lat":"49.58311000","lon":"5.89892000"},{"name":"Kehlen","native":null,"lat":"49.66833000","lon":"6.03583000"},{"name":"Koerich","native":null,"lat":"49.67000000","lon":"5.95000000"},{"name":"Kopstal","native":null,"lat":"49.66444000","lon":"6.07306000"},{"name":"Mamer","native":null,"lat":"49.62750000","lon":"6.02333000"},{"name":"Schouweiler","native":null,"lat":"49.58250000","lon":"5.95639000"},{"name":"Septfontaines","native":null,"lat":"49.70111000","lon":"5.96722000"},{"name":"Steinfort","native":null,"lat":"49.66139000","lon":"5.91917000"}]},{"name":"Canton of Clervaux","native":null,"cities":[{"name":"Clervaux","native":null,"lat":"50.05472000","lon":"6.03139000"},{"name":"Hosingen","native":null,"lat":"50.01218000","lon":"6.09089000"},{"name":"Parc Hosingen","native":null,"lat":"49.99744000","lon":"6.09067000"},{"name":"Troisvierges","native":null,"lat":"50.12111000","lon":"6.00028000"},{"name":"Weiswampach","native":null,"lat":"50.13722000","lon":"6.07500000"},{"name":"Wincrange","native":null,"lat":"50.05333000","lon":"5.91917000"}]},{"name":"Canton of Diekirch","native":null,"cities":[{"name":"Bettendorf","native":null,"lat":"49.87667000","lon":"6.21806000"},{"name":"Bourscheid","native":null,"lat":"49.90862000","lon":"6.06750000"},{"name":"Commune de la Vallée de l’Ernz","native":null,"lat":"49.82149000","lon":"6.21746000"},{"name":"Diekirch","native":null,"lat":"49.86778000","lon":"6.15583000"},{"name":"Erpeldange","native":null,"lat":"49.86472000","lon":"6.11472000"},{"name":"Ettelbruck","native":null,"lat":"49.84750000","lon":"6.10417000"},{"name":"Feulen","native":null,"lat":"49.85000000","lon":"6.01667000"},{"name":"Medernach","native":null,"lat":"49.80955000","lon":"6.21521000"},{"name":"Mertzig","native":null,"lat":"49.83389000","lon":"6.00750000"},{"name":"Niederfeulen","native":null,"lat":"49.85556000","lon":"6.04722000"},{"name":"Reisdorf","native":null,"lat":"49.86861000","lon":"6.26778000"},{"name":"Schieren","native":null,"lat":"49.83056000","lon":"6.09861000"},{"name":"Warken","native":null,"lat":"49.85918000","lon":"6.08415000"}]},{"name":"Canton of Echternach","native":null,"cities":[{"name":"Beaufort","native":null,"lat":"49.83583000","lon":"6.29167000"},{"name":"Bech","native":null,"lat":"49.75260000","lon":"6.36379000"},{"name":"Berdorf","native":null,"lat":"49.82051000","lon":"6.34945000"},{"name":"Consdorf","native":null,"lat":"49.78018000","lon":"6.33950000"},{"name":"Echternach","native":null,"lat":"49.81212000","lon":"6.41846000"},{"name":"Mompach","native":null,"lat":"49.74611000","lon":"6.46500000"},{"name":"Rosport","native":null,"lat":"49.80470000","lon":"6.50532000"},{"name":"Waldbillig","native":null,"lat":"49.79636000","lon":"6.28431000"}]},{"name":"Canton of Esch-sur-Alzette","native":null,"cities":[{"name":"Aspelt","native":null,"lat":"49.52278000","lon":"6.22472000"},{"name":"Belvaux","native":null,"lat":"49.51014000","lon":"5.92414000"},{"name":"Bergem","native":null,"lat":"49.52500000","lon":"6.04222000"},{"name":"Bettembourg","native":null,"lat":"49.51861000","lon":"6.10278000"},{"name":"Crauthem","native":null,"lat":"49.53556000","lon":"6.14694000"},{"name":"Differdange","native":null,"lat":"49.52417000","lon":"5.89139000"},{"name":"Dudelange","native":null,"lat":"49.48056000","lon":"6.08750000"},{"name":"Esch-sur-Alzette","native":null,"lat":"49.49583000","lon":"5.98056000"},{"name":"Frisange","native":null,"lat":"49.51616000","lon":"6.18858000"},{"name":"Kayl","native":null,"lat":"49.48917000","lon":"6.03972000"},{"name":"Lamadelaine","native":null,"lat":"49.54639000","lon":"5.85639000"},{"name":"Leudelange","native":null,"lat":"49.56833000","lon":"6.06528000"},{"name":"Mondercange","native":null,"lat":"49.53306000","lon":"5.98833000"},{"name":"Niedercorn","native":null,"lat":"49.53611000","lon":"5.89306000"},{"name":"Obercorn","native":null,"lat":"49.51361000","lon":"5.89611000"},{"name":"Pétange","native":null,"lat":"49.55833000","lon":"5.88056000"},{"name":"Pontpierre","native":null,"lat":"49.53639000","lon":"6.02944000"},{"name":"Reckange-sur-Mess","native":null,"lat":"49.56250000","lon":"6.00889000"},{"name":"Rodange","native":null,"lat":"49.54639000","lon":"5.84083000"},{"name":"Roeser","native":null,"lat":"49.53721000","lon":"6.14629000"},{"name":"Rumelange","native":null,"lat":"49.45964000","lon":"6.03089000"},{"name":"Sanem","native":null,"lat":"49.54806000","lon":"5.92889000"},{"name":"Schifflange","native":null,"lat":"49.50639000","lon":"6.01278000"},{"name":"Soleuvre","native":null,"lat":"49.52148000","lon":"5.93781000"},{"name":"Tétange","native":null,"lat":"49.47583000","lon":"6.04222000"}]},{"name":"Canton of Grevenmacher","native":null,"cities":[{"name":"Betzdorf","native":null,"lat":"49.68333000","lon":"6.35000000"},{"name":"Biwer","native":null,"lat":"49.70605000","lon":"6.37201000"},{"name":"Flaxweiler","native":null,"lat":"49.66602000","lon":"6.34321000"},{"name":"Gonderange","native":null,"lat":"49.69537000","lon":"6.24577000"},{"name":"Grevenmacher","native":null,"lat":"49.67751000","lon":"6.44022000"},{"name":"Junglinster","native":null,"lat":"49.70722000","lon":"6.25306000"},{"name":"Manternach","native":null,"lat":"49.70278000","lon":"6.42639000"},{"name":"Mertert","native":null,"lat":"49.70261000","lon":"6.47966000"},{"name":"Wasserbillig","native":null,"lat":"49.71534000","lon":"6.49861000"},{"name":"Wormeldange","native":null,"lat":"49.61114000","lon":"6.40546000"}]},{"name":"Canton of Luxembourg","native":null,"cities":[{"name":"Alzingen","native":null,"lat":"49.56500000","lon":"6.16361000"},{"name":"Béreldange","native":null,"lat":"49.65507000","lon":"6.11874000"},{"name":"Bertrange","native":null,"lat":"49.61111000","lon":"6.05000000"},{"name":"Contern","native":null,"lat":"49.58194000","lon":"6.22667000"},{"name":"Fentange","native":null,"lat":"49.56278000","lon":"6.15389000"},{"name":"Heisdorf","native":null,"lat":"49.67207000","lon":"6.14202000"},{"name":"Helmsange","native":null,"lat":"49.65278000","lon":"6.14139000"},{"name":"Hesperange","native":null,"lat":"49.56806000","lon":"6.15139000"},{"name":"Itzig","native":null,"lat":"49.58769000","lon":"6.17065000"},{"name":"Kirchberg","native":null,"lat":"49.62389000","lon":"6.14944000"},{"name":"Luxembourg","native":null,"lat":"49.61167000","lon":"6.13000000"},{"name":"Moutfort","native":null,"lat":"49.58528000","lon":"6.25556000"},{"name":"Müllendorf","native":null,"lat":"49.68028000","lon":"6.13000000"},{"name":"Niederanven","native":null,"lat":"49.65196000","lon":"6.26199000"},{"name":"Olm","native":null,"lat":"49.65722000","lon":"6.00028000"},{"name":"Sandweiler","native":null,"lat":"49.61471000","lon":"6.22221000"},{"name":"Schrassig","native":null,"lat":"49.61014000","lon":"6.25903000"},{"name":"Schuttrange","native":null,"lat":"49.62056000","lon":"6.26861000"},{"name":"Steinsel","native":null,"lat":"49.67694000","lon":"6.12389000"},{"name":"Strassen","native":null,"lat":"49.62056000","lon":"6.07333000"},{"name":"Walferdange","native":null,"lat":"49.66321000","lon":"6.13224000"},{"name":"Weiler-la-Tour","native":null,"lat":"49.54083000","lon":"6.20083000"}]},{"name":"Canton of Mersch","native":null,"cities":[{"name":"Bissen","native":null,"lat":"49.78733000","lon":"6.06540000"},{"name":"Boevange-sur-Attert","native":null,"lat":"49.77256000","lon":"6.01532000"},{"name":"Colmar","native":null,"lat":"49.81028000","lon":"6.09722000"},{"name":"Fischbach","native":null,"lat":"49.74600000","lon":"6.18702000"},{"name":"Heffingen","native":null,"lat":"49.76907000","lon":"6.24049000"},{"name":"Larochette","native":null,"lat":"49.78362000","lon":"6.21891000"},{"name":"Lintgen","native":null,"lat":"49.72243000","lon":"6.13016000"},{"name":"Lorentzweiler","native":null,"lat":"49.70131000","lon":"6.14234000"},{"name":"Mersch","native":null,"lat":"49.74889000","lon":"6.10611000"},{"name":"Nommern","native":null,"lat":"49.78694000","lon":"6.17472000"},{"name":"Rollingen","native":null,"lat":"49.74167000","lon":"6.11444000"},{"name":"Tuntange","native":null,"lat":"49.71778000","lon":"6.01028000"}]},{"name":"Canton of Redange","native":null,"cities":[{"name":"Beckerich","native":null,"lat":"49.73056000","lon":"5.88722000"},{"name":"Bettborn","native":null,"lat":"49.79528000","lon":"5.94111000"},{"name":"Commune de Préizerdaul","native":null,"lat":"49.80114000","lon":"5.93299000"},{"name":"Ell","native":null,"lat":"49.76389000","lon":"5.85722000"},{"name":"Grosbous","native":null,"lat":"49.82778000","lon":"5.96722000"},{"name":"Rambrouch","native":null,"lat":"49.83083000","lon":"5.84500000"},{"name":"Redange-sur-Attert","native":null,"lat":"49.76437000","lon":"5.88997000"},{"name":"Saeul","native":null,"lat":"49.72722000","lon":"5.98639000"},{"name":"Useldange","native":null,"lat":"49.76972000","lon":"5.98222000"},{"name":"Vichten","native":null,"lat":"49.80306000","lon":"6.00000000"},{"name":"Wahl","native":null,"lat":"49.83667000","lon":"5.90639000"}]},{"name":"Canton of Remich","native":null,"cities":[{"name":"Bous","native":null,"lat":"49.55389000","lon":"6.32917000"},{"name":"Dalheim","native":null,"lat":"49.54083000","lon":"6.25972000"},{"name":"Lenningen","native":null,"lat":"49.59861000","lon":"6.36806000"},{"name":"Mondorf-les-Bains","native":null,"lat":"49.50500000","lon":"6.28111000"},{"name":"Remich","native":null,"lat":"49.54500000","lon":"6.36694000"},{"name":"Schengen","native":null,"lat":"49.47000000","lon":"6.36200000"},{"name":"Stadtbredimus","native":null,"lat":"49.56278000","lon":"6.36444000"},{"name":"Waldbredimus","native":null,"lat":"49.55676000","lon":"6.28789000"}]},{"name":"Canton of Vianden","native":null,"cities":[{"name":"Putscheid","native":null,"lat":"49.96083000","lon":"6.14306000"},{"name":"Tandel","native":null,"lat":"49.89750000","lon":"6.18333000"},{"name":"Vianden","native":null,"lat":"49.93500000","lon":"6.20889000"}]},{"name":"Canton of Wiltz","native":null,"cities":[{"name":"Bavigne","native":null,"lat":"49.92194000","lon":"5.84944000"},{"name":"Boulaide","native":null,"lat":"49.88778000","lon":"5.81639000"},{"name":"Esch-sur-Sûre","native":null,"lat":"49.91139000","lon":"5.93639000"},{"name":"Goesdorf","native":null,"lat":"49.92131000","lon":"5.96601000"},{"name":"Kiischpelt","native":null,"lat":"49.97835000","lon":"6.00760000"},{"name":"Lac de la Haute-Sûre","native":null,"lat":"49.91667000","lon":"5.83333000"},{"name":"Wiltz","native":null,"lat":"49.96547000","lon":"5.93390000"},{"name":"Wilwerwiltz","native":null,"lat":"49.98889000","lon":"5.99917000"},{"name":"Winseler","native":null,"lat":"49.96778000","lon":"5.89028000"}]},{"name":"Diekirch District","native":null,"cities":[]},{"name":"Grevenmacher District","native":null,"cities":[]},{"name":"Luxembourg District","native":null,"cities":[]}]