[{"state":"Canton of Capellen","name":"Bascharage","lat":"49.56727000","lon":"5.90730000"},
{"state":"Canton of Capellen","name":"Bridel","lat":"49.65579000","lon":"6.07999000"},
{"state":"Canton of Capellen","name":"Capellen","lat":"49.64500000","lon":"5.99083000"},
{"state":"Canton of Capellen","name":"Clemency","lat":"49.59667000","lon":"5.87583000"},
{"state":"Canton of Capellen","name":"Dippach","lat":"49.58701000","lon":"5.98330000"},
{"state":"Canton of Capellen","name":"Eischen","lat":"49.68556000","lon":"5.87861000"},
{"state":"Canton of Capellen","name":"Garnich","lat":"49.61667000","lon":"5.95250000"},
{"state":"Canton of Capellen","name":"Hautcharage","lat":"49.57499000","lon":"5.90970000"},
{"state":"Canton of Capellen","name":"Hobscheid","lat":"49.68861000","lon":"5.91472000"},
{"state":"Canton of Capellen","name":"Käerjeng","lat":"49.58311000","lon":"5.89892000"},
{"state":"Canton of Capellen","name":"Kehlen","lat":"49.66833000","lon":"6.03583000"},
{"state":"Canton of Capellen","name":"Koerich","lat":"49.67000000","lon":"5.95000000"},
{"state":"Canton of Capellen","name":"Kopstal","lat":"49.66444000","lon":"6.07306000"},
{"state":"Canton of Capellen","name":"Mamer","lat":"49.62750000","lon":"6.02333000"},
{"state":"Canton of Capellen","name":"Schouweiler","lat":"49.58250000","lon":"5.95639000"},
{"state":"Canton of Capellen","name":"Septfontaines","lat":"49.70111000","lon":"5.96722000"},
{"state":"Canton of Capellen","name":"Steinfort","lat":"49.66139000","lon":"5.91917000"},
{"state":"Canton of Clervaux","name":"Clervaux","lat":"50.05472000","lon":"6.03139000"},
{"state":"Canton of Clervaux","name":"Hosingen","lat":"50.01218000","lon":"6.09089000"},
{"state":"Canton of Clervaux","name":"Parc Hosingen","lat":"49.99744000","lon":"6.09067000"},
{"state":"Canton of Clervaux","name":"Troisvierges","lat":"50.12111000","lon":"6.00028000"},
{"state":"Canton of Clervaux","name":"Weiswampach","lat":"50.13722000","lon":"6.07500000"},
{"state":"Canton of Clervaux","name":"Wincrange","lat":"50.05333000","lon":"5.91917000"},
{"state":"Canton of Diekirch","name":"Bettendorf","lat":"49.87667000","lon":"6.21806000"},
{"state":"Canton of Diekirch","name":"Bourscheid","lat":"49.90862000","lon":"6.06750000"},
{"state":"Canton of Diekirch","name":"Commune de la Vallée de l’Ernz","lat":"49.82149000","lon":"6.21746000"},
{"state":"Canton of Diekirch","name":"Diekirch","lat":"49.86778000","lon":"6.15583000"},
{"state":"Canton of Diekirch","name":"Erpeldange","lat":"49.86472000","lon":"6.11472000"},
{"state":"Canton of Diekirch","name":"Ettelbruck","lat":"49.84750000","lon":"6.10417000"},
{"state":"Canton of Diekirch","name":"Feulen","lat":"49.85000000","lon":"6.01667000"},
{"state":"Canton of Diekirch","name":"Medernach","lat":"49.80955000","lon":"6.21521000"},
{"state":"Canton of Diekirch","name":"Mertzig","lat":"49.83389000","lon":"6.00750000"},
{"state":"Canton of Diekirch","name":"Niederfeulen","lat":"49.85556000","lon":"6.04722000"},
{"state":"Canton of Diekirch","name":"Reisdorf","lat":"49.86861000","lon":"6.26778000"},
{"state":"Canton of Diekirch","name":"Schieren","lat":"49.83056000","lon":"6.09861000"},
{"state":"Canton of Diekirch","name":"Warken","lat":"49.85918000","lon":"6.08415000"},
{"state":"Canton of Echternach","name":"Beaufort","lat":"49.83583000","lon":"6.29167000"},
{"state":"Canton of Echternach","name":"Bech","lat":"49.75260000","lon":"6.36379000"},
{"state":"Canton of Echternach","name":"Berdorf","lat":"49.82051000","lon":"6.34945000"},
{"state":"Canton of Echternach","name":"Consdorf","lat":"49.78018000","lon":"6.33950000"},
{"state":"Canton of Echternach","name":"Echternach","lat":"49.81212000","lon":"6.41846000"},
{"state":"Canton of Echternach","name":"Mompach","lat":"49.74611000","lon":"6.46500000"},
{"state":"Canton of Echternach","name":"Rosport","lat":"49.80470000","lon":"6.50532000"},
{"state":"Canton of Echternach","name":"Waldbillig","lat":"49.79636000","lon":"6.28431000"},
{"state":"Canton of Esch-sur-Alzette","name":"Aspelt","lat":"49.52278000","lon":"6.22472000"},
{"state":"Canton of Esch-sur-Alzette","name":"Belvaux","lat":"49.51014000","lon":"5.92414000"},
{"state":"Canton of Esch-sur-Alzette","name":"Bergem","lat":"49.52500000","lon":"6.04222000"},
{"state":"Canton of Esch-sur-Alzette","name":"Bettembourg","lat":"49.51861000","lon":"6.10278000"},
{"state":"Canton of Esch-sur-Alzette","name":"Crauthem","lat":"49.53556000","lon":"6.14694000"},
{"state":"Canton of Esch-sur-Alzette","name":"Differdange","lat":"49.52417000","lon":"5.89139000"},
{"state":"Canton of Esch-sur-Alzette","name":"Dudelange","lat":"49.48056000","lon":"6.08750000"},
{"state":"Canton of Esch-sur-Alzette","name":"Esch-sur-Alzette","lat":"49.49583000","lon":"5.98056000"},
{"state":"Canton of Esch-sur-Alzette","name":"Frisange","lat":"49.51616000","lon":"6.18858000"},
{"state":"Canton of Esch-sur-Alzette","name":"Kayl","lat":"49.48917000","lon":"6.03972000"},
{"state":"Canton of Esch-sur-Alzette","name":"Lamadelaine","lat":"49.54639000","lon":"5.85639000"},
{"state":"Canton of Esch-sur-Alzette","name":"Leudelange","lat":"49.56833000","lon":"6.06528000"},
{"state":"Canton of Esch-sur-Alzette","name":"Mondercange","lat":"49.53306000","lon":"5.98833000"},
{"state":"Canton of Esch-sur-Alzette","name":"Niedercorn","lat":"49.53611000","lon":"5.89306000"},
{"state":"Canton of Esch-sur-Alzette","name":"Obercorn","lat":"49.51361000","lon":"5.89611000"},
{"state":"Canton of Esch-sur-Alzette","name":"Pétange","lat":"49.55833000","lon":"5.88056000"},
{"state":"Canton of Esch-sur-Alzette","name":"Pontpierre","lat":"49.53639000","lon":"6.02944000"},
{"state":"Canton of Esch-sur-Alzette","name":"Reckange-sur-Mess","lat":"49.56250000","lon":"6.00889000"},
{"state":"Canton of Esch-sur-Alzette","name":"Rodange","lat":"49.54639000","lon":"5.84083000"},
{"state":"Canton of Esch-sur-Alzette","name":"Roeser","lat":"49.53721000","lon":"6.14629000"},
{"state":"Canton of Esch-sur-Alzette","name":"Rumelange","lat":"49.45964000","lon":"6.03089000"},
{"state":"Canton of Esch-sur-Alzette","name":"Sanem","lat":"49.54806000","lon":"5.92889000"},
{"state":"Canton of Esch-sur-Alzette","name":"Schifflange","lat":"49.50639000","lon":"6.01278000"},
{"state":"Canton of Esch-sur-Alzette","name":"Soleuvre","lat":"49.52148000","lon":"5.93781000"},
{"state":"Canton of Esch-sur-Alzette","name":"Tétange","lat":"49.47583000","lon":"6.04222000"},
{"state":"Canton of Grevenmacher","name":"Betzdorf","lat":"49.68333000","lon":"6.35000000"},
{"state":"Canton of Grevenmacher","name":"Biwer","lat":"49.70605000","lon":"6.37201000"},
{"state":"Canton of Grevenmacher","name":"Flaxweiler","lat":"49.66602000","lon":"6.34321000"},
{"state":"Canton of Grevenmacher","name":"Gonderange","lat":"49.69537000","lon":"6.24577000"},
{"state":"Canton of Grevenmacher","name":"Grevenmacher","lat":"49.67751000","lon":"6.44022000"},
{"state":"Canton of Grevenmacher","name":"Junglinster","lat":"49.70722000","lon":"6.25306000"},
{"state":"Canton of Grevenmacher","name":"Manternach","lat":"49.70278000","lon":"6.42639000"},
{"state":"Canton of Grevenmacher","name":"Mertert","lat":"49.70261000","lon":"6.47966000"},
{"state":"Canton of Grevenmacher","name":"Wasserbillig","lat":"49.71534000","lon":"6.49861000"},
{"state":"Canton of Grevenmacher","name":"Wormeldange","lat":"49.61114000","lon":"6.40546000"},
{"state":"Canton of Luxembourg","name":"Alzingen","lat":"49.56500000","lon":"6.16361000"},
{"state":"Canton of Luxembourg","name":"Béreldange","lat":"49.65507000","lon":"6.11874000"},
{"state":"Canton of Luxembourg","name":"Bertrange","lat":"49.61111000","lon":"6.05000000"},
{"state":"Canton of Luxembourg","name":"Contern","lat":"49.58194000","lon":"6.22667000"},
{"state":"Canton of Luxembourg","name":"Fentange","lat":"49.56278000","lon":"6.15389000"},
{"state":"Canton of Luxembourg","name":"Heisdorf","lat":"49.67207000","lon":"6.14202000"},
{"state":"Canton of Luxembourg","name":"Helmsange","lat":"49.65278000","lon":"6.14139000"},
{"state":"Canton of Luxembourg","name":"Hesperange","lat":"49.56806000","lon":"6.15139000"},
{"state":"Canton of Luxembourg","name":"Itzig","lat":"49.58769000","lon":"6.17065000"},
{"state":"Canton of Luxembourg","name":"Kirchberg","lat":"49.62389000","lon":"6.14944000"},
{"state":"Canton of Luxembourg","name":"Luxembourg","lat":"49.61167000","lon":"6.13000000"},
{"state":"Canton of Luxembourg","name":"Moutfort","lat":"49.58528000","lon":"6.25556000"},
{"state":"Canton of Luxembourg","name":"Müllendorf","lat":"49.68028000","lon":"6.13000000"},
{"state":"Canton of Luxembourg","name":"Niederanven","lat":"49.65196000","lon":"6.26199000"},
{"state":"Canton of Luxembourg","name":"Olm","lat":"49.65722000","lon":"6.00028000"},
{"state":"Canton of Luxembourg","name":"Sandweiler","lat":"49.61471000","lon":"6.22221000"},
{"state":"Canton of Luxembourg","name":"Schrassig","lat":"49.61014000","lon":"6.25903000"},
{"state":"Canton of Luxembourg","name":"Schuttrange","lat":"49.62056000","lon":"6.26861000"},
{"state":"Canton of Luxembourg","name":"Steinsel","lat":"49.67694000","lon":"6.12389000"},
{"state":"Canton of Luxembourg","name":"Strassen","lat":"49.62056000","lon":"6.07333000"},
{"state":"Canton of Luxembourg","name":"Walferdange","lat":"49.66321000","lon":"6.13224000"},
{"state":"Canton of Luxembourg","name":"Weiler-la-Tour","lat":"49.54083000","lon":"6.20083000"},
{"state":"Canton of Mersch","name":"Bissen","lat":"49.78733000","lon":"6.06540000"},
{"state":"Canton of Mersch","name":"Boevange-sur-Attert","lat":"49.77256000","lon":"6.01532000"},
{"state":"Canton of Mersch","name":"Colmar","lat":"49.81028000","lon":"6.09722000"},
{"state":"Canton of Mersch","name":"Fischbach","lat":"49.74600000","lon":"6.18702000"},
{"state":"Canton of Mersch","name":"Heffingen","lat":"49.76907000","lon":"6.24049000"},
{"state":"Canton of Mersch","name":"Larochette","lat":"49.78362000","lon":"6.21891000"},
{"state":"Canton of Mersch","name":"Lintgen","lat":"49.72243000","lon":"6.13016000"},
{"state":"Canton of Mersch","name":"Lorentzweiler","lat":"49.70131000","lon":"6.14234000"},
{"state":"Canton of Mersch","name":"Mersch","lat":"49.74889000","lon":"6.10611000"},
{"state":"Canton of Mersch","name":"Nommern","lat":"49.78694000","lon":"6.17472000"},
{"state":"Canton of Mersch","name":"Rollingen","lat":"49.74167000","lon":"6.11444000"},
{"state":"Canton of Mersch","name":"Tuntange","lat":"49.71778000","lon":"6.01028000"},
{"state":"Canton of Redange","name":"Beckerich","lat":"49.73056000","lon":"5.88722000"},
{"state":"Canton of Redange","name":"Bettborn","lat":"49.79528000","lon":"5.94111000"},
{"state":"Canton of Redange","name":"Commune de Préizerdaul","lat":"49.80114000","lon":"5.93299000"},
{"state":"Canton of Redange","name":"Ell","lat":"49.76389000","lon":"5.85722000"},
{"state":"Canton of Redange","name":"Grosbous","lat":"49.82778000","lon":"5.96722000"},
{"state":"Canton of Redange","name":"Rambrouch","lat":"49.83083000","lon":"5.84500000"},
{"state":"Canton of Redange","name":"Redange-sur-Attert","lat":"49.76437000","lon":"5.88997000"},
{"state":"Canton of Redange","name":"Saeul","lat":"49.72722000","lon":"5.98639000"},
{"state":"Canton of Redange","name":"Useldange","lat":"49.76972000","lon":"5.98222000"},
{"state":"Canton of Redange","name":"Vichten","lat":"49.80306000","lon":"6.00000000"},
{"state":"Canton of Redange","name":"Wahl","lat":"49.83667000","lon":"5.90639000"},
{"state":"Canton of Remich","name":"Bous","lat":"49.55389000","lon":"6.32917000"},
{"state":"Canton of Remich","name":"Dalheim","lat":"49.54083000","lon":"6.25972000"},
{"state":"Canton of Remich","name":"Lenningen","lat":"49.59861000","lon":"6.36806000"},
{"state":"Canton of Remich","name":"Mondorf-les-Bains","lat":"49.50500000","lon":"6.28111000"},
{"state":"Canton of Remich","name":"Remich","lat":"49.54500000","lon":"6.36694000"},
{"state":"Canton of Remich","name":"Schengen","lat":"49.47000000","lon":"6.36200000"},
{"state":"Canton of Remich","name":"Stadtbredimus","lat":"49.56278000","lon":"6.36444000"},
{"state":"Canton of Remich","name":"Waldbredimus","lat":"49.55676000","lon":"6.28789000"},
{"state":"Canton of Vianden","name":"Putscheid","lat":"49.96083000","lon":"6.14306000"},
{"state":"Canton of Vianden","name":"Tandel","lat":"49.89750000","lon":"6.18333000"},
{"state":"Canton of Vianden","name":"Vianden","lat":"49.93500000","lon":"6.20889000"},
{"state":"Canton of Wiltz","name":"Bavigne","lat":"49.92194000","lon":"5.84944000"},
{"state":"Canton of Wiltz","name":"Boulaide","lat":"49.88778000","lon":"5.81639000"},
{"state":"Canton of Wiltz","name":"Esch-sur-Sûre","lat":"49.91139000","lon":"5.93639000"},
{"state":"Canton of Wiltz","name":"Goesdorf","lat":"49.92131000","lon":"5.96601000"},
{"state":"Canton of Wiltz","name":"Kiischpelt","lat":"49.97835000","lon":"6.00760000"},
{"state":"Canton of Wiltz","name":"Lac de la Haute-Sûre","lat":"49.91667000","lon":"5.83333000"},
{"state":"Canton of Wiltz","name":"Wiltz","lat":"49.96547000","lon":"5.93390000"},
{"state":"Canton of Wiltz","name":"Wilwerwiltz","lat":"49.98889000","lon":"5.99917000"},
{"state":"Canton of Wiltz","name":"Winseler","lat":"49.96778000","lon":"5.89028000"}]