[{"name":"Aglona Municipality","native":null,"cities":[{"name":"Aglona","native":null,"lat":"56.13274000","lon":"27.00682000"}]},{"name":"Aizkraukle Municipality","native":null,"cities":[{"name":"Aizkraukle","native":null,"lat":"56.60477000","lon":"25.25534000"}]},{"name":"Aizpute Municipality","native":null,"cities":[{"name":"Aizpute","native":null,"lat":"56.72108000","lon":"21.60156000"}]},{"name":"Aknīste Municipality","native":null,"cities":[{"name":"Aknīste","native":null,"lat":"56.16152000","lon":"25.74783000"}]},{"name":"Aloja Municipality","native":null,"cities":[{"name":"Aloja","native":null,"lat":"57.76723000","lon":"24.87743000"},{"name":"Staicele","native":null,"lat":"57.83579000","lon":"24.74706000"}]},{"name":"Alsunga Municipality","native":null,"cities":[{"name":"Alsunga","native":null,"lat":"56.98194000","lon":"21.55938000"}]},{"name":"Alūksne Municipality","native":null,"cities":[{"name":"Alūksne","native":null,"lat":"57.42162000","lon":"27.04662000"}]},{"name":"Amata Municipality","native":null,"cities":[]},{"name":"Ape Municipality","native":null,"cities":[{"name":"Ape","native":null,"lat":"57.53928000","lon":"26.69291000"}]},{"name":"Auce Municipality","native":null,"cities":[{"name":"Auce","native":null,"lat":"56.45981000","lon":"22.90169000"}]},{"name":"Babīte Municipality","native":null,"cities":[{"name":"Piņķi","native":null,"lat":"56.94189000","lon":"23.91365000"}]},{"name":"Baldone Municipality","native":null,"cities":[{"name":"Baldone","native":null,"lat":"56.74451000","lon":"24.40078000"}]},{"name":"Baltinava Municipality","native":null,"cities":[{"name":"Baltinava","native":null,"lat":"56.94394000","lon":"27.64401000"}]},{"name":"Balvi Municipality","native":null,"cities":[{"name":"Balvi","native":null,"lat":"57.13130000","lon":"27.26583000"}]},{"name":"Bauska Municipality","native":null,"cities":[{"name":"Bauska","native":null,"lat":"56.40794000","lon":"24.19443000"}]},{"name":"Beverīna Municipality","native":null,"cities":[{"name":"Mūrmuiža","native":null,"lat":"57.47312000","lon":"25.49174000"}]},{"name":"Brocēni Municipality","native":null,"cities":[{"name":"Brocēni","native":null,"lat":"56.67890000","lon":"22.56945000"}]},{"name":"Burtnieki Municipality","native":null,"cities":[]},{"name":"Carnikava Municipality","native":null,"cities":[{"name":"Carnikava","native":null,"lat":"57.12935000","lon":"24.28423000"}]},{"name":"Cēsis Municipality","native":null,"cities":[{"name":"Cēsis","native":null,"lat":"57.31188000","lon":"25.27456000"}]},{"name":"Cesvaine Municipality","native":null,"cities":[{"name":"Cesvaine","native":null,"lat":"56.96754000","lon":"26.30764000"}]},{"name":"Cibla Municipality","native":null,"cities":[{"name":"Cibla","native":null,"lat":"56.54980000","lon":"27.88370000"}]},{"name":"Dagda Municipality","native":null,"cities":[{"name":"Dagda","native":null,"lat":"56.09512000","lon":"27.53723000"}]},{"name":"Daugavpils","native":null,"cities":[]},{"name":"Daugavpils Municipality","native":null,"cities":[{"name":"Daugavpils","native":null,"lat":"55.88333000","lon":"26.53333000"}]},{"name":"Dobele Municipality","native":null,"cities":[{"name":"Dobele","native":null,"lat":"56.62372000","lon":"23.27510000"}]},{"name":"Dundaga Municipality","native":null,"cities":[{"name":"Dundaga","native":null,"lat":"57.50498000","lon":"22.35041000"}]},{"name":"Durbe Municipality","native":null,"cities":[{"name":"Lieģi","native":null,"lat":"56.58173000","lon":"21.33399000"}]},{"name":"Engure Municipality","native":null,"cities":[{"name":"Smārde","native":null,"lat":"56.95420000","lon":"23.33736000"}]},{"name":"Ērgļi Municipality","native":null,"cities":[{"name":"Ērgļi","native":null,"lat":"56.89752000","lon":"25.63668000"}]},{"name":"Garkalne Municipality","native":null,"cities":[{"name":"Garkalne","native":null,"lat":"57.04486000","lon":"24.41951000"}]},{"name":"Grobiņa Municipality","native":null,"cities":[{"name":"Grobiņa","native":null,"lat":"56.53521000","lon":"21.16782000"}]},{"name":"Gulbene Municipality","native":null,"cities":[{"name":"Gulbene","native":null,"lat":"57.17767000","lon":"26.75291000"}]},{"name":"Iecava Municipality","native":null,"cities":[{"name":"Iecava","native":null,"lat":"56.59766000","lon":"24.20763000"}]},{"name":"Ikšķile Municipality","native":null,"cities":[{"name":"Ikšķile","native":null,"lat":"56.83399000","lon":"24.49679000"}]},{"name":"Ilūkste Municipality","native":null,"cities":[{"name":"Ilūkste","native":null,"lat":"55.97754000","lon":"26.29655000"}]},{"name":"Inčukalns Municipality","native":null,"cities":[{"name":"Inčukalns","native":null,"lat":"57.09867000","lon":"24.68630000"},{"name":"Vangaži","native":null,"lat":"57.09358000","lon":"24.54468000"}]},{"name":"Jaunjelgava Municipality","native":null,"cities":[{"name":"Jaunjelgava","native":null,"lat":"56.61319000","lon":"25.08316000"}]},{"name":"Jaunpiebalga Municipality","native":null,"cities":[]},{"name":"Jaunpils Municipality","native":null,"cities":[{"name":"Jaunpils","native":null,"lat":"56.73137000","lon":"23.01247000"}]},{"name":"Jēkabpils","native":null,"cities":[]},{"name":"Jēkabpils Municipality","native":null,"cities":[{"name":"Jēkabpils","native":null,"lat":"56.49903000","lon":"25.85735000"},{"name":"Krustpils","native":null,"lat":"56.51068000","lon":"25.86117000"}]},{"name":"Jelgava","native":null,"cities":[{"name":"Jelgava","native":null,"lat":"56.65000000","lon":"23.71278000"}]},{"name":"Jelgava Municipality","native":null,"cities":[{"name":"Tīreļi","native":null,"lat":"56.83991000","lon":"23.58902000"}]},{"name":"Jūrmala","native":null,"cities":[{"name":"Jūrmala","native":null,"lat":"56.96800000","lon":"23.77038000"}]},{"name":"Kandava Municipality","native":null,"cities":[{"name":"Kandava","native":null,"lat":"57.04087000","lon":"22.77466000"}]},{"name":"Kārsava Municipality","native":null,"cities":[{"name":"Kārsava","native":null,"lat":"56.78405000","lon":"27.68829000"}]},{"name":"Ķegums Municipality","native":null,"cities":[{"name":"Ķegums","native":null,"lat":"56.74510000","lon":"24.72439000"}]},{"name":"Ķekava Municipality","native":null,"cities":[{"name":"Baloži","native":null,"lat":"56.87643000","lon":"24.11825000"},{"name":"Ķekava","native":null,"lat":"56.82662000","lon":"24.23000000"}]},{"name":"Kocēni Municipality","native":null,"cities":[{"name":"Kocēni","native":null,"lat":"57.52057000","lon":"25.33821000"}]},{"name":"Koknese Municipality","native":null,"cities":[{"name":"Koknese","native":null,"lat":"56.65163000","lon":"25.43637000"}]},{"name":"Krāslava Municipality","native":null,"cities":[{"name":"Krāslava","native":null,"lat":"55.89514000","lon":"27.16799000"}]},{"name":"Krimulda Municipality","native":null,"cities":[]},{"name":"Krustpils Municipality","native":null,"cities":[]},{"name":"Kuldīga Municipality","native":null,"cities":[{"name":"Kuldīga","native":null,"lat":"56.97399000","lon":"21.95721000"}]},{"name":"Lielvārde Municipality","native":null,"cities":[{"name":"Lielvārde","native":null,"lat":"56.72066000","lon":"24.80743000"}]},{"name":"Liepāja","native":null,"cities":[{"name":"Karosta","native":null,"lat":"56.55128000","lon":"21.01287000"},{"name":"Liepāja","native":null,"lat":"56.50474000","lon":"21.01085000"}]},{"name":"Līgatne Municipality","native":null,"cities":[{"name":"Līgatne","native":null,"lat":"57.23429000","lon":"25.04059000"}]},{"name":"Limbaži Municipality","native":null,"cities":[{"name":"Limbaži","native":null,"lat":"57.51287000","lon":"24.71941000"}]},{"name":"Līvāni Municipality","native":null,"cities":[{"name":"Līvāni","native":null,"lat":"56.35431000","lon":"26.17579000"}]},{"name":"Lubāna Municipality","native":null,"cities":[{"name":"Lubāna","native":null,"lat":"56.90425000","lon":"26.71606000"}]},{"name":"Ludza Municipality","native":null,"cities":[{"name":"Ludza","native":null,"lat":"56.53958000","lon":"27.71891000"}]},{"name":"Madona Municipality","native":null,"cities":[{"name":"Madona","native":null,"lat":"56.85329000","lon":"26.21698000"}]},{"name":"Mālpils Municipality","native":null,"cities":[{"name":"Mālpils","native":null,"lat":"57.01010000","lon":"24.95783000"}]},{"name":"Mārupe Municipality","native":null,"cities":[{"name":"Mārupe","native":null,"lat":"56.90544000","lon":"24.05113000"}]},{"name":"Mazsalaca Municipality","native":null,"cities":[{"name":"Mazsalaca","native":null,"lat":"57.86329000","lon":"25.05475000"}]},{"name":"Mērsrags Municipality","native":null,"cities":[]},{"name":"Naukšēni Municipality","native":null,"cities":[{"name":"Naukšēni","native":null,"lat":"57.88349000","lon":"25.45609000"}]},{"name":"Nereta Municipality","native":null,"cities":[{"name":"Nereta","native":null,"lat":"56.20279000","lon":"25.30752000"}]},{"name":"Nīca Municipality","native":null,"cities":[{"name":"Nīca","native":null,"lat":"56.34601000","lon":"21.06401000"}]},{"name":"Ogre Municipality","native":null,"cities":[{"name":"Jumprava","native":null,"lat":"56.67613000","lon":"24.97210000"},{"name":"Ogre","native":null,"lat":"56.81620000","lon":"24.61401000"}]},{"name":"Olaine Municipality","native":null,"cities":[{"name":"Olaine","native":null,"lat":"56.79472000","lon":"23.93580000"}]},{"name":"Ozolnieki Municipality","native":null,"cities":[{"name":"Ozolnieki","native":null,"lat":"56.68986000","lon":"23.77610000"}]},{"name":"Pārgauja Municipality","native":null,"cities":[{"name":"Stalbe","native":null,"lat":"57.37065000","lon":"25.03106000"}]},{"name":"Pāvilosta Municipality","native":null,"cities":[{"name":"Pāvilosta","native":null,"lat":"56.88791000","lon":"21.18593000"}]},{"name":"Pļaviņas Municipality","native":null,"cities":[{"name":"Pļaviņas","native":null,"lat":"56.61780000","lon":"25.72552000"}]},{"name":"Preiļi Municipality","native":null,"cities":[{"name":"Jaunaglona","native":null,"lat":"56.16066000","lon":"27.00714000"},{"name":"Preiļi","native":null,"lat":"56.29444000","lon":"26.72459000"}]},{"name":"Priekule Municipality","native":null,"cities":[{"name":"Priekule","native":null,"lat":"56.44679000","lon":"21.58968000"}]},{"name":"Priekuļi Municipality","native":null,"cities":[{"name":"Priekuļi","native":null,"lat":"57.31500000","lon":"25.36147000"}]},{"name":"Rauna Municipality","native":null,"cities":[{"name":"Rauna","native":null,"lat":"57.33173000","lon":"25.60947000"}]},{"name":"Rēzekne","native":null,"cities":[{"name":"Rēzekne","native":null,"lat":"56.51028000","lon":"27.34000000"}]},{"name":"Rēzekne Municipality","native":null,"cities":[]},{"name":"Riebiņi Municipality","native":null,"cities":[{"name":"Riebiņi","native":null,"lat":"56.34280000","lon":"26.79995000"}]},{"name":"Riga","native":null,"cities":[{"name":"Bolderaja","native":null,"lat":"57.03132000","lon":"24.05571000"},{"name":"Daugavgrīva","native":null,"lat":"57.04315000","lon":"24.03613000"},{"name":"Jaunciems","native":null,"lat":"57.03910000","lon":"24.17413000"},{"name":"Mežaparks","native":null,"lat":"57.00008000","lon":"24.15997000"},{"name":"Riga","native":null,"lat":"56.94600000","lon":"24.10589000"}]},{"name":"Roja Municipality","native":null,"cities":[{"name":"Roja","native":null,"lat":"57.50146000","lon":"22.80881000"}]},{"name":"Ropaži Municipality","native":null,"cities":[{"name":"Ropaži","native":null,"lat":"56.97470000","lon":"24.63295000"}]},{"name":"Rucava Municipality","native":null,"cities":[{"name":"Rucava","native":null,"lat":"56.16314000","lon":"21.16156000"}]},{"name":"Rugāji Municipality","native":null,"cities":[{"name":"Rugāji","native":null,"lat":"57.00325000","lon":"27.13371000"}]},{"name":"Rūjiena Municipality","native":null,"cities":[{"name":"Rūjiena","native":null,"lat":"57.89752000","lon":"25.33155000"}]},{"name":"Rundāle Municipality","native":null,"cities":[{"name":"Pilsrundāle","native":null,"lat":"56.41812000","lon":"24.01625000"}]},{"name":"Sala Municipality","native":null,"cities":[]},{"name":"Salacgrīva Municipality","native":null,"cities":[{"name":"Ainaži","native":null,"lat":"57.86348000","lon":"24.35853000"},{"name":"Salacgrīva","native":null,"lat":"57.75312000","lon":"24.35895000"}]},{"name":"Salaspils Municipality","native":null,"cities":[{"name":"Salaspils","native":null,"lat":"56.86014000","lon":"24.36544000"}]},{"name":"Saldus Municipality","native":null,"cities":[{"name":"Saldus","native":null,"lat":"56.66363000","lon":"22.48807000"}]},{"name":"Saulkrasti Municipality","native":null,"cities":[{"name":"Saulkrasti","native":null,"lat":"57.26224000","lon":"24.41471000"}]},{"name":"Sēja Municipality","native":null,"cities":[{"name":"Engure","native":null,"lat":"57.16061000","lon":"23.22527000"},{"name":"Tukums","native":null,"lat":"56.96764000","lon":"23.15554000"}]},{"name":"Sigulda Municipality","native":null,"cities":[{"name":"Sigulda","native":null,"lat":"57.15375000","lon":"24.85953000"}]},{"name":"Skrīveri Municipality","native":null,"cities":[{"name":"Skrīveri","native":null,"lat":"56.64500000","lon":"25.12058000"}]},{"name":"Skrunda Municipality","native":null,"cities":[{"name":"Skrunda","native":null,"lat":"56.67749000","lon":"22.01649000"}]},{"name":"Smiltene Municipality","native":null,"cities":[{"name":"Smiltene","native":null,"lat":"57.42444000","lon":"25.90164000"}]},{"name":"Stopiņi Municipality","native":null,"cities":[{"name":"Ulbroka","native":null,"lat":"56.93630000","lon":"24.30387000"}]},{"name":"Strenči Municipality","native":null,"cities":[{"name":"Seda","native":null,"lat":"57.65042000","lon":"25.75089000"},{"name":"Strenči","native":null,"lat":"57.62574000","lon":"25.68535000"}]},{"name":"Talsi Municipality","native":null,"cities":[{"name":"Sabile","native":null,"lat":"57.04577000","lon":"22.57261000"},{"name":"Stende","native":null,"lat":"57.14497000","lon":"22.53482000"},{"name":"Talsi","native":null,"lat":"57.24562000","lon":"22.58137000"},{"name":"Valdemārpils","native":null,"lat":"57.37068000","lon":"22.59188000"}]},{"name":"Tērvete Municipality","native":null,"cities":[{"name":"Tērvete","native":null,"lat":"56.47989000","lon":"23.38895000"},{"name":"Zelmeņi","native":null,"lat":"56.45167000","lon":"23.35194000"}]},{"name":"Tukums Municipality","native":null,"cities":[]},{"name":"Vaiņode Municipality","native":null,"cities":[{"name":"Vaiņode","native":null,"lat":"56.41848000","lon":"21.85405000"}]},{"name":"Valka Municipality","native":null,"cities":[{"name":"Valka","native":null,"lat":"57.77520000","lon":"26.01013000"}]},{"name":"Valmiera","native":null,"cities":[{"name":"Valmiera","native":null,"lat":"57.54108000","lon":"25.42751000"}]},{"name":"Varakļāni Municipality","native":null,"cities":[{"name":"Varakļāni","native":null,"lat":"56.60826000","lon":"26.75377000"}]},{"name":"Vārkava Municipality","native":null,"cities":[{"name":"Vecvārkava","native":null,"lat":"56.19838000","lon":"26.50811000"}]},{"name":"Vecpiebalga Municipality","native":null,"cities":[{"name":"Vecpiebalga","native":null,"lat":"57.06090000","lon":"25.81624000"}]},{"name":"Vecumnieki Municipality","native":null,"cities":[{"name":"Vecumnieki","native":null,"lat":"56.60608000","lon":"24.52232000"}]},{"name":"Ventspils","native":null,"cities":[{"name":"Ventspils","native":null,"lat":"57.38988000","lon":"21.57288000"}]},{"name":"Ventspils Municipality","native":null,"cities":[{"name":"Piltene","native":null,"lat":"57.22426000","lon":"21.67439000"}]},{"name":"Viesīte Municipality","native":null,"cities":[{"name":"Viesīte","native":null,"lat":"56.34751000","lon":"25.55514000"}]},{"name":"Viļaka Municipality","native":null,"cities":[{"name":"Viļaka","native":null,"lat":"57.18458000","lon":"27.67220000"}]},{"name":"Viļāni Municipality","native":null,"cities":[{"name":"Viļāni","native":null,"lat":"56.55253000","lon":"26.92449000"}]},{"name":"Zilupe Municipality","native":null,"cities":[{"name":"Zilupe","native":null,"lat":"56.38616000","lon":"28.12165000"}]}]