[{"state":"Aglona Municipality","name":"Aglona","lat":"56.13274000","lon":"27.00682000"},
{"state":"Aizkraukle Municipality","name":"Aizkraukle","lat":"56.60477000","lon":"25.25534000"},
{"state":"Aizpute Municipality","name":"Aizpute","lat":"56.72108000","lon":"21.60156000"},
{"state":"Aknīste Municipality","name":"Aknīste","lat":"56.16152000","lon":"25.74783000"},
{"state":"Aloja Municipality","name":"Aloja","lat":"57.76723000","lon":"24.87743000"},
{"state":"Aloja Municipality","name":"Staicele","lat":"57.83579000","lon":"24.74706000"},
{"state":"Alsunga Municipality","name":"Alsunga","lat":"56.98194000","lon":"21.55938000"},
{"state":"Alūksne Municipality","name":"Alūksne","lat":"57.42162000","lon":"27.04662000"},
{"state":"Ape Municipality","name":"Ape","lat":"57.53928000","lon":"26.69291000"},
{"state":"Auce Municipality","name":"Auce","lat":"56.45981000","lon":"22.90169000"},
{"state":"Babīte Municipality","name":"Piņķi","lat":"56.94189000","lon":"23.91365000"},
{"state":"Baldone Municipality","name":"Baldone","lat":"56.74451000","lon":"24.40078000"},
{"state":"Baltinava Municipality","name":"Baltinava","lat":"56.94394000","lon":"27.64401000"},
{"state":"Balvi Municipality","name":"Balvi","lat":"57.13130000","lon":"27.26583000"},
{"state":"Bauska Municipality","name":"Bauska","lat":"56.40794000","lon":"24.19443000"},
{"state":"Beverīna Municipality","name":"Mūrmuiža","lat":"57.47312000","lon":"25.49174000"},
{"state":"Brocēni Municipality","name":"Brocēni","lat":"56.67890000","lon":"22.56945000"},
{"state":"Carnikava Municipality","name":"Carnikava","lat":"57.12935000","lon":"24.28423000"},
{"state":"Cēsis Municipality","name":"Cēsis","lat":"57.31188000","lon":"25.27456000"},
{"state":"Cesvaine Municipality","name":"Cesvaine","lat":"56.96754000","lon":"26.30764000"},
{"state":"Cibla Municipality","name":"Cibla","lat":"56.54980000","lon":"27.88370000"},
{"state":"Dagda Municipality","name":"Dagda","lat":"56.09512000","lon":"27.53723000"},
{"state":"Daugavpils Municipality","name":"Daugavpils","lat":"55.88333000","lon":"26.53333000"},
{"state":"Dobele Municipality","name":"Dobele","lat":"56.62372000","lon":"23.27510000"},
{"state":"Dundaga Municipality","name":"Dundaga","lat":"57.50498000","lon":"22.35041000"},
{"state":"Durbe Municipality","name":"Lieģi","lat":"56.58173000","lon":"21.33399000"},
{"state":"Engure Municipality","name":"Smārde","lat":"56.95420000","lon":"23.33736000"},
{"state":"Ērgļi Municipality","name":"Ērgļi","lat":"56.89752000","lon":"25.63668000"},
{"state":"Garkalne Municipality","name":"Garkalne","lat":"57.04486000","lon":"24.41951000"},
{"state":"Grobiņa Municipality","name":"Grobiņa","lat":"56.53521000","lon":"21.16782000"},
{"state":"Gulbene Municipality","name":"Gulbene","lat":"57.17767000","lon":"26.75291000"},
{"state":"Iecava Municipality","name":"Iecava","lat":"56.59766000","lon":"24.20763000"},
{"state":"Ikšķile Municipality","name":"Ikšķile","lat":"56.83399000","lon":"24.49679000"},
{"state":"Ilūkste Municipality","name":"Ilūkste","lat":"55.97754000","lon":"26.29655000"},
{"state":"Inčukalns Municipality","name":"Inčukalns","lat":"57.09867000","lon":"24.68630000"},
{"state":"Inčukalns Municipality","name":"Vangaži","lat":"57.09358000","lon":"24.54468000"},
{"state":"Jaunjelgava Municipality","name":"Jaunjelgava","lat":"56.61319000","lon":"25.08316000"},
{"state":"Jaunpils Municipality","name":"Jaunpils","lat":"56.73137000","lon":"23.01247000"},
{"state":"Jēkabpils Municipality","name":"Jēkabpils","lat":"56.49903000","lon":"25.85735000"},
{"state":"Jēkabpils Municipality","name":"Krustpils","lat":"56.51068000","lon":"25.86117000"},
{"state":"Jelgava","name":"Jelgava","lat":"56.65000000","lon":"23.71278000"},
{"state":"Jelgava Municipality","name":"Tīreļi","lat":"56.83991000","lon":"23.58902000"},
{"state":"Jūrmala","name":"Jūrmala","lat":"56.96800000","lon":"23.77038000"},
{"state":"Kandava Municipality","name":"Kandava","lat":"57.04087000","lon":"22.77466000"},
{"state":"Kārsava Municipality","name":"Kārsava","lat":"56.78405000","lon":"27.68829000"},
{"state":"Ķegums Municipality","name":"Ķegums","lat":"56.74510000","lon":"24.72439000"},
{"state":"Ķekava Municipality","name":"Baloži","lat":"56.87643000","lon":"24.11825000"},
{"state":"Ķekava Municipality","name":"Ķekava","lat":"56.82662000","lon":"24.23000000"},
{"state":"Kocēni Municipality","name":"Kocēni","lat":"57.52057000","lon":"25.33821000"},
{"state":"Koknese Municipality","name":"Koknese","lat":"56.65163000","lon":"25.43637000"},
{"state":"Krāslava Municipality","name":"Krāslava","lat":"55.89514000","lon":"27.16799000"},
{"state":"Kuldīga Municipality","name":"Kuldīga","lat":"56.97399000","lon":"21.95721000"},
{"state":"Lielvārde Municipality","name":"Lielvārde","lat":"56.72066000","lon":"24.80743000"},
{"state":"Liepāja","name":"Karosta","lat":"56.55128000","lon":"21.01287000"},
{"state":"Liepāja","name":"Liepāja","lat":"56.50474000","lon":"21.01085000"},
{"state":"Līgatne Municipality","name":"Līgatne","lat":"57.23429000","lon":"25.04059000"},
{"state":"Limbaži Municipality","name":"Limbaži","lat":"57.51287000","lon":"24.71941000"},
{"state":"Līvāni Municipality","name":"Līvāni","lat":"56.35431000","lon":"26.17579000"},
{"state":"Lubāna Municipality","name":"Lubāna","lat":"56.90425000","lon":"26.71606000"},
{"state":"Ludza Municipality","name":"Ludza","lat":"56.53958000","lon":"27.71891000"},
{"state":"Madona Municipality","name":"Madona","lat":"56.85329000","lon":"26.21698000"},
{"state":"Mālpils Municipality","name":"Mālpils","lat":"57.01010000","lon":"24.95783000"},
{"state":"Mārupe Municipality","name":"Mārupe","lat":"56.90544000","lon":"24.05113000"},
{"state":"Mazsalaca Municipality","name":"Mazsalaca","lat":"57.86329000","lon":"25.05475000"},
{"state":"Naukšēni Municipality","name":"Naukšēni","lat":"57.88349000","lon":"25.45609000"},
{"state":"Nereta Municipality","name":"Nereta","lat":"56.20279000","lon":"25.30752000"},
{"state":"Nīca Municipality","name":"Nīca","lat":"56.34601000","lon":"21.06401000"},
{"state":"Ogre Municipality","name":"Jumprava","lat":"56.67613000","lon":"24.97210000"},
{"state":"Ogre Municipality","name":"Ogre","lat":"56.81620000","lon":"24.61401000"},
{"state":"Olaine Municipality","name":"Olaine","lat":"56.79472000","lon":"23.93580000"},
{"state":"Ozolnieki Municipality","name":"Ozolnieki","lat":"56.68986000","lon":"23.77610000"},
{"state":"Pārgauja Municipality","name":"Stalbe","lat":"57.37065000","lon":"25.03106000"},
{"state":"Pāvilosta Municipality","name":"Pāvilosta","lat":"56.88791000","lon":"21.18593000"},
{"state":"Pļaviņas Municipality","name":"Pļaviņas","lat":"56.61780000","lon":"25.72552000"},
{"state":"Preiļi Municipality","name":"Jaunaglona","lat":"56.16066000","lon":"27.00714000"},
{"state":"Preiļi Municipality","name":"Preiļi","lat":"56.29444000","lon":"26.72459000"},
{"state":"Priekule Municipality","name":"Priekule","lat":"56.44679000","lon":"21.58968000"},
{"state":"Priekuļi Municipality","name":"Priekuļi","lat":"57.31500000","lon":"25.36147000"},
{"state":"Rauna Municipality","name":"Rauna","lat":"57.33173000","lon":"25.60947000"},
{"state":"Rēzekne","name":"Rēzekne","lat":"56.51028000","lon":"27.34000000"},
{"state":"Riebiņi Municipality","name":"Riebiņi","lat":"56.34280000","lon":"26.79995000"},
{"state":"Riga","name":"Bolderaja","lat":"57.03132000","lon":"24.05571000"},
{"state":"Riga","name":"Daugavgrīva","lat":"57.04315000","lon":"24.03613000"},
{"state":"Riga","name":"Jaunciems","lat":"57.03910000","lon":"24.17413000"},
{"state":"Riga","name":"Mežaparks","lat":"57.00008000","lon":"24.15997000"},
{"state":"Riga","name":"Riga","lat":"56.94600000","lon":"24.10589000"},
{"state":"Roja Municipality","name":"Roja","lat":"57.50146000","lon":"22.80881000"},
{"state":"Ropaži Municipality","name":"Ropaži","lat":"56.97470000","lon":"24.63295000"},
{"state":"Rucava Municipality","name":"Rucava","lat":"56.16314000","lon":"21.16156000"},
{"state":"Rugāji Municipality","name":"Rugāji","lat":"57.00325000","lon":"27.13371000"},
{"state":"Rūjiena Municipality","name":"Rūjiena","lat":"57.89752000","lon":"25.33155000"},
{"state":"Rundāle Municipality","name":"Pilsrundāle","lat":"56.41812000","lon":"24.01625000"},
{"state":"Salacgrīva Municipality","name":"Ainaži","lat":"57.86348000","lon":"24.35853000"},
{"state":"Salacgrīva Municipality","name":"Salacgrīva","lat":"57.75312000","lon":"24.35895000"},
{"state":"Salaspils Municipality","name":"Salaspils","lat":"56.86014000","lon":"24.36544000"},
{"state":"Saldus Municipality","name":"Saldus","lat":"56.66363000","lon":"22.48807000"},
{"state":"Saulkrasti Municipality","name":"Saulkrasti","lat":"57.26224000","lon":"24.41471000"},
{"state":"Sēja Municipality","name":"Engure","lat":"57.16061000","lon":"23.22527000"},
{"state":"Sēja Municipality","name":"Tukums","lat":"56.96764000","lon":"23.15554000"},
{"state":"Sigulda Municipality","name":"Sigulda","lat":"57.15375000","lon":"24.85953000"},
{"state":"Skrīveri Municipality","name":"Skrīveri","lat":"56.64500000","lon":"25.12058000"},
{"state":"Skrunda Municipality","name":"Skrunda","lat":"56.67749000","lon":"22.01649000"},
{"state":"Smiltene Municipality","name":"Smiltene","lat":"57.42444000","lon":"25.90164000"},
{"state":"Stopiņi Municipality","name":"Ulbroka","lat":"56.93630000","lon":"24.30387000"},
{"state":"Strenči Municipality","name":"Seda","lat":"57.65042000","lon":"25.75089000"},
{"state":"Strenči Municipality","name":"Strenči","lat":"57.62574000","lon":"25.68535000"},
{"state":"Talsi Municipality","name":"Sabile","lat":"57.04577000","lon":"22.57261000"},
{"state":"Talsi Municipality","name":"Stende","lat":"57.14497000","lon":"22.53482000"},
{"state":"Talsi Municipality","name":"Talsi","lat":"57.24562000","lon":"22.58137000"},
{"state":"Talsi Municipality","name":"Valdemārpils","lat":"57.37068000","lon":"22.59188000"},
{"state":"Tērvete Municipality","name":"Tērvete","lat":"56.47989000","lon":"23.38895000"},
{"state":"Tērvete Municipality","name":"Zelmeņi","lat":"56.45167000","lon":"23.35194000"},
{"state":"Vaiņode Municipality","name":"Vaiņode","lat":"56.41848000","lon":"21.85405000"},
{"state":"Valka Municipality","name":"Valka","lat":"57.77520000","lon":"26.01013000"},
{"state":"Valmiera","name":"Valmiera","lat":"57.54108000","lon":"25.42751000"},
{"state":"Varakļāni Municipality","name":"Varakļāni","lat":"56.60826000","lon":"26.75377000"},
{"state":"Vārkava Municipality","name":"Vecvārkava","lat":"56.19838000","lon":"26.50811000"},
{"state":"Vecpiebalga Municipality","name":"Vecpiebalga","lat":"57.06090000","lon":"25.81624000"},
{"state":"Vecumnieki Municipality","name":"Vecumnieki","lat":"56.60608000","lon":"24.52232000"},
{"state":"Ventspils","name":"Ventspils","lat":"57.38988000","lon":"21.57288000"},
{"state":"Ventspils Municipality","name":"Piltene","lat":"57.22426000","lon":"21.67439000"},
{"state":"Viesīte Municipality","name":"Viesīte","lat":"56.34751000","lon":"25.55514000"},
{"state":"Viļaka Municipality","name":"Viļaka","lat":"57.18458000","lon":"27.67220000"},
{"state":"Viļāni Municipality","name":"Viļāni","lat":"56.55253000","lon":"26.92449000"},
{"state":"Zilupe Municipality","name":"Zilupe","lat":"56.38616000","lon":"28.12165000"}]