[{"state":"Al Wahat District","name":"Ajdabiya","lat":"30.75545000","lon":"20.22625000"},
{"state":"Al Wahat District","name":"Al Burayqah","lat":"30.40624000","lon":"19.57386000"},
{"state":"Al Wahat District","name":"Awjilah","lat":"29.10806000","lon":"21.28694000"},
{"state":"Al Wahat District","name":"Az Zuwaytīnah","lat":"30.95220000","lon":"20.12022000"},
{"state":"Al Wahat District","name":"Gialo","lat":"29.03333000","lon":"21.55000000"},
{"state":"Al Wahat District","name":"Marādah","lat":"29.22054000","lon":"19.20454000"},
{"state":"Benghazi","name":"Benghazi","lat":"32.11486000","lon":"20.06859000"},
{"state":"Benghazi","name":"Qaryat Sulūq","lat":"31.66818000","lon":"20.25205000"},
{"state":"Derna District","name":"Al Qubbah","lat":"32.75684000","lon":"22.24106000"},
{"state":"Derna District","name":"Darnah","lat":"32.76704000","lon":"22.63669000"},
{"state":"Ghat District","name":"Ghat","lat":"24.96334000","lon":"10.18003000"},
{"state":"Jabal al Akhdar","name":"Al Bayḑā’","lat":"32.76272000","lon":"21.75506000"},
{"state":"Jabal al Gharbi District","name":"Gharyan","lat":"32.17222000","lon":"13.02028000"},
{"state":"Jabal al Gharbi District","name":"Giado","lat":"31.95506000","lon":"12.02901000"},
{"state":"Jabal al Gharbi District","name":"Mizdah","lat":"31.44934000","lon":"12.98530000"},
{"state":"Jabal al Gharbi District","name":"Yafran","lat":"32.06329000","lon":"12.52859000"},
{"state":"Jabal al Gharbi District","name":"Zintan","lat":"31.93155000","lon":"12.25291000"},
{"state":"Jafara","name":"Al ‘Azīzīyah","lat":"32.53194000","lon":"13.01750000"},
{"state":"Jufra","name":"Hūn","lat":"29.12684000","lon":"15.94772000"},
{"state":"Jufra","name":"Waddān","lat":"29.16140000","lon":"16.13904000"},
{"state":"Kufra District","name":"Al Jawf","lat":"24.19890000","lon":"23.29093000"},
{"state":"Kufra District","name":"At Tāj","lat":"24.20487000","lon":"23.28570000"},
{"state":"Marj District","name":"Al Abyār","lat":"32.19000000","lon":"20.59653000"},
{"state":"Marj District","name":"Al Marj","lat":"32.49257000","lon":"20.82909000"},
{"state":"Marj District","name":"Tūkrah","lat":"32.53414000","lon":"20.57911000"},
{"state":"Misrata District","name":"Bani Walid","lat":"31.74554000","lon":"13.98354000"},
{"state":"Misrata District","name":"Mişrātah","lat":"32.37535000","lon":"15.09254000"},
{"state":"Misrata District","name":"Zliten","lat":"32.46739000","lon":"14.56874000"},
{"state":"Murqub","name":"Al Khums","lat":"32.64861000","lon":"14.26191000"},
{"state":"Murqub","name":"Masallātah","lat":"32.61667000","lon":"14.00000000"},
{"state":"Murqub","name":"Tarhuna","lat":"32.43501000","lon":"13.63320000"},
{"state":"Murzuq District","name":"Al Qaţrūn","lat":"24.95139000","lon":"14.64861000"},
{"state":"Murzuq District","name":"Murzuq","lat":"25.91552000","lon":"13.91839000"},
{"state":"Nalut District","name":"Ghadāmis","lat":"30.13366000","lon":"9.50072000"},
{"state":"Nalut District","name":"Nālūt","lat":"31.86848000","lon":"10.98120000"},
{"state":"Nuqat al Khams","name":"Al Ajaylat","lat":"32.75718000","lon":"12.37633000"},
{"state":"Nuqat al Khams","name":"Zalţan","lat":"32.94699000","lon":"11.86668000"},
{"state":"Nuqat al Khams","name":"Zuwārah","lat":"32.93120000","lon":"12.08199000"},
{"state":"Sabha District","name":"Al Jadīd","lat":"27.05000000","lon":"14.40000000"},
{"state":"Sabha District","name":"Sabhā","lat":"27.03766000","lon":"14.42832000"},
{"state":"Sirte District","name":"Qasr Abu Hadi","lat":"31.05926000","lon":"16.65905000"},
{"state":"Sirte District","name":"Sirte","lat":"31.20892000","lon":"16.58866000"},
{"state":"Tripoli District","name":"Tagiura","lat":"32.88167000","lon":"13.35056000"},
{"state":"Tripoli District","name":"Tripoli","lat":"32.88743000","lon":"13.18733000"},
{"state":"Wadi al Hayaa District","name":"Ubari","lat":"26.59034000","lon":"12.77511000"},
{"state":"Wadi al Shatii District","name":"Brak","lat":"27.54956000","lon":"14.27139000"},
{"state":"Wadi al Shatii District","name":"Idrī","lat":"27.44707000","lon":"13.05173000"},
{"state":"Zawiya District","name":"Az Zāwīyah","lat":"32.75710000","lon":"12.72764000"},
{"state":"Zawiya District","name":"Şabrātah","lat":"32.79335000","lon":"12.48845000"},
{"state":"Zawiya District","name":"Şurmān","lat":"32.75668000","lon":"12.57159000"},
{"state":"Zawiya District","name":"Zawiya","lat":"32.75222000","lon":"12.72778000"}]