[{"state":"Assa-Zag (EH-partial)","name":"Agadir","lat":"30.42018000","lon":"-9.59815000"},
{"state":"Assa-Zag (EH-partial)","name":"Agadir Melloul","lat":"30.22492000","lon":"-7.79601000"},
{"state":"Assa-Zag (EH-partial)","name":"Agadir-Ida-ou-Tnan","lat":"30.58333000","lon":"-9.50000000"},
{"state":"Assa-Zag (EH-partial)","name":"Aoulouz","lat":"30.67307000","lon":"-8.18087000"},
{"state":"Assa-Zag (EH-partial)","name":"Aourir","lat":"30.49238000","lon":"-9.63550000"},
{"state":"Assa-Zag (EH-partial)","name":"Arazane","lat":"30.50346000","lon":"-8.60637000"},
{"state":"Assa-Zag (EH-partial)","name":"Argana","lat":"30.78250000","lon":"-9.11968000"},
{"state":"Assa-Zag (EH-partial)","name":"Bigoudine","lat":"30.72376000","lon":"-9.21097000"},
{"state":"Assa-Zag (EH-partial)","name":"Chtouka-Ait-Baha","lat":"30.02948000","lon":"-9.30909000"},
{"state":"Assa-Zag (EH-partial)","name":"Inezgane","lat":"30.35535000","lon":"-9.53639000"},
{"state":"Assa-Zag (EH-partial)","name":"Inezgane-Ait Melloul","lat":"30.10000000","lon":"-9.03333000"},
{"state":"Assa-Zag (EH-partial)","name":"Ouijjane","lat":"29.62777000","lon":"-9.53959000"},
{"state":"Assa-Zag (EH-partial)","name":"Oulad Teïma","lat":"30.39467000","lon":"-9.20897000"},
{"state":"Assa-Zag (EH-partial)","name":"Reggada","lat":"29.58016000","lon":"-9.70086000"},
{"state":"Assa-Zag (EH-partial)","name":"Sidi Ifni","lat":"29.37975000","lon":"-10.17299000"},
{"state":"Assa-Zag (EH-partial)","name":"Tadrart","lat":"30.77477000","lon":"-9.45951000"},
{"state":"Assa-Zag (EH-partial)","name":"Tafraout","lat":"29.72449000","lon":"-8.97470000"},
{"state":"Assa-Zag (EH-partial)","name":"Taghazout","lat":"30.54259000","lon":"-9.71115000"},
{"state":"Assa-Zag (EH-partial)","name":"Taliouine","lat":"30.52917000","lon":"-7.91262000"},
{"state":"Assa-Zag (EH-partial)","name":"Tamri","lat":"30.69602000","lon":"-9.82972000"},
{"state":"Assa-Zag (EH-partial)","name":"Tanalt","lat":"29.77548000","lon":"-9.16796000"},
{"state":"Assa-Zag (EH-partial)","name":"Taroudannt","lat":"30.50000000","lon":"-8.41667000"},
{"state":"Assa-Zag (EH-partial)","name":"Taroudant","lat":"30.47028000","lon":"-8.87695000"},
{"state":"Assa-Zag (EH-partial)","name":"Tarsouat","lat":"29.58153000","lon":"-9.02664000"},
{"state":"Assa-Zag (EH-partial)","name":"Tata","lat":"29.66667000","lon":"-7.83333000"},
{"state":"Assa-Zag (EH-partial)","name":"Tiznit","lat":"29.58333000","lon":"-9.50000000"},
{"state":"Casablanca-Settat","name":"Azemmour","lat":"33.28952000","lon":"-8.34250000"},
{"state":"Casablanca-Settat","name":"Benslimane","lat":"33.50000000","lon":"-7.16667000"},
{"state":"Casablanca-Settat","name":"Berrechid","lat":"33.26553000","lon":"-7.58754000"},
{"state":"Casablanca-Settat","name":"Berrechid Province","lat":"33.26582000","lon":"-7.58142000"},
{"state":"Casablanca-Settat","name":"Boulaouane","lat":"32.85995000","lon":"-8.05555000"},
{"state":"Casablanca-Settat","name":"Bouskoura","lat":"33.44976000","lon":"-7.65239000"},
{"state":"Casablanca-Settat","name":"Bouznika","lat":"33.78942000","lon":"-7.15968000"},
{"state":"Casablanca-Settat","name":"Casablanca","lat":"33.58840000","lon":"-7.55785000"},
{"state":"Casablanca-Settat","name":"El Jadid","lat":"33.25682000","lon":"-8.50882000"},
{"state":"Casablanca-Settat","name":"El-Jadida","lat":"32.90000000","lon":"-8.50000000"},
{"state":"Casablanca-Settat","name":"Mediouna","lat":"33.52012000","lon":"-7.50350000"},
{"state":"Casablanca-Settat","name":"Mohammedia","lat":"33.68607000","lon":"-7.38298000"},
{"state":"Casablanca-Settat","name":"Nouaceur","lat":"33.45839000","lon":"-7.64726000"},
{"state":"Casablanca-Settat","name":"Oualidia","lat":"32.73372000","lon":"-9.03059000"},
{"state":"Casablanca-Settat","name":"Oulad Frej","lat":"32.95956000","lon":"-8.22740000"},
{"state":"Casablanca-Settat","name":"Settat","lat":"33.00103000","lon":"-7.61662000"},
{"state":"Casablanca-Settat","name":"Settat Province","lat":"33.08333000","lon":"-7.41667000"},
{"state":"Casablanca-Settat","name":"Sidi Bennour","lat":"32.64896000","lon":"-8.42686000"},
{"state":"Casablanca-Settat","name":"Sidi Smai’il","lat":"32.82461000","lon":"-8.51122000"},
{"state":"Casablanca-Settat","name":"Tit Mellil","lat":"33.55808000","lon":"-7.48647000"},
{"state":"Casablanca-Settat","name":"Zawyat an Nwaçer","lat":"33.37981000","lon":"-7.61932000"},
{"state":"Drâa-Tafilalet","name":"Agdz","lat":"30.69356000","lon":"-6.44628000"},
{"state":"Drâa-Tafilalet","name":"Alnif","lat":"31.11411000","lon":"-5.17154000"},
{"state":"Drâa-Tafilalet","name":"Aoufous","lat":"31.68000000","lon":"-4.17000000"},
{"state":"Drâa-Tafilalet","name":"Arfoud","lat":"31.43530000","lon":"-4.23258000"},
{"state":"Drâa-Tafilalet","name":"Errachidia","lat":"31.75000000","lon":"-4.50000000"},
{"state":"Drâa-Tafilalet","name":"Imilchil","lat":"32.15309000","lon":"-5.62453000"},
{"state":"Drâa-Tafilalet","name":"Jebel Tiskaouine","lat":"31.02722000","lon":"-5.11643000"},
{"state":"Drâa-Tafilalet","name":"Jorf","lat":"31.49442000","lon":"-4.40598000"},
{"state":"Drâa-Tafilalet","name":"Kelaat Mgouna","lat":"31.24573000","lon":"-6.13260000"},
{"state":"Drâa-Tafilalet","name":"Mhamid","lat":"29.82000000","lon":"-5.72000000"},
{"state":"Drâa-Tafilalet","name":"Midelt","lat":"32.68055000","lon":"-4.73691000"},
{"state":"Drâa-Tafilalet","name":"Ouarzazat","lat":"30.91894000","lon":"-6.89341000"},
{"state":"Drâa-Tafilalet","name":"Ouarzazate","lat":"30.94130000","lon":"-6.90285000"},
{"state":"Drâa-Tafilalet","name":"Reçani","lat":"31.28318000","lon":"-4.26565000"},
{"state":"Drâa-Tafilalet","name":"Taznakht","lat":"30.57836000","lon":"-7.20341000"},
{"state":"Drâa-Tafilalet","name":"Telouet","lat":"31.28925000","lon":"-7.23789000"},
{"state":"Drâa-Tafilalet","name":"Tinghir","lat":"31.51472000","lon":"-5.53278000"},
{"state":"Drâa-Tafilalet","name":"Tinghir Province","lat":"31.51965000","lon":"-5.52999000"},
{"state":"Drâa-Tafilalet","name":"Zagora","lat":"30.34839000","lon":"-5.83649000"},
{"state":"Fès-Meknès","name":"Aïn Leuh","lat":"33.28984000","lon":"-5.33863000"},
{"state":"Fès-Meknès","name":"Aknoul","lat":"34.65371000","lon":"-3.86754000"},
{"state":"Fès-Meknès","name":"Almis Marmoucha","lat":"33.32000000","lon":"-4.18000000"},
{"state":"Fès-Meknès","name":"Azrou","lat":"33.43443000","lon":"-5.22126000"},
{"state":"Fès-Meknès","name":"Bhalil","lat":"33.85194000","lon":"-4.87228000"},
{"state":"Fès-Meknès","name":"Bouarouss","lat":"34.36000000","lon":"-4.81000000"},
{"state":"Fès-Meknès","name":"Boulemane","lat":"33.16667000","lon":"-4.00000000"},
{"state":"Fès-Meknès","name":"El Hajeb","lat":"33.68786000","lon":"-5.37100000"},
{"state":"Fès-Meknès","name":"El-Hajeb","lat":"33.72883000","lon":"-5.46119000"},
{"state":"Fès-Meknès","name":"Fes","lat":"34.04000000","lon":"-4.87000000"},
{"state":"Fès-Meknès","name":"Fès al Bali","lat":"34.07010000","lon":"-4.95473000"},
{"state":"Fès-Meknès","name":"Galaz","lat":"34.54424000","lon":"-4.80355000"},
{"state":"Fès-Meknès","name":"Ghouazi","lat":"34.47737000","lon":"-5.30235000"},
{"state":"Fès-Meknès","name":"Guercif","lat":"34.22568000","lon":"-3.35361000"},
{"state":"Fès-Meknès","name":"Ifrane","lat":"33.33333000","lon":"-5.25000000"},
{"state":"Fès-Meknès","name":"Meknes","lat":"33.97761000","lon":"-5.52496000"},
{"state":"Fès-Meknès","name":"Missour","lat":"33.04893000","lon":"-3.98947000"},
{"state":"Fès-Meknès","name":"Moulay Bouchta","lat":"34.48922000","lon":"-5.13023000"},
{"state":"Fès-Meknès","name":"Moulay-Yacoub","lat":"34.14558000","lon":"-5.10259000"},
{"state":"Fès-Meknès","name":"Oued Amlil","lat":"34.20000000","lon":"-4.28000000"},
{"state":"Fès-Meknès","name":"Oulad Tayeb","lat":"33.94633000","lon":"-4.99509000"},
{"state":"Fès-Meknès","name":"Ourtzagh","lat":"34.53477000","lon":"-4.96878000"},
{"state":"Fès-Meknès","name":"Sefrou","lat":"33.79979000","lon":"-4.68000000"},
{"state":"Fès-Meknès","name":"Tahla","lat":"34.04965000","lon":"-4.42162000"},
{"state":"Fès-Meknès","name":"Talzemt","lat":"33.59000000","lon":"-4.19000000"},
{"state":"Fès-Meknès","name":"Taounate","lat":"34.50000000","lon":"-4.83333000"},
{"state":"Fès-Meknès","name":"Taza","lat":"34.25000000","lon":"-3.75000000"},
{"state":"Fès-Meknès","name":"Tmourghout","lat":"33.90650000","lon":"-4.02696000"},
{"state":"Guelmim-Oued Noun (EH-partial)","name":"Assa-Zag","lat":"28.16667000","lon":"-9.41667000"},
{"state":"Guelmim-Oued Noun (EH-partial)","name":"Guelmim","lat":"28.75000000","lon":"-10.00000000"},
{"state":"Guelmim-Oued Noun (EH-partial)","name":"Sidi Ifni","lat":"29.37719000","lon":"-10.17111000"},
{"state":"Guelmim-Oued Noun (EH-partial)","name":"Tan-Tan","lat":"28.08333000","lon":"-11.08333000"},
{"state":"Kénitra","name":"Arbaoua","lat":"34.90239000","lon":"-5.94871000"},
{"state":"Kénitra","name":"Had Kourt","lat":"34.61588000","lon":"-5.74040000"},
{"state":"Kénitra","name":"Kenitra","lat":"34.26101000","lon":"-6.58020000"},
{"state":"Kénitra","name":"Kenitra Province","lat":"34.58333000","lon":"-6.33333000"},
{"state":"Kénitra","name":"Khemisset","lat":"33.66667000","lon":"-6.25000000"},
{"state":"Kénitra","name":"Mechraa Bel Ksiri","lat":"34.57373000","lon":"-5.95585000"},
{"state":"Kénitra","name":"Oulmes","lat":"33.42585000","lon":"-6.00137000"},
{"state":"Kénitra","name":"Rabat","lat":"34.01325000","lon":"-6.83255000"},
{"state":"Kénitra","name":"Sale","lat":"34.05310000","lon":"-6.79846000"},
{"state":"Kénitra","name":"Sidi Bousber","lat":"34.56283000","lon":"-5.36208000"},
{"state":"Kénitra","name":"Sidi Qacem","lat":"34.22149000","lon":"-5.70775000"},
{"state":"Kénitra","name":"Sidi Redouane","lat":"34.68692000","lon":"-5.44538000"},
{"state":"Kénitra","name":"Sidi Slimane","lat":"34.26479000","lon":"-5.92598000"},
{"state":"Kénitra","name":"Sidi Yahia El Gharb","lat":"34.30494000","lon":"-6.30404000"},
{"state":"Kénitra","name":"Sidi-Kacem","lat":"34.58333000","lon":"-5.75000000"},
{"state":"Kénitra","name":"Skhirate","lat":"33.85270000","lon":"-7.03171000"},
{"state":"Kénitra","name":"Skhirate-Temara","lat":"33.77000000","lon":"-6.87000000"},
{"state":"Kénitra","name":"Souq Larb’a al Gharb","lat":"34.68664000","lon":"-6.00272000"},
{"state":"Kénitra","name":"Temara","lat":"33.92866000","lon":"-6.90656000"},
{"state":"Kénitra","name":"Teroual","lat":"34.67452000","lon":"-5.27331000"},
{"state":"Kénitra","name":"Tiflet","lat":"33.89469000","lon":"-6.30649000"},
{"state":"Khénifra","name":"Aguelmous","lat":"33.16139000","lon":"-5.84626000"},
{"state":"Khénifra","name":"Al Fqih Ben Çalah","lat":"32.50213000","lon":"-6.68771000"},
{"state":"Khénifra","name":"Azilal","lat":"31.96156000","lon":"-6.57109000"},
{"state":"Khénifra","name":"Azilal Province","lat":"31.91667000","lon":"-6.50000000"},
{"state":"Khénifra","name":"Beni Mellal","lat":"32.33725000","lon":"-6.34983000"},
{"state":"Khénifra","name":"Beni-Mellal","lat":"32.50000000","lon":"-6.33333000"},
{"state":"Khénifra","name":"Boujniba","lat":"32.90046000","lon":"-6.77464000"},
{"state":"Khénifra","name":"Bzou","lat":"32.09171000","lon":"-7.04786000"},
{"state":"Khénifra","name":"Dar Ould Zidouh","lat":"32.31247000","lon":"-6.90494000"},
{"state":"Khénifra","name":"Demnate","lat":"31.73443000","lon":"-7.00505000"},
{"state":"Khénifra","name":"El Ksiba","lat":"32.57286000","lon":"-6.01947000"},
{"state":"Khénifra","name":"Fquih Ben Salah Province","lat":"32.50108000","lon":"-6.68415000"},
{"state":"Khénifra","name":"Ifrane","lat":"31.70217000","lon":"-6.34940000"},
{"state":"Khénifra","name":"Isseksi","lat":"32.22981000","lon":"-6.27661000"},
{"state":"Khénifra","name":"Itzer","lat":"32.87830000","lon":"-5.05150000"},
{"state":"Khénifra","name":"Kasba Tadla","lat":"32.59770000","lon":"-6.26844000"},
{"state":"Khénifra","name":"Kerrouchen","lat":"32.79639000","lon":"-5.31880000"},
{"state":"Khénifra","name":"Khenifra","lat":"32.93333000","lon":"-5.66667000"},
{"state":"Khénifra","name":"Khouribga","lat":"32.88108000","lon":"-6.90630000"},
{"state":"Khénifra","name":"Khouribga Province","lat":"32.93333000","lon":"-6.60000000"},
{"state":"Khénifra","name":"Midelt","lat":"32.68520000","lon":"-4.74512000"},
{"state":"Khénifra","name":"Ouaoula","lat":"31.87000000","lon":"-6.75000000"},
{"state":"Khénifra","name":"Oued Zem","lat":"32.86270000","lon":"-6.57359000"},
{"state":"Khénifra","name":"Sidi Jaber","lat":"32.38952000","lon":"-6.42095000"},
{"state":"Khénifra","name":"Timoulilt","lat":"32.20368000","lon":"-6.46660000"},
{"state":"Khénifra","name":"Zawyat ech Cheïkh","lat":"32.64445000","lon":"-5.91826000"},
{"state":"L'Oriental","name":"Ahfir","lat":"34.95368000","lon":"-2.10027000"},
{"state":"L'Oriental","name":"Aïn Beni Mathar","lat":"34.00970000","lon":"-2.03238000"},
{"state":"L'Oriental","name":"Al Aaroui","lat":"35.01090000","lon":"-3.00938000"},
{"state":"L'Oriental","name":"Berkane","lat":"34.61000000","lon":"-2.57000000"},
{"state":"L'Oriental","name":"Bouarfa","lat":"32.53379000","lon":"-1.96209000"},
{"state":"L'Oriental","name":"Debdou","lat":"33.98228000","lon":"-3.04263000"},
{"state":"L'Oriental","name":"Driouch Province","lat":"34.97670000","lon":"-3.38842000"},
{"state":"L'Oriental","name":"El Aïoun","lat":"34.58319000","lon":"-2.50612000"},
{"state":"L'Oriental","name":"Figuig","lat":"32.83333000","lon":"-2.25000000"},
{"state":"L'Oriental","name":"Guercif Province","lat":"34.25041000","lon":"-3.32542000"},
{"state":"L'Oriental","name":"Jerada","lat":"34.23662000","lon":"-2.04284000"},
{"state":"L'Oriental","name":"Madagh","lat":"35.01032000","lon":"-2.33701000"},
{"state":"L'Oriental","name":"Midar","lat":"34.94025000","lon":"-3.53311000"},
{"state":"L'Oriental","name":"Nador","lat":"35.00000000","lon":"-3.00000000"},
{"state":"L'Oriental","name":"Oujda-Angad","lat":"34.23600000","lon":"-2.29400000"},
{"state":"L'Oriental","name":"Saidia","lat":"35.08195000","lon":"-2.22897000"},
{"state":"L'Oriental","name":"Selouane","lat":"35.07313000","lon":"-2.94230000"},
{"state":"L'Oriental","name":"Taourirt","lat":"34.40731000","lon":"-2.89732000"},
{"state":"L'Oriental","name":"Tiztoutine","lat":"34.97159000","lon":"-3.15273000"},
{"state":"L'Oriental","name":"Zaïo","lat":"34.94282000","lon":"-2.73290000"},
{"state":"Laâyoune-Sakia El Hamra (EH-partial)","name":"Akhfennir","lat":"28.09455000","lon":"-12.05157000"},
{"state":"Laâyoune-Sakia El Hamra (EH-partial)","name":"Boujdour","lat":"25.66172000","lon":"-13.68419000"},
{"state":"Laâyoune-Sakia El Hamra (EH-partial)","name":"Es-Semara","lat":"27.75000000","lon":"-11.00000000"},
{"state":"Laâyoune-Sakia El Hamra (EH-partial)","name":"Gueltat Zemmour","lat":"25.14276000","lon":"-12.37168000"},
{"state":"Laâyoune-Sakia El Hamra (EH-partial)","name":"Laayoune","lat":"27.83333000","lon":"-12.33333000"},
{"state":"Laâyoune-Sakia El Hamra (EH-partial)","name":"Smara","lat":"26.73841000","lon":"-11.67194000"},
{"state":"Laâyoune-Sakia El Hamra (EH-partial)","name":"Tarfaya","lat":"27.93901000","lon":"-12.92082000"},
{"state":"Oued Ed-Dahab (EH)","name":"Aousserd","lat":"21.91977000","lon":"-15.02068000"},
{"state":"Oued Ed-Dahab (EH)","name":"Imlili","lat":"22.65580000","lon":"-15.60719000"},
{"state":"Oued Ed-Dahab (EH)","name":"Oued-Ed-Dahab","lat":"23.64201000","lon":"-14.44934000"},
{"state":"Safi","name":"Abadou","lat":"31.57917000","lon":"-7.31308000"},
{"state":"Safi","name":"Adassil","lat":"31.10783000","lon":"-8.49083000"},
{"state":"Safi","name":"Al-Haouz","lat":"31.34083000","lon":"-7.91076000"},
{"state":"Safi","name":"Bouabout","lat":"31.26554000","lon":"-9.17865000"},
{"state":"Safi","name":"Chichaoua","lat":"31.26365000","lon":"-8.84411000"},
{"state":"Safi","name":"Essaouira","lat":"31.50675000","lon":"-9.75655000"},
{"state":"Safi","name":"Kelaa-Des-Sraghna","lat":"32.16667000","lon":"-7.75000000"},
{"state":"Safi","name":"Marrakech","lat":"31.63623000","lon":"-8.01041000"},
{"state":"Safi","name":"Marrakesh","lat":"31.63416000","lon":"-7.99994000"},
{"state":"Safi","name":"Oukaïmedene","lat":"31.20603000","lon":"-7.86089000"},
{"state":"Safi","name":"Rehamna","lat":"32.24581000","lon":"-7.93144000"},
{"state":"Safi","name":"Safi","lat":"32.16667000","lon":"-8.83333000"},
{"state":"Safi","name":"Setti Fatma","lat":"31.22508000","lon":"-7.67751000"},
{"state":"Safi","name":"Sidi Rahhal","lat":"31.65031000","lon":"-7.47288000"},
{"state":"Safi","name":"Smimou","lat":"31.21014000","lon":"-9.70863000"},
{"state":"Safi","name":"Tamanar","lat":"31.00087000","lon":"-9.67802000"},
{"state":"Safi","name":"Taouloukoult","lat":"31.22218000","lon":"-9.07943000"},
{"state":"Safi","name":"Tidili Mesfioua","lat":"31.46586000","lon":"-7.61199000"},
{"state":"Safi","name":"Timezgadiouine","lat":"30.88366000","lon":"-9.04548000"},
{"state":"Safi","name":"Youssoufia","lat":"32.24634000","lon":"-8.52941000"},
{"state":"Safi","name":"Zerkten","lat":"31.44470000","lon":"-7.39224000"},
{"state":"Tanger-Tétouan-Al Hoceïma","name":"Al Hoceïma","lat":"35.25165000","lon":"-3.93723000"},
{"state":"Tanger-Tétouan-Al Hoceïma","name":"Al-Hoceima","lat":"35.00000000","lon":"-4.25000000"},
{"state":"Tanger-Tétouan-Al Hoceïma","name":"Asilah","lat":"35.46522000","lon":"-6.03415000"},
{"state":"Tanger-Tétouan-Al Hoceïma","name":"Bni Bouayach","lat":"35.10506000","lon":"-3.84028000"},
{"state":"Tanger-Tétouan-Al Hoceïma","name":"Brikcha","lat":"34.96732000","lon":"-5.57295000"},
{"state":"Tanger-Tétouan-Al Hoceïma","name":"Cap Negro II","lat":"35.65970000","lon":"-5.28525000"},
{"state":"Tanger-Tétouan-Al Hoceïma","name":"Chefchaouen Province","lat":"35.00000000","lon":"-5.08333000"},
{"state":"Tanger-Tétouan-Al Hoceïma","name":"Chefchaouene","lat":"35.16878000","lon":"-5.26360000"},
{"state":"Tanger-Tétouan-Al Hoceïma","name":"Derdara","lat":"35.11041000","lon":"-5.29015000"},
{"state":"Tanger-Tétouan-Al Hoceïma","name":"Fahs-Anjra","lat":"35.74000000","lon":"-5.68000000"},
{"state":"Tanger-Tétouan-Al Hoceïma","name":"Fnidek","lat":"35.84906000","lon":"-5.35747000"},
{"state":"Tanger-Tétouan-Al Hoceïma","name":"Imzouren","lat":"35.14637000","lon":"-3.85063000"},
{"state":"Tanger-Tétouan-Al Hoceïma","name":"Ksar El Kebir","lat":"35.00044000","lon":"-5.90378000"},
{"state":"Tanger-Tétouan-Al Hoceïma","name":"Larache","lat":"35.16667000","lon":"-5.83333000"},
{"state":"Tanger-Tétouan-Al Hoceïma","name":"M'Diq-Fnideq","lat":"35.85743000","lon":"-5.35858000"},
{"state":"Tanger-Tétouan-Al Hoceïma","name":"Martil","lat":"35.61662000","lon":"-5.27522000"},
{"state":"Tanger-Tétouan-Al Hoceïma","name":"Oued Laou","lat":"35.44840000","lon":"-5.09627000"},
{"state":"Tanger-Tétouan-Al Hoceïma","name":"Ouezzane","lat":"34.79584000","lon":"-5.57849000"},
{"state":"Tanger-Tétouan-Al Hoceïma","name":"Ouezzane Province","lat":"34.79759000","lon":"-5.58603000"},
{"state":"Tanger-Tétouan-Al Hoceïma","name":"Senada","lat":"35.07452000","lon":"-4.21583000"},
{"state":"Tanger-Tétouan-Al Hoceïma","name":"Tamorot","lat":"34.93632000","lon":"-4.77940000"},
{"state":"Tanger-Tétouan-Al Hoceïma","name":"Tanger-Assilah","lat":"35.59000000","lon":"-5.90000000"},
{"state":"Tanger-Tétouan-Al Hoceïma","name":"Tangier","lat":"35.76727000","lon":"-5.79975000"},
{"state":"Tanger-Tétouan-Al Hoceïma","name":"Targuist","lat":"34.93769000","lon":"-4.31856000"},
{"state":"Tanger-Tétouan-Al Hoceïma","name":"Tetouan","lat":"35.58333000","lon":"-5.50000000"},
{"state":"Tanger-Tétouan-Al Hoceïma","name":"Tirhanimîne","lat":"35.23619000","lon":"-3.95453000"},
{"state":"Tanger-Tétouan-Al Hoceïma","name":"Zinat","lat":"35.43000000","lon":"-5.40000000"},
{"state":"Tanger-Tétouan-Al Hoceïma","name":"Zoumi","lat":"34.80321000","lon":"-5.34458000"}]