[{"state":"Anenii Noi District","name":"Anenii Noi","lat":"46.87839000","lon":"29.23483000"},
{"state":"Anenii Noi District","name":"Varniţa","lat":"46.86606000","lon":"29.46636000"},
{"state":"Bălți Municipality","name":"Bălţi","lat":"47.76314000","lon":"27.92932000"},
{"state":"Basarabeasca District","name":"Basarabeasca","lat":"46.33170000","lon":"28.96365000"},
{"state":"Bender Municipality","name":"Bender","lat":"46.83156000","lon":"29.47769000"},
{"state":"Briceni District","name":"Briceni","lat":"48.36289000","lon":"27.07787000"},
{"state":"Cahul District","name":"Cahul","lat":"45.90425000","lon":"28.19929000"},
{"state":"Cahul District","name":"Giurgiuleşti","lat":"45.48167000","lon":"28.19722000"},
{"state":"Călărași District","name":"Călăraşi","lat":"47.25560000","lon":"28.30987000"},
{"state":"Cantemir District","name":"Cantemir","lat":"46.27743000","lon":"28.20270000"},
{"state":"Cantemir District","name":"Iargara","lat":"46.42520000","lon":"28.42676000"},
{"state":"Cantemir District","name":"Vişniovca","lat":"46.33260000","lon":"28.44797000"},
{"state":"Căușeni District","name":"Căuşeni","lat":"46.63674000","lon":"29.41114000"},
{"state":"Căușeni District","name":"Chiţcani","lat":"46.78296000","lon":"29.61682000"},
{"state":"Chișinău Municipality","name":"Chisinau","lat":"47.00556000","lon":"28.85750000"},
{"state":"Chișinău Municipality","name":"Ciorescu","lat":"47.13000000","lon":"28.88937000"},
{"state":"Chișinău Municipality","name":"Cricova","lat":"47.13835000","lon":"28.86156000"},
{"state":"Chișinău Municipality","name":"Sîngera","lat":"46.91557000","lon":"28.96673000"},
{"state":"Chișinău Municipality","name":"Stăuceni","lat":"47.09643000","lon":"28.86791000"},
{"state":"Chișinău Municipality","name":"Vadul lui Vodă","lat":"47.09009000","lon":"29.07570000"},
{"state":"Chișinău Municipality","name":"Vatra","lat":"47.07460000","lon":"28.73685000"},
{"state":"Cimișlia District","name":"Cimişlia","lat":"46.52685000","lon":"28.76441000"},
{"state":"Criuleni District","name":"Criuleni","lat":"47.21307000","lon":"29.15926000"},
{"state":"Dondușeni District","name":"Briceni","lat":"48.35628000","lon":"27.70293000"},
{"state":"Dondușeni District","name":"Donduşeni","lat":"48.24268000","lon":"27.61010000"},
{"state":"Drochia District","name":"Drochia","lat":"48.03555000","lon":"27.81293000"},
{"state":"Dubăsari District","name":"Cocieri","lat":"47.30170000","lon":"29.11755000"},
{"state":"Dubăsari District","name":"Ustia","lat":"47.25524000","lon":"29.12406000"},
{"state":"Edineț District","name":"Edineţ","lat":"48.17215000","lon":"27.30337000"},
{"state":"Fălești District","name":"Fălești","lat":"47.57667000","lon":"27.71264000"},
{"state":"Florești District","name":"Floreşti","lat":"47.89137000","lon":"28.29312000"},
{"state":"Florești District","name":"Ghindești","lat":"47.85482000","lon":"28.37679000"},
{"state":"Florești District","name":"Mărculeşti","lat":"47.86897000","lon":"28.24109000"},
{"state":"Gagauzia","name":"Bugeac","lat":"46.36554000","lon":"28.66250000"},
{"state":"Gagauzia","name":"Ceadîr-Lunga","lat":"46.06169000","lon":"28.83078000"},
{"state":"Gagauzia","name":"Comrat","lat":"46.29456000","lon":"28.65650000"},
{"state":"Gagauzia","name":"Vulcăneşti","lat":"45.68492000","lon":"28.40613000"},
{"state":"Glodeni District","name":"Glodeni","lat":"47.77513000","lon":"27.51891000"},
{"state":"Hîncești District","name":"Dancu","lat":"46.75818000","lon":"28.20716000"},
{"state":"Hîncești District","name":"Hînceşti","lat":"46.83047000","lon":"28.59064000"},
{"state":"Ialoveni District","name":"Ialoveni","lat":"46.94346000","lon":"28.78233000"},
{"state":"Nisporeni District","name":"Nisporeni","lat":"47.08159000","lon":"28.17138000"},
{"state":"Ocnița District","name":"Ocniţa","lat":"48.38274000","lon":"27.43805000"},
{"state":"Ocnița District","name":"Otaci","lat":"48.43285000","lon":"27.79912000"},
{"state":"Orhei District","name":"Orhei","lat":"47.38494000","lon":"28.82446000"},
{"state":"Rezina District","name":"Rezina","lat":"47.74928000","lon":"28.96583000"},
{"state":"Rezina District","name":"Saharna","lat":"47.69107000","lon":"28.97458000"},
{"state":"Rîșcani District","name":"Rîşcani","lat":"47.94792000","lon":"27.56376000"},
{"state":"Sîngerei District","name":"Bilicenii Vechi","lat":"47.65580000","lon":"28.04734000"},
{"state":"Sîngerei District","name":"Biruinţa","lat":"47.81353000","lon":"28.07004000"},
{"state":"Sîngerei District","name":"Sîngerei","lat":"47.63632000","lon":"28.14296000"},
{"state":"Șoldănești District","name":"Şoldăneşti","lat":"47.81608000","lon":"28.79718000"},
{"state":"Soroca District","name":"Soroca","lat":"48.15659000","lon":"28.28489000"},
{"state":"Ștefan Vodă District","name":"Ştefan Vodă","lat":"46.51287000","lon":"29.66193000"},
{"state":"Strășeni District","name":"Bucovăţ","lat":"47.19064000","lon":"28.45802000"},
{"state":"Strășeni District","name":"Strășeni","lat":"47.14216000","lon":"28.60774000"},
{"state":"Taraclia District","name":"Taraclia","lat":"45.90273000","lon":"28.66816000"},
{"state":"Taraclia District","name":"Tvardița","lat":"46.14826000","lon":"28.96491000"},
{"state":"Telenești District","name":"Mîndreşti","lat":"47.50525000","lon":"28.27687000"},
{"state":"Telenești District","name":"Teleneşti","lat":"47.50110000","lon":"28.36536000"},
{"state":"Transnistria autonomous territorial unit","name":"Camenca","lat":"48.03233000","lon":"28.69899000"},
{"state":"Transnistria autonomous territorial unit","name":"Crasnoe","lat":"46.64844000","lon":"29.80403000"},
{"state":"Transnistria autonomous territorial unit","name":"Dnestrovsc","lat":"46.61640000","lon":"29.91926000"},
{"state":"Transnistria autonomous territorial unit","name":"Dubăsari","lat":"47.26562000","lon":"29.16667000"},
{"state":"Transnistria autonomous territorial unit","name":"Hryhoriopol","lat":"47.15413000","lon":"29.30008000"},
{"state":"Transnistria autonomous territorial unit","name":"Maiac","lat":"47.23727000","lon":"29.38498000"},
{"state":"Transnistria autonomous territorial unit","name":"Pervomaisc","lat":"46.73253000","lon":"29.96170000"},
{"state":"Transnistria autonomous territorial unit","name":"Rîbniţa","lat":"47.76817000","lon":"29.01000000"},
{"state":"Transnistria autonomous territorial unit","name":"Slobozia","lat":"46.72927000","lon":"29.70446000"},
{"state":"Transnistria autonomous territorial unit","name":"Tiraspol","lat":"46.84274000","lon":"29.62909000"},
{"state":"Transnistria autonomous territorial unit","name":"Tiraspolul Nou","lat":"46.82874000","lon":"29.52174000"},
{"state":"Ungheni District","name":"Ungheni","lat":"47.21079000","lon":"27.80047000"}]