[{"state":"Andrijevica Municipality","name":"Andrijevica","lat":"42.73389000","lon":"19.79194000"},
{"state":"Bar Municipality","name":"Bar","lat":"42.09306000","lon":"19.10028000"},
{"state":"Bar Municipality","name":"Stari Bar","lat":"42.09700000","lon":"19.13600000"},
{"state":"Bar Municipality","name":"Šušanj","lat":"42.11556000","lon":"19.08833000"},
{"state":"Bar Municipality","name":"Sutomore","lat":"42.14278000","lon":"19.04667000"},
{"state":"Berane Municipality","name":"Berane","lat":"42.84250000","lon":"19.87333000"},
{"state":"Bijelo Polje Municipality","name":"Bijelo Polje","lat":"43.03834000","lon":"19.74758000"},
{"state":"Budva Municipality","name":"Budva","lat":"42.28639000","lon":"18.84000000"},
{"state":"Budva Municipality","name":"Petrovac na Moru","lat":"42.20556000","lon":"18.94250000"},
{"state":"Danilovgrad Municipality","name":"Danilovgrad","lat":"42.55384000","lon":"19.14608000"},
{"state":"Danilovgrad Municipality","name":"Spuž","lat":"42.51500000","lon":"19.19500000"},
{"state":"Gusinje Municipality","name":"Gusinje","lat":"42.56194000","lon":"19.83389000"},
{"state":"Kolašin Municipality","name":"Kolašin","lat":"42.82229000","lon":"19.51653000"},
{"state":"Kotor Municipality","name":"Dobrota","lat":"42.45417000","lon":"18.76833000"},
{"state":"Kotor Municipality","name":"Kotor","lat":"42.42067000","lon":"18.76825000"},
{"state":"Kotor Municipality","name":"Prčanj","lat":"42.45750000","lon":"18.74222000"},
{"state":"Kotor Municipality","name":"Risan","lat":"42.51500000","lon":"18.69556000"},
{"state":"Mojkovac Municipality","name":"Mojkovac","lat":"42.96044000","lon":"19.58330000"},
{"state":"Nikšić Municipality","name":"Nikšić","lat":"42.77310000","lon":"18.94446000"},
{"state":"Old Royal Capital Cetinje","name":"Cetinje","lat":"42.39063000","lon":"18.91417000"},
{"state":"Plav Municipality","name":"Plav","lat":"42.59694000","lon":"19.94556000"},
{"state":"Pljevlja Municipality","name":"Pljevlja","lat":"43.35670000","lon":"19.35843000"},
{"state":"Plužine Municipality","name":"Plužine","lat":"43.15278000","lon":"18.83944000"},
{"state":"Podgorica Municipality","name":"Golubovci","lat":"42.33500000","lon":"19.23111000"},
{"state":"Podgorica Municipality","name":"Goričani","lat":"42.33222000","lon":"19.21194000"},
{"state":"Podgorica Municipality","name":"Mataguži","lat":"42.32361000","lon":"19.27278000"},
{"state":"Podgorica Municipality","name":"Mojanovići","lat":"42.34167000","lon":"19.22139000"},
{"state":"Podgorica Municipality","name":"Podgorica","lat":"42.44111000","lon":"19.26361000"},
{"state":"Podgorica Municipality","name":"Tuzi","lat":"42.36556000","lon":"19.33139000"},
{"state":"Rožaje Municipality","name":"Rožaje","lat":"42.83299000","lon":"20.16652000"},
{"state":"Šavnik Municipality","name":"Šavnik","lat":"42.95639000","lon":"19.09667000"},
{"state":"Tivat Municipality","name":"Tivat","lat":"42.43639000","lon":"18.69611000"},
{"state":"Ulcinj Municipality","name":"Ulcinj","lat":"41.92936000","lon":"19.22436000"},
{"state":"Žabljak Municipality","name":"Žabljak","lat":"43.15423000","lon":"19.12325000"}]