[{"state":"Aračinovo Municipality","name":"Арачиново","lat":"42.02639000","lon":"21.56194000"},
{"state":"Berovo Municipality","name":"Berovo","lat":"41.70306000","lon":"22.85778000"},
{"state":"Berovo Municipality","name":"Rusinovo","lat":"41.68728000","lon":"22.80849000"},
{"state":"Berovo Municipality","name":"Vladimirovo","lat":"41.71000000","lon":"22.79278000"},
{"state":"Bitola Municipality","name":"Bistrica","lat":"40.97892000","lon":"21.36580000"},
{"state":"Bitola Municipality","name":"Bitola","lat":"41.03143000","lon":"21.33474000"},
{"state":"Bitola Municipality","name":"Capari","lat":"41.05656000","lon":"21.17884000"},
{"state":"Bitola Municipality","name":"Dolno Orizari","lat":"41.05028000","lon":"21.37944000"},
{"state":"Bitola Municipality","name":"Gorno Orizari","lat":"41.05188000","lon":"21.34548000"},
{"state":"Bitola Municipality","name":"Kukurečani","lat":"41.09562000","lon":"21.32454000"},
{"state":"Bitola Municipality","name":"Logovardi","lat":"41.03096000","lon":"21.40967000"},
{"state":"Bogdanci Municipality","name":"Bogdanci","lat":"41.20306000","lon":"22.57556000"},
{"state":"Bogdanci Municipality","name":"Stojakovo","lat":"41.15556000","lon":"22.57750000"},
{"state":"Bogovinje Municipality","name":"Bogovinje","lat":"41.92361000","lon":"20.91361000"},
{"state":"Bogovinje Municipality","name":"Dolno Palčište","lat":"41.96859000","lon":"20.92899000"},
{"state":"Bogovinje Municipality","name":"Gradec","lat":"41.89611000","lon":"20.90417000"},
{"state":"Bogovinje Municipality","name":"Kamenjane","lat":"41.94568000","lon":"20.92894000"},
{"state":"Bosilovo Municipality","name":"Bosilovo","lat":"41.44056000","lon":"22.72778000"},
{"state":"Bosilovo Municipality","name":"Ilovica","lat":"41.47224000","lon":"22.80480000"},
{"state":"Bosilovo Municipality","name":"Sekirnik","lat":"41.43999000","lon":"22.79536000"},
{"state":"Brvenica Municipality","name":"Brvenica","lat":"41.96722000","lon":"20.98083000"},
{"state":"Brvenica Municipality","name":"Čelopek","lat":"41.93167000","lon":"21.01333000"},
{"state":"Brvenica Municipality","name":"Gurgurnica","lat":"41.84508000","lon":"21.10538000"},
{"state":"Brvenica Municipality","name":"Miletino","lat":"41.90753000","lon":"21.01601000"},
{"state":"Butel Municipality","name":"Butel","lat":"42.03083000","lon":"21.44667000"},
{"state":"Butel Municipality","name":"Radishani","lat":"42.06111000","lon":"21.44778000"},
{"state":"Čair Municipality","name":"Čair","lat":"42.01528000","lon":"21.44111000"},
{"state":"Čaška Municipality","name":"Bogomila","lat":"41.59306000","lon":"21.47167000"},
{"state":"Čaška Municipality","name":"Čaška","lat":"41.65056000","lon":"21.66222000"},
{"state":"Centar Župa Municipality","name":"Centar Župa","lat":"41.47849000","lon":"20.55945000"},
{"state":"Češinovo-Obleševo Municipality","name":"Češinovo","lat":"41.87148000","lon":"22.28961000"},
{"state":"Češinovo-Obleševo Municipality","name":"Oblesevo","lat":"41.88333000","lon":"22.33389000"},
{"state":"Čučer-Sandevo Municipality","name":"Чучер - Сандево","lat":"42.10361000","lon":"21.38222000"},
{"state":"Debarca Municipality","name":"Belčišta","lat":"41.30278000","lon":"20.83028000"},
{"state":"Debarca Municipality","name":"Mešeišta","lat":"41.23814000","lon":"20.77414000"},
{"state":"Delčevo Municipality","name":"Delcevo","lat":"41.96722000","lon":"22.76944000"},
{"state":"Demir Hisar Municipality","name":"Demir Hisar","lat":"41.22097000","lon":"21.20302000"},
{"state":"Demir Hisar Municipality","name":"Slepče","lat":"41.23333000","lon":"21.17500000"},
{"state":"Demir Hisar Municipality","name":"Sopotnica","lat":"41.29594000","lon":"21.15357000"},
{"state":"Demir Kapija Municipality","name":"Demir Kapija","lat":"41.40613000","lon":"22.24631000"},
{"state":"Dojran Municipality","name":"Star Dojran","lat":"41.18647000","lon":"22.72030000"},
{"state":"Dolneni Municipality","name":"Crnilište","lat":"41.53025000","lon":"21.41416000"},
{"state":"Dolneni Municipality","name":"Desovo","lat":"41.46278000","lon":"21.49111000"},
{"state":"Dolneni Municipality","name":"Dolneni","lat":"41.42579000","lon":"21.45402000"},
{"state":"Dolneni Municipality","name":"Lažani","lat":"41.44222000","lon":"21.31583000"},
{"state":"Dolneni Municipality","name":"Žitoše","lat":"41.41991000","lon":"21.29078000"},
{"state":"Gazi Baba Municipality","name":"Cresevo","lat":"42.05083000","lon":"21.50972000"},
{"state":"Gevgelija Municipality","name":"Gevgelija","lat":"41.14166000","lon":"22.50141000"},
{"state":"Gevgelija Municipality","name":"Miravci","lat":"41.30925000","lon":"22.43641000"},
{"state":"Gjorče Petrov Municipality","name":"Gjorče Petro","lat":"42.00778000","lon":"21.35306000"},
{"state":"Gostivar Municipality","name":"Cegrane","lat":"41.83889000","lon":"20.97583000"},
{"state":"Gostivar Municipality","name":"Dolna Banjica","lat":"41.78611000","lon":"20.90611000"},
{"state":"Gostivar Municipality","name":"Forino","lat":"41.82334000","lon":"20.96174000"},
{"state":"Gostivar Municipality","name":"Gostivar","lat":"41.79601000","lon":"20.90819000"},
{"state":"Gostivar Municipality","name":"Srbinovo","lat":"41.70586000","lon":"20.95859000"},
{"state":"Gostivar Municipality","name":"Vrutok","lat":"41.76861000","lon":"20.83917000"},
{"state":"Gradsko Municipality","name":"Gradsko","lat":"41.57750000","lon":"21.94278000"},
{"state":"Greater Skopje","name":"Bojane","lat":"42.00009000","lon":"21.19265000"},
{"state":"Greater Skopje","name":"Dračevo","lat":"41.93667000","lon":"21.52167000"},
{"state":"Greater Skopje","name":"Ljubin","lat":"42.00139000","lon":"21.30917000"},
{"state":"Greater Skopje","name":"Saraj","lat":"42.00000000","lon":"21.32778000"},
{"state":"Greater Skopje","name":"Usje","lat":"41.95871000","lon":"21.45835000"},
{"state":"Ilinden Municipality","name":"Ilinden","lat":"41.99451000","lon":"21.58002000"},
{"state":"Ilinden Municipality","name":"Kadino","lat":"41.96889000","lon":"21.60139000"},
{"state":"Ilinden Municipality","name":"Marino","lat":"41.98776000","lon":"21.59148000"},
{"state":"Ilinden Municipality","name":"Miladinovci","lat":"41.98029000","lon":"21.64982000"},
{"state":"Ilinden Municipality","name":"Идризово","lat":"41.96083000","lon":"21.57556000"},
{"state":"Ilinden Municipality","name":"Јурумлери","lat":"41.96722000","lon":"21.55694000"},
{"state":"Jegunovce Municipality","name":"Jegunovce","lat":"42.07238000","lon":"21.12367000"},
{"state":"Jegunovce Municipality","name":"Vratnica","lat":"42.14333000","lon":"21.11694000"},
{"state":"Karbinci","name":"Karbinci","lat":"41.81758000","lon":"22.23529000"},
{"state":"Karpoš Municipality","name":"Skopje","lat":"41.99646000","lon":"21.43141000"},
{"state":"Kavadarci Municipality","name":"Kavadarci","lat":"41.43306000","lon":"22.01194000"},
{"state":"Kavadarci Municipality","name":"Vataša","lat":"41.41694000","lon":"22.01889000"},
{"state":"Kičevo Municipality","name":"Drugovo","lat":"41.48490000","lon":"20.92636000"},
{"state":"Kičevo Municipality","name":"Kičevo","lat":"41.51267000","lon":"20.95886000"},
{"state":"Kičevo Municipality","name":"Srbica","lat":"41.58672000","lon":"21.03027000"},
{"state":"Kičevo Municipality","name":"Strelci","lat":"41.54046000","lon":"21.00563000"},
{"state":"Kičevo Municipality","name":"Tuin","lat":"41.61944000","lon":"21.04528000"},
{"state":"Kičevo Municipality","name":"Vraneštica","lat":"41.44496000","lon":"21.02683000"},
{"state":"Kičevo Municipality","name":"Zajas","lat":"41.60722000","lon":"20.93833000"},
{"state":"Kisela Voda Municipality","name":"Kisela Voda","lat":"41.94889000","lon":"21.50278000"},
{"state":"Kočani Municipality","name":"Kochani","lat":"41.91639000","lon":"22.41278000"},
{"state":"Kočani Municipality","name":"Orizari","lat":"41.92262000","lon":"22.44628000"},
{"state":"Konče Municipality","name":"Konče","lat":"41.49511000","lon":"22.38359000"},
{"state":"Kratovo Municipality","name":"Kratovo","lat":"42.07838000","lon":"22.18070000"},
{"state":"Kriva Palanka Municipality","name":"Kriva Palanka","lat":"42.20088000","lon":"22.33244000"},
{"state":"Krivogaštani Municipality","name":"Krivogashtani","lat":"41.33611000","lon":"21.33306000"},
{"state":"Krivogaštani Municipality","name":"Obršani","lat":"41.28168000","lon":"21.36150000"},
{"state":"Krivogaštani Municipality","name":"Клечовце","lat":"42.11611000","lon":"21.85722000"},
{"state":"Kruševo Municipality","name":"Bučin","lat":"41.27377000","lon":"21.31692000"},
{"state":"Kruševo Municipality","name":"Krusevo","lat":"41.36889000","lon":"21.24889000"},
{"state":"Kumanovo Municipality","name":"Bedinje","lat":"42.14167000","lon":"21.69639000"},
{"state":"Kumanovo Municipality","name":"Kumanovo","lat":"42.13222000","lon":"21.71444000"},
{"state":"Kumanovo Municipality","name":"Romanovci","lat":"42.09472000","lon":"21.69306000"},
{"state":"Lipkovo Municipality","name":"Izvor","lat":"42.20322000","lon":"21.57812000"},
{"state":"Lipkovo Municipality","name":"Lipkovo","lat":"42.15639000","lon":"21.58528000"},
{"state":"Lipkovo Municipality","name":"Lojane","lat":"42.23276000","lon":"21.66550000"},
{"state":"Lipkovo Municipality","name":"Matejce","lat":"42.12556000","lon":"21.59778000"},
{"state":"Lipkovo Municipality","name":"Otlja","lat":"42.14315000","lon":"21.58675000"},
{"state":"Lipkovo Municipality","name":"Vaksince","lat":"42.20611000","lon":"21.66306000"},
{"state":"Lipkovo Municipality","name":"Слупчане","lat":"42.17333000","lon":"21.62778000"},
{"state":"Lozovo Municipality","name":"Lozovo","lat":"41.78389000","lon":"21.90556000"},
{"state":"Makedonska Kamenica Municipality","name":"Makedonska Kamenica","lat":"42.02079000","lon":"22.58760000"},
{"state":"Makedonski Brod Municipality","name":"Makedonski Brod","lat":"41.51361000","lon":"21.21528000"},
{"state":"Makedonski Brod Municipality","name":"Samokov","lat":"41.68331000","lon":"21.14625000"},
{"state":"Mavrovo and Rostuša Municipality","name":"Rostusa","lat":"41.61000000","lon":"20.60000000"},
{"state":"Mogila Municipality","name":"Beranci","lat":"41.15969000","lon":"21.35963000"},
{"state":"Mogila Municipality","name":"Dobruševo","lat":"41.16861000","lon":"21.48250000"},
{"state":"Mogila Municipality","name":"Dolno Srpci","lat":"41.17480000","lon":"21.36464000"},
{"state":"Mogila Municipality","name":"Mogila","lat":"41.10833000","lon":"21.37861000"},
{"state":"Negotino Municipality","name":"Negotino","lat":"41.48456000","lon":"22.09056000"},
{"state":"Novaci Municipality","name":"Novaci","lat":"41.04197000","lon":"21.45866000"},
{"state":"Novo Selo Municipality","name":"Novo Selo","lat":"41.41486000","lon":"22.88164000"},
{"state":"Novo Selo Municipality","name":"Sušica","lat":"41.43982000","lon":"22.83676000"},
{"state":"Ohrid Municipality","name":"Kosel","lat":"41.17444000","lon":"20.83556000"},
{"state":"Ohrid Municipality","name":"Ohrid","lat":"41.11722000","lon":"20.80194000"},
{"state":"Ohrid Municipality","name":"Ohrid Opština","lat":"41.16667000","lon":"20.83333000"},
{"state":"Pehčevo Municipality","name":"Pehčevo","lat":"41.76226000","lon":"22.88921000"},
{"state":"Petrovec Municipality","name":"Sredno Konjare","lat":"41.95743000","lon":"21.71494000"},
{"state":"Petrovec Municipality","name":"Петровец","lat":"41.93889000","lon":"21.61500000"},
{"state":"Plasnica Municipality","name":"Lisičani","lat":"41.46139000","lon":"21.05444000"},
{"state":"Plasnica Municipality","name":"Plasnica","lat":"41.46722000","lon":"21.12306000"},
{"state":"Prilep Municipality","name":"Kanatlarci","lat":"41.21028000","lon":"21.50333000"},
{"state":"Prilep Municipality","name":"Markov Grad","lat":"41.35722000","lon":"21.53250000"},
{"state":"Prilep Municipality","name":"Prilep","lat":"41.34514000","lon":"21.55504000"},
{"state":"Prilep Municipality","name":"Topolčani","lat":"41.22772000","lon":"21.43113000"},
{"state":"Probištip Municipality","name":"Probishtip","lat":"42.00306000","lon":"22.17861000"},
{"state":"Probištip Municipality","name":"Zletovo","lat":"41.98861000","lon":"22.23611000"},
{"state":"Radoviš Municipality","name":"Oraovica","lat":"41.62583000","lon":"22.51333000"},
{"state":"Radoviš Municipality","name":"Podareš","lat":"41.61389000","lon":"22.54222000"},
{"state":"Radoviš Municipality","name":"Radovis","lat":"41.63833000","lon":"22.46472000"},
{"state":"Rankovce Municipality","name":"Ранковце","lat":"42.16964000","lon":"22.11617000"},
{"state":"Resen Municipality","name":"Grnčari","lat":"41.01722000","lon":"21.05333000"},
{"state":"Resen Municipality","name":"Jankovec","lat":"41.11028000","lon":"21.01139000"},
{"state":"Resen Municipality","name":"Krani","lat":"40.93934000","lon":"21.10911000"},
{"state":"Resen Municipality","name":"Resen","lat":"41.08934000","lon":"21.01092000"},
{"state":"Rosoman Municipality","name":"Rosoman","lat":"41.51671000","lon":"21.94585000"},
{"state":"Saraj Municipality","name":"Bukovik","lat":"41.96833000","lon":"21.23694000"},
{"state":"Saraj Municipality","name":"Grčec","lat":"41.98806000","lon":"21.33028000"},
{"state":"Saraj Municipality","name":"Kondovo","lat":"42.01167000","lon":"21.31361000"},
{"state":"Saraj Municipality","name":"Krušopek","lat":"41.97833000","lon":"21.35444000"},
{"state":"Sopište Municipality","name":"Сопиште","lat":"41.95472000","lon":"21.42750000"},
{"state":"Staro Nagoričane Municipality","name":"Старо Нагоричане","lat":"42.19806000","lon":"21.82861000"},
{"state":"Štip Municipality","name":"Shtip","lat":"41.74583000","lon":"22.19583000"},
{"state":"Struga Municipality","name":"Delogožda","lat":"41.25728000","lon":"20.72180000"},
{"state":"Struga Municipality","name":"Labunista","lat":"41.26861000","lon":"20.59611000"},
{"state":"Struga Municipality","name":"Lukovo","lat":"41.35339000","lon":"20.60637000"},
{"state":"Struga Municipality","name":"Mislesevo","lat":"41.18500000","lon":"20.70861000"},
{"state":"Struga Municipality","name":"Oktisi","lat":"41.23250000","lon":"20.60722000"},
{"state":"Struga Municipality","name":"Radolista","lat":"41.16417000","lon":"20.62333000"},
{"state":"Struga Municipality","name":"Struga","lat":"41.17799000","lon":"20.67784000"},
{"state":"Struga Municipality","name":"Velesta","lat":"41.24083000","lon":"20.64389000"},
{"state":"Strumica Municipality","name":"Kuklis","lat":"41.40528000","lon":"22.66528000"},
{"state":"Strumica Municipality","name":"Murtino","lat":"41.41537000","lon":"22.72589000"},
{"state":"Strumica Municipality","name":"Strumica","lat":"41.43750000","lon":"22.64333000"},
{"state":"Strumica Municipality","name":"Veljusa","lat":"41.47611000","lon":"22.56750000"},
{"state":"Studeničani Municipality","name":"Batinci","lat":"41.91909000","lon":"21.47978000"},
{"state":"Studeničani Municipality","name":"Dolno Količani","lat":"41.88639000","lon":"21.48556000"},
{"state":"Studeničani Municipality","name":"Morani","lat":"41.90978000","lon":"21.54997000"},
{"state":"Studeničani Municipality","name":"Studeničane","lat":"41.92208000","lon":"21.53483000"},
{"state":"Šuto Orizari Municipality","name":"Šuto Orizare","lat":"42.04000000","lon":"21.42500000"},
{"state":"Sveti Nikole Municipality","name":"Gorobinci","lat":"41.87507000","lon":"21.87599000"},
{"state":"Sveti Nikole Municipality","name":"Sveti Nikole","lat":"41.86956000","lon":"21.95274000"},
{"state":"Tearce Municipality","name":"Nerašte","lat":"42.10711000","lon":"21.10810000"},
{"state":"Tearce Municipality","name":"Orashac","lat":"42.06250000","lon":"21.79972000"},
{"state":"Tearce Municipality","name":"Pršovce","lat":"42.08336000","lon":"21.05994000"},
{"state":"Tearce Municipality","name":"Slatino","lat":"42.06784000","lon":"21.03902000"},
{"state":"Tearce Municipality","name":"Tearce","lat":"42.07666000","lon":"21.05310000"},
{"state":"Tetovo Municipality","name":"Dobrošte","lat":"42.10333000","lon":"21.07778000"},
{"state":"Tetovo Municipality","name":"Džepčište","lat":"42.03287000","lon":"20.99817000"},
{"state":"Tetovo Municipality","name":"Golema Rečica","lat":"41.98803000","lon":"20.94517000"},
{"state":"Tetovo Municipality","name":"Pirok","lat":"41.91083000","lon":"20.91056000"},
{"state":"Tetovo Municipality","name":"Poroj","lat":"42.02913000","lon":"20.99266000"},
{"state":"Tetovo Municipality","name":"Selce","lat":"42.03482000","lon":"20.94035000"},
{"state":"Tetovo Municipality","name":"Šipkovica","lat":"42.03500000","lon":"20.91556000"},
{"state":"Tetovo Municipality","name":"Tetovo","lat":"42.00973000","lon":"20.97155000"},
{"state":"Valandovo Municipality","name":"Pirava","lat":"41.32042000","lon":"22.53047000"},
{"state":"Valandovo Municipality","name":"Valandovo","lat":"41.31744000","lon":"22.56002000"},
{"state":"Vasilevo Municipality","name":"Vasilevo","lat":"41.47408000","lon":"22.64301000"},
{"state":"Veles Municipality","name":"Gorno Orizari","lat":"41.68583000","lon":"21.73475000"},
{"state":"Veles Municipality","name":"Ivankovci","lat":"41.84889000","lon":"21.82028000"},
{"state":"Veles Municipality","name":"Veles","lat":"41.71556000","lon":"21.77556000"},
{"state":"Vevčani Municipality","name":"Vevčani","lat":"41.24056000","lon":"20.59333000"},
{"state":"Vinica Municipality","name":"Blatec","lat":"41.83668000","lon":"22.57909000"},
{"state":"Vinica Municipality","name":"Gradec","lat":"41.85068000","lon":"22.51132000"},
{"state":"Vinica Municipality","name":"Vinica","lat":"41.88278000","lon":"22.50917000"},
{"state":"Vrapčište Municipality","name":"Dobri Dol","lat":"41.86520000","lon":"20.89009000"},
{"state":"Vrapčište Municipality","name":"Negotino","lat":"41.87792000","lon":"20.88389000"},
{"state":"Vrapčište Municipality","name":"Vrapčište","lat":"41.83439000","lon":"20.88563000"},
{"state":"Zelenikovo Municipality","name":"Zelenikovo","lat":"41.88413000","lon":"21.58848000"},
{"state":"Želino Municipality","name":"Dobarce","lat":"41.95530000","lon":"21.08875000"},
{"state":"Želino Municipality","name":"Larce","lat":"41.93319000","lon":"21.12628000"},
{"state":"Želino Municipality","name":"Sedlarevo","lat":"41.88306000","lon":"21.12750000"},
{"state":"Želino Municipality","name":"Strimnica","lat":"41.96719000","lon":"21.03598000"},
{"state":"Želino Municipality","name":"Zelino","lat":"41.98028000","lon":"21.06417000"},
{"state":"Zrnovci Municipality","name":"Zrnovci","lat":"41.85417000","lon":"22.44444000"}]