[{"state":"Bamako","name":"Bamako","lat":"12.65000000","lon":"-8.00000000"},
{"state":"Gao Region","name":"Ansongo","lat":"15.65970000","lon":"0.50220000"},
{"state":"Gao Region","name":"Cercle de Bourem","lat":"17.71192000","lon":"-0.34284000"},
{"state":"Gao Region","name":"Gao","lat":"16.27167000","lon":"-0.04472000"},
{"state":"Gao Region","name":"Gao Cercle","lat":"16.72237000","lon":"0.43984000"},
{"state":"Gao Region","name":"Inékar","lat":"15.95944000","lon":"3.14111000"},
{"state":"Kayes Region","name":"Bafoulabé","lat":"13.80650000","lon":"-10.83210000"},
{"state":"Kayes Region","name":"Kayes","lat":"14.44693000","lon":"-11.44448000"},
{"state":"Kayes Region","name":"Kita","lat":"13.03490000","lon":"-9.48950000"},
{"state":"Kayes Region","name":"Kokofata","lat":"12.88333000","lon":"-9.95000000"},
{"state":"Kayes Region","name":"Sagalo","lat":"12.20000000","lon":"-10.70000000"},
{"state":"Kidal Region","name":"Abeïbara","lat":"19.11667000","lon":"1.75000000"},
{"state":"Kidal Region","name":"Cercle d’Abeïbara","lat":"19.48878000","lon":"2.20025000"},
{"state":"Kidal Region","name":"Kidal","lat":"18.44111000","lon":"1.40778000"},
{"state":"Koulikoro Region","name":"Banamba","lat":"13.54773000","lon":"-7.44808000"},
{"state":"Koulikoro Region","name":"Kangaba","lat":"11.93333000","lon":"-8.41667000"},
{"state":"Koulikoro Region","name":"Kati","lat":"12.74409000","lon":"-8.07257000"},
{"state":"Koulikoro Region","name":"Kolokani","lat":"13.57280000","lon":"-8.03390000"},
{"state":"Koulikoro Region","name":"Koulikoro","lat":"12.86273000","lon":"-7.55985000"},
{"state":"Mopti Region","name":"Bandiagara","lat":"14.35005000","lon":"-3.61038000"},
{"state":"Mopti Region","name":"Djénné","lat":"13.90608000","lon":"-4.55332000"},
{"state":"Mopti Region","name":"Douentza","lat":"15.00155000","lon":"-2.94978000"},
{"state":"Mopti Region","name":"Douentza Cercle","lat":"15.06947000","lon":"-2.40875000"},
{"state":"Mopti Region","name":"Mopti","lat":"14.48430000","lon":"-4.18296000"},
{"state":"Mopti Region","name":"Ténenkou","lat":"14.45722000","lon":"-4.91690000"},
{"state":"Ségou Region","name":"Baroueli","lat":"13.07489000","lon":"-6.57171000"},
{"state":"Ségou Region","name":"Cercle de San","lat":"13.17895000","lon":"-5.01617000"},
{"state":"Ségou Region","name":"Ké-Macina","lat":"13.96410000","lon":"-5.35791000"},
{"state":"Ségou Region","name":"Kinmparana","lat":"12.84217000","lon":"-4.92450000"},
{"state":"Ségou Region","name":"Markala","lat":"13.70210000","lon":"-6.06590000"},
{"state":"Ségou Region","name":"San","lat":"13.30335000","lon":"-4.89562000"},
{"state":"Ségou Region","name":"Ségou","lat":"13.43170000","lon":"-6.21570000"},
{"state":"Ségou Region","name":"Sokolo","lat":"14.73280000","lon":"-6.12190000"},
{"state":"Sikasso Region","name":"Bougouni","lat":"11.41769000","lon":"-7.48323000"},
{"state":"Sikasso Region","name":"Kolondiéba","lat":"11.08943000","lon":"-6.89290000"},
{"state":"Sikasso Region","name":"Koutiala","lat":"12.39173000","lon":"-5.46421000"},
{"state":"Sikasso Region","name":"Koutiala Cercle","lat":"12.35311000","lon":"-5.58390000"},
{"state":"Sikasso Region","name":"Ntossoni","lat":"12.53040000","lon":"-5.77003000"},
{"state":"Sikasso Region","name":"Sikasso","lat":"11.31755000","lon":"-5.66654000"},
{"state":"Sikasso Region","name":"Yorosso","lat":"12.35811000","lon":"-4.77688000"},
{"state":"Tombouctou Region","name":"Araouane","lat":"18.90476000","lon":"-3.52649000"},
{"state":"Tombouctou Region","name":"Cercle de Goundam","lat":"18.60035000","lon":"-4.99306000"},
{"state":"Tombouctou Region","name":"Dire","lat":"16.28017000","lon":"-3.31302000"},
{"state":"Tombouctou Region","name":"Goundam","lat":"16.41453000","lon":"-3.67075000"},
{"state":"Tombouctou Region","name":"Gourma-Rharous Cercle","lat":"16.07979000","lon":"-1.76981000"},
{"state":"Tombouctou Region","name":"Niafunké","lat":"15.93220000","lon":"-3.99060000"},
{"state":"Tombouctou Region","name":"Timbuktu","lat":"16.77348000","lon":"-3.00742000"}]