[{"state":"Ayeyarwady Region","name":"Bogale","lat":"16.29415000","lon":"95.39742000"},
{"state":"Ayeyarwady Region","name":"Hinthada","lat":"17.64944000","lon":"95.45705000"},
{"state":"Ayeyarwady Region","name":"Kyaiklat","lat":"16.44502000","lon":"95.72373000"},
{"state":"Ayeyarwady Region","name":"Maubin","lat":"16.73148000","lon":"95.65441000"},
{"state":"Ayeyarwady Region","name":"Mawlamyinegyunn","lat":"16.37720000","lon":"95.26488000"},
{"state":"Ayeyarwady Region","name":"Myanaung","lat":"18.28651000","lon":"95.32014000"},
{"state":"Ayeyarwady Region","name":"Nyaungdon","lat":"17.04459000","lon":"95.63957000"},
{"state":"Ayeyarwady Region","name":"Pathein","lat":"16.77919000","lon":"94.73212000"},
{"state":"Ayeyarwady Region","name":"Pyapon","lat":"16.28543000","lon":"95.67882000"},
{"state":"Ayeyarwady Region","name":"Wakema","lat":"16.60333000","lon":"95.18278000"},
{"state":"Bago","name":"Bago","lat":"17.33521000","lon":"96.48135000"},
{"state":"Bago","name":"Letpandan","lat":"17.78664000","lon":"95.75076000"},
{"state":"Bago","name":"Nyaunglebin","lat":"17.95363000","lon":"96.72247000"},
{"state":"Bago","name":"Paungde","lat":"18.49167000","lon":"95.50591000"},
{"state":"Bago","name":"Pyay","lat":"18.82464000","lon":"95.22216000"},
{"state":"Bago","name":"Pyu","lat":"18.48130000","lon":"96.43742000"},
{"state":"Bago","name":"Taungoo","lat":"18.94291000","lon":"96.43408000"},
{"state":"Bago","name":"Thanatpin","lat":"17.29136000","lon":"96.57523000"},
{"state":"Bago","name":"Tharyarwady","lat":"17.65399000","lon":"95.78813000"},
{"state":"Chin State","name":"Falam","lat":"22.91335000","lon":"93.67779000"},
{"state":"Chin State","name":"Hakha","lat":"22.64452000","lon":"93.61076000"},
{"state":"Kachin State","name":"Bhamo","lat":"24.25256000","lon":"97.23357000"},
{"state":"Kachin State","name":"Myitkyina","lat":"25.38327000","lon":"97.39637000"},
{"state":"Kayah State","name":"Loikaw","lat":"19.67798000","lon":"97.20975000"},
{"state":"Kayin State","name":"Dellok","lat":"16.04072000","lon":"97.91773000"},
{"state":"Kayin State","name":"Hpa-An","lat":"16.88953000","lon":"97.63482000"},
{"state":"Kayin State","name":"Klonhtoug","lat":"15.95411000","lon":"98.43250000"},
{"state":"Kayin State","name":"Kyain Seikgyi Township","lat":"15.82288000","lon":"98.25257000"},
{"state":"Kayin State","name":"Mikenaungea","lat":"15.95846000","lon":"98.42721000"},
{"state":"Kayin State","name":"Myawadi","lat":"16.68911000","lon":"98.50893000"},
{"state":"Kayin State","name":"Pulei","lat":"16.06243000","lon":"97.88280000"},
{"state":"Kayin State","name":"Tagondaing","lat":"16.06750000","lon":"97.90694000"},
{"state":"Kayin State","name":"Tamoowoug","lat":"16.03447000","lon":"97.91458000"},
{"state":"Magway Region","name":"Chauk","lat":"20.89921000","lon":"94.81784000"},
{"state":"Magway Region","name":"Magway","lat":"20.14956000","lon":"94.93246000"},
{"state":"Magway Region","name":"Minbu","lat":"20.18059000","lon":"94.87595000"},
{"state":"Magway Region","name":"Myaydo","lat":"19.36838000","lon":"95.21512000"},
{"state":"Magway Region","name":"Pakokku","lat":"21.33489000","lon":"95.08438000"},
{"state":"Magway Region","name":"Taungdwingyi","lat":"20.00650000","lon":"95.54531000"},
{"state":"Magway Region","name":"Thayetmyo","lat":"19.32076000","lon":"95.18272000"},
{"state":"Magway Region","name":"Yenangyaung","lat":"20.46504000","lon":"94.87120000"},
{"state":"Mandalay Region","name":"Kyaukse","lat":"21.60560000","lon":"96.13508000"},
{"state":"Mandalay Region","name":"Mandalay","lat":"21.97473000","lon":"96.08359000"},
{"state":"Mandalay Region","name":"Meiktila","lat":"20.87776000","lon":"95.85844000"},
{"state":"Mandalay Region","name":"Mogok","lat":"22.91766000","lon":"96.50982000"},
{"state":"Mandalay Region","name":"Myingyan","lat":"21.46002000","lon":"95.38840000"},
{"state":"Mandalay Region","name":"Nyaungshwe","lat":"20.66084000","lon":"96.93405000"},
{"state":"Mandalay Region","name":"Pyin Oo Lwin","lat":"22.03501000","lon":"96.45683000"},
{"state":"Mandalay Region","name":"Yamethin","lat":"20.43189000","lon":"96.13875000"},
{"state":"Mon State","name":"Kyaikkami","lat":"16.07686000","lon":"97.56388000"},
{"state":"Mon State","name":"Kyaikto","lat":"17.30858000","lon":"97.01124000"},
{"state":"Mon State","name":"Martaban","lat":"16.52834000","lon":"97.61570000"},
{"state":"Mon State","name":"Mawlamyine","lat":"16.49051000","lon":"97.62825000"},
{"state":"Mon State","name":"Mudon","lat":"16.25624000","lon":"97.72460000"},
{"state":"Mon State","name":"Thaton","lat":"16.91867000","lon":"97.37001000"},
{"state":"Naypyidaw Union Territory","name":"Nay Pyi Taw","lat":"19.74500000","lon":"96.12972000"},
{"state":"Naypyidaw Union Territory","name":"Pyinmana","lat":"19.73810000","lon":"96.20742000"},
{"state":"Rakhine State","name":"Sittwe","lat":"20.14624000","lon":"92.89835000"},
{"state":"Sagaing Region","name":"Mawlaik","lat":"23.64254000","lon":"94.40478000"},
{"state":"Sagaing Region","name":"Monywa","lat":"22.10856000","lon":"95.13583000"},
{"state":"Sagaing Region","name":"Sagaing","lat":"21.87870000","lon":"95.97965000"},
{"state":"Sagaing Region","name":"Shwebo","lat":"22.56925000","lon":"95.69818000"},
{"state":"Shan State","name":"Lashio","lat":"22.93590000","lon":"97.74980000"},
{"state":"Shan State","name":"Tachilek","lat":"20.44750000","lon":"99.88083000"},
{"state":"Shan State","name":"Taunggyi","lat":"20.78919000","lon":"97.03776000"},
{"state":"Tanintharyi Region","name":"Dawei","lat":"14.08230000","lon":"98.19151000"},
{"state":"Tanintharyi Region","name":"Kawthoung","lat":"9.98238000","lon":"98.55034000"},
{"state":"Tanintharyi Region","name":"Myeik","lat":"12.43954000","lon":"98.60028000"},
{"state":"Yangon Region","name":"Kanbe","lat":"16.70728000","lon":"96.00168000"},
{"state":"Yangon Region","name":"Kayan","lat":"16.90802000","lon":"96.56037000"},
{"state":"Yangon Region","name":"Syriam","lat":"16.76887000","lon":"96.24503000"},
{"state":"Yangon Region","name":"Thongwa","lat":"16.75998000","lon":"96.52498000"},
{"state":"Yangon Region","name":"Twante","lat":"16.71047000","lon":"95.92866000"},
{"state":"Yangon Region","name":"Yangon","lat":"16.80528000","lon":"96.15611000"}]