[{"state":"Arkhangai Province","name":"Tsetserleg","lat":"47.47500000","lon":"101.45417000"},
{"state":"Bayan-Ölgii Province","name":"Altay","lat":"48.29359000","lon":"89.51488000"},
{"state":"Bayan-Ölgii Province","name":"Ölgii","lat":"48.96833000","lon":"89.96250000"},
{"state":"Bayan-Ölgii Province","name":"Tsengel","lat":"48.94314000","lon":"89.14358000"},
{"state":"Bayankhongor Province","name":"Bayanhongor","lat":"46.19444000","lon":"100.71806000"},
{"state":"Bulgan Province","name":"Bulgan","lat":"48.81250000","lon":"103.53472000"},
{"state":"Darkhan-Uul Province","name":"Darhan","lat":"49.48667000","lon":"105.92278000"},
{"state":"Dornod Province","name":"Choibalsan","lat":"48.07257000","lon":"114.53264000"},
{"state":"Dornod Province","name":"Ereencav","lat":"49.88070000","lon":"115.72526000"},
{"state":"Dundgovi Province","name":"Mandalgovi","lat":"45.76250000","lon":"106.27083000"},
{"state":"Govi-Altai Province","name":"Altai","lat":"46.37222000","lon":"96.25833000"},
{"state":"Govisümber Province","name":"Choyr","lat":"46.36111000","lon":"108.36111000"},
{"state":"Khentii Province","name":"Undurkhaan","lat":"47.31944000","lon":"110.65556000"},
{"state":"Khovd Province","name":"Khovd","lat":"48.00556000","lon":"91.64194000"},
{"state":"Khovd Province","name":"Möst","lat":"46.67712000","lon":"92.78521000"},
{"state":"Khovd Province","name":"Üyönch","lat":"46.04786000","lon":"92.02612000"},
{"state":"Khövsgöl Province","name":"Hanh","lat":"51.50265000","lon":"100.66395000"},
{"state":"Khövsgöl Province","name":"Murun-kuren","lat":"49.63417000","lon":"100.16250000"},
{"state":"Khövsgöl Province","name":"Tsengel","lat":"49.47833000","lon":"100.88944000"},
{"state":"Khövsgöl Province","name":"Turt","lat":"51.50725000","lon":"100.66257000"},
{"state":"Ömnögovi Province","name":"Dalandzadgad","lat":"43.57083000","lon":"104.42500000"},
{"state":"Ömnögovi Province","name":"Hanhongor","lat":"43.77345000","lon":"104.47998000"},
{"state":"Ömnögovi Province","name":"Nomgon Sum","lat":"42.41462000","lon":"105.05640000"},
{"state":"Orkhon Province","name":"Erdenet","lat":"49.03333000","lon":"104.08333000"},
{"state":"Övörkhangai Province","name":"Arvayheer","lat":"46.26389000","lon":"102.77500000"},
{"state":"Övörkhangai Province","name":"Harhorin","lat":"47.19753000","lon":"102.82379000"},
{"state":"Övörkhangai Province","name":"Hovd","lat":"44.67024000","lon":"102.17491000"},
{"state":"Övörkhangai Province","name":"Kharkhorin","lat":"47.19245000","lon":"102.81349000"},
{"state":"Övörkhangai Province","name":"Nariynteel","lat":"45.95950000","lon":"101.45977000"},
{"state":"Selenge Province","name":"Dzüünharaa","lat":"48.85229000","lon":"106.45786000"},
{"state":"Selenge Province","name":"Sühbaatar","lat":"50.23139000","lon":"106.20778000"},
{"state":"Sükhbaatar Province","name":"Baruun-Urt","lat":"46.68056000","lon":"113.27917000"},
{"state":"Töv Province","name":"Dzuunmod","lat":"47.70694000","lon":"106.95278000"},
{"state":"Töv Province","name":"Möngönmorĭt","lat":"48.19504000","lon":"108.48295000"},
{"state":"Töv Province","name":"Ulaanhudag","lat":"47.33333000","lon":"104.50000000"},
{"state":"Töv Province","name":"Зуунмод","lat":"47.70693000","lon":"106.95276000"},
{"state":"Uvs Province","name":"Ulaangom","lat":"49.98111000","lon":"92.06667000"},
{"state":"Zavkhan Province","name":"Uliastay","lat":"47.74167000","lon":"96.84444000"}]