[{"state":"Adrar","name":"Atar","lat":"20.51770000","lon":"-13.04857000"},
{"state":"Adrar","name":"Azougui","lat":"20.56764000","lon":"-13.11191000"},
{"state":"Adrar","name":"Chingueṭṭi","lat":"20.46300000","lon":"-12.36200000"},
{"state":"Adrar","name":"Ksar el Khali","lat":"20.93333333","lon":"-11.61666667"},
{"state":"Assaba","name":"Barkéwol","lat":"16.64039000","lon":"-12.49849000"},
{"state":"Assaba","name":"Kiffa","lat":"16.62073000","lon":"-11.40208000"},
{"state":"Brakna","name":"’Elb el Jmel","lat":"17.01050000","lon":"-13.97102000"},
{"state":"Brakna","name":"Aleg","lat":"17.05314000","lon":"-13.91312000"},
{"state":"Brakna","name":"Bofal","lat":"16.41666667","lon":"-13.80000000"},
{"state":"Brakna","name":"Sori Malé","lat":"16.95416667","lon":"-13.37916667"},
{"state":"Dakhlet Nouadhibou","name":"Cansado","lat":"20.85333333","lon":"-17.03250000"},
{"state":"Dakhlet Nouadhibou","name":"Iouik","lat":"19.84944444","lon":"-16.33083333"},
{"state":"Dakhlet Nouadhibou","name":"Nouadhibou","lat":"20.94188000","lon":"-17.03842000"},
{"state":"Gorgol","name":"Kaédi","lat":"16.15027000","lon":"-13.50370000"},
{"state":"Guidimaka","name":"Sélibaby","lat":"15.15846000","lon":"-12.18430000"},
{"state":"Hodh Ech Chargui","name":"Diade","lat":"16.23333333","lon":"-7.41666667"},
{"state":"Hodh Ech Chargui","name":"Kataouane","lat":"16.06888889","lon":"-6.49888889"},
{"state":"Hodh Ech Chargui","name":"Néma","lat":"16.61702000","lon":"-7.25649000"},
{"state":"Hodh Ech Chargui","name":"Timbedra","lat":"16.24472222","lon":"-8.16750000"},
{"state":"Hodh El Gharbi","name":"Aioun","lat":"16.66140000","lon":"-9.61490000"},
{"state":"Hodh El Gharbi","name":"Ayoun el Atrous","lat":"16.66666667","lon":"-9.61666667"},
{"state":"Hodh El Gharbi","name":"Togba","lat":"17.40000000","lon":"-10.36666667"},
{"state":"Inchiri","name":"Akjoujt","lat":"19.74657000","lon":"-14.38531000"},
{"state":"Nouakchott-Nord","name":"Dar-Naim","lat":"18.03333333","lon":"-15.96666667"},
{"state":"Nouakchott-Nord","name":"Teyarett","lat":"18.12895720","lon":"-15.93778340"},
{"state":"Nouakchott-Nord","name":"Toujouonine","lat":"18.07169000","lon":"-15.90311000"},
{"state":"Nouakchott-Ouest","name":"Ksar","lat":"18.10222222","lon":"-15.95500000"},
{"state":"Nouakchott-Ouest","name":"Sebkha","lat":"18.07555556","lon":"-16.00194444"},
{"state":"Nouakchott-Ouest","name":"Tevragh-Zeina","lat":"18.11011000","lon":"-15.99931000"},
{"state":"Nouakchott-Sud","name":"Arafat","lat":"18.04639000","lon":"-15.97194000"},
{"state":"Nouakchott-Sud","name":"Riyad","lat":"18.10222222","lon":"-15.95500000"},
{"state":"Tiris Zemmour","name":"Ain Ben Tili","lat":"25.99444444","lon":"-9.55333333"},
{"state":"Tiris Zemmour","name":"Chegga","lat":"25.37194444","lon":"-5.78666667"},
{"state":"Tiris Zemmour","name":"Fderîck","lat":"22.67777778","lon":"-12.70750000"},
{"state":"Tiris Zemmour","name":"Zouérat","lat":"22.73444444","lon":"-12.47250000"},
{"state":"Tiris Zemmour","name":"Zouerate","lat":"22.73542000","lon":"-12.47134000"},
{"state":"Trarza","name":"Legat","lat":"16.75000000","lon":"-14.83333333"},
{"state":"Trarza","name":"Rosso","lat":"16.51378000","lon":"-15.80503000"},
{"state":"Trarza","name":"Tékane","lat":"16.60175000","lon":"-15.34866000"}]