[{"state":"Agalega Islands","name":"Vingt Cinq","lat":"-10.38803000","lon":"56.61795000"},
{"state":"Black River","name":"Albion","lat":"-20.20814000","lon":"57.40766000"},
{"state":"Black River","name":"Bambous","lat":"-20.25667000","lon":"57.40611000"},
{"state":"Black River","name":"Cascavelle","lat":"-20.28694000","lon":"57.40722000"},
{"state":"Black River","name":"Flic en Flac","lat":"-20.27417000","lon":"57.36306000"},
{"state":"Black River","name":"Grande Rivière Noire","lat":"-20.36028000","lon":"57.36611000"},
{"state":"Black River","name":"Gros Cailloux","lat":"-20.20722000","lon":"57.43000000"},
{"state":"Black River","name":"Petite Case Noyale","lat":"-20.39306000","lon":"57.36500000"},
{"state":"Black River","name":"Petite Rivière","lat":"-20.19551000","lon":"57.44592000"},
{"state":"Black River","name":"Tamarin","lat":"-20.32556000","lon":"57.37056000"},
{"state":"Flacq","name":"Bel Air Rivière Sèche","lat":"-20.25777000","lon":"57.74976000"},
{"state":"Flacq","name":"Bon Accueil","lat":"-20.17083000","lon":"57.65639000"},
{"state":"Flacq","name":"Brisée Verdière","lat":"-20.16389000","lon":"57.64667000"},
{"state":"Flacq","name":"Camp de Masque","lat":"-20.23694000","lon":"57.66333000"},
{"state":"Flacq","name":"Camp Ithier","lat":"-20.21583000","lon":"57.74556000"},
{"state":"Flacq","name":"Centre de Flacq","lat":"-20.18972000","lon":"57.71444000"},
{"state":"Flacq","name":"Clémencia","lat":"-20.26389000","lon":"57.70611000"},
{"state":"Flacq","name":"Ecroignard","lat":"-20.22611000","lon":"57.73611000"},
{"state":"Flacq","name":"Grande Rivière Sud Est","lat":"-20.28611000","lon":"57.77583000"},
{"state":"Flacq","name":"Lalmatie","lat":"-20.18972000","lon":"57.66111000"},
{"state":"Flacq","name":"Laventure","lat":"-20.14583000","lon":"57.67667000"},
{"state":"Flacq","name":"Mare La Chaux","lat":"-20.19806000","lon":"57.74944000"},
{"state":"Flacq","name":"Olivia","lat":"-20.28778000","lon":"57.73097000"},
{"state":"Flacq","name":"Poste de Flacq","lat":"-20.16306000","lon":"57.73056000"},
{"state":"Flacq","name":"Quatre Cocos","lat":"-20.20151000","lon":"57.77448000"},
{"state":"Flacq","name":"Quatre Soeurs","lat":"-20.29917000","lon":"57.77056000"},
{"state":"Flacq","name":"Queen Victoria","lat":"-20.22000000","lon":"57.70750000"},
{"state":"Flacq","name":"Saint Julien","lat":"-20.22639000","lon":"57.63639000"},
{"state":"Flacq","name":"Sebastopol","lat":"-20.29070000","lon":"57.68779000"},
{"state":"Grand Port","name":"Bambous Virieux","lat":"-20.34278000","lon":"57.75750000"},
{"state":"Grand Port","name":"Beau Vallon","lat":"-20.41889000","lon":"57.69528000"},
{"state":"Grand Port","name":"Bois des Amourettes","lat":"-20.36306000","lon":"57.73111000"},
{"state":"Grand Port","name":"Cluny","lat":"-20.36694000","lon":"57.60389000"},
{"state":"Grand Port","name":"Grand Sable","lat":"-20.31417000","lon":"57.76444000"},
{"state":"Grand Port","name":"Mahébourg","lat":"-20.40806000","lon":"57.70000000"},
{"state":"Grand Port","name":"New Grove","lat":"-20.40861000","lon":"57.61361000"},
{"state":"Grand Port","name":"Nouvelle France","lat":"-20.37056000","lon":"57.56111000"},
{"state":"Grand Port","name":"Plaine Magnien","lat":"-20.42967000","lon":"57.66968000"},
{"state":"Grand Port","name":"Rose Belle","lat":"-20.40028000","lon":"57.59667000"},
{"state":"Grand Port","name":"Saint Hubert","lat":"-20.36417000","lon":"57.63833000"},
{"state":"Moka","name":"Camp Thorel","lat":"-20.21472000","lon":"57.61611000"},
{"state":"Moka","name":"Dagotière","lat":"-20.24476000","lon":"57.56188000"},
{"state":"Moka","name":"Dubreuil","lat":"-20.30132000","lon":"57.59861000"},
{"state":"Moka","name":"Melrose","lat":"-20.26972000","lon":"57.63194000"},
{"state":"Moka","name":"Moka","lat":"-20.21889000","lon":"57.49583000"},
{"state":"Moka","name":"Pailles","lat":"-20.19271000","lon":"57.48826000"},
{"state":"Moka","name":"Providence","lat":"-20.24472000","lon":"57.61222000"},
{"state":"Moka","name":"Quartier Militaire","lat":"-20.24790000","lon":"57.59737000"},
{"state":"Moka","name":"Saint Pierre","lat":"-20.21750000","lon":"57.52083000"},
{"state":"Moka","name":"Verdun","lat":"-20.23417000","lon":"57.55476000"},
{"state":"Pamplemousses","name":"Arsenal","lat":"-20.10556000","lon":"57.53528000"},
{"state":"Pamplemousses","name":"Calebasses","lat":"-20.11167000","lon":"57.55389000"},
{"state":"Pamplemousses","name":"Congomah","lat":"-20.14889000","lon":"57.59083000"},
{"state":"Pamplemousses","name":"Crève Coeur","lat":"-20.19111000","lon":"57.55722000"},
{"state":"Pamplemousses","name":"Fond du Sac","lat":"-20.04732000","lon":"57.58400000"},
{"state":"Pamplemousses","name":"Le Hochet","lat":"-20.13500000","lon":"57.52111000"},
{"state":"Pamplemousses","name":"Long Mountain","lat":"-20.14306000","lon":"57.56222000"},
{"state":"Pamplemousses","name":"Morcellement Saint André","lat":"-20.07199000","lon":"57.56833000"},
{"state":"Pamplemousses","name":"Notre Dame","lat":"-20.14056000","lon":"57.55306000"},
{"state":"Pamplemousses","name":"Pamplemousses","lat":"-20.10389000","lon":"57.57028000"},
{"state":"Pamplemousses","name":"Plaine des Papayes","lat":"-20.06500000","lon":"57.57250000"},
{"state":"Pamplemousses","name":"Pointe aux Piments","lat":"-20.06494000","lon":"57.52347000"},
{"state":"Pamplemousses","name":"Terre Rouge","lat":"-20.12611000","lon":"57.52444000"},
{"state":"Pamplemousses","name":"Triolet","lat":"-20.05760000","lon":"57.55025000"},
{"state":"Plaines Wilhems","name":"Beau Bassin-Rose Hill","lat":"-20.23325000","lon":"57.46609000"},
{"state":"Plaines Wilhems","name":"Curepipe","lat":"-20.31628000","lon":"57.52594000"},
{"state":"Plaines Wilhems","name":"Ebene","lat":"-20.24494000","lon":"57.49163000"},
{"state":"Plaines Wilhems","name":"Midlands","lat":"-20.31907000","lon":"57.57016000"},
{"state":"Plaines Wilhems","name":"Quatre Bornes","lat":"-20.26381000","lon":"57.47910000"},
{"state":"Plaines Wilhems","name":"Vacoas","lat":"-20.29806000","lon":"57.47833000"},
{"state":"Port Louis","name":"Port Louis","lat":"-20.16194000","lon":"57.49889000"},
{"state":"Rivière du Rempart","name":"Amaury","lat":"-20.13083000","lon":"57.65917000"},
{"state":"Rivière du Rempart","name":"Cap Malheureux","lat":"-19.98417000","lon":"57.61417000"},
{"state":"Rivière du Rempart","name":"Cottage","lat":"-20.05972000","lon":"57.62917000"},
{"state":"Rivière du Rempart","name":"Espérance Trébuchet","lat":"-20.06972000","lon":"57.64194000"},
{"state":"Rivière du Rempart","name":"Goodlands","lat":"-20.03841000","lon":"57.65055000"},
{"state":"Rivière du Rempart","name":"Grand Baie","lat":"-20.01816000","lon":"57.58015000"},
{"state":"Rivière du Rempart","name":"Grand Gaube","lat":"-20.00639000","lon":"57.66083000"},
{"state":"Rivière du Rempart","name":"Mapou","lat":"-20.07583000","lon":"57.60139000"},
{"state":"Rivière du Rempart","name":"Petit Raffray","lat":"-20.02022000","lon":"57.62296000"},
{"state":"Rivière du Rempart","name":"Piton","lat":"-20.09028000","lon":"57.63028000"},
{"state":"Rivière du Rempart","name":"Plaines des Roches","lat":"-20.11167000","lon":"57.69083000"},
{"state":"Rivière du Rempart","name":"Rivière du Rempart","lat":"-20.10306000","lon":"57.68472000"},
{"state":"Rivière du Rempart","name":"Roche Terre","lat":"-20.01861000","lon":"57.64472000"},
{"state":"Rivière du Rempart","name":"Roches Noire","lat":"-20.11111000","lon":"57.71222000"},
{"state":"Rivière du Rempart","name":"The Vale","lat":"-20.03018000","lon":"57.60219000"},
{"state":"Rodrigues Island","name":"Baie aux Huîtres","lat":"-19.69444000","lon":"63.40833000"},
{"state":"Rodrigues Island","name":"Port Mathurin","lat":"-19.68333000","lon":"63.41667000"},
{"state":"Saint Brandon Islands","name":"Cargados Carajos","lat":"-16.60329000","lon":"59.65851000"},
{"state":"Savanne","name":"Camp Diable","lat":"-20.46278000","lon":"57.57889000"},
{"state":"Savanne","name":"Chamouny","lat":"-20.48222000","lon":"57.46611000"},
{"state":"Savanne","name":"Chemin Grenier","lat":"-20.48722000","lon":"57.46556000"},
{"state":"Savanne","name":"Grand Bois","lat":"-20.41889000","lon":"57.54417000"},
{"state":"Savanne","name":"Rivière des Anguilles","lat":"-20.48528000","lon":"57.55083000"},
{"state":"Savanne","name":"Saint Aubin","lat":"-20.49600000","lon":"57.55000000"},
{"state":"Savanne","name":"Souillac","lat":"-20.51667000","lon":"57.51667000"},
{"state":"Savanne","name":"Surinam","lat":"-20.50972000","lon":"57.50528000"}]