[{"state":"Addu Atoll","name":"Hithadhoo","lat":"-0.60000000","lon":"73.08333000"},
{"state":"Addu Atoll","name":"Meedhoo","lat":"-0.58333000","lon":"73.23333000"},
{"state":"Dhaalu Atoll","name":"Kudahuvadhoo","lat":"2.67075000","lon":"72.89437000"},
{"state":"Gaafu Alif Atoll","name":"Viligili","lat":"0.75906000","lon":"73.43296000"},
{"state":"Gaafu Dhaalu Atoll","name":"Thinadhoo","lat":"0.53060000","lon":"72.99969000"},
{"state":"Gnaviyani Atoll","name":"Fuvahmulah","lat":"-0.29878000","lon":"73.42403000"},
{"state":"Haa Alif Atoll","name":"Dhidhdhoo","lat":"6.88744000","lon":"73.11402000"},
{"state":"Haa Dhaalu Atoll","name":"Kulhudhuffushi","lat":"6.62207000","lon":"73.06998000"},
{"state":"Kaafu Atoll","name":"Guraidhoo","lat":"3.90045000","lon":"73.46623000"},
{"state":"Kaafu Atoll","name":"Hulhumale","lat":"4.21169000","lon":"73.54008000"},
{"state":"Kaafu Atoll","name":"Maafushi","lat":"3.94231000","lon":"73.49070000"},
{"state":"Kaafu Atoll","name":"Male","lat":"4.17521000","lon":"73.50916000"},
{"state":"Laamu Atoll","name":"Fonadhoo","lat":"1.83243000","lon":"73.50257000"},
{"state":"Lhaviyani Atoll","name":"Naifaru","lat":"5.44438000","lon":"73.36571000"},
{"state":"Meemu Atoll","name":"Muli","lat":"2.91667000","lon":"73.56667000"},
{"state":"Noonu Atoll","name":"Manadhoo","lat":"5.76687000","lon":"73.41360000"},
{"state":"Raa Atoll","name":"Ugoofaaru","lat":"5.66812000","lon":"73.03017000"},
{"state":"Shaviyani Atoll","name":"Funadhoo","lat":"6.15091000","lon":"73.29013000"},
{"state":"South Central Province","name":"Mahibadhoo","lat":"3.75713000","lon":"72.96893000"},
{"state":"Thaa Atoll","name":"Veymandoo","lat":"2.18772000","lon":"73.09556000"},
{"state":"Vaavu Atoll","name":"Felidhoo","lat":"3.47182000","lon":"73.54699000"}]