[{"state":"Central Region","name":"Chipoka","lat":"-13.99329000","lon":"34.51566000"},
{"state":"Central Region","name":"Dedza","lat":"-14.37790000","lon":"34.33322000"},
{"state":"Central Region","name":"Dedza District","lat":"-14.26273000","lon":"34.18559000"},
{"state":"Central Region","name":"Dowa","lat":"-13.65399000","lon":"33.93754000"},
{"state":"Central Region","name":"Dowa District","lat":"-13.60098000","lon":"33.82378000"},
{"state":"Central Region","name":"Kasungu","lat":"-13.03333000","lon":"33.48333000"},
{"state":"Central Region","name":"Kasungu District","lat":"-13.00000000","lon":"33.41667000"},
{"state":"Central Region","name":"Lilongwe","lat":"-13.96692000","lon":"33.78725000"},
{"state":"Central Region","name":"Lilongwe District","lat":"-14.01962000","lon":"33.68407000"},
{"state":"Central Region","name":"Mchinji","lat":"-13.79841000","lon":"32.88019000"},
{"state":"Central Region","name":"Mchinji District","lat":"-13.76230000","lon":"33.07998000"},
{"state":"Central Region","name":"Mponela","lat":"-13.53194000","lon":"33.74008000"},
{"state":"Central Region","name":"Nkhotakota","lat":"-12.92744000","lon":"34.29614000"},
{"state":"Central Region","name":"Nkhotakota District","lat":"-12.80417000","lon":"34.08298000"},
{"state":"Central Region","name":"Ntcheu","lat":"-14.82027000","lon":"34.63586000"},
{"state":"Central Region","name":"Ntcheu District","lat":"-14.75000000","lon":"34.75000000"},
{"state":"Central Region","name":"Ntchisi","lat":"-13.52775000","lon":"33.91490000"},
{"state":"Central Region","name":"Ntchisi District","lat":"-13.29574000","lon":"33.90798000"},
{"state":"Central Region","name":"Salima","lat":"-13.78040000","lon":"34.45870000"},
{"state":"Central Region","name":"Salima District","lat":"-13.71959000","lon":"34.40184000"},
{"state":"Northern Region","name":"Chitipa","lat":"-9.70237000","lon":"33.26969000"},
{"state":"Northern Region","name":"Chitipa District","lat":"-9.92727000","lon":"33.42541000"},
{"state":"Northern Region","name":"Karonga","lat":"-9.93333000","lon":"33.93333000"},
{"state":"Northern Region","name":"Karonga District","lat":"-10.11153000","lon":"33.88151000"},
{"state":"Northern Region","name":"Likoma District","lat":"-12.06065000","lon":"34.73608000"},
{"state":"Northern Region","name":"Livingstonia","lat":"-10.60602000","lon":"34.10628000"},
{"state":"Northern Region","name":"Mzimba","lat":"-11.90000000","lon":"33.60000000"},
{"state":"Northern Region","name":"Mzimba District","lat":"-11.85428000","lon":"33.60778000"},
{"state":"Northern Region","name":"Mzuzu","lat":"-11.46556000","lon":"34.02071000"},
{"state":"Northern Region","name":"Nkhata Bay","lat":"-11.60659000","lon":"34.29073000"},
{"state":"Northern Region","name":"Nkhata Bay District","lat":"-11.65304000","lon":"34.05322000"},
{"state":"Northern Region","name":"Rumphi","lat":"-11.01863000","lon":"33.85746000"},
{"state":"Northern Region","name":"Rumphi District","lat":"-10.80292000","lon":"33.80524000"},
{"state":"Southern Region","name":"Balaka","lat":"-14.97928000","lon":"34.95575000"},
{"state":"Southern Region","name":"Balaka District","lat":"-15.04839000","lon":"35.05910000"},
{"state":"Southern Region","name":"Blantyre","lat":"-15.78499000","lon":"35.00854000"},
{"state":"Southern Region","name":"Blantyre District","lat":"-15.64732000","lon":"34.93956000"},
{"state":"Southern Region","name":"Chikwawa","lat":"-16.03352000","lon":"34.80091000"},
{"state":"Southern Region","name":"Chikwawa District","lat":"-16.16667000","lon":"34.75000000"},
{"state":"Southern Region","name":"Chiradzulu","lat":"-15.67461000","lon":"35.14071000"},
{"state":"Southern Region","name":"Chiradzulu District","lat":"-15.75268000","lon":"35.21576000"},
{"state":"Southern Region","name":"Liwonde","lat":"-15.06665000","lon":"35.22543000"},
{"state":"Southern Region","name":"Luchenza","lat":"-16.00693000","lon":"35.30947000"},
{"state":"Southern Region","name":"Machinga","lat":"-15.16849000","lon":"35.30002000"},
{"state":"Southern Region","name":"Machinga District","lat":"-14.94583000","lon":"35.57367000"},
{"state":"Southern Region","name":"Mangochi","lat":"-14.47815000","lon":"35.26448000"},
{"state":"Southern Region","name":"Mangochi District","lat":"-14.39296000","lon":"35.34658000"},
{"state":"Southern Region","name":"Monkey Bay","lat":"-14.08239000","lon":"34.91652000"},
{"state":"Southern Region","name":"Mulanje","lat":"-16.03163000","lon":"35.50000000"},
{"state":"Southern Region","name":"Mulanje District","lat":"-15.93440000","lon":"35.49990000"},
{"state":"Southern Region","name":"Mwanza","lat":"-15.60262000","lon":"34.52479000"},
{"state":"Southern Region","name":"Mwanza District","lat":"-15.63337000","lon":"34.51682000"},
{"state":"Southern Region","name":"Neno District","lat":"-15.45051000","lon":"34.70034000"},
{"state":"Southern Region","name":"Nsanje","lat":"-16.91995000","lon":"35.26199000"},
{"state":"Southern Region","name":"Nsanje District","lat":"-16.75000000","lon":"35.16667000"},
{"state":"Southern Region","name":"Phalombe","lat":"-15.80635000","lon":"35.65067000"},
{"state":"Southern Region","name":"Phalombe District","lat":"-15.66667000","lon":"35.66667000"},
{"state":"Southern Region","name":"Thyolo","lat":"-16.06775000","lon":"35.14046000"},
{"state":"Southern Region","name":"Thyolo District","lat":"-16.10583000","lon":"35.15060000"},
{"state":"Southern Region","name":"Zomba","lat":"-15.38596000","lon":"35.31880000"},
{"state":"Southern Region","name":"Zomba District","lat":"-15.43007000","lon":"35.41829000"}]