[{"name":"Balaka District","native":null,"cities":[]},{"name":"Blantyre District","native":null,"cities":[]},{"name":"Central Region","native":null,"cities":[{"name":"Chipoka","native":null,"lat":"-13.99329000","lon":"34.51566000"},{"name":"Dedza","native":null,"lat":"-14.37790000","lon":"34.33322000"},{"name":"Dedza District","native":null,"lat":"-14.26273000","lon":"34.18559000"},{"name":"Dowa","native":null,"lat":"-13.65399000","lon":"33.93754000"},{"name":"Dowa District","native":null,"lat":"-13.60098000","lon":"33.82378000"},{"name":"Kasungu","native":null,"lat":"-13.03333000","lon":"33.48333000"},{"name":"Kasungu District","native":null,"lat":"-13.00000000","lon":"33.41667000"},{"name":"Lilongwe","native":null,"lat":"-13.96692000","lon":"33.78725000"},{"name":"Lilongwe District","native":null,"lat":"-14.01962000","lon":"33.68407000"},{"name":"Mchinji","native":null,"lat":"-13.79841000","lon":"32.88019000"},{"name":"Mchinji District","native":null,"lat":"-13.76230000","lon":"33.07998000"},{"name":"Mponela","native":null,"lat":"-13.53194000","lon":"33.74008000"},{"name":"Nkhotakota","native":null,"lat":"-12.92744000","lon":"34.29614000"},{"name":"Nkhotakota District","native":null,"lat":"-12.80417000","lon":"34.08298000"},{"name":"Ntcheu","native":null,"lat":"-14.82027000","lon":"34.63586000"},{"name":"Ntcheu District","native":null,"lat":"-14.75000000","lon":"34.75000000"},{"name":"Ntchisi","native":null,"lat":"-13.52775000","lon":"33.91490000"},{"name":"Ntchisi District","native":null,"lat":"-13.29574000","lon":"33.90798000"},{"name":"Salima","native":null,"lat":"-13.78040000","lon":"34.45870000"},{"name":"Salima District","native":null,"lat":"-13.71959000","lon":"34.40184000"}]},{"name":"Chikwawa District","native":null,"cities":[]},{"name":"Chiradzulu District","native":null,"cities":[]},{"name":"Chitipa district","native":null,"cities":[]},{"name":"Dedza District","native":null,"cities":[]},{"name":"Dowa District","native":null,"cities":[]},{"name":"Karonga District","native":null,"cities":[]},{"name":"Kasungu District","native":null,"cities":[]},{"name":"Likoma District","native":null,"cities":[]},{"name":"Lilongwe District","native":null,"cities":[]},{"name":"Machinga District","native":null,"cities":[]},{"name":"Mangochi District","native":null,"cities":[]},{"name":"Mchinji District","native":null,"cities":[]},{"name":"Mulanje District","native":null,"cities":[]},{"name":"Mwanza District","native":null,"cities":[]},{"name":"Mzimba District","native":null,"cities":[]},{"name":"Nkhata Bay District","native":null,"cities":[]},{"name":"Nkhotakota District","native":null,"cities":[]},{"name":"Northern Region","native":null,"cities":[{"name":"Chitipa","native":null,"lat":"-9.70237000","lon":"33.26969000"},{"name":"Chitipa District","native":null,"lat":"-9.92727000","lon":"33.42541000"},{"name":"Karonga","native":null,"lat":"-9.93333000","lon":"33.93333000"},{"name":"Karonga District","native":null,"lat":"-10.11153000","lon":"33.88151000"},{"name":"Likoma District","native":null,"lat":"-12.06065000","lon":"34.73608000"},{"name":"Livingstonia","native":null,"lat":"-10.60602000","lon":"34.10628000"},{"name":"Mzimba","native":null,"lat":"-11.90000000","lon":"33.60000000"},{"name":"Mzimba District","native":null,"lat":"-11.85428000","lon":"33.60778000"},{"name":"Mzuzu","native":null,"lat":"-11.46556000","lon":"34.02071000"},{"name":"Nkhata Bay","native":null,"lat":"-11.60659000","lon":"34.29073000"},{"name":"Nkhata Bay District","native":null,"lat":"-11.65304000","lon":"34.05322000"},{"name":"Rumphi","native":null,"lat":"-11.01863000","lon":"33.85746000"},{"name":"Rumphi District","native":null,"lat":"-10.80292000","lon":"33.80524000"}]},{"name":"Nsanje District","native":null,"cities":[]},{"name":"Ntcheu District","native":null,"cities":[]},{"name":"Ntchisi District","native":null,"cities":[]},{"name":"Phalombe District","native":null,"cities":[]},{"name":"Rumphi District","native":null,"cities":[]},{"name":"Salima District","native":null,"cities":[]},{"name":"Southern Region","native":null,"cities":[{"name":"Balaka","native":null,"lat":"-14.97928000","lon":"34.95575000"},{"name":"Balaka District","native":null,"lat":"-15.04839000","lon":"35.05910000"},{"name":"Blantyre","native":null,"lat":"-15.78499000","lon":"35.00854000"},{"name":"Blantyre District","native":null,"lat":"-15.64732000","lon":"34.93956000"},{"name":"Chikwawa","native":null,"lat":"-16.03352000","lon":"34.80091000"},{"name":"Chikwawa District","native":null,"lat":"-16.16667000","lon":"34.75000000"},{"name":"Chiradzulu","native":null,"lat":"-15.67461000","lon":"35.14071000"},{"name":"Chiradzulu District","native":null,"lat":"-15.75268000","lon":"35.21576000"},{"name":"Liwonde","native":null,"lat":"-15.06665000","lon":"35.22543000"},{"name":"Luchenza","native":null,"lat":"-16.00693000","lon":"35.30947000"},{"name":"Machinga","native":null,"lat":"-15.16849000","lon":"35.30002000"},{"name":"Machinga District","native":null,"lat":"-14.94583000","lon":"35.57367000"},{"name":"Mangochi","native":null,"lat":"-14.47815000","lon":"35.26448000"},{"name":"Mangochi District","native":null,"lat":"-14.39296000","lon":"35.34658000"},{"name":"Monkey Bay","native":null,"lat":"-14.08239000","lon":"34.91652000"},{"name":"Mulanje","native":null,"lat":"-16.03163000","lon":"35.50000000"},{"name":"Mulanje District","native":null,"lat":"-15.93440000","lon":"35.49990000"},{"name":"Mwanza","native":null,"lat":"-15.60262000","lon":"34.52479000"},{"name":"Mwanza District","native":null,"lat":"-15.63337000","lon":"34.51682000"},{"name":"Neno District","native":null,"lat":"-15.45051000","lon":"34.70034000"},{"name":"Nsanje","native":null,"lat":"-16.91995000","lon":"35.26199000"},{"name":"Nsanje District","native":null,"lat":"-16.75000000","lon":"35.16667000"},{"name":"Phalombe","native":null,"lat":"-15.80635000","lon":"35.65067000"},{"name":"Phalombe District","native":null,"lat":"-15.66667000","lon":"35.66667000"},{"name":"Thyolo","native":null,"lat":"-16.06775000","lon":"35.14046000"},{"name":"Thyolo District","native":null,"lat":"-16.10583000","lon":"35.15060000"},{"name":"Zomba","native":null,"lat":"-15.38596000","lon":"35.31880000"},{"name":"Zomba District","native":null,"lat":"-15.43007000","lon":"35.41829000"}]},{"name":"Thyolo District","native":null,"cities":[]},{"name":"Zomba District","native":null,"cities":[]}]