[{"state":"Aguascalientes","name":"Aguascalientes","lat":"21.88333000","lon":"-102.30000000"},
{"state":"Aguascalientes","name":"Arboledas Paso Blanco [Fraccionamiento]","lat":"21.96361000","lon":"-102.30194000"},
{"state":"Aguascalientes","name":"Arellano","lat":"21.80106000","lon":"-102.27384000"},
{"state":"Aguascalientes","name":"Asientos","lat":"22.23333000","lon":"-102.08333000"},
{"state":"Aguascalientes","name":"Bimbaletes Aguascalientes (El Álamo)","lat":"22.23444000","lon":"-102.01917000"},
{"state":"Aguascalientes","name":"Calvillo","lat":"21.85000000","lon":"-102.71666000"},
{"state":"Aguascalientes","name":"Carboneras","lat":"22.18311000","lon":"-102.24601000"},
{"state":"Aguascalientes","name":"Cartagena [Fraccionamiento]","lat":"21.95639000","lon":"-102.27639000"},
{"state":"Aguascalientes","name":"Centro de Arriba","lat":"21.73123000","lon":"-102.49888000"},
{"state":"Aguascalientes","name":"Ciénega Grande","lat":"22.19434000","lon":"-102.01940000"},
{"state":"Aguascalientes","name":"Corral de Barrancos","lat":"21.95028000","lon":"-102.33222000"},
{"state":"Aguascalientes","name":"Cosío","lat":"22.36667000","lon":"-102.30000000"},
{"state":"Aguascalientes","name":"Cotorina","lat":"21.75154000","lon":"-102.26832000"},
{"state":"Aguascalientes","name":"Crucero Las Pilas","lat":"21.82722000","lon":"-102.76033000"},
{"state":"Aguascalientes","name":"Cumbres III","lat":"21.92222000","lon":"-102.23750000"},
{"state":"Aguascalientes","name":"Ejido la Guayana (Rancho Seco)","lat":"21.98028000","lon":"-102.27306000"},
{"state":"Aguascalientes","name":"El Bajío","lat":"22.24558000","lon":"-102.30825000"},
{"state":"Aguascalientes","name":"El Chayote","lat":"22.28667000","lon":"-102.23900000"},
{"state":"Aguascalientes","name":"El Cuervero (Cuerveros)","lat":"21.86056000","lon":"-102.68389000"},
{"state":"Aguascalientes","name":"El Llano","lat":"21.91667000","lon":"-101.96666000"},
{"state":"Aguascalientes","name":"El Refugio de Peñuelas","lat":"21.71635000","lon":"-102.28941000"},
{"state":"Aguascalientes","name":"El Refugio de Providencia (Providencia)","lat":"22.34667000","lon":"-102.25778000"},
{"state":"Aguascalientes","name":"El Salero","lat":"22.38706000","lon":"-102.32323000"},
{"state":"Aguascalientes","name":"El Tule","lat":"22.08438000","lon":"-102.09100000"},
{"state":"Aguascalientes","name":"Emiliano Zapata","lat":"22.10635000","lon":"-102.30056000"},
{"state":"Aguascalientes","name":"Escaleras","lat":"22.25054000","lon":"-102.33377000"},
{"state":"Aguascalientes","name":"Ex-Viñedos Guadalupe","lat":"21.95944000","lon":"-102.27417000"},
{"state":"Aguascalientes","name":"General Ignacio Zaragoza","lat":"21.88136000","lon":"-102.46454000"},
{"state":"Aguascalientes","name":"Guadalupe de Atlas","lat":"22.26653000","lon":"-102.03118000"},
{"state":"Aguascalientes","name":"Jaltiche de Arriba","lat":"21.77525000","lon":"-102.78849000"},
{"state":"Aguascalientes","name":"Jaltomate","lat":"22.01528000","lon":"-102.14583000"},
{"state":"Aguascalientes","name":"Jarillas","lat":"22.29611000","lon":"-102.06333000"},
{"state":"Aguascalientes","name":"Jesús Gómez Portugal","lat":"21.99607000","lon":"-102.29095000"},
{"state":"Aguascalientes","name":"Jesús Gómez Portugal (Margaritas)","lat":"21.99917000","lon":"-102.29139000"},
{"state":"Aguascalientes","name":"Jesús María","lat":"21.96667000","lon":"-102.35000000"},
{"state":"Aguascalientes","name":"La Concepción","lat":"22.03537000","lon":"-102.29989000"},
{"state":"Aguascalientes","name":"La Escondida","lat":"22.03573000","lon":"-102.25931000"},
{"state":"Aguascalientes","name":"La Labor","lat":"21.96207000","lon":"-102.69626000"},
{"state":"Aguascalientes","name":"La Loma de los Negritos","lat":"21.87056000","lon":"-102.35000000"},
{"state":"Aguascalientes","name":"La Panadera","lat":"21.86398000","lon":"-102.69832000"},
{"state":"Aguascalientes","name":"La Punta","lat":"22.32411000","lon":"-102.29212000"},
{"state":"Aguascalientes","name":"Las Ánimas","lat":"22.09057000","lon":"-102.26684000"},
{"state":"Aguascalientes","name":"Las Norias de Ojocaliente","lat":"21.88944000","lon":"-102.21738000"},
{"state":"Aguascalientes","name":"Lázaro Cárdenas","lat":"22.17137000","lon":"-102.02704000"},
{"state":"Aguascalientes","name":"Los Arquitos","lat":"21.92299000","lon":"-102.38554000"},
{"state":"Aguascalientes","name":"Los Caños","lat":"21.78167000","lon":"-102.46750000"},
{"state":"Aguascalientes","name":"Los Conos","lat":"21.89739000","lon":"-101.99487000"},
{"state":"Aguascalientes","name":"Macario J. Gómez [Colonia]","lat":"21.98056000","lon":"-102.25139000"},
{"state":"Aguascalientes","name":"Malpaso","lat":"21.85896000","lon":"-102.66441000"},
{"state":"Aguascalientes","name":"Maravillas","lat":"21.95408000","lon":"-102.32982000"},
{"state":"Aguascalientes","name":"Mesa Grande","lat":"21.80529000","lon":"-102.72181000"},
{"state":"Aguascalientes","name":"Miravalle","lat":"21.97250000","lon":"-102.31139000"},
{"state":"Aguascalientes","name":"Molinos","lat":"22.16278000","lon":"-102.09472000"},
{"state":"Aguascalientes","name":"Montoro","lat":"21.75603000","lon":"-102.30219000"},
{"state":"Aguascalientes","name":"Noria del Borrego (Norias)","lat":"22.28722000","lon":"-102.04194000"},
{"state":"Aguascalientes","name":"Norias del Paso Hondo","lat":"21.86177000","lon":"-102.20681000"},
{"state":"Aguascalientes","name":"Ojo de Agua de Crucitas","lat":"21.96426000","lon":"-101.95202000"},
{"state":"Aguascalientes","name":"Ojocaliente","lat":"21.87390000","lon":"-102.67684000"},
{"state":"Aguascalientes","name":"Pabellón de Arteaga","lat":"22.15000000","lon":"-102.26666000"},
{"state":"Aguascalientes","name":"Pabellón de Hidalgo","lat":"22.17871000","lon":"-102.34014000"},
{"state":"Aguascalientes","name":"Palo Alto","lat":"21.91801000","lon":"-101.96453000"},
{"state":"Aguascalientes","name":"Paredes","lat":"22.14958000","lon":"-102.48232000"},
{"state":"Aguascalientes","name":"Paseos de la Providencia [Fraccionamiento]","lat":"22.02425000","lon":"-102.27711000"},
{"state":"Aguascalientes","name":"Paseos de las Haciendas [Fraccionamiento]","lat":"21.99222000","lon":"-102.34361000"},
{"state":"Aguascalientes","name":"Paso Blanco","lat":"21.97361000","lon":"-102.31694000"},
{"state":"Aguascalientes","name":"Peñuelas (El Cienegal)","lat":"21.72250000","lon":"-102.27583000"},
{"state":"Aguascalientes","name":"Pilotos","lat":"22.03722000","lon":"-101.95917000"},
{"state":"Aguascalientes","name":"Pocitos","lat":"21.92167000","lon":"-102.33472000"},
{"state":"Aguascalientes","name":"Puertecito de la Virgen","lat":"21.96028000","lon":"-102.26889000"},
{"state":"Aguascalientes","name":"Rincón de Romos","lat":"22.23333000","lon":"-102.31666000"},
{"state":"Aguascalientes","name":"San Antonio","lat":"22.22823000","lon":"-102.25034000"},
{"state":"Aguascalientes","name":"San Antonio de los Horcones","lat":"21.99832000","lon":"-102.32663000"},
{"state":"Aguascalientes","name":"San Antonio de los Ríos","lat":"22.16104000","lon":"-102.47118000"},
{"state":"Aguascalientes","name":"San Antonio de Peñuelas","lat":"21.67471000","lon":"-102.30010000"},
{"state":"Aguascalientes","name":"San Francisco de los Romo","lat":"22.03307000","lon":"-102.22902000"},
{"state":"Aguascalientes","name":"San Ignacio","lat":"21.89269000","lon":"-102.33974000"},
{"state":"Aguascalientes","name":"San Jacinto","lat":"22.34861000","lon":"-102.23361000"},
{"state":"Aguascalientes","name":"San José de Gracia","lat":"22.15000000","lon":"-102.41666000"},
{"state":"Aguascalientes","name":"San Luis de Letras","lat":"22.13551000","lon":"-102.29729000"},
{"state":"Aguascalientes","name":"San Sebastián [Fraccionamiento]","lat":"21.82139000","lon":"-102.27111000"},
{"state":"Aguascalientes","name":"San Tadeo","lat":"21.91954000","lon":"-102.70043000"},
{"state":"Aguascalientes","name":"Santa Isabel [Fraccionamiento]","lat":"22.08111000","lon":"-102.26778000"},
{"state":"Aguascalientes","name":"Santa María de la Paz","lat":"22.38786000","lon":"-102.25697000"},
{"state":"Aguascalientes","name":"Santa Rosa (El Huizache)","lat":"21.93500000","lon":"-102.02194000"},
{"state":"Aguascalientes","name":"Santiago","lat":"22.11948000","lon":"-102.33769000"},
{"state":"Aguascalientes","name":"Tepetates","lat":"21.95667000","lon":"-102.32167000"},
{"state":"Aguascalientes","name":"Tepezalá","lat":"22.21667000","lon":"-102.16666000"},
{"state":"Aguascalientes","name":"Valladolid","lat":"22.02111000","lon":"-102.31500000"},
{"state":"Aguascalientes","name":"Valle Huejúcar (Fraccionamiento Popular) [Fraccionamiento]","lat":"21.83111000","lon":"-102.75028000"},
{"state":"Aguascalientes","name":"Villa Juárez","lat":"22.09447000","lon":"-102.06930000"},
{"state":"Aguascalientes","name":"Villa Licenciado Jesús Terán (Calvillito)","lat":"21.82528000","lon":"-102.18778000"},
{"state":"Baja California","name":"Alfonso Garzón [Granjas Familiares]","lat":"32.54667000","lon":"-116.61722000"},
{"state":"Baja California","name":"Benito García (El Zorrillo)","lat":"31.67111000","lon":"-116.51139000"},
{"state":"Baja California","name":"Benito Juárez","lat":"32.56852000","lon":"-114.99422000"},
{"state":"Baja California","name":"Buenos Aires","lat":"32.42278000","lon":"-116.94111000"},
{"state":"Baja California","name":"Camalú","lat":"30.84222000","lon":"-116.06328000"},
{"state":"Baja California","name":"Cereso del Hongo","lat":"32.48417000","lon":"-116.25056000"},
{"state":"Baja California","name":"Ciudad Coahuila (Kilómetro Cincuenta y Siete)","lat":"32.19556000","lon":"-115.00250000"},
{"state":"Baja California","name":"Ciudad Morelos","lat":"32.34389000","lon":"-117.01056000"},
{"state":"Baja California","name":"Colinas del Sol","lat":"32.40306000","lon":"-117.03056000"},
{"state":"Baja California","name":"Colonia Gómez Morín","lat":"31.88167000","lon":"-116.54389000"},
{"state":"Baja California","name":"Colonia Lomas de San Ramón (Triquis)","lat":"30.70167000","lon":"-116.00278000"},
{"state":"Baja California","name":"Colonia Nueva Era","lat":"30.50667000","lon":"-115.92250000"},
{"state":"Baja California","name":"Colonia Venustiano Carranza","lat":"32.23700000","lon":"-115.16656000"},
{"state":"Baja California","name":"Delta","lat":"32.35497000","lon":"-115.19617000"},
{"state":"Baja California","name":"Doctor Alberto Oviedo Mota","lat":"32.22756000","lon":"-115.16792000"},
{"state":"Baja California","name":"Durango","lat":"32.24865000","lon":"-115.25227000"},
{"state":"Baja California","name":"Ejido Doctor Alberto Oviedo Mota (El Indiviso)","lat":"32.02444000","lon":"-114.98361000"},
{"state":"Baja California","name":"Ejido General Leandro Valle","lat":"30.62167000","lon":"-115.96583000"},
{"state":"Baja California","name":"Ejido Javier Rojo Gómez","lat":"32.49389000","lon":"-116.82222000"},
{"state":"Baja California","name":"Ejido Jiquilpan","lat":"32.50131000","lon":"-115.06382000"},
{"state":"Baja California","name":"Ejido Lázaro Cárdenas","lat":"32.60794000","lon":"-115.02076000"},
{"state":"Baja California","name":"Ejido Michoacán de Ocampo","lat":"32.46512000","lon":"-115.31003000"},
{"state":"Baja California","name":"Ejido Netzahualcóyotl","lat":"32.62444000","lon":"-115.06222000"},
{"state":"Baja California","name":"Ejido Nuevo León","lat":"32.41103000","lon":"-115.18827000"},
{"state":"Baja California","name":"Ejido Ojo de Agua","lat":"32.47556000","lon":"-116.78917000"},
{"state":"Baja California","name":"Ejido Pátzcuaro","lat":"32.35139000","lon":"-115.06583000"},
{"state":"Baja California","name":"Ejido Plan de Ayala","lat":"32.22023000","lon":"-115.03158000"},
{"state":"Baja California","name":"Ejido Quintana Roo","lat":"32.46844000","lon":"-115.08250000"},
{"state":"Baja California","name":"Ejido Saltillo","lat":"32.42430000","lon":"-115.12480000"},
{"state":"Baja California","name":"Ejido Sinaloa","lat":"32.54734000","lon":"-115.27041000"},
{"state":"Baja California","name":"Ejido Sonora","lat":"32.28749000","lon":"-115.23134000"},
{"state":"Baja California","name":"Ejido Tabasco","lat":"32.56187000","lon":"-114.92659000"},
{"state":"Baja California","name":"Ejido Toluca","lat":"32.43050000","lon":"-115.08316000"},
{"state":"Baja California","name":"Ejido Vicente Guerrero","lat":"32.39593000","lon":"-115.14026000"},
{"state":"Baja California","name":"Ejido Yucatán","lat":"32.60435000","lon":"-115.09380000"},
{"state":"Baja California","name":"El Niño","lat":"32.50750000","lon":"-116.79194000"},
{"state":"Baja California","name":"El Porvenir","lat":"32.07606000","lon":"-116.62473000"},
{"state":"Baja California","name":"El Rosario de Arriba","lat":"30.05984000","lon":"-115.72448000"},
{"state":"Baja California","name":"El Sauzal de Rodríguez","lat":"31.89329000","lon":"-116.69256000"},
{"state":"Baja California","name":"Emiliano Zapata","lat":"30.75417000","lon":"-116.00306000"},
{"state":"Baja California","name":"Ensenada","lat":"31.86667000","lon":"-116.61666000"},
{"state":"Baja California","name":"Estación Coahuila","lat":"32.19304000","lon":"-114.99933000"},
{"state":"Baja California","name":"Estación Pescaderos","lat":"32.31196000","lon":"-115.13823000"},
{"state":"Baja California","name":"Fraccionamiento del Valle","lat":"31.91139000","lon":"-116.26056000"},
{"state":"Baja California","name":"Francisco Zarco","lat":"32.09872000","lon":"-116.56863000"},
{"state":"Baja California","name":"Guadalupe Victoria","lat":"32.28924000","lon":"-115.10534000"},
{"state":"Baja California","name":"Guerrero Negro","lat":"27.96891000","lon":"-114.04427000"},
{"state":"Baja California","name":"Hacienda Tecate","lat":"32.56500000","lon":"-116.52500000"},
{"state":"Baja California","name":"Hermosillo","lat":"32.51097000","lon":"-114.92278000"},
{"state":"Baja California","name":"Islas Agrarias Grupo A","lat":"32.61096000","lon":"-115.33151000"},
{"state":"Baja California","name":"Islas Agrarias Grupo B","lat":"32.60034000","lon":"-115.27172000"},
{"state":"Baja California","name":"La Esperanza [Granjas Familiares]","lat":"32.46278000","lon":"-117.10500000"},
{"state":"Baja California","name":"La Providencia","lat":"30.96889000","lon":"-116.15861000"},
{"state":"Baja California","name":"Las Brisas","lat":"30.96056000","lon":"-116.16444000"},
{"state":"Baja California","name":"Las Delicias","lat":"32.40889000","lon":"-116.94361000"},
{"state":"Baja California","name":"Lázaro Cárdenas","lat":"30.52815000","lon":"-115.92617000"},
{"state":"Baja California","name":"Licenciado Gustavo Díaz Ordaz","lat":"30.97506000","lon":"-116.15565000"},
{"state":"Baja California","name":"Lomas de Santa Anita","lat":"32.54278000","lon":"-116.65139000"},
{"state":"Baja California","name":"Lomas de Tlatelolco","lat":"32.48306000","lon":"-116.80167000"},
{"state":"Baja California","name":"Los Algodones","lat":"32.70000000","lon":"-114.73333000"},
{"state":"Baja California","name":"Los Valles","lat":"32.39250000","lon":"-116.95500000"},
{"state":"Baja California","name":"Luis Rodríguez (El Vergel)","lat":"30.40722000","lon":"-115.88722000"},
{"state":"Baja California","name":"Maclovio Herrera (Colonia Aviación)","lat":"32.54194000","lon":"-116.63611000"},
{"state":"Baja California","name":"Maclovio Rojas","lat":"32.47306000","lon":"-116.80278000"},
{"state":"Baja California","name":"Mexicali","lat":"32.50513000","lon":"-115.14771000"},
{"state":"Baja California","name":"Playas de Rosarito","lat":"32.34342000","lon":"-117.03186000"},
{"state":"Baja California","name":"Poblado Chulavista (El Chorizo)","lat":"30.74722000","lon":"-116.00306000"},
{"state":"Baja California","name":"Poblado Lázaro Cárdenas (La Veintiocho)","lat":"32.37333000","lon":"-115.06528000"},
{"state":"Baja California","name":"Pórticos de San Antonio","lat":"32.44250000","lon":"-117.03417000"},
{"state":"Baja California","name":"Primo Tapia","lat":"32.22226000","lon":"-116.91390000"},
{"state":"Baja California","name":"Progreso","lat":"32.58039000","lon":"-115.58479000"},
{"state":"Baja California","name":"Puebla","lat":"32.56654000","lon":"-115.35340000"},
{"state":"Baja California","name":"Pueblo Benito García","lat":"30.51583000","lon":"-115.93278000"},
{"state":"Baja California","name":"Quinta del Cedro","lat":"32.43750000","lon":"-117.06583000"},
{"state":"Baja California","name":"Rancho La Gloria","lat":"32.44619000","lon":"-117.00103000"},
{"state":"Baja California","name":"Rancho Verde","lat":"31.91611000","lon":"-116.58833000"},
{"state":"Baja California","name":"Rodolfo Sánchez Taboada","lat":"31.72099000","lon":"-116.57184000"},
{"state":"Baja California","name":"Rosarito","lat":"32.36044000","lon":"-117.04645000"},
{"state":"Baja California","name":"Rumorosa","lat":"32.52396000","lon":"-116.05397000"},
{"state":"Baja California","name":"Salvador Rosas Magallón","lat":"31.90139000","lon":"-116.54778000"},
{"state":"Baja California","name":"San Felipe","lat":"31.02468000","lon":"-114.83919000"},
{"state":"Baja California","name":"San Luis","lat":"32.43167000","lon":"-116.95361000"},
{"state":"Baja California","name":"San Quintín","lat":"30.57228000","lon":"-115.94607000"},
{"state":"Baja California","name":"San Vicente","lat":"31.32518000","lon":"-116.24662000"},
{"state":"Baja California","name":"Santa Anita","lat":"32.10083000","lon":"-116.86917000"},
{"state":"Baja California","name":"Santa Fé","lat":"30.67984000","lon":"-115.97653000"},
{"state":"Baja California","name":"Santa Isabel","lat":"32.63330000","lon":"-115.57605000"},
{"state":"Baja California","name":"Tecate","lat":"32.55029000","lon":"-116.63223000"},
{"state":"Baja California","name":"Tecolots","lat":"32.56667000","lon":"-114.98333000"},
{"state":"Baja California","name":"Terrazas del Valle","lat":"32.48750000","lon":"-116.82667000"},
{"state":"Baja California","name":"Tijuana","lat":"32.50223000","lon":"-116.97212000"},
{"state":"Baja California","name":"Vicente Guerrero","lat":"30.73097000","lon":"-115.99071000"},
{"state":"Baja California","name":"Villa del Campo","lat":"32.50750000","lon":"-116.73833000"},
{"state":"Baja California","name":"Villa del Prado 2da Sección","lat":"32.42389000","lon":"-116.97167000"},
{"state":"Baja California","name":"Viñas del Sol","lat":"32.62694000","lon":"-115.54667000"},
{"state":"Baja California Sur","name":"Bahía Asunción","lat":"27.14231000","lon":"-114.29582000"},
{"state":"Baja California Sur","name":"Bahía Tortugas","lat":"27.69056000","lon":"-114.89660000"},
{"state":"Baja California Sur","name":"Cabo San Lucas","lat":"22.89088000","lon":"-109.91238000"},
{"state":"Baja California Sur","name":"Chametla","lat":"24.09926000","lon":"-110.37395000"},
{"state":"Baja California Sur","name":"Ciudad Constitución","lat":"25.03210000","lon":"-111.66256000"},
{"state":"Baja California Sur","name":"Ciudad Insurgentes","lat":"25.26345000","lon":"-111.77444000"},
{"state":"Baja California Sur","name":"Colonia del Sol","lat":"22.91273000","lon":"-109.92655000"},
{"state":"Baja California Sur","name":"Comondú","lat":"26.06667000","lon":"-111.81666000"},
{"state":"Baja California Sur","name":"El Centenario","lat":"24.10250000","lon":"-110.41444000"},
{"state":"Baja California Sur","name":"El Pescadero","lat":"23.36417000","lon":"-110.16833000"},
{"state":"Baja California Sur","name":"El Silencio","lat":"27.46801000","lon":"-113.29987000"},
{"state":"Baja California Sur","name":"La Paz","lat":"24.14437000","lon":"-110.30050000"},
{"state":"Baja California Sur","name":"La Playa","lat":"23.06417000","lon":"-109.66833000"},
{"state":"Baja California Sur","name":"La Rivera","lat":"23.59458000","lon":"-109.58523000"},
{"state":"Baja California Sur","name":"Las Margaritas","lat":"27.61833000","lon":"-113.45361000"},
{"state":"Baja California Sur","name":"Las Palmas","lat":"22.93672000","lon":"-109.94235000"},
{"state":"Baja California Sur","name":"Las Veredas","lat":"23.15028000","lon":"-109.70611000"},
{"state":"Baja California Sur","name":"Loreto","lat":"26.01217000","lon":"-111.34888000"},
{"state":"Baja California Sur","name":"Los Barriles","lat":"23.68273000","lon":"-109.69953000"},
{"state":"Baja California Sur","name":"Los Cabos","lat":"23.27663000","lon":"-109.75322000"},
{"state":"Baja California Sur","name":"Melitón Albáñez Domínguez","lat":"23.66139000","lon":"-110.42083000"},
{"state":"Baja California Sur","name":"Miraflores","lat":"23.36975000","lon":"-109.77436000"},
{"state":"Baja California Sur","name":"Mulegé","lat":"26.60000000","lon":"-112.33333000"},
{"state":"Baja California Sur","name":"Puerto Adolfo Lopez Mateos","lat":"25.19224000","lon":"-112.11680000"},
{"state":"Baja California Sur","name":"Puerto San Carlos","lat":"24.78874000","lon":"-112.10504000"},
{"state":"Baja California Sur","name":"San Francisco","lat":"27.64500000","lon":"-113.41917000"},
{"state":"Baja California Sur","name":"San José del Cabo","lat":"23.05888000","lon":"-109.69771000"},
{"state":"Baja California Sur","name":"Santa Rosalía","lat":"27.34045000","lon":"-112.26761000"},
{"state":"Baja California Sur","name":"Todos Santos","lat":"23.44688000","lon":"-110.22308000"},
{"state":"Baja California Sur","name":"Villa Alberto Andrés Alvarado Arámburo","lat":"27.64444000","lon":"-113.38472000"},
{"state":"Baja California Sur","name":"Villa Morelos","lat":"24.93000000","lon":"-111.62806000"},
{"state":"Campeche","name":"Abelardo L. Rodríguez","lat":"18.72842000","lon":"-90.90456000"},
{"state":"Campeche","name":"Alfredo V. Bonfil","lat":"19.53032000","lon":"-90.18214000"},
{"state":"Campeche","name":"Altamira de Zináparo","lat":"18.58208000","lon":"-90.25610000"},
{"state":"Campeche","name":"Atasta","lat":"18.61954000","lon":"-92.10326000"},
{"state":"Campeche","name":"Bacabchén","lat":"20.28903000","lon":"-90.05602000"},
{"state":"Campeche","name":"Bécal","lat":"20.44172000","lon":"-90.02738000"},
{"state":"Campeche","name":"Benito Juárez Uno","lat":"18.27695000","lon":"-91.09914000"},
{"state":"Campeche","name":"Bolonchén de Rejón","lat":"20.00386000","lon":"-89.74663000"},
{"state":"Campeche","name":"Calakmul","lat":"18.00000000","lon":"-89.75000000"},
{"state":"Campeche","name":"Calkiní","lat":"20.38583000","lon":"-89.98764000"},
{"state":"Campeche","name":"Campeche","lat":"19.84386000","lon":"-90.52554000"},
{"state":"Campeche","name":"Candelaria","lat":"18.00000000","lon":"-90.75000000"},
{"state":"Campeche","name":"Carmen","lat":"18.63000000","lon":"-91.83000000"},
{"state":"Campeche","name":"Carrillo Puerto","lat":"19.09400000","lon":"-90.52279000"},
{"state":"Campeche","name":"Castamay","lat":"19.83782000","lon":"-90.43181000"},
{"state":"Campeche","name":"Champotón","lat":"19.35042000","lon":"-90.70991000"},
{"state":"Campeche","name":"Chicbul","lat":"18.77558000","lon":"-90.92429000"},
{"state":"Campeche","name":"Chiná","lat":"19.76993000","lon":"-90.49595000"},
{"state":"Campeche","name":"Chunchintok","lat":"19.36145000","lon":"-89.58218000"},
{"state":"Campeche","name":"Ciudad del Carmen","lat":"18.64592000","lon":"-91.82991000"},
{"state":"Campeche","name":"Colonia Emiliano Zapata","lat":"18.66504000","lon":"-92.31088000"},
{"state":"Campeche","name":"Constitución","lat":"18.62675000","lon":"-90.13584000"},
{"state":"Campeche","name":"Cumpich","lat":"20.18612000","lon":"-89.97081000"},
{"state":"Campeche","name":"División del Norte","lat":"18.52946000","lon":"-90.76416000"},
{"state":"Campeche","name":"Don Samuel","lat":"18.36000000","lon":"-90.85722000"},
{"state":"Campeche","name":"Dzibalchén","lat":"19.45847000","lon":"-89.73111000"},
{"state":"Campeche","name":"Dzitbalché","lat":"20.31857000","lon":"-90.05611000"},
{"state":"Campeche","name":"El Aguacatal","lat":"18.21361000","lon":"-91.51095000"},
{"state":"Campeche","name":"El Naranjo","lat":"18.02193000","lon":"-91.12654000"},
{"state":"Campeche","name":"Escárcega","lat":"18.61404000","lon":"-90.72870000"},
{"state":"Campeche","name":"Hampolol","lat":"19.92716000","lon":"-90.38924000"},
{"state":"Campeche","name":"Haro","lat":"18.44418000","lon":"-90.79153000"},
{"state":"Campeche","name":"Hecelchakán","lat":"20.16667000","lon":"-90.13333000"},
{"state":"Campeche","name":"Hool","lat":"19.51294000","lon":"-90.44631000"},
{"state":"Campeche","name":"Hopelchén","lat":"19.74671000","lon":"-89.84437000"},
{"state":"Campeche","name":"Isla Aguada","lat":"18.78714000","lon":"-91.49277000"},
{"state":"Campeche","name":"Iturbide","lat":"19.57903000","lon":"-89.60222000"},
{"state":"Campeche","name":"La Joya","lat":"19.48028000","lon":"-90.67333000"},
{"state":"Campeche","name":"La Libertad","lat":"18.57042000","lon":"-90.51399000"},
{"state":"Campeche","name":"Lerma","lat":"19.80404000","lon":"-90.60088000"},
{"state":"Campeche","name":"Licenciado Gustavo Díaz Ordaz (18 de Marzo)","lat":"18.63222000","lon":"-91.00278000"},
{"state":"Campeche","name":"Los Laureles","lat":"19.48778000","lon":"-89.99444000"},
{"state":"Campeche","name":"Mamantel","lat":"18.52512000","lon":"-91.08885000"},
{"state":"Campeche","name":"Matamoros","lat":"18.58414000","lon":"-90.64669000"},
{"state":"Campeche","name":"Maya Tecún I","lat":"19.15292000","lon":"-90.50641000"},
{"state":"Campeche","name":"Nuevo Progreso","lat":"18.62294000","lon":"-92.29124000"},
{"state":"Campeche","name":"Nunkiní","lat":"20.40046000","lon":"-90.14803000"},
{"state":"Campeche","name":"Palizada","lat":"18.25261000","lon":"-92.07779000"},
{"state":"Campeche","name":"Pich","lat":"19.48568000","lon":"-90.11795000"},
{"state":"Campeche","name":"Pocboc","lat":"20.23541000","lon":"-90.10219000"},
{"state":"Campeche","name":"Pomuch","lat":"20.13727000","lon":"-90.17488000"},
{"state":"Campeche","name":"Sabancuy","lat":"18.97270000","lon":"-91.17783000"},
{"state":"Campeche","name":"San Antonio Cárdenas","lat":"18.61399000","lon":"-92.22341000"},
{"state":"Campeche","name":"San Antonio Sahcabchén","lat":"20.30696000","lon":"-90.13778000"},
{"state":"Campeche","name":"San Francisco Kobén","lat":"19.91516000","lon":"-90.41709000"},
{"state":"Campeche","name":"San Pablo Pixtún","lat":"19.13361000","lon":"-90.73194000"},
{"state":"Campeche","name":"Santa Cruz","lat":"20.20339000","lon":"-90.11771000"},
{"state":"Campeche","name":"Santa Cruz Ex-Hacienda","lat":"20.39684000","lon":"-90.24068000"},
{"state":"Campeche","name":"Santa Cruz Pueblo","lat":"20.33359000","lon":"-90.10342000"},
{"state":"Campeche","name":"Santo Domingo Kesté","lat":"19.49972000","lon":"-90.51139000"},
{"state":"Campeche","name":"Seybaplaya","lat":"19.63994000","lon":"-90.68706000"},
{"state":"Campeche","name":"Sihochac","lat":"19.50120000","lon":"-90.58472000"},
{"state":"Campeche","name":"Suc-Tuc","lat":"19.71259000","lon":"-90.03768000"},
{"state":"Campeche","name":"Tankuché","lat":"20.50743000","lon":"-90.24164000"},
{"state":"Campeche","name":"Tenabo","lat":"19.83333000","lon":"-90.00000000"},
{"state":"Campeche","name":"Tepakán","lat":"20.39716000","lon":"-90.04075000"},
{"state":"Campeche","name":"Tikinmul","lat":"19.76611000","lon":"-90.22306000"},
{"state":"Campeche","name":"Ukúm","lat":"19.24197000","lon":"-89.33529000"},
{"state":"Campeche","name":"Villa Madero","lat":"19.52833000","lon":"-90.69917000"},
{"state":"Campeche","name":"Xbacab","lat":"18.94139000","lon":"-90.72194000"},
{"state":"Campeche","name":"Xmabén","lat":"19.23530000","lon":"-89.31426000"},
{"state":"Campeche","name":"Xpujil","lat":"18.50760000","lon":"-89.39437000"},
{"state":"Campeche","name":"Zoh-Laguna","lat":"18.59306000","lon":"-89.41714000"},
{"state":"Chiapas","name":"1ra. Sección de Izapa","lat":"14.92083000","lon":"-92.17083000"},
{"state":"Chiapas","name":"2da. Sección de Medio Monte","lat":"14.88194000","lon":"-92.18444000"},
{"state":"Chiapas","name":"Abasolo","lat":"16.82140000","lon":"-92.21611000"},
{"state":"Chiapas","name":"Acacoyagua","lat":"15.41414000","lon":"-92.68169000"},
{"state":"Chiapas","name":"Acala","lat":"16.55625000","lon":"-92.80449000"},
{"state":"Chiapas","name":"Acapetahua","lat":"15.28189000","lon":"-92.68987000"},
{"state":"Chiapas","name":"Adolfo López Mateos","lat":"17.21600000","lon":"-93.47895000"},
{"state":"Chiapas","name":"Agrónomos Mexicanos","lat":"16.35000000","lon":"-93.53000000"},
{"state":"Chiapas","name":"Agua Azul","lat":"16.81432000","lon":"-91.52391000"},
{"state":"Chiapas","name":"Agua Blanca Serranía","lat":"17.26781000","lon":"-91.83564000"},
{"state":"Chiapas","name":"Agua Zarca","lat":"15.63417000","lon":"-92.14472000"},
{"state":"Chiapas","name":"Aguacatenango","lat":"16.47388000","lon":"-92.40875000"},
{"state":"Chiapas","name":"Agustín de Iturbide","lat":"15.07523000","lon":"-92.19858000"},
{"state":"Chiapas","name":"Ahuacatlán","lat":"15.04030000","lon":"-92.18036000"},
{"state":"Chiapas","name":"Ajilhó","lat":"16.98376000","lon":"-92.93804000"},
{"state":"Chiapas","name":"Aldama","lat":"16.91667000","lon":"-92.68333000"},
{"state":"Chiapas","name":"Alfonso Moguel","lat":"16.66750000","lon":"-93.50639000"},
{"state":"Chiapas","name":"Altamirano","lat":"16.88333000","lon":"-92.15000000"},
{"state":"Chiapas","name":"Álvaro Obregón","lat":"14.92231000","lon":"-92.37813000"},
{"state":"Chiapas","name":"Amado Nervo","lat":"17.23107000","lon":"-92.24581000"},
{"state":"Chiapas","name":"Amatán","lat":"17.36667000","lon":"-92.81667000"},
{"state":"Chiapas","name":"Amatenango de la Frontera","lat":"15.43333000","lon":"-92.11667000"},
{"state":"Chiapas","name":"Amatenango del Valle","lat":"16.52722000","lon":"-92.43472000"},
{"state":"Chiapas","name":"América Libre","lat":"16.61462000","lon":"-92.99185000"},
{"state":"Chiapas","name":"Ángel Albino Corzo","lat":"15.86624000","lon":"-92.72324000"},
{"state":"Chiapas","name":"Ángel Albino Corzo (Guadalupe)","lat":"17.12639000","lon":"-93.27500000"},
{"state":"Chiapas","name":"Apas","lat":"16.71066000","lon":"-92.79335000"},
{"state":"Chiapas","name":"Aquiles Serdán","lat":"14.93980000","lon":"-92.51444000"},
{"state":"Chiapas","name":"Arimatea","lat":"17.34139000","lon":"-91.87639000"},
{"state":"Chiapas","name":"Arriaga","lat":"16.23589000","lon":"-93.89995000"},
{"state":"Chiapas","name":"Arroyo Grande","lat":"17.19122000","lon":"-92.87207000"},
{"state":"Chiapas","name":"Arroyo Granizo","lat":"17.03716000","lon":"-91.42563000"},
{"state":"Chiapas","name":"Arroyo Palenque","lat":"17.39167000","lon":"-92.10444000"},
{"state":"Chiapas","name":"Arvenza Uno","lat":"16.77972000","lon":"-92.72028000"},
{"state":"Chiapas","name":"Aurora Ermita","lat":"17.23583000","lon":"-92.87389000"},
{"state":"Chiapas","name":"Aurora Esquipulas","lat":"17.11704000","lon":"-92.47626000"},
{"state":"Chiapas","name":"Azteca","lat":"16.21775000","lon":"-93.94557000"},
{"state":"Chiapas","name":"Aztlán","lat":"16.76919000","lon":"-92.92316000"},
{"state":"Chiapas","name":"Bachajón","lat":"17.03963000","lon":"-92.18986000"},
{"state":"Chiapas","name":"Bajucu","lat":"16.47520000","lon":"-92.06471000"},
{"state":"Chiapas","name":"Bautista Chico","lat":"16.79972000","lon":"-92.71194000"},
{"state":"Chiapas","name":"Bejucal de Ocampo","lat":"15.45535000","lon":"-92.15835000"},
{"state":"Chiapas","name":"Belisario Domínguez","lat":"15.29944000","lon":"-92.38056000"},
{"state":"Chiapas","name":"Bella Vista","lat":"15.58333000","lon":"-92.21667000"},
{"state":"Chiapas","name":"Benemérito de las Américas","lat":"16.51599000","lon":"-90.65371000"},
{"state":"Chiapas","name":"Benito Juárez","lat":"15.05500000","lon":"-92.19111000"},
{"state":"Chiapas","name":"Berriozábal","lat":"16.80000000","lon":"-93.26667000"},
{"state":"Chiapas","name":"Betania","lat":"16.60639000","lon":"-92.52194000"},
{"state":"Chiapas","name":"Bochil","lat":"16.99625000","lon":"-92.89218000"},
{"state":"Chiapas","name":"Bochojbo Alto","lat":"16.73583000","lon":"-92.71694000"},
{"state":"Chiapas","name":"Brisas Barra de Suchiate","lat":"14.53588000","lon":"-92.22414000"},
{"state":"Chiapas","name":"Buenavista","lat":"16.24278000","lon":"-91.98778000"},
{"state":"Chiapas","name":"Buenavista (Matasanos)","lat":"17.10778000","lon":"-93.06694000"},
{"state":"Chiapas","name":"Buenos Aires","lat":"14.88980000","lon":"-92.48121000"},
{"state":"Chiapas","name":"Cabeza de Toro","lat":"15.93698000","lon":"-93.78256000"},
{"state":"Chiapas","name":"Cacahoatán","lat":"14.99201000","lon":"-92.16376000"},
{"state":"Chiapas","name":"Cacaté","lat":"16.84534000","lon":"-92.83485000"},
{"state":"Chiapas","name":"Cálido","lat":"17.09889000","lon":"-92.78750000"},
{"state":"Chiapas","name":"Calzada Larga","lat":"16.35115000","lon":"-93.31518000"},
{"state":"Chiapas","name":"Cancuc","lat":"16.91667000","lon":"-92.48333000"},
{"state":"Chiapas","name":"Cantioc","lat":"17.26222000","lon":"-92.40694000"},
{"state":"Chiapas","name":"Cantón las Delicias","lat":"15.10245000","lon":"-92.50002000"},
{"state":"Chiapas","name":"Cantón Rancho Nuevo","lat":"15.06742000","lon":"-92.52565000"},
{"state":"Chiapas","name":"Cantón Villaflor","lat":"15.11424000","lon":"-92.35261000"},
{"state":"Chiapas","name":"Carmen Yalchuch","lat":"16.64482000","lon":"-92.36245000"},
{"state":"Chiapas","name":"Carmen Zacatal","lat":"17.08083000","lon":"-92.80250000"},
{"state":"Chiapas","name":"Carrillo Puerto","lat":"15.01120000","lon":"-92.19552000"},
{"state":"Chiapas","name":"Cash","lat":"16.26426000","lon":"-92.09775000"},
{"state":"Chiapas","name":"Catazajá","lat":"17.73333000","lon":"-92.01667000"},
{"state":"Chiapas","name":"Catishtic","lat":"16.78028000","lon":"-92.73778000"},
{"state":"Chiapas","name":"Cebadilla 1ra. Sección","lat":"14.86381000","lon":"-92.27969000"},
{"state":"Chiapas","name":"Cenobio Aguilar (La Trinidad)","lat":"17.40472000","lon":"-92.31944000"},
{"state":"Chiapas","name":"Cereso 14 (El Amate)","lat":"16.59472000","lon":"-93.80278000"},
{"state":"Chiapas","name":"Chacaljocóm","lat":"16.29919000","lon":"-92.18345000"},
{"state":"Chiapas","name":"Chacoma","lat":"16.87611000","lon":"-92.49139000"},
{"state":"Chiapas","name":"Chalam","lat":"16.88771000","lon":"-92.55009000"},
{"state":"Chiapas","name":"Chalchihuitán","lat":"16.96667000","lon":"-92.65000000"},
{"state":"Chiapas","name":"Chamula","lat":"16.78416000","lon":"-92.68959000"},
{"state":"Chiapas","name":"Chamulapita","lat":"15.06892000","lon":"-92.36942000"},
{"state":"Chiapas","name":"Chanal","lat":"16.65750000","lon":"-92.25750000"},
{"state":"Chiapas","name":"Chapallal Grande","lat":"17.29631000","lon":"-92.94519000"},
{"state":"Chiapas","name":"Chapultenango","lat":"17.33333000","lon":"-93.13333000"},
{"state":"Chiapas","name":"Chiapa de Corzo","lat":"16.70770000","lon":"-93.01184000"},
{"state":"Chiapas","name":"Chiapilla","lat":"16.55397000","lon":"-92.72594000"},
{"state":"Chiapas","name":"Chicoasén","lat":"16.96528000","lon":"-93.10472000"},
{"state":"Chiapas","name":"Chicomuselo","lat":"15.74420000","lon":"-92.28330000"},
{"state":"Chiapas","name":"Chicumtantic","lat":"16.86556000","lon":"-92.60528000"},
{"state":"Chiapas","name":"Chihuahua","lat":"16.02966000","lon":"-91.97331000"},
{"state":"Chiapas","name":"Chiloljá","lat":"16.88528000","lon":"-92.42472000"},
{"state":"Chiapas","name":"Chilón","lat":"17.11667000","lon":"-92.28333000"},
{"state":"Chiapas","name":"Chimhucum","lat":"16.89000000","lon":"-92.53139000"},
{"state":"Chiapas","name":"Chiquinival","lat":"16.99111000","lon":"-91.96028000"},
{"state":"Chiapas","name":"Chiquinshulum","lat":"17.07194000","lon":"-92.59806000"},
{"state":"Chiapas","name":"Chixtontic","lat":"16.89080000","lon":"-92.45793000"},
{"state":"Chiapas","name":"Chulum Cárdenas","lat":"17.38417000","lon":"-92.57389000"},
{"state":"Chiapas","name":"Chulum Juárez","lat":"17.33194000","lon":"-92.53389000"},
{"state":"Chiapas","name":"Cintalapa","lat":"16.68778000","lon":"-93.71083000"},
{"state":"Chiapas","name":"Cintalapa de Figueroa","lat":"16.68393000","lon":"-93.71814000"},
{"state":"Chiapas","name":"Ciudad Cuauhtémoc","lat":"15.66587000","lon":"-92.00388000"},
{"state":"Chiapas","name":"Ciudad Hidalgo","lat":"14.68148000","lon":"-92.15217000"},
{"state":"Chiapas","name":"Coapilla","lat":"17.13137000","lon":"-93.15946000"},
{"state":"Chiapas","name":"Colonia Obrera","lat":"15.09806000","lon":"-92.49806000"},
{"state":"Chiapas","name":"Comalapa","lat":"15.65924000","lon":"-92.14237000"},
{"state":"Chiapas","name":"Comitán","lat":"16.24710000","lon":"-92.13515000"},
{"state":"Chiapas","name":"Concepción","lat":"16.80908000","lon":"-92.96526000"},
{"state":"Chiapas","name":"Congregación Reforma","lat":"14.78208000","lon":"-92.31424000"},
{"state":"Chiapas","name":"Constitución","lat":"17.07556000","lon":"-92.52417000"},
{"state":"Chiapas","name":"Copainalá","lat":"17.09366000","lon":"-93.21059000"},
{"state":"Chiapas","name":"Copoya","lat":"16.71191000","lon":"-93.12089000"},
{"state":"Chiapas","name":"Cristóbal Colón","lat":"17.19194000","lon":"-91.62917000"},
{"state":"Chiapas","name":"Cristóbal Obregón","lat":"16.43246000","lon":"-93.45689000"},
{"state":"Chiapas","name":"Cruztón","lat":"16.76167000","lon":"-92.57917000"},
{"state":"Chiapas","name":"Cuauhtémoc","lat":"16.55000000","lon":"-93.71611000"},
{"state":"Chiapas","name":"Cuchulumtic","lat":"16.77722000","lon":"-92.70417000"},
{"state":"Chiapas","name":"Damasco","lat":"17.16161000","lon":"-91.60058000"},
{"state":"Chiapas","name":"Diamante de Echeverría","lat":"16.11181000","lon":"-92.87931000"},
{"state":"Chiapas","name":"Dieciséis de Septiembre","lat":"16.29715000","lon":"-93.17490000"},
{"state":"Chiapas","name":"Doctor Belisario Domínguez (La Barra)","lat":"15.88947000","lon":"-93.70404000"},
{"state":"Chiapas","name":"Doctor Domingo Chanona","lat":"16.34611000","lon":"-93.41667000"},
{"state":"Chiapas","name":"Doctor Rodulfo Figueroa (Tierra Blanca)","lat":"15.85083000","lon":"-92.06222000"},
{"state":"Chiapas","name":"Doctor Samuel León Brindis","lat":"17.43528000","lon":"-91.93194000"},
{"state":"Chiapas","name":"Dolores Jaltenango","lat":"15.89694000","lon":"-92.77777000"},
{"state":"Chiapas","name":"Efraín A. Gutiérrez","lat":"16.34442000","lon":"-92.19927000"},
{"state":"Chiapas","name":"Egipto","lat":"17.26207000","lon":"-91.97150000"},
{"state":"Chiapas","name":"El Águila","lat":"15.09334000","lon":"-92.18512000"},
{"state":"Chiapas","name":"El Ámbar","lat":"17.02500000","lon":"-92.83417000"},
{"state":"Chiapas","name":"El Ámbar (El Ámbar de Echeverría)","lat":"16.09639000","lon":"-92.83333000"},
{"state":"Chiapas","name":"El Arenal","lat":"15.17273000","lon":"-92.69923000"},
{"state":"Chiapas","name":"El Bosque","lat":"17.06273000","lon":"-92.72147000"},
{"state":"Chiapas","name":"El Calvario","lat":"17.21750000","lon":"-92.55694000"},
{"state":"Chiapas","name":"El Carmen","lat":"15.57549000","lon":"-93.12865000"},
{"state":"Chiapas","name":"El Carmen (El Limón)","lat":"17.89056000","lon":"-93.16528000"},
{"state":"Chiapas","name":"El Censo","lat":"16.86287000","lon":"-91.55988000"},
{"state":"Chiapas","name":"El Consuelo Ulapa","lat":"15.38662000","lon":"-92.79228000"},
{"state":"Chiapas","name":"El Copal","lat":"16.96729000","lon":"-92.92625000"},
{"state":"Chiapas","name":"El Copalar","lat":"16.87694000","lon":"-93.21389000"},
{"state":"Chiapas","name":"El Edén","lat":"16.29191000","lon":"-91.63755000"},
{"state":"Chiapas","name":"El Encanto","lat":"14.73083000","lon":"-92.41028000"},
{"state":"Chiapas","name":"El Espinal","lat":"16.36862000","lon":"-94.10449000"},
{"state":"Chiapas","name":"El Jardín","lat":"17.16657000","lon":"-92.59933000"},
{"state":"Chiapas","name":"El Jobo","lat":"16.70369000","lon":"-93.10569000"},
{"state":"Chiapas","name":"El Limar","lat":"17.41491000","lon":"-92.40293000"},
{"state":"Chiapas","name":"El Limonar","lat":"16.97026000","lon":"-91.37820000"},
{"state":"Chiapas","name":"El Mango","lat":"17.16236000","lon":"-92.05985000"},
{"state":"Chiapas","name":"El Nopal","lat":"16.91161000","lon":"-92.84471000"},
{"state":"Chiapas","name":"El Pacayal","lat":"15.59849000","lon":"-92.04254000"},
{"state":"Chiapas","name":"El Palmar (San Gabriel)","lat":"16.84556000","lon":"-93.01639000"},
{"state":"Chiapas","name":"El Palmar Grande","lat":"15.49858000","lon":"-92.25518000"},
{"state":"Chiapas","name":"El Palmarcito","lat":"15.49728000","lon":"-93.21387000"},
{"state":"Chiapas","name":"El Paraíso","lat":"17.24639000","lon":"-92.55694000"},
{"state":"Chiapas","name":"El Parral","lat":"16.37035000","lon":"-93.00567000"},
{"state":"Chiapas","name":"El Portal","lat":"15.67726000","lon":"-92.09588000"},
{"state":"Chiapas","name":"El Porvenir","lat":"15.43092000","lon":"-92.26447000"},
{"state":"Chiapas","name":"El Porvenir Agrarista","lat":"16.16465000","lon":"-91.83575000"},
{"state":"Chiapas","name":"El Porvenir de Velasco Suárez","lat":"15.45695000","lon":"-92.27987000"},
{"state":"Chiapas","name":"El Pozo","lat":"16.92034000","lon":"-92.41166000"},
{"state":"Chiapas","name":"El Progreso","lat":"16.87694000","lon":"-93.22222000"},
{"state":"Chiapas","name":"El Puerto","lat":"16.42575000","lon":"-92.43059000"},
{"state":"Chiapas","name":"El Ramal (Porvenir)","lat":"15.86583000","lon":"-92.94556000"},
{"state":"Chiapas","name":"El Sacrificio","lat":"14.87283000","lon":"-92.22782000"},
{"state":"Chiapas","name":"El Sibal","lat":"16.98000000","lon":"-91.49111000"},
{"state":"Chiapas","name":"El Triunfo","lat":"16.20200000","lon":"-91.85916000"},
{"state":"Chiapas","name":"El Triunfo 1ra. Sección (Cardona)","lat":"17.60778000","lon":"-93.23306000"},
{"state":"Chiapas","name":"El Triunfo de las Tres Maravillas","lat":"15.64694000","lon":"-92.15639000"},
{"state":"Chiapas","name":"El Tumbo","lat":"17.07779000","lon":"-91.62595000"},
{"state":"Chiapas","name":"El Tzay","lat":"16.86361000","lon":"-92.31222000"},
{"state":"Chiapas","name":"El Vergel","lat":"16.57951000","lon":"-92.08148000"},
{"state":"Chiapas","name":"El Zapotal","lat":"16.74991000","lon":"-91.44192000"},
{"state":"Chiapas","name":"El Zapotillo","lat":"16.83700000","lon":"-92.95152000"},
{"state":"Chiapas","name":"Emiliano Zapata","lat":"17.74058000","lon":"-91.76635000"},
{"state":"Chiapas","name":"Escuintla","lat":"15.33333000","lon":"-92.63333000"},
{"state":"Chiapas","name":"Estación Huehuetán","lat":"15.01091000","lon":"-92.40662000"},
{"state":"Chiapas","name":"Estación San Manuel","lat":"17.65256000","lon":"-93.38427000"},
{"state":"Chiapas","name":"Estación Tuzantán","lat":"15.10643000","lon":"-92.45092000"},
{"state":"Chiapas","name":"Estrella de Belén","lat":"17.38722000","lon":"-91.95861000"},
{"state":"Chiapas","name":"Faja de Oro","lat":"15.03244000","lon":"-92.15634000"},
{"state":"Chiapas","name":"Flor de Cacao","lat":"16.12889000","lon":"-90.45111000"},
{"state":"Chiapas","name":"Francisco I. Madero","lat":"16.87427000","lon":"-93.21678000"},
{"state":"Chiapas","name":"Francisco León","lat":"17.31667000","lon":"-93.25000000"},
{"state":"Chiapas","name":"Francisco Sarabia","lat":"16.94583000","lon":"-93.01306000"},
{"state":"Chiapas","name":"Francisco Villa","lat":"16.21426000","lon":"-93.33697000"},
{"state":"Chiapas","name":"Frontera Corozal","lat":"16.81473000","lon":"-90.88351000"},
{"state":"Chiapas","name":"Frontera Hidalgo","lat":"14.77744000","lon":"-92.17741000"},
{"state":"Chiapas","name":"Gabriel Esquinca","lat":"16.94056000","lon":"-93.17555000"},
{"state":"Chiapas","name":"Galecio Narcia","lat":"16.58820000","lon":"-93.02052000"},
{"state":"Chiapas","name":"Guadalupe","lat":"14.98033000","lon":"-92.33938000"},
{"state":"Chiapas","name":"Guadalupe Grijalva","lat":"15.69899000","lon":"-92.16414000"},
{"state":"Chiapas","name":"Guadalupe Victoria","lat":"16.40500000","lon":"-92.55250000"},
{"state":"Chiapas","name":"Guaquitepec","lat":"16.98017000","lon":"-92.28795000"},
{"state":"Chiapas","name":"Hermenegildo Galeana","lat":"16.57722000","lon":"-93.35944000"},
{"state":"Chiapas","name":"Héroes de Chapultepec","lat":"16.06920000","lon":"-92.28621000"},
{"state":"Chiapas","name":"Hidalgo","lat":"15.16249000","lon":"-92.63030000"},
{"state":"Chiapas","name":"Hidalgo Joshil","lat":"17.22743000","lon":"-92.34719000"},
{"state":"Chiapas","name":"Huehuetán","lat":"15.01981000","lon":"-92.38249000"},
{"state":"Chiapas","name":"Huitiupán","lat":"17.17240000","lon":"-92.68621000"},
{"state":"Chiapas","name":"Huixtla","lat":"15.13915000","lon":"-92.46410000"},
{"state":"Chiapas","name":"Huizachal","lat":"16.05184000","lon":"-93.80011000"},
{"state":"Chiapas","name":"Ignacio Allende","lat":"16.52556000","lon":"-92.99222000"},
{"state":"Chiapas","name":"Ignacio López Rayón","lat":"14.62164000","lon":"-92.18678000"},
{"state":"Chiapas","name":"Ignacio Ramírez","lat":"16.11091000","lon":"-93.87323000"},
{"state":"Chiapas","name":"Ignacio Zaragoza","lat":"17.29000000","lon":"-92.93806000"},
{"state":"Chiapas","name":"Ignacio Zaragoza (El Morro)","lat":"16.59944000","lon":"-93.35083000"},
{"state":"Chiapas","name":"Independencia","lat":"16.08611000","lon":"-92.83824000"},
{"state":"Chiapas","name":"Ixhuatán","lat":"17.29341000","lon":"-93.00829000"},
{"state":"Chiapas","name":"Ixtacomitán","lat":"17.43093000","lon":"-93.09704000"},
{"state":"Chiapas","name":"Ixtapa","lat":"16.80320000","lon":"-92.90532000"},
{"state":"Chiapas","name":"Ixtapangajoya","lat":"17.49849000","lon":"-93.00155000"},
{"state":"Chiapas","name":"Jalisco","lat":"16.43033000","lon":"-91.97499000"},
{"state":"Chiapas","name":"Jaltenango de la Paz","lat":"15.87314000","lon":"-92.72437000"},
{"state":"Chiapas","name":"Jardínes del Grijalva","lat":"16.72847000","lon":"-93.03463000"},
{"state":"Chiapas","name":"Jericó","lat":"16.28713000","lon":"-92.96630000"},
{"state":"Chiapas","name":"Jerusalén","lat":"17.36806000","lon":"-92.06083000"},
{"state":"Chiapas","name":"Jesús María Garza","lat":"16.39669000","lon":"-93.29368000"},
{"state":"Chiapas","name":"Jiquilpan (Estación Bonanza)","lat":"15.34194000","lon":"-92.74750000"},
{"state":"Chiapas","name":"Jiquipilas","lat":"16.66806000","lon":"-93.64667000"},
{"state":"Chiapas","name":"Jitotol","lat":"17.06723000","lon":"-92.86111000"},
{"state":"Chiapas","name":"Joaquín Miguel Gutiérrez","lat":"16.37000000","lon":"-93.36556000"},
{"state":"Chiapas","name":"Joaquín Miguel Gutiérrez (Margaritas)","lat":"15.55028000","lon":"-93.09306000"},
{"state":"Chiapas","name":"Joljá","lat":"17.20459000","lon":"-92.49946000"},
{"state":"Chiapas","name":"Jolsibaquil","lat":"17.25972000","lon":"-92.48167000"},
{"state":"Chiapas","name":"Joltealal","lat":"17.07683000","lon":"-92.62163000"},
{"state":"Chiapas","name":"Jomanichim","lat":"16.90056000","lon":"-92.47222000"},
{"state":"Chiapas","name":"José María Morelos","lat":"16.04189000","lon":"-91.83201000"},
{"state":"Chiapas","name":"José María Morelos y Pavón","lat":"17.24105000","lon":"-92.70231000"},
{"state":"Chiapas","name":"José María Pino Suárez","lat":"16.50571000","lon":"-93.73910000"},
{"state":"Chiapas","name":"Joshil","lat":"17.24667000","lon":"-92.36278000"},
{"state":"Chiapas","name":"Juan Aldama","lat":"17.60939000","lon":"-93.02826000"},
{"state":"Chiapas","name":"Juan del Grijalva","lat":"16.72806000","lon":"-92.97750000"},
{"state":"Chiapas","name":"Juárez","lat":"17.60572000","lon":"-93.19433000"},
{"state":"Chiapas","name":"Julián Grajales","lat":"16.42917000","lon":"-93.71417000"},
{"state":"Chiapas","name":"Justo Sierra","lat":"16.54248000","lon":"-92.05737000"},
{"state":"Chiapas","name":"Kotolte","lat":"16.86444000","lon":"-92.46111000"},
{"state":"Chiapas","name":"La Candelaria","lat":"16.74289000","lon":"-92.52156000"},
{"state":"Chiapas","name":"La Ceiba","lat":"17.13371000","lon":"-92.51887000"},
{"state":"Chiapas","name":"La Competencia","lat":"17.23588000","lon":"-92.75718000"},
{"state":"Chiapas","name":"La Concordia","lat":"16.11774000","lon":"-92.69018000"},
{"state":"Chiapas","name":"La Esperanza","lat":"16.15191000","lon":"-91.86874000"},
{"state":"Chiapas","name":"La Esperanza (El Zapotal)","lat":"15.44917000","lon":"-93.16417000"},
{"state":"Chiapas","name":"La Floresta","lat":"16.50915000","lon":"-92.31251000"},
{"state":"Chiapas","name":"La Gloria","lat":"15.96389000","lon":"-91.96500000"},
{"state":"Chiapas","name":"La Grandeza","lat":"15.51033000","lon":"-92.22603000"},
{"state":"Chiapas","name":"La Independencia","lat":"16.25263000","lon":"-92.02371000"},
{"state":"Chiapas","name":"La Independencia (Las Pilas)","lat":"16.67750000","lon":"-93.24944000"},
{"state":"Chiapas","name":"La Laguna","lat":"16.69357000","lon":"-91.94929000"},
{"state":"Chiapas","name":"La Libertad","lat":"14.59167000","lon":"-92.19315000"},
{"state":"Chiapas","name":"La Línea","lat":"16.13078000","lon":"-94.03563000"},
{"state":"Chiapas","name":"La Patria","lat":"16.22975000","lon":"-91.91148000"},
{"state":"Chiapas","name":"La Pimienta","lat":"17.14111000","lon":"-92.76222000"},
{"state":"Chiapas","name":"La Rinconada","lat":"15.59333000","lon":"-92.26806000"},
{"state":"Chiapas","name":"La Tigrilla","lat":"15.98769000","lon":"-92.85220000"},
{"state":"Chiapas","name":"La Trinitaria","lat":"16.11859000","lon":"-92.05201000"},
{"state":"Chiapas","name":"Lacandón","lat":"17.02141000","lon":"-91.59523000"},
{"state":"Chiapas","name":"Laguna del Cofre","lat":"15.62751000","lon":"-92.64143000"},
{"state":"Chiapas","name":"Larráinzar","lat":"16.88392000","lon":"-92.71329000"},
{"state":"Chiapas","name":"Las Brisas","lat":"15.51681000","lon":"-93.11763000"},
{"state":"Chiapas","name":"Las Chicharras","lat":"15.67089000","lon":"-92.21070000"},
{"state":"Chiapas","name":"Las Delicias","lat":"15.96932000","lon":"-91.86315000"},
{"state":"Chiapas","name":"Las Flechas","lat":"16.70028000","lon":"-93.02639000"},
{"state":"Chiapas","name":"Las Maravillas","lat":"16.95951000","lon":"-93.32012000"},
{"state":"Chiapas","name":"Las Margaritas","lat":"16.31265000","lon":"-91.98107000"},
{"state":"Chiapas","name":"Las Ollas","lat":"16.78146000","lon":"-92.55278000"},
{"state":"Chiapas","name":"Las Rosas","lat":"16.36574000","lon":"-92.37040000"},
{"state":"Chiapas","name":"Las Tazas","lat":"16.75722000","lon":"-91.61500000"},
{"state":"Chiapas","name":"Lázaro Cárdenas","lat":"16.60417000","lon":"-93.79139000"},
{"state":"Chiapas","name":"Lázaro Cárdenas (Chilil)","lat":"16.67611000","lon":"-92.48917000"},
{"state":"Chiapas","name":"Libertad Melchor Ocampo","lat":"16.37389000","lon":"-93.47500000"},
{"state":"Chiapas","name":"Libertad Ventanas","lat":"15.53954000","lon":"-92.27576000"},
{"state":"Chiapas","name":"Llano de la Lima","lat":"14.86596000","lon":"-92.29714000"},
{"state":"Chiapas","name":"Loma Bonita","lat":"17.78697000","lon":"-92.07651000"},
{"state":"Chiapas","name":"Lomantán","lat":"16.43999000","lon":"-92.06445000"},
{"state":"Chiapas","name":"Los Cafetales","lat":"14.86745000","lon":"-92.30200000"},
{"state":"Chiapas","name":"Los Corazones","lat":"16.21026000","lon":"-94.07391000"},
{"state":"Chiapas","name":"Los Naranjos","lat":"17.26446000","lon":"-92.61972000"},
{"state":"Chiapas","name":"Los Palacios","lat":"14.85718000","lon":"-92.25821000"},
{"state":"Chiapas","name":"Los Pinos","lat":"16.92083000","lon":"-92.10861000"},
{"state":"Chiapas","name":"Los Plátanos","lat":"17.00556000","lon":"-92.74264000"},
{"state":"Chiapas","name":"Los Pozos","lat":"16.64770000","lon":"-92.40726000"},
{"state":"Chiapas","name":"Los Riegos","lat":"16.30457000","lon":"-92.12425000"},
{"state":"Chiapas","name":"Luis Espinoza","lat":"17.03167000","lon":"-93.02694000"},
{"state":"Chiapas","name":"Macvilhó","lat":"16.85760000","lon":"-92.69419000"},
{"state":"Chiapas","name":"Majastic","lat":"17.28944000","lon":"-92.62833000"},
{"state":"Chiapas","name":"Majomut","lat":"16.84917000","lon":"-92.65944000"},
{"state":"Chiapas","name":"Manuel Ávila Camacho","lat":"16.14647000","lon":"-93.01701000"},
{"state":"Chiapas","name":"Manuel Ávila Camacho (Ponte Duro)","lat":"15.80973000","lon":"-93.58933000"},
{"state":"Chiapas","name":"Manuel Lazos","lat":"14.97159000","lon":"-92.18726000"},
{"state":"Chiapas","name":"Mapastepec","lat":"15.43358000","lon":"-92.90039000"},
{"state":"Chiapas","name":"Maravilla Tenejapa","lat":"16.20391000","lon":"-91.26093000"},
{"state":"Chiapas","name":"Maravillas","lat":"17.09693000","lon":"-92.89107000"},
{"state":"Chiapas","name":"Mariano Matamoros","lat":"16.48119000","lon":"-92.58472000"},
{"state":"Chiapas","name":"Mariscal Subikuski","lat":"17.33250000","lon":"-92.38083000"},
{"state":"Chiapas","name":"Marqués de Comillas","lat":"16.21471000","lon":"-90.75917000"},
{"state":"Chiapas","name":"Marte R. Gómez","lat":"14.92653000","lon":"-92.44389000"},
{"state":"Chiapas","name":"Matzam","lat":"16.78917000","lon":"-92.47694000"},
{"state":"Chiapas","name":"Mazapa","lat":"15.38773000","lon":"-92.18780000"},
{"state":"Chiapas","name":"Mazapa de Madero","lat":"15.36461000","lon":"-92.18762000"},
{"state":"Chiapas","name":"Mazatán","lat":"14.86319000","lon":"-92.45030000"},
{"state":"Chiapas","name":"Mérida","lat":"16.56750000","lon":"-93.81722000"},
{"state":"Chiapas","name":"Metapa","lat":"14.83624000","lon":"-92.19186000"},
{"state":"Chiapas","name":"Miguel Hidalgo","lat":"16.35060000","lon":"-92.62852000"},
{"state":"Chiapas","name":"Miguel Utrilla (Los Chorros)","lat":"16.94278000","lon":"-92.47972000"},
{"state":"Chiapas","name":"Misija","lat":"17.26611000","lon":"-92.38167000"},
{"state":"Chiapas","name":"Mitontic","lat":"16.87540000","lon":"-92.57130000"},
{"state":"Chiapas","name":"Mitzitón","lat":"16.64639000","lon":"-92.54333000"},
{"state":"Chiapas","name":"Mixcum","lat":"15.02560000","lon":"-92.14080000"},
{"state":"Chiapas","name":"Monte Redondo","lat":"15.65217000","lon":"-92.05045000"},
{"state":"Chiapas","name":"Montecristo","lat":"15.69263000","lon":"-92.61999000"},
{"state":"Chiapas","name":"Montecristo de Guerrero","lat":"15.67526000","lon":"-92.64399000"},
{"state":"Chiapas","name":"Monterrey","lat":"16.06191000","lon":"-93.36928000"},
{"state":"Chiapas","name":"Morelia (Victórico Rodolfo Grajales)","lat":"16.72306000","lon":"-91.96778000"},
{"state":"Chiapas","name":"Motozintla","lat":"15.36694000","lon":"-92.24605000"},
{"state":"Chiapas","name":"Moyos","lat":"17.35889000","lon":"-92.64134000"},
{"state":"Chiapas","name":"Muquén","lat":"16.80641000","lon":"-92.61006000"},
{"state":"Chiapas","name":"Nachig","lat":"16.73056000","lon":"-92.72528000"},
{"state":"Chiapas","name":"Narciso Mendoza","lat":"16.57996000","lon":"-92.98911000"},
{"state":"Chiapas","name":"Navenchauc","lat":"16.73501000","lon":"-92.77900000"},
{"state":"Chiapas","name":"Nicolás Bravo","lat":"16.51058000","lon":"-92.99222000"},
{"state":"Chiapas","name":"Nicolás Ruiz","lat":"16.43714000","lon":"-92.58522000"},
{"state":"Chiapas","name":"Nueva América","lat":"15.92281000","lon":"-92.30587000"},
{"state":"Chiapas","name":"Nueva Colombia","lat":"15.69670000","lon":"-92.72111000"},
{"state":"Chiapas","name":"Nueva Esperanza","lat":"17.24746000","lon":"-92.45524000"},
{"state":"Chiapas","name":"Nueva Independencia","lat":"15.78259000","lon":"-92.20883000"},
{"state":"Chiapas","name":"Nueva Libertad","lat":"16.09038000","lon":"-92.80813000"},
{"state":"Chiapas","name":"Nueva Libertad (El Colorado)","lat":"15.89861000","lon":"-92.05917000"},
{"state":"Chiapas","name":"Nueva Morelia","lat":"15.61784000","lon":"-92.14517000"},
{"state":"Chiapas","name":"Nueva Palestina","lat":"16.81722000","lon":"-91.26000000"},
{"state":"Chiapas","name":"Nueva Sesecapa","lat":"15.40205000","lon":"-92.82239000"},
{"state":"Chiapas","name":"Nueva Tenochtitlán (Rizo de Oro)","lat":"16.47639000","lon":"-94.08056000"},
{"state":"Chiapas","name":"Nuevo Amatenango","lat":"15.50852000","lon":"-92.10958000"},
{"state":"Chiapas","name":"Nuevo Carmen Tonapac","lat":"16.69667000","lon":"-92.95556000"},
{"state":"Chiapas","name":"Nuevo Francisco León","lat":"17.03031000","lon":"-91.32216000"},
{"state":"Chiapas","name":"Nuevo Juan del Grijalva","lat":"17.42722000","lon":"-93.37222000"},
{"state":"Chiapas","name":"Nuevo León","lat":"16.48629000","lon":"-92.57140000"},
{"state":"Chiapas","name":"Nuevo Limar","lat":"17.45514000","lon":"-92.39890000"},
{"state":"Chiapas","name":"Nuevo México","lat":"16.46944000","lon":"-93.43806000"},
{"state":"Chiapas","name":"Nuevo Milenio Valdivia","lat":"15.50306000","lon":"-92.94861000"},
{"state":"Chiapas","name":"Nuevo Naranjo","lat":"17.15444000","lon":"-93.43333000"},
{"state":"Chiapas","name":"Nuevo Nicapa","lat":"17.63464000","lon":"-93.07238000"},
{"state":"Chiapas","name":"Nuevo Pacayal","lat":"15.66010000","lon":"-92.31538000"},
{"state":"Chiapas","name":"Nuevo Pumpuapa (Cereso)","lat":"14.92562000","lon":"-92.36533000"},
{"state":"Chiapas","name":"Nuevo San Juan Chamula","lat":"16.14426000","lon":"-91.44379000"},
{"state":"Chiapas","name":"Nuevo Sitalá","lat":"17.13936000","lon":"-92.48287000"},
{"state":"Chiapas","name":"Nuevo Vicente Guerrero","lat":"16.03860000","lon":"-92.97542000"},
{"state":"Chiapas","name":"Nuevo Vicente Guerrero (El Chichonal)","lat":"16.48528000","lon":"-92.87139000"},
{"state":"Chiapas","name":"Nuevo Volcán Chichonal","lat":"17.77263000","lon":"-93.10955000"},
{"state":"Chiapas","name":"Nuevo Xochimilco","lat":"17.45442000","lon":"-93.36904000"},
{"state":"Chiapas","name":"Ochusjob","lat":"16.22482000","lon":"-92.25201000"},
{"state":"Chiapas","name":"Ococh","lat":"16.83806000","lon":"-92.47528000"},
{"state":"Chiapas","name":"Ocosingo","lat":"16.90639000","lon":"-92.09374000"},
{"state":"Chiapas","name":"Ocotepec","lat":"17.22620000","lon":"-93.16440000"},
{"state":"Chiapas","name":"Ocozocoautla de Espinosa","lat":"16.76231000","lon":"-93.37476000"},
{"state":"Chiapas","name":"Octavio Paz","lat":"14.85778000","lon":"-92.26389000"},
{"state":"Chiapas","name":"Ojo de Agua","lat":"16.15773000","lon":"-91.75794000"},
{"state":"Chiapas","name":"Omoa","lat":"14.83292000","lon":"-92.23279000"},
{"state":"Chiapas","name":"Once de Abril","lat":"15.05199000","lon":"-92.14224000"},
{"state":"Chiapas","name":"Ostuacán","lat":"17.40664000","lon":"-93.33643000"},
{"state":"Chiapas","name":"Osumacinta","lat":"16.93611000","lon":"-93.09028000"},
{"state":"Chiapas","name":"Oxchuc","lat":"16.78588000","lon":"-92.34455000"},
{"state":"Chiapas","name":"Oxinam","lat":"16.86306000","lon":"-92.54917000"},
{"state":"Chiapas","name":"Pablo L. Sidar","lat":"15.83053000","lon":"-92.27977000"},
{"state":"Chiapas","name":"Pacú","lat":"16.63584000","lon":"-93.13437000"},
{"state":"Chiapas","name":"Palenque","lat":"17.50953000","lon":"-91.98248000"},
{"state":"Chiapas","name":"Pantelhó","lat":"17.00563000","lon":"-92.47165000"},
{"state":"Chiapas","name":"Pantepec","lat":"17.18842000","lon":"-93.04998000"},
{"state":"Chiapas","name":"Paraíso del Grijalva","lat":"16.22576000","lon":"-92.64318000"},
{"state":"Chiapas","name":"Paredón","lat":"16.05083000","lon":"-93.86667000"},
{"state":"Chiapas","name":"Paso Hondo","lat":"15.68390000","lon":"-92.01860000"},
{"state":"Chiapas","name":"Pasté","lat":"16.70420000","lon":"-92.74111000"},
{"state":"Chiapas","name":"Patosil","lat":"16.75210000","lon":"-92.74133000"},
{"state":"Chiapas","name":"Patria Nueva (San José el Contento)","lat":"16.92778000","lon":"-92.11361000"},
{"state":"Chiapas","name":"Pavencul","lat":"15.20249000","lon":"-92.17993000"},
{"state":"Chiapas","name":"Perla de Acapulco","lat":"16.79570000","lon":"-91.47793000"},
{"state":"Chiapas","name":"Petalcingo","lat":"17.22715000","lon":"-92.41511000"},
{"state":"Chiapas","name":"Pichucalco","lat":"17.51000000","lon":"-93.11591000"},
{"state":"Chiapas","name":"Piedra Labrada","lat":"15.68226000","lon":"-92.30538000"},
{"state":"Chiapas","name":"Pijijiapan","lat":"15.68618000","lon":"-93.20938000"},
{"state":"Chiapas","name":"Plan de Agua Prieta","lat":"16.13111000","lon":"-92.79139000"},
{"state":"Chiapas","name":"Plan de Ayala","lat":"16.47152000","lon":"-92.02735000"},
{"state":"Chiapas","name":"Pomposo Castellanos","lat":"16.59033000","lon":"-93.86688000"},
{"state":"Chiapas","name":"Potrerillo","lat":"15.63096000","lon":"-92.02059000"},
{"state":"Chiapas","name":"Presidente Echeverría (Laja Tendida)","lat":"16.33583000","lon":"-92.66861000"},
{"state":"Chiapas","name":"Primer Cantón","lat":"15.12056000","lon":"-92.44000000"},
{"state":"Chiapas","name":"Profresor Roberto Barrios","lat":"17.32583000","lon":"-91.92639000"},
{"state":"Chiapas","name":"Puebla","lat":"16.91583000","lon":"-92.50389000"},
{"state":"Chiapas","name":"Pueblo Nuevo","lat":"17.16027000","lon":"-92.89977000"},
{"state":"Chiapas","name":"Puerto Madero","lat":"14.72076000","lon":"-92.42146000"},
{"state":"Chiapas","name":"Pugchén Mumuntic","lat":"16.86389000","lon":"-92.82361000"},
{"state":"Chiapas","name":"Punta Arena","lat":"17.74601000","lon":"-92.05871000"},
{"state":"Chiapas","name":"Querétaro","lat":"15.83752000","lon":"-92.75774000"},
{"state":"Chiapas","name":"Quintana Roo","lat":"16.60667000","lon":"-93.56194000"},
{"state":"Chiapas","name":"Rafael Pascacio Gamboa","lat":"17.91818000","lon":"-93.26833000"},
{"state":"Chiapas","name":"Rafael Ramírez","lat":"16.46199000","lon":"-91.94523000"},
{"state":"Chiapas","name":"Ramón F. Balboa","lat":"16.47427000","lon":"-91.40318000"},
{"state":"Chiapas","name":"Raudales Malpaso","lat":"17.18833000","lon":"-93.60583000"},
{"state":"Chiapas","name":"Raymundo Enríquez","lat":"14.86722000","lon":"-92.31466000"},
{"state":"Chiapas","name":"Rayón","lat":"17.20137000","lon":"-93.01110000"},
{"state":"Chiapas","name":"Reforma","lat":"17.86876000","lon":"-93.22673000"},
{"state":"Chiapas","name":"Reforma y Planada","lat":"17.38694000","lon":"-92.86583000"},
{"state":"Chiapas","name":"Revolución Mexicana","lat":"16.17156000","lon":"-93.07666000"},
{"state":"Chiapas","name":"Ricardo Flores Magón","lat":"16.39397000","lon":"-92.69618000"},
{"state":"Chiapas","name":"Rincón Chamula","lat":"17.20718000","lon":"-92.93912000"},
{"state":"Chiapas","name":"Río Blanco","lat":"16.20501000","lon":"-91.63429000"},
{"state":"Chiapas","name":"Río Chancalá","lat":"17.33454000","lon":"-91.68430000"},
{"state":"Chiapas","name":"Río Jordán","lat":"17.24611000","lon":"-91.93306000"},
{"state":"Chiapas","name":"Rizo de Oro","lat":"15.97088000","lon":"-92.48316000"},
{"state":"Chiapas","name":"Roblada Grande","lat":"16.48909000","lon":"-93.19499000"},
{"state":"Chiapas","name":"Rodulfo Figueroa","lat":"15.92006000","lon":"-91.90370000"},
{"state":"Chiapas","name":"Romerillo","lat":"16.76528000","lon":"-92.56750000"},
{"state":"Chiapas","name":"Sabanilla","lat":"17.30308000","lon":"-92.58368000"},
{"state":"Chiapas","name":"Sabinalito","lat":"15.70186000","lon":"-91.98636000"},
{"state":"Chiapas","name":"Saclamantón","lat":"16.78833000","lon":"-92.63500000"},
{"state":"Chiapas","name":"Saltillo","lat":"16.39359000","lon":"-91.94890000"},
{"state":"Chiapas","name":"Salto de Agua","lat":"17.55435000","lon":"-92.33941000"},
{"state":"Chiapas","name":"Salvador Urbina","lat":"15.03535000","lon":"-92.20805000"},
{"state":"Chiapas","name":"San Andrés Duraznal","lat":"17.15653000","lon":"-92.79606000"},
{"state":"Chiapas","name":"San Antonio Buenavista","lat":"16.15234000","lon":"-91.65020000"},
{"state":"Chiapas","name":"San Antonio Bulujib","lat":"16.99667000","lon":"-92.29667000"},
{"state":"Chiapas","name":"San Antonio del Monte","lat":"16.76028000","lon":"-92.65306000"},
{"state":"Chiapas","name":"San Caralampio","lat":"15.82935000","lon":"-92.03555000"},
{"state":"Chiapas","name":"San Cayetano","lat":"16.96119000","lon":"-92.76016000"},
{"state":"Chiapas","name":"San Cristóbal de las Casas","lat":"16.73176000","lon":"-92.64126000"},
{"state":"Chiapas","name":"San Felipe Tizapa","lat":"15.27616000","lon":"-92.61300000"},
{"state":"Chiapas","name":"San Fernando","lat":"16.87153000","lon":"-93.20759000"},
{"state":"Chiapas","name":"San Francisco (El Calvito)","lat":"16.32167000","lon":"-92.56194000"},
{"state":"Chiapas","name":"San Francisco Jaconá","lat":"17.26278000","lon":"-93.03250000"},
{"state":"Chiapas","name":"San Francisco Pujiltic","lat":"16.27922000","lon":"-92.45319000"},
{"state":"Chiapas","name":"San Isidro","lat":"15.74373000","lon":"-93.35276000"},
{"state":"Chiapas","name":"San Isidro las Banderas","lat":"17.23028000","lon":"-93.06028000"},
{"state":"Chiapas","name":"San Jerónimo Tulijá","lat":"17.22361000","lon":"-91.78972000"},
{"state":"Chiapas","name":"San José Chapayal","lat":"17.30056000","lon":"-92.89028000"},
{"state":"Chiapas","name":"San José las Chicharras","lat":"15.64363000","lon":"-92.20659000"},
{"state":"Chiapas","name":"San José Yashitinín","lat":"16.65472000","lon":"-92.44500000"},
{"state":"Chiapas","name":"San José Yocnajab","lat":"16.25383000","lon":"-92.08698000"},
{"state":"Chiapas","name":"San Lucas","lat":"16.61167000","lon":"-92.71806000"},
{"state":"Chiapas","name":"San Luqueño","lat":"16.01278000","lon":"-93.84583000"},
{"state":"Chiapas","name":"San Miguel","lat":"17.36324000","lon":"-92.00762000"},
{"state":"Chiapas","name":"San Miguel la Sardina","lat":"17.29417000","lon":"-93.35250000"},
{"state":"Chiapas","name":"San Pablo Huacano","lat":"17.19583000","lon":"-93.20750000"},
{"state":"Chiapas","name":"San Pedro Buenavista","lat":"16.08333000","lon":"-93.11667000"},
{"state":"Chiapas","name":"San Pedro Nichtalucum","lat":"17.03444000","lon":"-92.72694000"},
{"state":"Chiapas","name":"San Quintín","lat":"16.40672000","lon":"-91.34575000"},
{"state":"Chiapas","name":"San Vicente la Mesilla","lat":"16.17861000","lon":"-92.29333000"},
{"state":"Chiapas","name":"Santa Elena","lat":"16.89267000","lon":"-91.58987000"},
{"state":"Chiapas","name":"Santa María","lat":"17.35230000","lon":"-92.07679000"},
{"state":"Chiapas","name":"Santa Rita","lat":"16.13167000","lon":"-91.97500000"},
{"state":"Chiapas","name":"Santiago el Pinar","lat":"16.94838000","lon":"-92.72074000"},
{"state":"Chiapas","name":"Santiago Pojcol","lat":"16.99148000","lon":"-91.98071000"},
{"state":"Chiapas","name":"Santo Domingo","lat":"15.03067000","lon":"-92.10361000"},
{"state":"Chiapas","name":"Santo Domingo de las Palmas","lat":"16.13667000","lon":"-91.32194000"},
{"state":"Chiapas","name":"Señor del Pozo","lat":"16.29625000","lon":"-92.11165000"},
{"state":"Chiapas","name":"Shoctic","lat":"17.22361000","lon":"-92.48806000"},
{"state":"Chiapas","name":"Sibacá","lat":"16.93093000","lon":"-92.14006000"},
{"state":"Chiapas","name":"Sibaniljá Pocolum","lat":"16.87639000","lon":"-92.46111000"},
{"state":"Chiapas","name":"Siltepec","lat":"15.55717000","lon":"-92.32314000"},
{"state":"Chiapas","name":"Simojovel","lat":"17.14736000","lon":"-92.67154000"},
{"state":"Chiapas","name":"Simojovel de Allende","lat":"17.14036000","lon":"-92.71394000"},
{"state":"Chiapas","name":"Sinaloa","lat":"15.89261000","lon":"-92.12896000"},
{"state":"Chiapas","name":"Sitalá","lat":"17.02417000","lon":"-92.30694000"},
{"state":"Chiapas","name":"Socoltenango","lat":"16.17412000","lon":"-92.36658000"},
{"state":"Chiapas","name":"Soconusco","lat":"15.31502000","lon":"-92.72645000"},
{"state":"Chiapas","name":"Solosuchiapa","lat":"17.39364000","lon":"-93.01301000"},
{"state":"Chiapas","name":"Soyaló","lat":"16.91352000","lon":"-92.96579000"},
{"state":"Chiapas","name":"Soyatitán","lat":"16.29427000","lon":"-92.42402000"},
{"state":"Chiapas","name":"Suchiapa","lat":"16.60775000","lon":"-93.10003000"},
{"state":"Chiapas","name":"Suchiate","lat":"14.64138000","lon":"-92.22252000"},
{"state":"Chiapas","name":"Tacuba Nueva","lat":"17.09028000","lon":"-92.37028000"},
{"state":"Chiapas","name":"Talismán","lat":"14.96333000","lon":"-92.14722000"},
{"state":"Chiapas","name":"Tamaulipas","lat":"15.77189000","lon":"-93.40718000"},
{"state":"Chiapas","name":"Taniperla","lat":"16.82222000","lon":"-91.52333000"},
{"state":"Chiapas","name":"Tapachula","lat":"14.90385000","lon":"-92.25749000"},
{"state":"Chiapas","name":"Tapalapa","lat":"17.22618000","lon":"-93.11552000"},
{"state":"Chiapas","name":"Tapilula","lat":"17.25355000","lon":"-93.00933000"},
{"state":"Chiapas","name":"Tecpatán","lat":"17.13676000","lon":"-93.31133000"},
{"state":"Chiapas","name":"Tenango","lat":"16.96667000","lon":"-92.41667000"},
{"state":"Chiapas","name":"Tentic","lat":"16.86333000","lon":"-92.68222000"},
{"state":"Chiapas","name":"Teopisca","lat":"16.54182000","lon":"-92.47405000"},
{"state":"Chiapas","name":"Texcaltic","lat":"14.79550000","lon":"-92.18737000"},
{"state":"Chiapas","name":"Tierra y Libertad","lat":"16.37889000","lon":"-93.86056000"},
{"state":"Chiapas","name":"Tila","lat":"17.30054000","lon":"-92.42730000"},
{"state":"Chiapas","name":"Tiltepec","lat":"16.39389000","lon":"-93.86972000"},
{"state":"Chiapas","name":"Tinajas 1ra. Sección","lat":"14.71750000","lon":"-92.32861000"},
{"state":"Chiapas","name":"Tocob Leglemal","lat":"17.23389000","lon":"-92.37833000"},
{"state":"Chiapas","name":"Tonalá","lat":"16.08977000","lon":"-93.75489000"},
{"state":"Chiapas","name":"Totolapa","lat":"16.54357000","lon":"-92.68019000"},
{"state":"Chiapas","name":"Tres Cerros","lat":"16.91556000","lon":"-92.47278000"},
{"state":"Chiapas","name":"Tres Picos","lat":"15.88209000","lon":"-93.52867000"},
{"state":"Chiapas","name":"Tumbala","lat":"17.27746000","lon":"-92.31700000"},
{"state":"Chiapas","name":"Tuxtla","lat":"16.75973000","lon":"-93.11308000"},
{"state":"Chiapas","name":"Tuxtla Chico","lat":"14.93945000","lon":"-92.16730000"},
{"state":"Chiapas","name":"Tuzantán","lat":"15.14711000","lon":"-92.42237000"},
{"state":"Chiapas","name":"Tz'Aquiviljok","lat":"16.85528000","lon":"-92.45972000"},
{"state":"Chiapas","name":"Tzajalá","lat":"17.13559000","lon":"-92.39328000"},
{"state":"Chiapas","name":"Tzajalchén","lat":"16.84165000","lon":"-92.46014000"},
{"state":"Chiapas","name":"Tzeltal","lat":"16.93944000","lon":"-92.47778000"},
{"state":"Chiapas","name":"Tzimol","lat":"16.18356000","lon":"-92.18934000"},
{"state":"Chiapas","name":"Tzinil","lat":"16.25778000","lon":"-92.32222000"},
{"state":"Chiapas","name":"Tziscao","lat":"16.08155000","lon":"-91.66641000"},
{"state":"Chiapas","name":"Tzoeptic","lat":"16.88278000","lon":"-92.56806000"},
{"state":"Chiapas","name":"Tzontehuitz","lat":"16.83314000","lon":"-92.57965000"},
{"state":"Chiapas","name":"Tzopilja","lat":"16.73972000","lon":"-92.30917000"},
{"state":"Chiapas","name":"Ubilio García","lat":"17.08405000","lon":"-91.47241000"},
{"state":"Chiapas","name":"Unión Buena Vista","lat":"16.48582000","lon":"-92.81823000"},
{"state":"Chiapas","name":"Unión Buenavista","lat":"15.79527000","lon":"-92.54417000"},
{"state":"Chiapas","name":"Unión Juárez","lat":"17.28083000","lon":"-92.39972000"},
{"state":"Chiapas","name":"Unión Roja","lat":"15.04658000","lon":"-92.21653000"},
{"state":"Chiapas","name":"Usipa","lat":"17.50028000","lon":"-92.43806000"},
{"state":"Chiapas","name":"Vega del Rosario","lat":"15.52083000","lon":"-92.30720000"},
{"state":"Chiapas","name":"Veinte de Noviembre","lat":"14.97730000","lon":"-92.26509000"},
{"state":"Chiapas","name":"Venustiano Carranza","lat":"16.32314000","lon":"-92.55844000"},
{"state":"Chiapas","name":"Veracruz","lat":"16.40417000","lon":"-91.99944000"},
{"state":"Chiapas","name":"Verapaz","lat":"15.71166000","lon":"-92.06199000"},
{"state":"Chiapas","name":"Vicente Guerrero","lat":"16.66028000","lon":"-93.58306000"},
{"state":"Chiapas","name":"Vida Mejor I","lat":"14.86972000","lon":"-92.30778000"},
{"state":"Chiapas","name":"Villa Comaltitlán","lat":"15.18645000","lon":"-92.59053000"},
{"state":"Chiapas","name":"Villa Corzo","lat":"16.18510000","lon":"-93.26881000"},
{"state":"Chiapas","name":"Villa Hidalgo","lat":"16.30457000","lon":"-93.15466000"},
{"state":"Chiapas","name":"Villaflores","lat":"16.34149000","lon":"-93.33191000"},
{"state":"Chiapas","name":"Villahermosa Yaluma","lat":"16.33366000","lon":"-92.07771000"},
{"state":"Chiapas","name":"Villamorelos","lat":"16.48000000","lon":"-93.92778000"},
{"state":"Chiapas","name":"Viva Cárdenas","lat":"16.83570000","lon":"-93.19333000"},
{"state":"Chiapas","name":"Viva México","lat":"14.91008000","lon":"-92.32609000"},
{"state":"Chiapas","name":"Xochiltepec","lat":"15.12780000","lon":"-92.43388000"},
{"state":"Chiapas","name":"Yajalón","lat":"17.18519000","lon":"-92.32715000"},
{"state":"Chiapas","name":"Yaltem","lat":"16.84402000","lon":"-92.79057000"},
{"state":"Chiapas","name":"Yasha","lat":"16.39141000","lon":"-92.06878000"},
{"state":"Chiapas","name":"Yashanal","lat":"16.82889000","lon":"-92.45194000"},
{"state":"Chiapas","name":"Yibeljoj","lat":"16.95750000","lon":"-92.50361000"},
{"state":"Chiapas","name":"Yoshib","lat":"16.84528000","lon":"-92.44611000"},
{"state":"Chiapas","name":"Zacatonal de Juárez","lat":"17.27097000","lon":"-92.79936000"},
{"state":"Chiapas","name":"Zacualpa","lat":"15.16820000","lon":"-92.62705000"},
{"state":"Chiapas","name":"Zamora Pico de Oro","lat":"16.33205000","lon":"-90.76560000"},
{"state":"Chiapas","name":"Zaragoza","lat":"17.00906000","lon":"-91.64033000"},
{"state":"Chiapas","name":"Zaragoza la Montaña","lat":"16.41653000","lon":"-92.20512000"},
{"state":"Chiapas","name":"Zequentic","lat":"16.71694000","lon":"-92.82667000"},
{"state":"Chiapas","name":"Zinacantán","lat":"16.76020000","lon":"-92.72257000"},
{"state":"Chihuahua","name":"Abdenago C. García","lat":"29.98937000","lon":"-107.55210000"},
{"state":"Chihuahua","name":"Adolfo López Mateos","lat":"28.46667000","lon":"-107.30000000"},
{"state":"Chihuahua","name":"Ahumada","lat":"30.48174000","lon":"-106.48832000"},
{"state":"Chihuahua","name":"Aldama","lat":"28.93636000","lon":"-105.71098000"},
{"state":"Chihuahua","name":"Allende","lat":"27.07787000","lon":"-105.28789000"},
{"state":"Chihuahua","name":"Ampliación Colonia Lázaro Cárdenas","lat":"28.38333000","lon":"-105.61667000"},
{"state":"Chihuahua","name":"Anáhuac","lat":"28.48396000","lon":"-106.74720000"},
{"state":"Chihuahua","name":"Aquiles Serdán","lat":"28.58454000","lon":"-105.88108000"},
{"state":"Chihuahua","name":"Ascensión","lat":"31.27914000","lon":"-107.73149000"},
{"state":"Chihuahua","name":"Baborigame","lat":"26.42962000","lon":"-107.26857000"},
{"state":"Chihuahua","name":"Bachíniva","lat":"28.76801000","lon":"-107.25559000"},
{"state":"Chihuahua","name":"Bahuichivo","lat":"27.40950000","lon":"-108.06740000"},
{"state":"Chihuahua","name":"Balleza","lat":"26.95154000","lon":"-106.34921000"},
{"state":"Chihuahua","name":"Basaseachic","lat":"28.20626000","lon":"-108.21270000"},
{"state":"Chihuahua","name":"Basúchil","lat":"28.52479000","lon":"-107.40172000"},
{"state":"Chihuahua","name":"Batopilas","lat":"27.02846000","lon":"-107.74125000"},
{"state":"Chihuahua","name":"Benito Juárez","lat":"29.74624000","lon":"-107.93966000"},
{"state":"Chihuahua","name":"Bocoyna","lat":"27.84133000","lon":"-107.58918000"},
{"state":"Chihuahua","name":"Boquilla de Babisas (La Boquilla de Conchos)","lat":"27.54861000","lon":"-105.40361000"},
{"state":"Chihuahua","name":"Buenaventura","lat":"30.02116000","lon":"-107.19308000"},
{"state":"Chihuahua","name":"Camargo","lat":"27.82905000","lon":"-104.78012000"},
{"state":"Chihuahua","name":"Carichí","lat":"27.74601000","lon":"-107.07795000"},
{"state":"Chihuahua","name":"Carretas","lat":"28.24920000","lon":"-106.51062000"},
{"state":"Chihuahua","name":"Casas Grandes","lat":"30.38269000","lon":"-107.95628000"},
{"state":"Chihuahua","name":"Cerocahui","lat":"27.29906000","lon":"-108.05500000"},
{"state":"Chihuahua","name":"Chihuahua","lat":"28.82669000","lon":"-106.19876000"},
{"state":"Chihuahua","name":"Chínipas","lat":"27.39502000","lon":"-108.53730000"},
{"state":"Chihuahua","name":"Ciudad Delicias","lat":"28.19013000","lon":"-105.47012000"},
{"state":"Chihuahua","name":"Colonia Abraham González (La Quemada)","lat":"28.20667000","lon":"-105.40750000"},
{"state":"Chihuahua","name":"Colonia Campesina","lat":"28.14028000","lon":"-105.52667000"},
{"state":"Chihuahua","name":"Colonia Felipe Ángeles","lat":"28.38550000","lon":"-105.51184000"},
{"state":"Chihuahua","name":"Colonia Nicolás Bravo (Kilómetro Noventa y Dos)","lat":"28.09222000","lon":"-105.52778000"},
{"state":"Chihuahua","name":"Colonia Revolución","lat":"28.24167000","lon":"-105.44361000"},
{"state":"Chihuahua","name":"Colonia Terrazas","lat":"28.23795000","lon":"-105.46527000"},
{"state":"Chihuahua","name":"Conchos","lat":"27.58745000","lon":"-105.33358000"},
{"state":"Chihuahua","name":"Congregación Ortíz","lat":"28.25375000","lon":"-105.51922000"},
{"state":"Chihuahua","name":"Coyame","lat":"29.46141000","lon":"-105.09404000"},
{"state":"Chihuahua","name":"Coyame del Sotol","lat":"29.68793000","lon":"-105.13855000"},
{"state":"Chihuahua","name":"Creel","lat":"27.75054000","lon":"-107.63520000"},
{"state":"Chihuahua","name":"Cuauhtémoc","lat":"28.40884000","lon":"-106.86319000"},
{"state":"Chihuahua","name":"Cusihuiriachi","lat":"28.23980000","lon":"-106.83477000"},
{"state":"Chihuahua","name":"Delicias","lat":"28.16948000","lon":"-105.44913000"},
{"state":"Chihuahua","name":"Dr. Belisario Domínguez","lat":"27.98462000","lon":"-106.45234000"},
{"state":"Chihuahua","name":"Ejido Benito Juárez","lat":"30.14937000","lon":"-106.88362000"},
{"state":"Chihuahua","name":"Ejido El Largo","lat":"29.68333000","lon":"-108.26667000"},
{"state":"Chihuahua","name":"Ejido El Vergel","lat":"26.47133000","lon":"-106.38320000"},
{"state":"Chihuahua","name":"Ejido La Quemada","lat":"28.84761000","lon":"-107.02152000"},
{"state":"Chihuahua","name":"El Molino","lat":"28.16608000","lon":"-105.53783000"},
{"state":"Chihuahua","name":"El Oro","lat":"26.86320000","lon":"-105.84838000"},
{"state":"Chihuahua","name":"El Sauz","lat":"29.05056000","lon":"-106.25280000"},
{"state":"Chihuahua","name":"El Terrero","lat":"29.18152000","lon":"-107.38740000"},
{"state":"Chihuahua","name":"El Tule","lat":"27.07325000","lon":"-106.31735000"},
{"state":"Chihuahua","name":"Estación Conchos","lat":"27.97326000","lon":"-105.28843000"},
{"state":"Chihuahua","name":"Estación Consuelo","lat":"28.33118000","lon":"-105.59471000"},
{"state":"Chihuahua","name":"Galeana","lat":"30.10916000","lon":"-107.63167000"},
{"state":"Chihuahua","name":"Gómez Farías","lat":"29.35981000","lon":"-107.73960000"},
{"state":"Chihuahua","name":"Gran Morelos","lat":"28.24841000","lon":"-106.49357000"},
{"state":"Chihuahua","name":"Guachochi","lat":"27.17004000","lon":"-107.29404000"},
{"state":"Chihuahua","name":"Guadalupe","lat":"30.82737000","lon":"-105.64057000"},
{"state":"Chihuahua","name":"Guadalupe Victoria","lat":"31.53396000","lon":"-107.73835000"},
{"state":"Chihuahua","name":"Guadalupe y Calvo","lat":"26.09117000","lon":"-106.96260000"},
{"state":"Chihuahua","name":"Guazapares","lat":"27.44005000","lon":"-108.23338000"},
{"state":"Chihuahua","name":"Guerrero","lat":"28.42888000","lon":"-107.50377000"},
{"state":"Chihuahua","name":"Hidalgo del Parral","lat":"27.07964000","lon":"-105.70722000"},
{"state":"Chihuahua","name":"Huejotitán","lat":"27.05623000","lon":"-106.17819000"},
{"state":"Chihuahua","name":"Ignacio Zaragoza","lat":"29.64248000","lon":"-107.76375000"},
{"state":"Chihuahua","name":"Independencia","lat":"29.09231000","lon":"-107.54322000"},
{"state":"Chihuahua","name":"Janos","lat":"30.88909000","lon":"-108.19431000"},
{"state":"Chihuahua","name":"Jiménez","lat":"28.33333000","lon":"-105.40000000"},
{"state":"Chihuahua","name":"José Esteban Coronado","lat":"26.73722000","lon":"-105.15833000"},
{"state":"Chihuahua","name":"José Mariano Jiménez","lat":"27.13076000","lon":"-104.92391000"},
{"state":"Chihuahua","name":"Juárez","lat":"31.72024000","lon":"-106.46084000"},
{"state":"Chihuahua","name":"Julimes","lat":"28.42376000","lon":"-105.42727000"},
{"state":"Chihuahua","name":"Kilómetro Noventa y Nueve","lat":"28.12668000","lon":"-105.58018000"},
{"state":"Chihuahua","name":"La Constitución","lat":"29.92077000","lon":"-106.79620000"},
{"state":"Chihuahua","name":"La Cruz","lat":"27.86359000","lon":"-105.19596000"},
{"state":"Chihuahua","name":"La Junta","lat":"28.48003000","lon":"-107.32948000"},
{"state":"Chihuahua","name":"Las Cruces","lat":"29.43278000","lon":"-107.38958000"},
{"state":"Chihuahua","name":"Las Varas","lat":"28.15659000","lon":"-105.34058000"},
{"state":"Chihuahua","name":"Las Varas (Estación Babícora)","lat":"29.48083000","lon":"-108.02556000"},
{"state":"Chihuahua","name":"Las Yerbitas [Aserradero]","lat":"26.08025000","lon":"-106.77969000"},
{"state":"Chihuahua","name":"Lázaro Cárdenas","lat":"28.39051000","lon":"-105.62346000"},
{"state":"Chihuahua","name":"Loma Blanca","lat":"31.57996000","lon":"-106.29604000"},
{"state":"Chihuahua","name":"Madera","lat":"29.19366000","lon":"-108.14684000"},
{"state":"Chihuahua","name":"Maguarichi","lat":"27.81655000","lon":"-107.96866000"},
{"state":"Chihuahua","name":"Manuel Benavides","lat":"28.94431000","lon":"-103.91889000"},
{"state":"Chihuahua","name":"Manuel Ojinaga","lat":"29.56444000","lon":"-104.41639000"},
{"state":"Chihuahua","name":"Mariano Balleza","lat":"26.95389000","lon":"-106.34611000"},
{"state":"Chihuahua","name":"Matachí","lat":"28.84287000","lon":"-107.75503000"},
{"state":"Chihuahua","name":"Matamoros","lat":"26.76209000","lon":"-105.58523000"},
{"state":"Chihuahua","name":"Meoqui","lat":"28.27226000","lon":"-105.48046000"},
{"state":"Chihuahua","name":"Mesa del Huracán","lat":"29.67045000","lon":"-108.25182000"},
{"state":"Chihuahua","name":"Miguel Ahumada","lat":"30.61861000","lon":"-106.51222000"},
{"state":"Chihuahua","name":"Miguel Hidalgo","lat":"28.15361000","lon":"-105.39389000"},
{"state":"Chihuahua","name":"Monte Verde","lat":"30.91401000","lon":"-108.71573000"},
{"state":"Chihuahua","name":"Morelos","lat":"26.67289000","lon":"-107.67665000"},
{"state":"Chihuahua","name":"Moris","lat":"28.14888000","lon":"-108.52325000"},
{"state":"Chihuahua","name":"Naica","lat":"27.85736000","lon":"-105.49233000"},
{"state":"Chihuahua","name":"Namiquipa","lat":"29.25173000","lon":"-107.41400000"},
{"state":"Chihuahua","name":"Nicolas Bravo","lat":"29.35306000","lon":"-107.93440000"},
{"state":"Chihuahua","name":"Ninguno [CERESO]","lat":"28.60972000","lon":"-105.94028000"},
{"state":"Chihuahua","name":"Nonoava","lat":"27.43854000","lon":"-106.73285000"},
{"state":"Chihuahua","name":"Nuevo Casas Grandes","lat":"30.41552000","lon":"-107.91166000"},
{"state":"Chihuahua","name":"Ocampo","lat":"28.19367000","lon":"-108.36760000"},
{"state":"Chihuahua","name":"Octaviano López","lat":"27.00250000","lon":"-105.03306000"},
{"state":"Chihuahua","name":"Ojinaga","lat":"29.31371000","lon":"-104.44840000"},
{"state":"Chihuahua","name":"Orranteño","lat":"28.18272000","lon":"-105.33774000"},
{"state":"Chihuahua","name":"Oscar Soto Maynez","lat":"29.02963000","lon":"-107.47242000"},
{"state":"Chihuahua","name":"Parral","lat":"26.93022000","lon":"-105.66640000"},
{"state":"Chihuahua","name":"Peña Blanca","lat":"29.28984000","lon":"-107.71130000"},
{"state":"Chihuahua","name":"Porvenir","lat":"31.24038000","lon":"-105.87664000"},
{"state":"Chihuahua","name":"Praxedis G. Guerrero","lat":"31.37061000","lon":"-106.00616000"},
{"state":"Chihuahua","name":"Praxédis Guerrero","lat":"31.36667000","lon":"-106.01667000"},
{"state":"Chihuahua","name":"Pueblito de Allende","lat":"26.99065000","lon":"-105.32686000"},
{"state":"Chihuahua","name":"Puerto Palomas","lat":"31.77718000","lon":"-107.63439000"},
{"state":"Chihuahua","name":"Riva Palacio","lat":"28.81462000","lon":"-106.64990000"},
{"state":"Chihuahua","name":"Rodrígo M. Quevedo","lat":"29.91982000","lon":"-107.52079000"},
{"state":"Chihuahua","name":"Rosales","lat":"28.18753000","lon":"-105.55717000"},
{"state":"Chihuahua","name":"Rosario","lat":"27.25616000","lon":"-106.29878000"},
{"state":"Chihuahua","name":"Samachique","lat":"27.30156000","lon":"-107.53897000"},
{"state":"Chihuahua","name":"Samalayuca","lat":"31.34242000","lon":"-106.47981000"},
{"state":"Chihuahua","name":"San Agustín","lat":"31.51674000","lon":"-106.25548000"},
{"state":"Chihuahua","name":"San Andrés","lat":"28.54726000","lon":"-106.50350000"},
{"state":"Chihuahua","name":"San Buenaventura","lat":"29.84320000","lon":"-107.46067000"},
{"state":"Chihuahua","name":"San Carlos","lat":"29.10665000","lon":"-103.90722000"},
{"state":"Chihuahua","name":"San Francisco de Borja","lat":"27.90171000","lon":"-106.68562000"},
{"state":"Chihuahua","name":"San Francisco de Conchos","lat":"27.57356000","lon":"-105.37779000"},
{"state":"Chihuahua","name":"San Francisco del Oro","lat":"26.89417000","lon":"-105.90594000"},
{"state":"Chihuahua","name":"San Isidro","lat":"31.54683000","lon":"-106.27868000"},
{"state":"Chihuahua","name":"San Juanito","lat":"27.97295000","lon":"-107.60199000"},
{"state":"Chihuahua","name":"San Lorenzo","lat":"28.15352000","lon":"-106.47695000"},
{"state":"Chihuahua","name":"San Rafael","lat":"27.49750000","lon":"-107.89099000"},
{"state":"Chihuahua","name":"Santa Bárbara","lat":"26.80381000","lon":"-105.82024000"},
{"state":"Chihuahua","name":"Santa Eulalia","lat":"28.59450000","lon":"-105.88796000"},
{"state":"Chihuahua","name":"Santa Isabel","lat":"28.34166000","lon":"-106.37220000"},
{"state":"Chihuahua","name":"Saucillo","lat":"28.03055000","lon":"-105.29376000"},
{"state":"Chihuahua","name":"Sisoguichi","lat":"27.78304000","lon":"-107.49517000"},
{"state":"Chihuahua","name":"Témoris","lat":"27.27569000","lon":"-108.27946000"},
{"state":"Chihuahua","name":"Temósachic","lat":"28.95469000","lon":"-107.82957000"},
{"state":"Chihuahua","name":"Tomochic","lat":"28.35273000","lon":"-107.84576000"},
{"state":"Chihuahua","name":"Turuachi","lat":"26.13139000","lon":"-106.70417000"},
{"state":"Chihuahua","name":"Urique","lat":"27.21122000","lon":"-107.91415000"},
{"state":"Chihuahua","name":"Uruachi","lat":"27.84669000","lon":"-108.36712000"},
{"state":"Chihuahua","name":"Valentín Gómez Farías","lat":"28.21667000","lon":"-106.58333000"},
{"state":"Chihuahua","name":"Valle de Allende","lat":"26.93527000","lon":"-105.39271000"},
{"state":"Chihuahua","name":"Valle de Zaragoza","lat":"27.45066000","lon":"-105.80847000"},
{"state":"Chihuahua","name":"Valle del Rosario","lat":"27.31881000","lon":"-106.29551000"},
{"state":"Chihuahua","name":"Yécora","lat":"28.37154000","lon":"-108.92781000"},
{"state":"Ciudad de México","name":"Álvaro Obregón","lat":"19.37496000","lon":"-99.21976000"},
{"state":"Ciudad de México","name":"Azcapotzalco","lat":"19.48698000","lon":"-99.18594000"},
{"state":"Ciudad de México","name":"Benito Juarez","lat":"19.39840000","lon":"-99.15766000"},
{"state":"Ciudad de México","name":"Ciudad de México","lat":"19.42847000","lon":"-99.12766000"},
{"state":"Ciudad de México","name":"Col. Bosques de las Lomas","lat":"19.37893000","lon":"-99.26587000"},
{"state":"Ciudad de México","name":"Colonia del Valle","lat":"19.38611000","lon":"-99.16204000"},
{"state":"Ciudad de México","name":"Colonia Nativitas","lat":"19.38119000","lon":"-99.13685000"},
{"state":"Ciudad de México","name":"Coyoacán","lat":"19.34670000","lon":"-99.16174000"},
{"state":"Ciudad de México","name":"Cuauhtémoc","lat":"19.44506000","lon":"-99.14612000"},
{"state":"Ciudad de México","name":"Delegación Cuajimalpa de Morelos","lat":"19.36920000","lon":"-99.29089000"},
{"state":"Ciudad de México","name":"Gustavo A. Madero","lat":"19.48407000","lon":"-99.11144000"},
{"state":"Ciudad de México","name":"Gustavo Adolfo Madero","lat":"19.49392000","lon":"-99.11075000"},
{"state":"Ciudad de México","name":"Iztacalco","lat":"19.39528000","lon":"-99.09778000"},
{"state":"Ciudad de México","name":"Iztapalapa","lat":"19.35529000","lon":"-99.06224000"},
{"state":"Ciudad de México","name":"Lomas de Tepemecatl","lat":"19.23861000","lon":"-99.23944000"},
{"state":"Ciudad de México","name":"Magdalena Contreras","lat":"19.33212000","lon":"-99.21118000"},
{"state":"Ciudad de México","name":"Miguel Hidalgo","lat":"19.43411000","lon":"-99.20024000"},
{"state":"Ciudad de México","name":"Milpa Alta","lat":"19.19251000","lon":"-99.02317000"},
{"state":"Ciudad de México","name":"Polanco","lat":"19.43332000","lon":"-99.19919000"},
{"state":"Ciudad de México","name":"San Andrés Mixquic","lat":"19.22512000","lon":"-98.96408000"},
{"state":"Ciudad de México","name":"San Antonio Tecómitl","lat":"19.21778000","lon":"-98.98806000"},
{"state":"Ciudad de México","name":"San Bartolome Xicomulco","lat":"19.20607000","lon":"-99.06820000"},
{"state":"Ciudad de México","name":"San Francisco Tecoxpa","lat":"19.19167000","lon":"-99.00639000"},
{"state":"Ciudad de México","name":"San Juan Ixtayopan","lat":"19.23187000","lon":"-98.99867000"},
{"state":"Ciudad de México","name":"San Lorenzo Acopilco","lat":"19.33002000","lon":"-99.32721000"},
{"state":"Ciudad de México","name":"San Lorenzo Tlacoyucan","lat":"19.17605000","lon":"-99.03219000"},
{"state":"Ciudad de México","name":"San Miguel Ajusco","lat":"19.22201000","lon":"-99.20242000"},
{"state":"Ciudad de México","name":"San Miguel Topilejo","lat":"19.20264000","lon":"-99.14193000"},
{"state":"Ciudad de México","name":"San Pablo Oztotepec","lat":"19.18652000","lon":"-99.07361000"},
{"state":"Ciudad de México","name":"San Pedro Atocpan","lat":"19.20160000","lon":"-99.04963000"},
{"state":"Ciudad de México","name":"San Salvador Cuauhtenco","lat":"19.19276000","lon":"-99.08983000"},
{"state":"Ciudad de México","name":"Santa Ana Tlacotenco","lat":"19.17569000","lon":"-98.99788000"},
{"state":"Ciudad de México","name":"Santa Catarina Yecahuizotl","lat":"19.31205000","lon":"-98.96461000"},
{"state":"Ciudad de México","name":"Tetelco","lat":"19.21673000","lon":"-98.97295000"},
{"state":"Ciudad de México","name":"Tláhuac","lat":"19.28689000","lon":"-99.00507000"},
{"state":"Ciudad de México","name":"Tlalpan","lat":"19.29513000","lon":"-99.16206000"},
{"state":"Ciudad de México","name":"Venustiano Carranza","lat":"19.44361000","lon":"-99.10499000"},
{"state":"Ciudad de México","name":"Xochimilco","lat":"19.25465000","lon":"-99.10356000"},
{"state":"Coahuila de Zaragoza","name":"Abasolo","lat":"27.18219000","lon":"-101.42757000"},
{"state":"Coahuila de Zaragoza","name":"Agua Nueva","lat":"25.18934000","lon":"-101.08840000"},
{"state":"Coahuila de Zaragoza","name":"Albia","lat":"25.66537000","lon":"-103.36253000"},
{"state":"Coahuila de Zaragoza","name":"Alejo González (Bilbao)","lat":"25.82194000","lon":"-103.19472000"},
{"state":"Coahuila de Zaragoza","name":"Arteaga","lat":"25.44528000","lon":"-100.84667000"},
{"state":"Coahuila de Zaragoza","name":"Boquilla de las Perlas","lat":"25.32803000","lon":"-103.28870000"},
{"state":"Coahuila de Zaragoza","name":"Candela","lat":"26.83840000","lon":"-100.66630000"},
{"state":"Coahuila de Zaragoza","name":"Castaños","lat":"26.78932000","lon":"-101.43211000"},
{"state":"Coahuila de Zaragoza","name":"Chula Vista","lat":"27.04083000","lon":"-103.36611000"},
{"state":"Coahuila de Zaragoza","name":"Ciudad Acuña","lat":"29.32322000","lon":"-100.95217000"},
{"state":"Coahuila de Zaragoza","name":"Ciudad Melchor Múzquiz","lat":"27.87933000","lon":"-101.51615000"},
{"state":"Coahuila de Zaragoza","name":"Cloete","lat":"27.92097000","lon":"-101.17576000"},
{"state":"Coahuila de Zaragoza","name":"Colonia Diana Laura Riojas de Colosio","lat":"26.97722000","lon":"-101.48083000"},
{"state":"Coahuila de Zaragoza","name":"Colonia Venustiano Carranza","lat":"28.63861000","lon":"-100.55667000"},
{"state":"Coahuila de Zaragoza","name":"Compuertas","lat":"25.74681000","lon":"-103.30250000"},
{"state":"Coahuila de Zaragoza","name":"Concordia","lat":"25.77982000","lon":"-103.11696000"},
{"state":"Coahuila de Zaragoza","name":"Coyote","lat":"25.69510000","lon":"-103.28420000"},
{"state":"Coahuila de Zaragoza","name":"Cuatro Ciénegas de Carranza","lat":"26.98542000","lon":"-102.06386000"},
{"state":"Coahuila de Zaragoza","name":"Ejido Venustiano Carranza","lat":"25.35091000","lon":"-102.95698000"},
{"state":"Coahuila de Zaragoza","name":"El Cambio","lat":"25.64048000","lon":"-103.32710000"},
{"state":"Coahuila de Zaragoza","name":"El Consuelo","lat":"25.57131000","lon":"-103.27620000"},
{"state":"Coahuila de Zaragoza","name":"El Cuije","lat":"25.69670000","lon":"-103.34107000"},
{"state":"Coahuila de Zaragoza","name":"El Lequeitio","lat":"25.84673000","lon":"-103.27890000"},
{"state":"Coahuila de Zaragoza","name":"El Nilo","lat":"25.73363000","lon":"-102.94297000"},
{"state":"Coahuila de Zaragoza","name":"El Perú","lat":"25.60290000","lon":"-103.34423000"},
{"state":"Coahuila de Zaragoza","name":"El Porvenir (El Porvenir de Arriba)","lat":"25.77444000","lon":"-103.32528000"},
{"state":"Coahuila de Zaragoza","name":"El Retiro","lat":"25.82758000","lon":"-103.13004000"},
{"state":"Coahuila de Zaragoza","name":"Escuadrón Doscientos Uno","lat":"25.67433000","lon":"-103.34829000"},
{"state":"Coahuila de Zaragoza","name":"Fraccionamiento la Noria","lat":"25.55722000","lon":"-103.34361000"},
{"state":"Coahuila de Zaragoza","name":"Frontera","lat":"26.92814000","lon":"-101.45212000"},
{"state":"Coahuila de Zaragoza","name":"General Cepeda","lat":"25.37767000","lon":"-101.47571000"},
{"state":"Coahuila de Zaragoza","name":"Gilita","lat":"25.39314000","lon":"-103.19976000"},
{"state":"Coahuila de Zaragoza","name":"Granada","lat":"25.64127000","lon":"-103.26710000"},
{"state":"Coahuila de Zaragoza","name":"Guerrero","lat":"28.30992000","lon":"-100.38048000"},
{"state":"Coahuila de Zaragoza","name":"Hércules","lat":"28.04306000","lon":"-103.79111000"},
{"state":"Coahuila de Zaragoza","name":"Hidalgo","lat":"27.78994000","lon":"-99.87699000"},
{"state":"Coahuila de Zaragoza","name":"Hormiguero","lat":"25.68386000","lon":"-103.34121000"},
{"state":"Coahuila de Zaragoza","name":"Huachichil","lat":"25.21114000","lon":"-100.82570000"},
{"state":"Coahuila de Zaragoza","name":"Huitrón","lat":"25.85748000","lon":"-103.34825000"},
{"state":"Coahuila de Zaragoza","name":"Jaboncillo","lat":"25.74809000","lon":"-103.26550000"},
{"state":"Coahuila de Zaragoza","name":"Jiménez","lat":"29.06975000","lon":"-100.67895000"},
{"state":"Coahuila de Zaragoza","name":"La Concha","lat":"25.63524000","lon":"-103.38136000"},
{"state":"Coahuila de Zaragoza","name":"La Cruz","lat":"26.99339000","lon":"-101.49580000"},
{"state":"Coahuila de Zaragoza","name":"La Esmeralda","lat":"27.28735000","lon":"-103.66283000"},
{"state":"Coahuila de Zaragoza","name":"La Esperanza","lat":"25.56631000","lon":"-103.28123000"},
{"state":"Coahuila de Zaragoza","name":"La Fe","lat":"25.84743000","lon":"-103.20117000"},
{"state":"Coahuila de Zaragoza","name":"La Florida","lat":"25.76811000","lon":"-103.32424000"},
{"state":"Coahuila de Zaragoza","name":"La Luz","lat":"25.72621000","lon":"-103.24540000"},
{"state":"Coahuila de Zaragoza","name":"La Palma","lat":"25.60830000","lon":"-103.32228000"},
{"state":"Coahuila de Zaragoza","name":"La Partida","lat":"25.59181000","lon":"-103.29994000"},
{"state":"Coahuila de Zaragoza","name":"La Paz","lat":"25.59390000","lon":"-103.35852000"},
{"state":"Coahuila de Zaragoza","name":"La Perla","lat":"25.49696000","lon":"-103.35088000"},
{"state":"Coahuila de Zaragoza","name":"La Pinta","lat":"25.90281000","lon":"-103.26476000"},
{"state":"Coahuila de Zaragoza","name":"Laguna del Rey (Químicas del Rey)","lat":"27.03056000","lon":"-103.36667000"},
{"state":"Coahuila de Zaragoza","name":"Lamadrid","lat":"27.05087000","lon":"-101.79552000"},
{"state":"Coahuila de Zaragoza","name":"Las Mieleras","lat":"25.39948000","lon":"-103.26740000"},
{"state":"Coahuila de Zaragoza","name":"Los Álamos","lat":"28.35645000","lon":"-100.94564000"},
{"state":"Coahuila de Zaragoza","name":"Luchanas","lat":"25.79091000","lon":"-103.19384000"},
{"state":"Coahuila de Zaragoza","name":"Maravillas","lat":"25.65872000","lon":"-103.34079000"},
{"state":"Coahuila de Zaragoza","name":"Matamoros","lat":"25.52699000","lon":"-103.22850000"},
{"state":"Coahuila de Zaragoza","name":"Mayran","lat":"25.67296000","lon":"-102.84288000"},
{"state":"Coahuila de Zaragoza","name":"Minas de Barroterán","lat":"27.65144000","lon":"-101.28212000"},
{"state":"Coahuila de Zaragoza","name":"Monclova","lat":"26.90687000","lon":"-101.42056000"},
{"state":"Coahuila de Zaragoza","name":"Nadadores","lat":"27.02819000","lon":"-101.59420000"},
{"state":"Coahuila de Zaragoza","name":"Nava","lat":"28.42071000","lon":"-100.76565000"},
{"state":"Coahuila de Zaragoza","name":"Nueva Rosita","lat":"27.94028000","lon":"-101.21812000"},
{"state":"Coahuila de Zaragoza","name":"Nuevo León","lat":"25.71863000","lon":"-103.29471000"},
{"state":"Coahuila de Zaragoza","name":"Ocampo","lat":"27.31477000","lon":"-102.39660000"},
{"state":"Coahuila de Zaragoza","name":"Ocho de Enero","lat":"26.99733000","lon":"-101.49598000"},
{"state":"Coahuila de Zaragoza","name":"Palau","lat":"27.89232000","lon":"-101.42319000"},
{"state":"Coahuila de Zaragoza","name":"Paredón","lat":"25.94580000","lon":"-100.93449000"},
{"state":"Coahuila de Zaragoza","name":"Parras de la Fuente","lat":"25.44185000","lon":"-102.17808000"},
{"state":"Coahuila de Zaragoza","name":"Piedras Negras","lat":"28.70007000","lon":"-100.52353000"},
{"state":"Coahuila de Zaragoza","name":"Primero de Mayo","lat":"27.23675000","lon":"-101.22360000"},
{"state":"Coahuila de Zaragoza","name":"Progreso","lat":"27.42841000","lon":"-100.98892000"},
{"state":"Coahuila de Zaragoza","name":"Purísima","lat":"25.68038000","lon":"-103.32218000"},
{"state":"Coahuila de Zaragoza","name":"Ramos Arizpe","lat":"25.53928000","lon":"-100.94742000"},
{"state":"Coahuila de Zaragoza","name":"Rancho Alegre","lat":"25.50237000","lon":"-103.32789000"},
{"state":"Coahuila de Zaragoza","name":"Río Bravo","lat":"28.31254000","lon":"-100.91668000"},
{"state":"Coahuila de Zaragoza","name":"Sabinas","lat":"27.85591000","lon":"-101.11738000"},
{"state":"Coahuila de Zaragoza","name":"Sacramento","lat":"27.00264000","lon":"-101.72463000"},
{"state":"Coahuila de Zaragoza","name":"Saltillo","lat":"25.42321000","lon":"-101.00530000"},
{"state":"Coahuila de Zaragoza","name":"San Antonio de las Alazanas","lat":"25.27166000","lon":"-100.57835000"},
{"state":"Coahuila de Zaragoza","name":"San Antonio del Coyote","lat":"25.69444000","lon":"-103.28556000"},
{"state":"Coahuila de Zaragoza","name":"San Buenaventura","lat":"27.06193000","lon":"-101.54891000"},
{"state":"Coahuila de Zaragoza","name":"San Carlos","lat":"29.02844000","lon":"-100.90217000"},
{"state":"Coahuila de Zaragoza","name":"San Esteban de Abajo","lat":"25.70903000","lon":"-103.00047000"},
{"state":"Coahuila de Zaragoza","name":"San Francisco de Arriba","lat":"25.75028000","lon":"-103.15631000"},
{"state":"Coahuila de Zaragoza","name":"San Ignacio","lat":"25.73643000","lon":"-103.09049000"},
{"state":"Coahuila de Zaragoza","name":"San José de Aura","lat":"27.58778000","lon":"-101.37250000"},
{"state":"Coahuila de Zaragoza","name":"San Juan de la Vaquería","lat":"25.25275000","lon":"-101.22011000"},
{"state":"Coahuila de Zaragoza","name":"San Juan de Sabinas","lat":"27.92942000","lon":"-101.30495000"},
{"state":"Coahuila de Zaragoza","name":"San Lorenzo","lat":"25.72272000","lon":"-103.15350000"},
{"state":"Coahuila de Zaragoza","name":"San Marcos","lat":"25.66667000","lon":"-103.00910000"},
{"state":"Coahuila de Zaragoza","name":"San Miguel","lat":"25.69924000","lon":"-102.95072000"},
{"state":"Coahuila de Zaragoza","name":"Santa Ana del Pilar","lat":"25.70938000","lon":"-103.30840000"},
{"state":"Coahuila de Zaragoza","name":"Santa Fé","lat":"25.56665000","lon":"-103.33200000"},
{"state":"Coahuila de Zaragoza","name":"Santo Niño Aguanaval","lat":"25.43118000","lon":"-103.27909000"},
{"state":"Coahuila de Zaragoza","name":"Seis de Octubre (Santo Niño)","lat":"25.76389000","lon":"-103.23889000"},
{"state":"Coahuila de Zaragoza","name":"Sierra Mojada","lat":"27.28861000","lon":"-103.70124000"},
{"state":"Coahuila de Zaragoza","name":"Solima","lat":"25.66249000","lon":"-103.27560000"},
{"state":"Coahuila de Zaragoza","name":"Tacubaya","lat":"25.68361000","lon":"-103.06861000"},
{"state":"Coahuila de Zaragoza","name":"Torreón","lat":"25.54389000","lon":"-103.41898000"},
{"state":"Coahuila de Zaragoza","name":"Veinte de Noviembre","lat":"25.71193000","lon":"-103.32960000"},
{"state":"Coahuila de Zaragoza","name":"Veinte de Noviembre (Santa Lucía)","lat":"25.78923000","lon":"-103.15127000"},
{"state":"Coahuila de Zaragoza","name":"Ventana","lat":"25.32695000","lon":"-103.47772000"},