[{"state":"Johor","name":"Bakri","lat":"2.04410000","lon":"102.65270000"},
{"state":"Johor","name":"Batu Pahat","lat":"1.85480000","lon":"102.93250000"},
{"state":"Johor","name":"Buloh Kasap","lat":"2.55360000","lon":"102.76400000"},
{"state":"Johor","name":"Chaah","lat":"2.24900000","lon":"103.04800000"},
{"state":"Johor","name":"Daerah Batu Pahat","lat":"1.93333000","lon":"103.00000000"},
{"state":"Johor","name":"Daerah Johor Baharu","lat":"1.65000000","lon":"103.60000000"},
{"state":"Johor","name":"Daerah Keluang","lat":"2.20000000","lon":"103.33333000"},
{"state":"Johor","name":"Daerah Kota Tinggi","lat":"1.81667000","lon":"103.96667000"},
{"state":"Johor","name":"Daerah Mersing","lat":"2.31667000","lon":"103.71667000"},
{"state":"Johor","name":"Daerah Muar","lat":"2.25000000","lon":"102.75000000"},
{"state":"Johor","name":"Daerah Pontian","lat":"1.50000000","lon":"103.50000000"},
{"state":"Johor","name":"Daerah Segamat","lat":"2.60000000","lon":"102.81667000"},
{"state":"Johor","name":"Johor Bahru","lat":"1.46550000","lon":"103.75780000"},
{"state":"Johor","name":"Kampung Pasir Gudang Baru","lat":"1.47260000","lon":"103.87800000"},
{"state":"Johor","name":"Kampung Simpang Renggam","lat":"1.82780000","lon":"103.30000000"},
{"state":"Johor","name":"Kelapa Sawit","lat":"1.66980000","lon":"103.53270000"},
{"state":"Johor","name":"Kluang","lat":"2.03046000","lon":"103.31689000"},
{"state":"Johor","name":"Kota Tinggi","lat":"1.73810000","lon":"103.89990000"},
{"state":"Johor","name":"Kulai","lat":"1.65610000","lon":"103.60320000"},
{"state":"Johor","name":"Labis","lat":"2.38500000","lon":"103.02100000"},
{"state":"Johor","name":"Mersing","lat":"2.43120000","lon":"103.84050000"},
{"state":"Johor","name":"Muar","lat":"2.04420000","lon":"102.56890000"},
{"state":"Johor","name":"Parit Raja","lat":"1.86810000","lon":"103.11240000"},
{"state":"Johor","name":"Pekan Nenas","lat":"1.51000000","lon":"103.51410000"},
{"state":"Johor","name":"Pontian Kechil","lat":"1.48660000","lon":"103.38960000"},
{"state":"Johor","name":"Segamat","lat":"2.51480000","lon":"102.81580000"},
{"state":"Johor","name":"Skudai","lat":"1.53741000","lon":"103.65779000"},
{"state":"Johor","name":"Taman Senai","lat":"1.60060000","lon":"103.64190000"},
{"state":"Johor","name":"Tangkak","lat":"2.26730000","lon":"102.54530000"},
{"state":"Johor","name":"Ulu Tiram","lat":"1.60000000","lon":"103.81667000"},
{"state":"Johor","name":"Yong Peng","lat":"2.01360000","lon":"103.06590000"},
{"state":"Kedah","name":"Alor Setar","lat":"6.12104000","lon":"100.36014000"},
{"state":"Kedah","name":"Ayer Hangat","lat":"6.42062000","lon":"99.82199000"},
{"state":"Kedah","name":"Bedong","lat":"5.72743000","lon":"100.50876000"},
{"state":"Kedah","name":"Gurun","lat":"5.81717000","lon":"100.47381000"},
{"state":"Kedah","name":"Jitra","lat":"6.26812000","lon":"100.42167000"},
{"state":"Kedah","name":"Kampung Kilim","lat":"6.40550000","lon":"99.85020000"},
{"state":"Kedah","name":"Kampung Kok","lat":"6.36759000","lon":"99.68252000"},
{"state":"Kedah","name":"Kuah","lat":"6.32649000","lon":"99.84320000"},
{"state":"Kedah","name":"Kuala Kedah","lat":"6.10000000","lon":"100.30000000"},
{"state":"Kedah","name":"Kuala Teriang","lat":"6.36377000","lon":"99.71532000"},
{"state":"Kedah","name":"Kulim","lat":"5.36499000","lon":"100.56177000"},
{"state":"Kedah","name":"Langkawi","lat":"6.35608000","lon":"99.78375000"},
{"state":"Kedah","name":"Padang Mat Sirat","lat":"6.35423000","lon":"99.73404000"},
{"state":"Kedah","name":"Sungai Petani","lat":"5.64700000","lon":"100.48772000"},
{"state":"Kelantan","name":"Gua Musang","lat":"4.88441000","lon":"101.96857000"},
{"state":"Kelantan","name":"Kampong Kadok","lat":"6.00000000","lon":"102.25000000"},
{"state":"Kelantan","name":"Kampong Pangkal Kalong","lat":"5.91667000","lon":"102.21667000"},
{"state":"Kelantan","name":"Kota Bharu","lat":"6.12361000","lon":"102.24333000"},
{"state":"Kelantan","name":"Pasir Mas","lat":"6.04934000","lon":"102.13987000"},
{"state":"Kelantan","name":"Peringat","lat":"6.03333000","lon":"102.28333000"},
{"state":"Kelantan","name":"Tumpat","lat":"6.19775000","lon":"102.17098000"},
{"state":"Kuala Lumpur","name":"Kuala Lumpur","lat":"3.14120000","lon":"101.68653000"},
{"state":"Labuan","name":"Labuan","lat":"5.28028000","lon":"115.24750000"},
{"state":"Malacca","name":"Alor Gajah","lat":"2.38040000","lon":"102.20890000"},
{"state":"Malacca","name":"Batu Berendam","lat":"2.24870000","lon":"102.24600000"},
{"state":"Malacca","name":"Bemban","lat":"2.26840000","lon":"102.37460000"},
{"state":"Malacca","name":"Bukit Rambai","lat":"2.25940000","lon":"102.18380000"},
{"state":"Malacca","name":"Kampong Masjid Tanah","lat":"2.35000000","lon":"102.11667000"},
{"state":"Malacca","name":"Kampung Ayer Keroh","lat":"2.26540000","lon":"102.28010000"},
{"state":"Malacca","name":"Kampung Ayer Molek","lat":"2.21390000","lon":"102.32780000"},
{"state":"Malacca","name":"Kampung Bukit Baharu","lat":"2.21520000","lon":"102.28510000"},
{"state":"Malacca","name":"Klebang Besar","lat":"2.21860000","lon":"102.19950000"},
{"state":"Malacca","name":"Kuala Sungai Baru","lat":"2.35940000","lon":"102.03530000"},
{"state":"Malacca","name":"Malacca","lat":"2.19600000","lon":"102.24050000"},
{"state":"Malacca","name":"Pulau Sebang","lat":"2.45500000","lon":"102.23290000"},
{"state":"Malacca","name":"Sungai Udang","lat":"2.26900000","lon":"102.14270000"},
{"state":"Negeri Sembilan","name":"Bahau","lat":"2.80790000","lon":"102.40490000"},
{"state":"Negeri Sembilan","name":"Kampung Baharu Nilai","lat":"2.80330000","lon":"101.79720000"},
{"state":"Negeri Sembilan","name":"Kuala Pilah","lat":"2.73890000","lon":"102.24870000"},
{"state":"Negeri Sembilan","name":"Port Dickson","lat":"2.53718000","lon":"101.80571000"},
{"state":"Negeri Sembilan","name":"Seremban","lat":"2.72970000","lon":"101.93810000"},
{"state":"Negeri Sembilan","name":"Tampin","lat":"2.47010000","lon":"102.23020000"},
{"state":"Pahang","name":"Bentong Town","lat":"3.52229000","lon":"101.90866000"},
{"state":"Pahang","name":"Jerantut","lat":"3.93600000","lon":"102.36260000"},
{"state":"Pahang","name":"Kampung Bukit Tinggi Bentong","lat":"3.34944000","lon":"101.82631000"},
{"state":"Pahang","name":"Kampung Tekek","lat":"2.81470000","lon":"104.15920000"},
{"state":"Pahang","name":"Kuala Lipis","lat":"4.18420000","lon":"102.04680000"},
{"state":"Pahang","name":"Kuantan","lat":"3.80770000","lon":"103.32600000"},
{"state":"Pahang","name":"Mentekab","lat":"3.48540000","lon":"102.34840000"},
{"state":"Pahang","name":"Pekan","lat":"3.48360000","lon":"103.39960000"},
{"state":"Pahang","name":"Raub","lat":"3.78990000","lon":"101.85700000"},
{"state":"Pahang","name":"Tanah Rata","lat":"4.46361000","lon":"101.37630000"},
{"state":"Pahang","name":"Temerluh","lat":"3.45060000","lon":"102.41760000"},
{"state":"Penang","name":"Batu Feringgi","lat":"5.47090000","lon":"100.24529000"},
{"state":"Penang","name":"Bukit Mertajam","lat":"5.36301000","lon":"100.46670000"},
{"state":"Penang","name":"Butterworth","lat":"5.39910000","lon":"100.36382000"},
{"state":"Penang","name":"George Town","lat":"5.41123000","lon":"100.33543000"},
{"state":"Penang","name":"Juru","lat":"5.31201000","lon":"100.44229000"},
{"state":"Penang","name":"Kampung Batu Feringgi","lat":"5.46948000","lon":"100.24449000"},
{"state":"Penang","name":"Kampung Sungai Ara","lat":"5.32699000","lon":"100.27348000"},
{"state":"Penang","name":"Kepala Batas","lat":"5.51707000","lon":"100.42650000"},
{"state":"Penang","name":"Nibong Tebal","lat":"5.16586000","lon":"100.47793000"},
{"state":"Penang","name":"Perai","lat":"5.38333000","lon":"100.38333000"},
{"state":"Penang","name":"Permatang Kuching","lat":"5.46339000","lon":"100.38144000"},
{"state":"Penang","name":"Seberang Perai","lat":"5.38770000","lon":"100.42603000"},
{"state":"Penang","name":"Tanjung Tokong","lat":"5.46061000","lon":"100.30742000"},
{"state":"Penang","name":"Tasek Glugor","lat":"5.48032000","lon":"100.49849000"},
{"state":"Penang","name":"Telaga Batu","lat":"5.46667000","lon":"100.23333000"},
{"state":"Perak","name":"Bagan Serai","lat":"5.01080000","lon":"100.54101000"},
{"state":"Perak","name":"Batu Gajah","lat":"4.46916000","lon":"101.04107000"},
{"state":"Perak","name":"Bidur","lat":"4.11667000","lon":"101.28333000"},
{"state":"Perak","name":"Ipoh","lat":"4.58410000","lon":"101.08290000"},
{"state":"Perak","name":"Kampar","lat":"4.30000000","lon":"101.15000000"},
{"state":"Perak","name":"Kampong Dungun","lat":"3.21667000","lon":"101.31667000"},
{"state":"Perak","name":"Kuala Kangsar","lat":"4.76667000","lon":"100.93333000"},
{"state":"Perak","name":"Lumut","lat":"4.23230000","lon":"100.62980000"},
{"state":"Perak","name":"Pantai Remis","lat":"4.45570000","lon":"100.62880000"},
{"state":"Perak","name":"Parit Buntar","lat":"5.12671000","lon":"100.49316000"},
{"state":"Perak","name":"Simpang Empat","lat":"4.95000000","lon":"100.63333000"},
{"state":"Perak","name":"Taiping","lat":"4.85000000","lon":"100.73333000"},
{"state":"Perak","name":"Tapah Road","lat":"4.16667000","lon":"101.20000000"},
{"state":"Perak","name":"Teluk Intan","lat":"4.02219000","lon":"101.02083000"},
{"state":"Perlis","name":"Kangar","lat":"6.44140000","lon":"100.19862000"},
{"state":"Perlis","name":"Kuala Perlis","lat":"6.40000000","lon":"100.13333000"},
{"state":"Perlis","name":"Pantai Cenang","lat":"6.29369000","lon":"99.72786000"},
{"state":"Putrajaya","name":"Putrajaya","lat":"2.93527000","lon":"101.69112000"},
{"state":"Sabah","name":"Bandar Labuan","lat":"5.28883000","lon":"115.26924000"},
{"state":"Sabah","name":"Beaufort","lat":"5.34730000","lon":"115.74550000"},
{"state":"Sabah","name":"Donggongon","lat":"5.90702000","lon":"116.10146000"},
{"state":"Sabah","name":"Keningau","lat":"5.33780000","lon":"116.16020000"},
{"state":"Sabah","name":"Kinarut","lat":"5.82310000","lon":"116.04660000"},
{"state":"Sabah","name":"Kota Belud","lat":"6.35100000","lon":"116.43050000"},
{"state":"Sabah","name":"Kota Kinabalu","lat":"5.97490000","lon":"116.07240000"},
{"state":"Sabah","name":"Kudat","lat":"6.88732000","lon":"116.82364000"},
{"state":"Sabah","name":"Lahad Datu","lat":"5.02298000","lon":"118.32897000"},
{"state":"Sabah","name":"Papar","lat":"5.73333000","lon":"115.93333000"},
{"state":"Sabah","name":"Putatan","lat":"5.92580000","lon":"116.06094000"},
{"state":"Sabah","name":"Ranau","lat":"5.95380000","lon":"116.66410000"},
{"state":"Sabah","name":"Sandakan","lat":"5.84020000","lon":"118.11790000"},
{"state":"Sabah","name":"Semporna","lat":"4.48178000","lon":"118.61119000"},
{"state":"Sabah","name":"Taman Rajawali","lat":"5.89477000","lon":"118.04576000"},
{"state":"Sabah","name":"Tawau","lat":"4.24482000","lon":"117.89115000"},
{"state":"Sarawak","name":"Bintulu","lat":"3.16667000","lon":"113.03333000"},
{"state":"Sarawak","name":"Data Kakus","lat":"2.65465000","lon":"113.62249000"},
{"state":"Sarawak","name":"Kapit","lat":"1.99546000","lon":"112.93254000"},
{"state":"Sarawak","name":"Kuching","lat":"1.55000000","lon":"110.33333000"},
{"state":"Sarawak","name":"Lawas","lat":"4.86040000","lon":"115.40900000"},
{"state":"Sarawak","name":"Lidung Jelo","lat":"2.64848000","lon":"114.78653000"},
{"state":"Sarawak","name":"Limbang","lat":"4.75000000","lon":"115.00000000"},
{"state":"Sarawak","name":"Long Ampan Aing or Abanang","lat":"2.65671000","lon":"114.73675000"},
{"state":"Sarawak","name":"Marudi","lat":"4.18333000","lon":"114.31667000"},
{"state":"Sarawak","name":"Miri","lat":"4.39928000","lon":"113.99163000"},
{"state":"Sarawak","name":"Mukah","lat":"2.89435000","lon":"112.09145000"},
{"state":"Sarawak","name":"Sarikei","lat":"2.11667000","lon":"111.51667000"},
{"state":"Sarawak","name":"Sibu","lat":"2.30000000","lon":"111.81667000"},
{"state":"Sarawak","name":"Simanggang","lat":"1.24722000","lon":"111.45278000"},
{"state":"Selangor","name":"Ampang","lat":"3.15000000","lon":"101.76667000"},
{"state":"Selangor","name":"Bagan Pulau Ketam","lat":"3.01667000","lon":"101.26667000"},
{"state":"Selangor","name":"Banting","lat":"2.81360000","lon":"101.50185000"},
{"state":"Selangor","name":"Batang Berjuntai","lat":"3.38333000","lon":"101.41667000"},
{"state":"Selangor","name":"Batu Arang","lat":"3.31667000","lon":"101.46667000"},
{"state":"Selangor","name":"Jenjarum","lat":"2.87240000","lon":"101.49484000"},
{"state":"Selangor","name":"Kampong Baharu Balakong","lat":"3.03333000","lon":"101.75000000"},
{"state":"Selangor","name":"Kampung Baru Subang","lat":"3.15000000","lon":"101.53333000"},
{"state":"Selangor","name":"Kampung Tanjung Karang","lat":"3.42420000","lon":"101.18490000"},
{"state":"Selangor","name":"Klang","lat":"3.03667000","lon":"101.44333000"},
{"state":"Selangor","name":"Kuala Selangor","lat":"3.35000000","lon":"101.25000000"},
{"state":"Selangor","name":"Kuang","lat":"3.25940000","lon":"101.55410000"},
{"state":"Selangor","name":"Ladang Seri Kundang","lat":"3.28560000","lon":"101.51900000"},
{"state":"Selangor","name":"Pelabuhan Klang","lat":"2.99959000","lon":"101.39287000"},
{"state":"Selangor","name":"Petaling Jaya","lat":"3.10726000","lon":"101.60671000"},
{"state":"Selangor","name":"Putra Heights","lat":"2.99361000","lon":"101.57255000"},
{"state":"Selangor","name":"Rawang","lat":"3.32130000","lon":"101.57670000"},
{"state":"Selangor","name":"Semenyih","lat":"2.95160000","lon":"101.84300000"},
{"state":"Selangor","name":"Serendah","lat":"3.36460000","lon":"101.60410000"},
{"state":"Selangor","name":"Shah Alam","lat":"3.08507000","lon":"101.53281000"},
{"state":"Selangor","name":"Subang Jaya","lat":"3.04384000","lon":"101.58062000"},
{"state":"Selangor","name":"Sungai Besar","lat":"3.67460000","lon":"100.98670000"},
{"state":"Selangor","name":"Sungai Pelek New Village","lat":"2.65000000","lon":"101.70000000"},
{"state":"Selangor","name":"Tanjung Sepat","lat":"2.65790000","lon":"101.56290000"},
{"state":"Terengganu","name":"Cukai","lat":"4.25000000","lon":"103.41667000"},
{"state":"Terengganu","name":"Jertih","lat":"5.73360000","lon":"102.48970000"},
{"state":"Terengganu","name":"Kampung Kuala Besut","lat":"5.83297000","lon":"102.55061000"},
{"state":"Terengganu","name":"Kertih","lat":"4.51410000","lon":"103.44830000"},
{"state":"Terengganu","name":"Kuala Besut","lat":"5.83303000","lon":"102.55514000"},
{"state":"Terengganu","name":"Kuala Terengganu","lat":"5.33020000","lon":"103.14080000"},
{"state":"Terengganu","name":"Marang","lat":"5.20560000","lon":"103.20590000"},
{"state":"Terengganu","name":"Paka","lat":"4.63740000","lon":"103.43680000"}]