[{"state":"Cabo Delgado Province","name":"Chiure","lat":"-13.46665000","lon":"39.70317000"},
{"state":"Cabo Delgado Province","name":"Mocímboa","lat":"-11.31667000","lon":"40.35000000"},
{"state":"Cabo Delgado Province","name":"Montepuez","lat":"-13.12556000","lon":"38.99972000"},
{"state":"Cabo Delgado Province","name":"Pemba","lat":"-12.97395000","lon":"40.51775000"},
{"state":"Gaza Province","name":"Chibuto","lat":"-24.68667000","lon":"33.53056000"},
{"state":"Gaza Province","name":"Chokwé","lat":"-24.53333000","lon":"32.98333000"},
{"state":"Gaza Province","name":"Macia","lat":"-25.02694000","lon":"33.09889000"},
{"state":"Gaza Province","name":"Xai-Xai","lat":"-25.05194000","lon":"33.64417000"},
{"state":"Inhambane Province","name":"Inhambane","lat":"-23.86500000","lon":"35.38333000"},
{"state":"Inhambane Province","name":"Maxixe","lat":"-23.85972000","lon":"35.34722000"},
{"state":"Manica Province","name":"Chimoio","lat":"-19.11639000","lon":"33.48333000"},
{"state":"Maputo","name":"KaTembe","lat":"-26.02985000","lon":"32.53204000"},
{"state":"Maputo","name":"Maputo","lat":"-25.96553000","lon":"32.58322000"},
{"state":"Maputo Province","name":"Boane District","lat":"-26.02900000","lon":"32.38900000"},
{"state":"Maputo Province","name":"Concelho de Matola","lat":"-25.83472000","lon":"32.49516000"},
{"state":"Maputo Province","name":"Magude District","lat":"-25.02389000","lon":"32.65150000"},
{"state":"Maputo Province","name":"Manhica","lat":"-25.34035000","lon":"32.84234000"},
{"state":"Maputo Province","name":"Marracuene District","lat":"-25.73938000","lon":"32.67436000"},
{"state":"Maputo Province","name":"Matola","lat":"-25.96222000","lon":"32.45889000"},
{"state":"Maputo Province","name":"Matutiune District","lat":"-26.43418000","lon":"32.58820000"},
{"state":"Maputo Province","name":"Moamba District","lat":"-25.60934000","lon":"32.24321000"},
{"state":"Maputo Province","name":"Namaacha District","lat":"-26.10900000","lon":"32.18000000"},
{"state":"Maputo Province","name":"Ressano Garcia","lat":"-25.44278000","lon":"31.99528000"},
{"state":"Nampula Province","name":"António Enes","lat":"-16.23250000","lon":"39.90861000"},
{"state":"Nampula Province","name":"Ilha de Moçambique","lat":"-15.03417000","lon":"40.73583000"},
{"state":"Nampula Province","name":"Mutuáli","lat":"-14.87056000","lon":"37.00444000"},
{"state":"Nampula Province","name":"Nacala","lat":"-14.56257000","lon":"40.68538000"},
{"state":"Nampula Province","name":"Nampula","lat":"-15.11646000","lon":"39.26660000"},
{"state":"Niassa Province","name":"Cuamba","lat":"-14.80306000","lon":"36.53722000"},
{"state":"Niassa Province","name":"Lichinga","lat":"-13.31278000","lon":"35.24056000"},
{"state":"Niassa Province","name":"Mandimba","lat":"-14.35250000","lon":"35.65056000"},
{"state":"Sofala Province","name":"Beira","lat":"-19.84361000","lon":"34.83889000"},
{"state":"Sofala Province","name":"Dondo","lat":"-19.60944000","lon":"34.74306000"},
{"state":"Sofala Province","name":"Nhamatanda District","lat":"-19.34900000","lon":"34.26800000"},
{"state":"Tete Province","name":"Tete","lat":"-16.15639000","lon":"33.58667000"},
{"state":"Zambezia Province","name":"Alto Molócuè","lat":"-15.64932000","lon":"37.66384000"},
{"state":"Zambezia Province","name":"Chinde","lat":"-18.58111000","lon":"36.45861000"},
{"state":"Zambezia Province","name":"Quelimane","lat":"-17.87861000","lon":"36.88833000"}]