[{"state":"Erongo Region","name":"Arandis","lat":"-22.41667000","lon":"14.96667000"},
{"state":"Erongo Region","name":"Hentiesbaai","lat":"-22.11667000","lon":"14.28333000"},
{"state":"Erongo Region","name":"Karibib","lat":"-21.93333000","lon":"15.83333000"},
{"state":"Erongo Region","name":"Omaruru","lat":"-21.43333000","lon":"15.93333000"},
{"state":"Erongo Region","name":"Otjimbingwe","lat":"-22.35000000","lon":"16.13333000"},
{"state":"Erongo Region","name":"Swakopmund","lat":"-22.67842000","lon":"14.52663000"},
{"state":"Erongo Region","name":"Swakopmund Constituency","lat":"-22.63199000","lon":"14.60119000"},
{"state":"Erongo Region","name":"Usakos","lat":"-22.00000000","lon":"15.60000000"},
{"state":"Erongo Region","name":"Walvis Bay","lat":"-22.95750000","lon":"14.50528000"},
{"state":"Hardap Region","name":"Aranos","lat":"-24.13333000","lon":"19.11667000"},
{"state":"Hardap Region","name":"Hoachanas","lat":"-23.91667000","lon":"18.05000000"},
{"state":"Hardap Region","name":"Maltahöhe","lat":"-24.83333000","lon":"16.98333000"},
{"state":"Hardap Region","name":"Mariental","lat":"-24.63333000","lon":"17.96667000"},
{"state":"Hardap Region","name":"Rehoboth","lat":"-23.31700000","lon":"17.09000000"},
{"state":"Karas Region","name":"Bethanie","lat":"-26.48333000","lon":"17.15000000"},
{"state":"Karas Region","name":"Karasburg","lat":"-28.01667000","lon":"18.75000000"},
{"state":"Karas Region","name":"Keetmanshoop","lat":"-26.58333000","lon":"18.13333000"},
{"state":"Karas Region","name":"Lüderitz","lat":"-26.64807000","lon":"15.15383000"},
{"state":"Karas Region","name":"Oranjemund","lat":"-28.55000000","lon":"16.43333000"},
{"state":"Karas Region","name":"Tses","lat":"-25.88333000","lon":"18.00000000"},
{"state":"Karas Region","name":"Warmbad","lat":"-28.45000000","lon":"18.73333000"},
{"state":"Kavango East Region","name":"Rundu","lat":"-17.93333000","lon":"19.76667000"},
{"state":"Khomas Region","name":"Katutura","lat":"-22.52306000","lon":"17.06028000"},
{"state":"Khomas Region","name":"Windhoek","lat":"-22.55941000","lon":"17.08323000"},
{"state":"Kunene Region","name":"Epupa Constituency","lat":"-17.00388000","lon":"13.24825000"},
{"state":"Kunene Region","name":"Khorixas","lat":"-20.36667000","lon":"14.96667000"},
{"state":"Kunene Region","name":"Khorixas Constituency","lat":"-20.36792000","lon":"14.95996000"},
{"state":"Kunene Region","name":"Opuwo","lat":"-18.06068000","lon":"13.83998000"},
{"state":"Kunene Region","name":"Opuwo Constituency","lat":"-18.54247000","lon":"13.51617000"},
{"state":"Kunene Region","name":"Outjo","lat":"-20.11667000","lon":"16.15000000"},
{"state":"Kunene Region","name":"Sesfontein Constituency","lat":"-19.56106000","lon":"13.76530000"},
{"state":"Ohangwena Region","name":"Oshikango","lat":"-17.40000000","lon":"15.88333000"},
{"state":"Omaheke Region","name":"Gobabis","lat":"-22.45000000","lon":"18.96667000"},
{"state":"Omusati Region","name":"Okahao","lat":"-17.88758000","lon":"15.06677000"},
{"state":"Omusati Region","name":"Ongandjera","lat":"-17.88333000","lon":"15.06667000"},
{"state":"Omusati Region","name":"Outapi","lat":"-17.50000000","lon":"14.98333000"},
{"state":"Oshana Region","name":"Ondangwa","lat":"-17.91667000","lon":"15.95000000"},
{"state":"Oshana Region","name":"Ongwediva","lat":"-17.78333000","lon":"15.76667000"},
{"state":"Oshana Region","name":"Oshakati","lat":"-17.78833000","lon":"15.70436000"},
{"state":"Oshikoto Region","name":"Omuthiya","lat":"-18.36463000","lon":"16.58146000"},
{"state":"Oshikoto Region","name":"Tsumeb","lat":"-19.23333000","lon":"17.71667000"},
{"state":"Otjozondjupa Region","name":"Grootfontein","lat":"-19.56667000","lon":"18.11667000"},
{"state":"Otjozondjupa Region","name":"Okahandja","lat":"-21.98333000","lon":"16.91667000"},
{"state":"Otjozondjupa Region","name":"Okakarara","lat":"-20.58333000","lon":"17.43333000"},
{"state":"Otjozondjupa Region","name":"Otavi","lat":"-19.65000000","lon":"17.33333000"},
{"state":"Otjozondjupa Region","name":"Otjiwarongo","lat":"-20.46369000","lon":"16.64772000"},
{"state":"Zambezi Region","name":"Bagani","lat":"-18.11065000","lon":"21.61645000"},
{"state":"Zambezi Region","name":"Katima Mulilo","lat":"-17.50000000","lon":"24.26667000"}]