[{"name":"Agadez Region","native":null,"cities":[{"name":"Agadez","native":null,"lat":"16.97333000","lon":"7.99111000"},{"name":"Alaghsas","native":null,"lat":"17.01870000","lon":"8.01680000"},{"name":"Arlit","native":null,"lat":"18.83409000","lon":"7.43327000"},{"name":"Bilma","native":null,"lat":"18.68532000","lon":"12.91643000"},{"name":"Département de Bilma","native":null,"lat":"20.50000000","lon":"13.25000000"},{"name":"Département de Tchirozérine","native":null,"lat":"17.43293000","lon":"7.89321000"}]},{"name":"Diffa Region","native":null,"cities":[{"name":"Département de Diffa","native":null,"lat":"13.66667000","lon":"12.50000000"},{"name":"Département de Maïné-Soroa","native":null,"lat":"13.31206000","lon":"12.08321000"},{"name":"Département de Nguigmi","native":null,"lat":"14.20753000","lon":"13.12177000"},{"name":"Diffa","native":null,"lat":"13.31536000","lon":"12.61135000"},{"name":"Maïné Soroa","native":null,"lat":"13.21139000","lon":"12.02410000"},{"name":"Nguigmi","native":null,"lat":"14.24953000","lon":"13.10921000"}]},{"name":"Dosso Region","native":null,"cities":[{"name":"Boboye Department","native":null,"lat":"13.08167000","lon":"2.91083000"},{"name":"Département de Dogondoutchi","native":null,"lat":"13.50000000","lon":"4.00000000"},{"name":"Département de Dosso","native":null,"lat":"12.83333000","lon":"3.33333000"},{"name":"Département de Gaya","native":null,"lat":"11.95970000","lon":"3.46045000"},{"name":"Département de Loga","native":null,"lat":"13.63333000","lon":"3.50000000"},{"name":"Dogondoutchi","native":null,"lat":"13.64030000","lon":"4.02649000"},{"name":"Dosso","native":null,"lat":"13.04900000","lon":"3.19370000"},{"name":"Gaya","native":null,"lat":"11.88435000","lon":"3.44919000"}]},{"name":"Maradi Region","native":null,"cities":[{"name":"Aguié","native":null,"lat":"13.50601000","lon":"7.77863000"},{"name":"Dakoro","native":null,"lat":"14.51056000","lon":"6.76500000"},{"name":"Département d’Aguié","native":null,"lat":"13.46976000","lon":"7.74219000"},{"name":"Département de Dakoro","native":null,"lat":"14.75000000","lon":"7.00000000"},{"name":"Département de Mayahi","native":null,"lat":"14.10000000","lon":"7.60000000"},{"name":"Département de Tessaoua","native":null,"lat":"13.60000000","lon":"7.90000000"},{"name":"Guidan Roumdji Department","native":null,"lat":"13.65750000","lon":"6.69583000"},{"name":"Madarounfa","native":null,"lat":"13.28253000","lon":"7.15495000"},{"name":"Maradi","native":null,"lat":"13.50000000","lon":"7.10174000"},{"name":"Mayahi","native":null,"lat":"13.95532000","lon":"7.67122000"},{"name":"Tessaoua","native":null,"lat":"13.75737000","lon":"7.98740000"},{"name":"Tibiri","native":null,"lat":"13.56271000","lon":"7.04848000"}]},{"name":"Tahoua Region","native":null,"cities":[{"name":"Abalak","native":null,"lat":"15.41618000","lon":"6.16975000"},{"name":"Birni N Konni","native":null,"lat":"13.79599000","lon":"5.25026000"},{"name":"Bouza","native":null,"lat":"14.42293000","lon":"6.04278000"},{"name":"Département d' Illéla","native":null,"lat":"14.25000000","lon":"5.00000000"},{"name":"Département de Birni Nkonni","native":null,"lat":"13.90000000","lon":"5.25000000"},{"name":"Département de Bouza","native":null,"lat":"14.43333000","lon":"6.00000000"},{"name":"Département de Keïta","native":null,"lat":"14.80000000","lon":"6.00000000"},{"name":"Département de Madaoua","native":null,"lat":"13.99988000","lon":"6.10012000"},{"name":"Département de Tahoua","native":null,"lat":"14.80000000","lon":"4.80000000"},{"name":"Département de Tchin-Tabaraden","native":null,"lat":"15.86694000","lon":"5.71042000"},{"name":"Illéla","native":null,"lat":"14.46050000","lon":"5.24370000"},{"name":"Keïta","native":null,"lat":"14.75510000","lon":"5.77490000"},{"name":"Madaoua","native":null,"lat":"14.07300000","lon":"5.96000000"},{"name":"Tahoua","native":null,"lat":"14.88880000","lon":"5.26920000"},{"name":"Tchintabaraden","native":null,"lat":"15.89690000","lon":"5.79850000"}]},{"name":"Tillabéri Region","native":null,"cities":[{"name":"Ayorou","native":null,"lat":"14.73075000","lon":"0.91739000"},{"name":"Balleyara","native":null,"lat":"13.72848000","lon":"2.87503000"},{"name":"Département de Filingué","native":null,"lat":"14.31645000","lon":"3.23611000"},{"name":"Département de Ouallam","native":null,"lat":"14.63333000","lon":"2.25000000"},{"name":"Département de Say","native":null,"lat":"13.03579000","lon":"2.22112000"},{"name":"Filingué","native":null,"lat":"14.35210000","lon":"3.31680000"},{"name":"Kollo","native":null,"lat":"13.30430000","lon":"2.33900000"},{"name":"Kollo Department","native":null,"lat":"13.57600000","lon":"2.45200000"},{"name":"Ouallam","native":null,"lat":"14.31641000","lon":"2.08597000"},{"name":"Say","native":null,"lat":"13.10070000","lon":"2.36890000"},{"name":"Téra","native":null,"lat":"14.00776000","lon":"0.75306000"},{"name":"Tera Department","native":null,"lat":"14.18600000","lon":"0.84300000"},{"name":"Tillabéri","native":null,"lat":"14.20711000","lon":"1.45418000"},{"name":"Tillaberi Department","native":null,"lat":"14.51600000","lon":"1.44300000"}]},{"name":"Zinder Region","native":null,"cities":[{"name":"Département de Gouré","native":null,"lat":"14.01618000","lon":"10.14722000"},{"name":"Département de Kantché","native":null,"lat":"13.40000000","lon":"8.60000000"},{"name":"Département de Tânout","native":null,"lat":"14.75000000","lon":"8.33333000"},{"name":"Gouré","native":null,"lat":"13.98350000","lon":"10.27035000"},{"name":"Magaria","native":null,"lat":"12.99826000","lon":"8.90991000"},{"name":"Matamey","native":null,"lat":"13.42309000","lon":"8.47485000"},{"name":"Mirriah","native":null,"lat":"13.70727000","lon":"9.15013000"},{"name":"Tanout","native":null,"lat":"14.97089000","lon":"8.88786000"},{"name":"Zinder","native":null,"lat":"13.80716000","lon":"8.98810000"}]}]