[{"state":"Agadez Region","name":"Agadez","lat":"16.97333000","lon":"7.99111000"},
{"state":"Agadez Region","name":"Alaghsas","lat":"17.01870000","lon":"8.01680000"},
{"state":"Agadez Region","name":"Arlit","lat":"18.83409000","lon":"7.43327000"},
{"state":"Agadez Region","name":"Bilma","lat":"18.68532000","lon":"12.91643000"},
{"state":"Agadez Region","name":"Département de Bilma","lat":"20.50000000","lon":"13.25000000"},
{"state":"Agadez Region","name":"Département de Tchirozérine","lat":"17.43293000","lon":"7.89321000"},
{"state":"Diffa Region","name":"Département de Diffa","lat":"13.66667000","lon":"12.50000000"},
{"state":"Diffa Region","name":"Département de Maïné-Soroa","lat":"13.31206000","lon":"12.08321000"},
{"state":"Diffa Region","name":"Département de Nguigmi","lat":"14.20753000","lon":"13.12177000"},
{"state":"Diffa Region","name":"Diffa","lat":"13.31536000","lon":"12.61135000"},
{"state":"Diffa Region","name":"Maïné Soroa","lat":"13.21139000","lon":"12.02410000"},
{"state":"Diffa Region","name":"Nguigmi","lat":"14.24953000","lon":"13.10921000"},
{"state":"Dosso Region","name":"Boboye Department","lat":"13.08167000","lon":"2.91083000"},
{"state":"Dosso Region","name":"Département de Dogondoutchi","lat":"13.50000000","lon":"4.00000000"},
{"state":"Dosso Region","name":"Département de Dosso","lat":"12.83333000","lon":"3.33333000"},
{"state":"Dosso Region","name":"Département de Gaya","lat":"11.95970000","lon":"3.46045000"},
{"state":"Dosso Region","name":"Département de Loga","lat":"13.63333000","lon":"3.50000000"},
{"state":"Dosso Region","name":"Dogondoutchi","lat":"13.64030000","lon":"4.02649000"},
{"state":"Dosso Region","name":"Dosso","lat":"13.04900000","lon":"3.19370000"},
{"state":"Dosso Region","name":"Gaya","lat":"11.88435000","lon":"3.44919000"},
{"state":"Maradi Region","name":"Aguié","lat":"13.50601000","lon":"7.77863000"},
{"state":"Maradi Region","name":"Dakoro","lat":"14.51056000","lon":"6.76500000"},
{"state":"Maradi Region","name":"Département d’Aguié","lat":"13.46976000","lon":"7.74219000"},
{"state":"Maradi Region","name":"Département de Dakoro","lat":"14.75000000","lon":"7.00000000"},
{"state":"Maradi Region","name":"Département de Mayahi","lat":"14.10000000","lon":"7.60000000"},
{"state":"Maradi Region","name":"Département de Tessaoua","lat":"13.60000000","lon":"7.90000000"},
{"state":"Maradi Region","name":"Guidan Roumdji Department","lat":"13.65750000","lon":"6.69583000"},
{"state":"Maradi Region","name":"Madarounfa","lat":"13.28253000","lon":"7.15495000"},
{"state":"Maradi Region","name":"Maradi","lat":"13.50000000","lon":"7.10174000"},
{"state":"Maradi Region","name":"Mayahi","lat":"13.95532000","lon":"7.67122000"},
{"state":"Maradi Region","name":"Tessaoua","lat":"13.75737000","lon":"7.98740000"},
{"state":"Maradi Region","name":"Tibiri","lat":"13.56271000","lon":"7.04848000"},
{"state":"Tahoua Region","name":"Abalak","lat":"15.41618000","lon":"6.16975000"},
{"state":"Tahoua Region","name":"Birni N Konni","lat":"13.79599000","lon":"5.25026000"},
{"state":"Tahoua Region","name":"Bouza","lat":"14.42293000","lon":"6.04278000"},
{"state":"Tahoua Region","name":"Département d' Illéla","lat":"14.25000000","lon":"5.00000000"},
{"state":"Tahoua Region","name":"Département de Birni Nkonni","lat":"13.90000000","lon":"5.25000000"},
{"state":"Tahoua Region","name":"Département de Bouza","lat":"14.43333000","lon":"6.00000000"},
{"state":"Tahoua Region","name":"Département de Keïta","lat":"14.80000000","lon":"6.00000000"},
{"state":"Tahoua Region","name":"Département de Madaoua","lat":"13.99988000","lon":"6.10012000"},
{"state":"Tahoua Region","name":"Département de Tahoua","lat":"14.80000000","lon":"4.80000000"},
{"state":"Tahoua Region","name":"Département de Tchin-Tabaraden","lat":"15.86694000","lon":"5.71042000"},
{"state":"Tahoua Region","name":"Illéla","lat":"14.46050000","lon":"5.24370000"},
{"state":"Tahoua Region","name":"Keïta","lat":"14.75510000","lon":"5.77490000"},
{"state":"Tahoua Region","name":"Madaoua","lat":"14.07300000","lon":"5.96000000"},
{"state":"Tahoua Region","name":"Tahoua","lat":"14.88880000","lon":"5.26920000"},
{"state":"Tahoua Region","name":"Tchintabaraden","lat":"15.89690000","lon":"5.79850000"},
{"state":"Tillabéri Region","name":"Ayorou","lat":"14.73075000","lon":"0.91739000"},
{"state":"Tillabéri Region","name":"Balleyara","lat":"13.72848000","lon":"2.87503000"},
{"state":"Tillabéri Region","name":"Département de Filingué","lat":"14.31645000","lon":"3.23611000"},
{"state":"Tillabéri Region","name":"Département de Ouallam","lat":"14.63333000","lon":"2.25000000"},
{"state":"Tillabéri Region","name":"Département de Say","lat":"13.03579000","lon":"2.22112000"},
{"state":"Tillabéri Region","name":"Filingué","lat":"14.35210000","lon":"3.31680000"},
{"state":"Tillabéri Region","name":"Kollo","lat":"13.30430000","lon":"2.33900000"},
{"state":"Tillabéri Region","name":"Kollo Department","lat":"13.57600000","lon":"2.45200000"},
{"state":"Tillabéri Region","name":"Ouallam","lat":"14.31641000","lon":"2.08597000"},
{"state":"Tillabéri Region","name":"Say","lat":"13.10070000","lon":"2.36890000"},
{"state":"Tillabéri Region","name":"Téra","lat":"14.00776000","lon":"0.75306000"},
{"state":"Tillabéri Region","name":"Tera Department","lat":"14.18600000","lon":"0.84300000"},
{"state":"Tillabéri Region","name":"Tillabéri","lat":"14.20711000","lon":"1.45418000"},
{"state":"Tillabéri Region","name":"Tillaberi Department","lat":"14.51600000","lon":"1.44300000"},
{"state":"Zinder Region","name":"Département de Gouré","lat":"14.01618000","lon":"10.14722000"},
{"state":"Zinder Region","name":"Département de Kantché","lat":"13.40000000","lon":"8.60000000"},
{"state":"Zinder Region","name":"Département de Tânout","lat":"14.75000000","lon":"8.33333000"},
{"state":"Zinder Region","name":"Gouré","lat":"13.98350000","lon":"10.27035000"},
{"state":"Zinder Region","name":"Magaria","lat":"12.99826000","lon":"8.90991000"},
{"state":"Zinder Region","name":"Matamey","lat":"13.42309000","lon":"8.47485000"},
{"state":"Zinder Region","name":"Mirriah","lat":"13.70727000","lon":"9.15013000"},
{"state":"Zinder Region","name":"Tanout","lat":"14.97089000","lon":"8.88786000"},
{"state":"Zinder Region","name":"Zinder","lat":"13.80716000","lon":"8.98810000"}]