[{"state":"Abia","name":"Aba","lat":"5.10658000","lon":"7.36667000"},
{"state":"Abia","name":"Amaigbo","lat":"5.78917000","lon":"7.83829000"},
{"state":"Abia","name":"Arochukwu","lat":"5.38941000","lon":"7.91235000"},
{"state":"Abia","name":"Bende","lat":"5.55874000","lon":"7.63359000"},
{"state":"Abia","name":"Ohafia-Ifigh","lat":"5.61455000","lon":"7.81191000"},
{"state":"Abia","name":"Umuahia","lat":"5.52491000","lon":"7.49461000"},
{"state":"Abuja Federal Capital Territory","name":"Abuja","lat":"9.05785000","lon":"7.49508000"},
{"state":"Abuja Federal Capital Territory","name":"Kuje","lat":"8.87952000","lon":"7.22756000"},
{"state":"Abuja Federal Capital Territory","name":"Kwali","lat":"8.88346000","lon":"7.01858000"},
{"state":"Abuja Federal Capital Territory","name":"Madala","lat":"9.10444000","lon":"7.21333000"},
{"state":"Adamawa","name":"Ganye","lat":"8.43497000","lon":"12.05107000"},
{"state":"Adamawa","name":"Gombi","lat":"10.16756000","lon":"12.73684000"},
{"state":"Adamawa","name":"Holma","lat":"9.89863000","lon":"13.05450000"},
{"state":"Adamawa","name":"Jimeta","lat":"9.27949000","lon":"12.45819000"},
{"state":"Adamawa","name":"Madagali","lat":"10.88942000","lon":"13.62832000"},
{"state":"Adamawa","name":"Mayo-Belwa","lat":"9.05421000","lon":"12.05794000"},
{"state":"Adamawa","name":"Mubi","lat":"10.26858000","lon":"13.26701000"},
{"state":"Adamawa","name":"Ngurore","lat":"9.28871000","lon":"12.24026000"},
{"state":"Adamawa","name":"Numan","lat":"9.46374000","lon":"12.03062000"},
{"state":"Adamawa","name":"Toungo","lat":"8.11733000","lon":"12.04611000"},
{"state":"Adamawa","name":"Yola","lat":"9.20839000","lon":"12.48146000"},
{"state":"Akwa Ibom","name":"Eket","lat":"4.64231000","lon":"7.92438000"},
{"state":"Akwa Ibom","name":"Esuk Oron","lat":"4.80293000","lon":"8.25341000"},
{"state":"Akwa Ibom","name":"Ikot Ekpene","lat":"5.18194000","lon":"7.71481000"},
{"state":"Akwa Ibom","name":"Itu","lat":"5.20131000","lon":"7.98373000"},
{"state":"Akwa Ibom","name":"Uyo","lat":"5.05127000","lon":"7.93350000"},
{"state":"Anambra","name":"Agulu","lat":"6.10045000","lon":"7.06100000"},
{"state":"Anambra","name":"Atani","lat":"6.01277000","lon":"6.74768000"},
{"state":"Anambra","name":"Awka","lat":"6.21269000","lon":"7.07199000"},
{"state":"Anambra","name":"Enugu-Ukwu","lat":"6.17146000","lon":"7.00525000"},
{"state":"Anambra","name":"Igbo-Ukwu","lat":"6.01798000","lon":"7.02027000"},
{"state":"Anambra","name":"Ihiala","lat":"5.85475000","lon":"6.85944000"},
{"state":"Anambra","name":"Nkpor","lat":"6.15038000","lon":"6.83042000"},
{"state":"Anambra","name":"Nnewi","lat":"6.01962000","lon":"6.91729000"},
{"state":"Anambra","name":"Onitsha","lat":"6.14978000","lon":"6.78569000"},
{"state":"Anambra","name":"Ozubulu","lat":"5.95753000","lon":"6.85305000"},
{"state":"Anambra","name":"Uga","lat":"5.93576000","lon":"7.07930000"},
{"state":"Anambra","name":"Uruobo-Okija","lat":"5.90016000","lon":"6.84312000"},
{"state":"Bauchi","name":"Azare","lat":"11.67478000","lon":"10.19069000"},
{"state":"Bauchi","name":"Bauchi","lat":"10.31032000","lon":"9.84388000"},
{"state":"Bauchi","name":"Boi","lat":"9.56109000","lon":"9.50154000"},
{"state":"Bauchi","name":"Bununu","lat":"9.88224000","lon":"9.68058000"},
{"state":"Bauchi","name":"Darazo","lat":"10.99920000","lon":"10.41062000"},
{"state":"Bauchi","name":"Dass","lat":"10.00065000","lon":"9.51596000"},
{"state":"Bauchi","name":"Dindima","lat":"10.22629000","lon":"10.15132000"},
{"state":"Bauchi","name":"Disina","lat":"11.48135000","lon":"9.91903000"},
{"state":"Bauchi","name":"Gabarin","lat":"11.10930000","lon":"10.44410000"},
{"state":"Bauchi","name":"Gwaram","lat":"10.23295000","lon":"10.28572000"},
{"state":"Bauchi","name":"Kari","lat":"11.24710000","lon":"10.56100000"},
{"state":"Bauchi","name":"Lame","lat":"10.44154000","lon":"9.23955000"},
{"state":"Bauchi","name":"Lere","lat":"9.71052000","lon":"9.34029000"},
{"state":"Bauchi","name":"Madara","lat":"11.77980000","lon":"10.44790000"},
{"state":"Bauchi","name":"Misau","lat":"11.31370000","lon":"10.46664000"},
{"state":"Bauchi","name":"Sade","lat":"11.35950000","lon":"10.67320000"},
{"state":"Bauchi","name":"Yamrat","lat":"10.11161000","lon":"9.82604000"},
{"state":"Bauchi","name":"Yanda Bayo","lat":"11.50710000","lon":"10.74590000"},
{"state":"Bauchi","name":"Yuli","lat":"9.69707000","lon":"10.27350000"},
{"state":"Bauchi","name":"Zadawa","lat":"11.44960000","lon":"10.36720000"},
{"state":"Bauchi","name":"Zalanga","lat":"10.61432000","lon":"10.17647000"},
{"state":"Bayelsa","name":"Amassoma","lat":"4.97032000","lon":"6.10915000"},
{"state":"Bayelsa","name":"Twon-Brass","lat":"4.31231000","lon":"6.24091000"},
{"state":"Bayelsa","name":"Yenagoa","lat":"4.92675000","lon":"6.26764000"},
{"state":"Benue","name":"Aliade","lat":"7.29627000","lon":"8.48278000"},
{"state":"Benue","name":"Boju","lat":"7.35572000","lon":"7.89303000"},
{"state":"Benue","name":"Gboko","lat":"7.33159530","lon":"8.97600680"},
{"state":"Benue","name":"Igbor","lat":"7.45123000","lon":"8.60805000"},
{"state":"Benue","name":"Makurdi","lat":"7.73375000","lon":"8.52139000"},
{"state":"Benue","name":"Ochobo","lat":"7.18045000","lon":"7.98240000"},
{"state":"Benue","name":"Otukpa","lat":"7.10168000","lon":"7.65945000"},
{"state":"Benue","name":"Takum","lat":"7.26667000","lon":"9.98333000"},
{"state":"Benue","name":"Ugbokpo","lat":"7.65321000","lon":"7.88410000"},
{"state":"Benue","name":"Yandev","lat":"7.36308000","lon":"9.04235000"},
{"state":"Benue","name":"Zaki Biam","lat":"7.50671000","lon":"9.61040000"},
{"state":"Borno","name":"Bama","lat":"11.52134000","lon":"13.68952000"},
{"state":"Borno","name":"Benisheikh","lat":"11.80919000","lon":"12.49151000"},
{"state":"Borno","name":"Biu","lat":"10.61285000","lon":"12.19458000"},
{"state":"Borno","name":"Bornu Yassu","lat":"12.27503000","lon":"12.56856000"},
{"state":"Borno","name":"Damasak","lat":"13.10518000","lon":"12.50854000"},
{"state":"Borno","name":"Damboa","lat":"11.15534000","lon":"12.75638000"},
{"state":"Borno","name":"Dikwa","lat":"12.03609000","lon":"13.91815000"},
{"state":"Borno","name":"Gamboru","lat":"12.37299000","lon":"14.20690000"},
{"state":"Borno","name":"Gwoza","lat":"11.08313000","lon":"13.69595000"},
{"state":"Borno","name":"Kukawa","lat":"12.92475000","lon":"13.56617000"},
{"state":"Borno","name":"Magumeri","lat":"12.11451000","lon":"12.82620000"},
{"state":"Borno","name":"Maiduguri","lat":"11.84692000","lon":"13.15712000"},
{"state":"Borno","name":"Marte","lat":"12.36532000","lon":"13.82930000"},
{"state":"Borno","name":"Miringa","lat":"10.73115000","lon":"12.14626000"},
{"state":"Borno","name":"Monguno","lat":"12.67059000","lon":"13.61224000"},
{"state":"Borno","name":"Ngala","lat":"12.34053000","lon":"14.18670000"},
{"state":"Borno","name":"Shaffa","lat":"10.50673000","lon":"12.33315000"},
{"state":"Borno","name":"Shani","lat":"10.21824000","lon":"12.06059000"},
{"state":"Borno","name":"Tokombere","lat":"11.22135000","lon":"13.48783000"},
{"state":"Borno","name":"Uba","lat":"10.45509000","lon":"13.22233000"},
{"state":"Borno","name":"Wuyo","lat":"10.38522000","lon":"11.69678000"},
{"state":"Borno","name":"Yajiwa","lat":"11.38623000","lon":"12.71992000"},
{"state":"Cross River","name":"Akankpa","lat":"5.12640000","lon":"8.18980000"},
{"state":"Cross River","name":"Calabar","lat":"4.95893000","lon":"8.32695000"},
{"state":"Cross River","name":"Gakem","lat":"6.76963000","lon":"8.99120000"},
{"state":"Cross River","name":"Ikang","lat":"4.78978000","lon":"8.53160000"},
{"state":"Cross River","name":"Ugep","lat":"5.80865000","lon":"8.08098000"},
{"state":"Delta","name":"Abraka","lat":"5.79023000","lon":"6.10473000"},
{"state":"Delta","name":"Agbor","lat":"6.25375000","lon":"6.19420000"},
{"state":"Delta","name":"Asaba","lat":"6.19824000","lon":"6.73187000"},
{"state":"Delta","name":"Bomadi","lat":"5.16073000","lon":"5.92375000"},
{"state":"Delta","name":"Burutu","lat":"5.35328000","lon":"5.50826000"},
{"state":"Delta","name":"Kwale","lat":"5.70773000","lon":"6.43402000"},
{"state":"Delta","name":"Obiaruku","lat":"5.84672000","lon":"6.15290000"},
{"state":"Delta","name":"Ogwashi-Uku","lat":"6.17811000","lon":"6.52461000"},
{"state":"Delta","name":"Orerokpe","lat":"5.63747000","lon":"5.89013000"},
{"state":"Delta","name":"Patani","lat":"5.22885000","lon":"6.19139000"},
{"state":"Delta","name":"Sapele","lat":"5.89405000","lon":"5.67666000"},
{"state":"Delta","name":"Ughelli","lat":"5.48956000","lon":"6.00407000"},
{"state":"Delta","name":"Umunede","lat":"6.26549000","lon":"6.30962000"},
{"state":"Delta","name":"Warri","lat":"5.51737000","lon":"5.75006000"},
{"state":"Ebonyi","name":"Abakaliki","lat":"6.32485000","lon":"8.11368000"},
{"state":"Ebonyi","name":"Afikpo","lat":"5.89258000","lon":"7.93534000"},
{"state":"Ebonyi","name":"Effium","lat":"6.63105000","lon":"8.05814000"},
{"state":"Ebonyi","name":"Ezza-Ohu","lat":"6.44094000","lon":"8.08432000"},
{"state":"Ebonyi","name":"Isieke","lat":"6.38186000","lon":"8.03736000"},
{"state":"Edo","name":"Agenebode","lat":"7.10512000","lon":"6.69381000"},
{"state":"Edo","name":"Auchi","lat":"7.06756000","lon":"6.26360000"},
{"state":"Edo","name":"Benin City","lat":"6.33815000","lon":"5.62575000"},
{"state":"Edo","name":"Ekpoma","lat":"6.74300000","lon":"6.14029000"},
{"state":"Edo","name":"Igarra","lat":"7.29366000","lon":"6.10432000"},
{"state":"Edo","name":"Illushi","lat":"6.67033000","lon":"6.62907000"},
{"state":"Edo","name":"Siluko","lat":"6.53589000","lon":"5.16005000"},
{"state":"Edo","name":"Ubiaja","lat":"6.65581000","lon":"6.38494000"},
{"state":"Edo","name":"Uromi","lat":"6.70000000","lon":"6.33333000"},
{"state":"Ekiti","name":"Ado-Ekiti","lat":"7.62329000","lon":"5.22087000"},
{"state":"Ekiti","name":"Aramoko-Ekiti","lat":"7.70483000","lon":"5.04054000"},
{"state":"Ekiti","name":"Efon-Alaaye","lat":"7.65649000","lon":"4.92235000"},
{"state":"Ekiti","name":"Emure-Ekiti","lat":"7.43636000","lon":"5.45925000"},
{"state":"Ekiti","name":"Ifaki","lat":"7.78942000","lon":"5.24852000"},
{"state":"Ekiti","name":"Igbara-Odo","lat":"7.50251000","lon":"5.06258000"},
{"state":"Ekiti","name":"Igede-Ekiti","lat":"7.66850000","lon":"5.12627000"},
{"state":"Ekiti","name":"Ijero-Ekiti","lat":"7.81514000","lon":"5.06716000"},
{"state":"Ekiti","name":"Ikere-Ekiti","lat":"7.49748000","lon":"5.23041000"},
{"state":"Ekiti","name":"Ipoti","lat":"7.87377000","lon":"5.07691000"},
{"state":"Ekiti","name":"Ise-Ekiti","lat":"7.46478000","lon":"5.42333000"},
{"state":"Ekiti","name":"Oke Ila","lat":"7.95000000","lon":"4.98333000"},
{"state":"Ekiti","name":"Omuo-Ekiti","lat":"7.75833000","lon":"5.72227000"},
{"state":"Enugu","name":"Adani","lat":"6.73971000","lon":"7.01117000"},
{"state":"Enugu","name":"Ake-Eze","lat":"5.91677000","lon":"7.67615000"},
{"state":"Enugu","name":"Aku","lat":"6.70902000","lon":"7.31826000"},
{"state":"Enugu","name":"Amagunze","lat":"6.33063000","lon":"7.65247000"},
{"state":"Enugu","name":"Awgu","lat":"6.07278000","lon":"7.47739000"},
{"state":"Enugu","name":"Eha Amufu","lat":"6.65915000","lon":"7.75961000"},
{"state":"Enugu","name":"Enugu","lat":"6.44132000","lon":"7.49883000"},
{"state":"Enugu","name":"Enugu-Ezike","lat":"6.98270000","lon":"7.45534000"},
{"state":"Enugu","name":"Ete","lat":"7.08956000","lon":"7.45341000"},
{"state":"Enugu","name":"Ikem","lat":"6.77993000","lon":"7.71484000"},
{"state":"Enugu","name":"Mberubu","lat":"6.17310000","lon":"7.63017000"},
{"state":"Enugu","name":"Nsukka","lat":"6.85783000","lon":"7.39577000"},
{"state":"Enugu","name":"Obolo-Eke (1)","lat":"6.88333000","lon":"7.63333000"},
{"state":"Enugu","name":"Opi","lat":"6.78223000","lon":"7.43319000"},
{"state":"Enugu","name":"Udi","lat":"6.31592000","lon":"7.42086000"},
{"state":"Gombe","name":"Akko","lat":"10.28899000","lon":"10.97320000"},
{"state":"Gombe","name":"Bara","lat":"10.37444000","lon":"10.72884000"},
{"state":"Gombe","name":"Billiri","lat":"9.86545000","lon":"11.22624000"},
{"state":"Gombe","name":"Dadiya","lat":"9.61667000","lon":"11.43333000"},
{"state":"Gombe","name":"Deba","lat":"10.21187000","lon":"11.38710000"},
{"state":"Gombe","name":"Dukku","lat":"10.82379000","lon":"10.77221000"},
{"state":"Gombe","name":"Garko","lat":"10.17506000","lon":"11.16458000"},
{"state":"Gombe","name":"Gombe","lat":"10.28969000","lon":"11.16729000"},
{"state":"Gombe","name":"Hinna","lat":"10.30426000","lon":"11.49905000"},
{"state":"Gombe","name":"Kafarati","lat":"10.38304000","lon":"11.09567000"},
{"state":"Gombe","name":"Kaltungo","lat":"9.81998000","lon":"11.30871000"},
{"state":"Gombe","name":"Kumo","lat":"10.04807000","lon":"11.21055000"},
{"state":"Gombe","name":"Nafada","lat":"11.09596000","lon":"11.33261000"},
{"state":"Gombe","name":"Pindiga","lat":"9.98433000","lon":"10.95229000"},
{"state":"Imo","name":"Iho","lat":"5.58225000","lon":"7.09896000"},
{"state":"Imo","name":"Oguta","lat":"5.71044000","lon":"6.80936000"},
{"state":"Imo","name":"Okigwe","lat":"5.82917000","lon":"7.35056000"},
{"state":"Imo","name":"Orlu","lat":"5.79565000","lon":"7.03513000"},
{"state":"Imo","name":"Orodo","lat":"5.61667000","lon":"7.03333000"},
{"state":"Imo","name":"Owerri","lat":"5.48363000","lon":"7.03325000"},
{"state":"Jigawa","name":"Babura","lat":"12.77256000","lon":"9.01525000"},
{"state":"Jigawa","name":"Birnin Kudu","lat":"11.45207000","lon":"9.47856000"},
{"state":"Jigawa","name":"Birniwa","lat":"12.79070000","lon":"10.23614000"},
{"state":"Jigawa","name":"Dutse","lat":"11.75618000","lon":"9.33896000"},
{"state":"Jigawa","name":"Gagarawa","lat":"12.40848000","lon":"9.52881000"},
{"state":"Jigawa","name":"Gumel","lat":"12.62690000","lon":"9.38807000"},
{"state":"Jigawa","name":"Gwaram","lat":"11.27727000","lon":"9.88385000"},
{"state":"Jigawa","name":"Hadejia","lat":"12.45347000","lon":"10.04115000"},
{"state":"Jigawa","name":"Kafin Hausa","lat":"12.23933000","lon":"9.91105000"},
{"state":"Jigawa","name":"Kazaure","lat":"12.64846000","lon":"8.41178000"},
{"state":"Jigawa","name":"Kiyawa","lat":"11.78442000","lon":"9.60690000"},
{"state":"Jigawa","name":"Mallammaduri","lat":"12.56427000","lon":"9.95727000"},
{"state":"Jigawa","name":"Ringim","lat":"12.15143000","lon":"9.16216000"},
{"state":"Jigawa","name":"Samamiya","lat":"11.34873000","lon":"9.63989000"},
{"state":"Kaduna","name":"Anchau","lat":"10.96245000","lon":"8.39233000"},
{"state":"Kaduna","name":"Burumburum","lat":"11.39106000","lon":"8.72341000"},
{"state":"Kaduna","name":"Dutsen Wai","lat":"10.85009000","lon":"8.19900000"},
{"state":"Kaduna","name":"Hunkuyi","lat":"11.26680000","lon":"7.64916000"},
{"state":"Kaduna","name":"Kachia","lat":"9.87342000","lon":"7.95407000"},
{"state":"Kaduna","name":"Kaduna","lat":"10.52641000","lon":"7.43879000"},
{"state":"Kaduna","name":"Kafanchan","lat":"9.58126000","lon":"8.29260000"},
{"state":"Kaduna","name":"Kagoro","lat":"9.60776000","lon":"8.39043000"},
{"state":"Kaduna","name":"Kajuru","lat":"10.32281000","lon":"7.68462000"},
{"state":"Kaduna","name":"Kujama","lat":"10.45767000","lon":"7.63808000"},
{"state":"Kaduna","name":"Lere","lat":"10.38584000","lon":"8.57286000"},
{"state":"Kaduna","name":"Mando","lat":"10.71667000","lon":"6.56667000"},
{"state":"Kaduna","name":"Saminaka","lat":"10.41227000","lon":"8.68748000"},
{"state":"Kaduna","name":"Soba","lat":"10.98133000","lon":"8.05749000"},
{"state":"Kaduna","name":"Sofo-Birnin-Gwari","lat":"11.01537000","lon":"6.78036000"},
{"state":"Kaduna","name":"Zaria","lat":"11.11128000","lon":"7.72270000"},
{"state":"Kano","name":"Dan Gora","lat":"11.53485000","lon":"8.15224000"},
{"state":"Kano","name":"Gaya","lat":"11.86064000","lon":"9.00270000"},
{"state":"Kano","name":"Kano","lat":"12.00012000","lon":"8.51672000"},
{"state":"Katsina","name":"Danja","lat":"11.37710000","lon":"7.56097000"},
{"state":"Katsina","name":"Dankama","lat":"13.29782000","lon":"7.79492000"},
{"state":"Katsina","name":"Daura","lat":"13.03299000","lon":"8.32351000"},
{"state":"Katsina","name":"Dutsin-Ma","lat":"12.45392000","lon":"7.49723000"},
{"state":"Katsina","name":"Funtua","lat":"11.47196000","lon":"7.30699000"},
{"state":"Katsina","name":"Gora","lat":"11.91294000","lon":"7.66531000"},
{"state":"Katsina","name":"Jibia","lat":"13.09378000","lon":"7.22624000"},
{"state":"Katsina","name":"Jikamshi","lat":"12.17328000","lon":"7.77424000"},
{"state":"Katsina","name":"Kankara","lat":"11.93114000","lon":"7.41115000"},
{"state":"Katsina","name":"Katsina","lat":"12.99082000","lon":"7.60177000"},
{"state":"Katsina","name":"Mashi","lat":"12.98044000","lon":"7.94703000"},
{"state":"Katsina","name":"Ruma","lat":"12.86260000","lon":"7.23469000"},
{"state":"Katsina","name":"Runka","lat":"12.44788000","lon":"7.30918000"},
{"state":"Katsina","name":"Wagini","lat":"12.68781000","lon":"7.19579000"},
{"state":"Kebbi","name":"Argungu","lat":"12.74482000","lon":"4.52514000"},
{"state":"Kebbi","name":"Bagudo","lat":"11.40351000","lon":"4.22571000"},
{"state":"Kebbi","name":"Bena","lat":"11.28444000","lon":"5.93472000"},
{"state":"Kebbi","name":"Bin Yauri","lat":"10.78230000","lon":"4.81135000"},
{"state":"Kebbi","name":"Birnin Kebbi","lat":"12.45389000","lon":"4.19750000"},
{"state":"Kebbi","name":"Dabai","lat":"11.47651000","lon":"5.20625000"},
{"state":"Kebbi","name":"Dakingari","lat":"11.64809000","lon":"4.06177000"},
{"state":"Kebbi","name":"Gulma","lat":"12.64231000","lon":"4.35545000"},
{"state":"Kebbi","name":"Gwandu","lat":"12.50204000","lon":"4.64295000"},
{"state":"Kebbi","name":"Jega","lat":"12.22336000","lon":"4.37971000"},
{"state":"Kebbi","name":"Kamba","lat":"11.85172000","lon":"3.65478000"},
{"state":"Kebbi","name":"Kangiwa","lat":"12.55339000","lon":"3.81814000"},
{"state":"Kebbi","name":"Kende","lat":"11.51966000","lon":"4.26030000"},
{"state":"Kebbi","name":"Mahuta","lat":"11.55338000","lon":"4.98138000"},
{"state":"Kebbi","name":"Maiyama","lat":"12.08225000","lon":"4.36907000"},
{"state":"Kebbi","name":"Shanga","lat":"11.21374000","lon":"4.57941000"},
{"state":"Kebbi","name":"Wasagu","lat":"11.37640000","lon":"5.79536000"},
{"state":"Kebbi","name":"Zuru","lat":"11.43522000","lon":"5.23494000"},
{"state":"Kogi","name":"Abocho","lat":"7.56770000","lon":"6.98630000"},
{"state":"Kogi","name":"Adoru","lat":"6.97694000","lon":"7.16262000"},
{"state":"Kogi","name":"Ankpa","lat":"7.40249000","lon":"7.63196000"},
{"state":"Kogi","name":"Bugana","lat":"7.99917000","lon":"7.58361000"},
{"state":"Kogi","name":"Dekina","lat":"7.68967000","lon":"7.04380000"},
{"state":"Kogi","name":"Egbe","lat":"8.21667000","lon":"5.51667000"},
{"state":"Kogi","name":"Icheu","lat":"7.70670000","lon":"6.77180000"},
{"state":"Kogi","name":"Idah","lat":"7.11345000","lon":"6.73866000"},
{"state":"Kogi","name":"Isanlu-Itedoijowa","lat":"8.27445000","lon":"5.83528000"},
{"state":"Kogi","name":"Kabba","lat":"7.82719000","lon":"6.07502000"},
{"state":"Kogi","name":"Koton-Karfe","lat":"8.09120000","lon":"6.79782000"},
{"state":"Kogi","name":"Lokoja","lat":"7.79688000","lon":"6.74048000"},
{"state":"Kogi","name":"Ogaminana","lat":"7.59383000","lon":"6.21798000"},
{"state":"Kogi","name":"Ogurugu","lat":"6.78636000","lon":"6.95017000"},
{"state":"Kogi","name":"Okene","lat":"7.55122000","lon":"6.23589000"},
{"state":"Kwara","name":"Ajasse Ipo","lat":"8.23333000","lon":"4.81667000"},
{"state":"Kwara","name":"Bode Saadu","lat":"8.93900000","lon":"4.78227000"},
{"state":"Kwara","name":"Gwasero","lat":"9.48333000","lon":"3.50000000"},
{"state":"Kwara","name":"Ilorin","lat":"8.49664000","lon":"4.54214000"},
{"state":"Kwara","name":"Jebba","lat":"9.11972000","lon":"4.82360000"},
{"state":"Kwara","name":"Kaiama","lat":"9.60530000","lon":"3.94101000"},
{"state":"Kwara","name":"Lafiagi","lat":"8.85299000","lon":"5.41641000"},
{"state":"Kwara","name":"Offa","lat":"8.14911000","lon":"4.72074000"},
{"state":"Kwara","name":"Okuta","lat":"9.21667000","lon":"3.18333000"},
{"state":"Kwara","name":"Omu-Aran","lat":"8.13857000","lon":"5.10260000"},
{"state":"Kwara","name":"Patigi","lat":"8.72851000","lon":"5.75561000"},
{"state":"Kwara","name":"Suya","lat":"9.46667000","lon":"3.18333000"},
{"state":"Kwara","name":"Yashikera","lat":"9.76667000","lon":"3.40000000"},
{"state":"Lagos","name":"Apapa","lat":"6.44880000","lon":"3.35901000"},
{"state":"Lagos","name":"Badagry","lat":"6.41502000","lon":"2.88132000"},
{"state":"Lagos","name":"Ebute Ikorodu","lat":"6.60086000","lon":"3.48818000"},
{"state":"Lagos","name":"Ejirin","lat":"6.61423000","lon":"3.90019000"},
{"state":"Lagos","name":"Epe","lat":"6.58412000","lon":"3.98336000"},
{"state":"Lagos","name":"Ikeja","lat":"6.59651000","lon":"3.34205000"},
{"state":"Lagos","name":"Lagos","lat":"6.45407000","lon":"3.39467000"},
{"state":"Lagos","name":"Makoko","lat":"6.49611000","lon":"3.38778000"},
{"state":"Nasarawa","name":"Buga","lat":"8.49056000","lon":"7.34139000"},
{"state":"Nasarawa","name":"Doma","lat":"8.39307000","lon":"8.35544000"},
{"state":"Nasarawa","name":"Keffi","lat":"8.84651000","lon":"7.87354000"},
{"state":"Nasarawa","name":"Lafia","lat":"8.49390000","lon":"8.51532000"},
{"state":"Nasarawa","name":"Nasarawa","lat":"8.53895000","lon":"7.70821000"},
{"state":"Nasarawa","name":"Wamba","lat":"8.94153000","lon":"8.60315000"},
{"state":"Niger","name":"Auna","lat":"10.18805000","lon":"4.72318000"},
{"state":"Niger","name":"Babana","lat":"10.42949000","lon":"3.81495000"},
{"state":"Niger","name":"Badeggi","lat":"9.05630000","lon":"6.14300000"},
{"state":"Niger","name":"Baro","lat":"8.61565000","lon":"6.41850000"},
{"state":"Niger","name":"Bokani","lat":"9.43333000","lon":"5.20000000"},
{"state":"Niger","name":"Duku","lat":"11.23610000","lon":"4.90727000"},
{"state":"Niger","name":"Ibeto","lat":"10.48536000","lon":"5.14501000"},
{"state":"Niger","name":"Konkwesso","lat":"10.84686000","lon":"4.09835000"},
{"state":"Niger","name":"Kontagora","lat":"10.40319000","lon":"5.47080000"},
{"state":"Niger","name":"Kusheriki","lat":"10.53283000","lon":"6.44222000"},
{"state":"Niger","name":"Kuta","lat":"9.86864000","lon":"6.71042000"},
{"state":"Niger","name":"Lapai","lat":"9.04439000","lon":"6.57089000"},
{"state":"Niger","name":"Minna","lat":"9.61524000","lon":"6.54776000"},
{"state":"Niger","name":"New Shagunnu","lat":"10.33957000","lon":"4.46880000"},
{"state":"Niger","name":"Suleja","lat":"9.18059000","lon":"7.17939000"},
{"state":"Niger","name":"Tegina","lat":"10.07060000","lon":"6.19060000"},
{"state":"Niger","name":"Ukata","lat":"10.83122000","lon":"5.82494000"},
{"state":"Niger","name":"Wawa","lat":"9.90222000","lon":"4.41917000"},
{"state":"Niger","name":"Zungeru","lat":"9.80726000","lon":"6.15238000"},
{"state":"Ogun","name":"Abeokuta","lat":"7.15571000","lon":"3.34509000"},
{"state":"Ogun","name":"Ado Odo","lat":"6.60000000","lon":"2.93333000"},
{"state":"Ogun","name":"Idi Iroko","lat":"6.63333000","lon":"2.73333000"},
{"state":"Ogun","name":"Ifo","lat":"6.81491000","lon":"3.19518000"},
{"state":"Ogun","name":"Ijebu-Ife","lat":"6.77837000","lon":"4.03386000"},
{"state":"Ogun","name":"Ijebu-Igbo","lat":"6.97198000","lon":"3.99938000"},
{"state":"Ogun","name":"Ijebu-Ode","lat":"6.81944000","lon":"3.91731000"},
{"state":"Ogun","name":"Ilaro","lat":"6.88901000","lon":"3.01416000"},
{"state":"Ogun","name":"Imeko","lat":"7.44888000","lon":"2.84289000"},
{"state":"Ogun","name":"Iperu","lat":"6.91002000","lon":"3.66557000"},
{"state":"Ogun","name":"Isara","lat":"6.99345000","lon":"3.68148000"},
{"state":"Ogun","name":"Owode","lat":"6.94851000","lon":"3.50561000"},
{"state":"Ondo","name":"Agbabu","lat":"6.58862000","lon":"4.83430000"},
{"state":"Ondo","name":"Akure","lat":"7.25256000","lon":"5.19312000"},
{"state":"Ondo","name":"Idanre","lat":"7.11270000","lon":"5.11590000"},
{"state":"Ondo","name":"Ifon","lat":"6.92973000","lon":"5.77368000"},
{"state":"Ondo","name":"Ilare","lat":"7.35067000","lon":"5.11333000"},
{"state":"Ondo","name":"Ode","lat":"7.78990000","lon":"5.71170000"},
{"state":"Ondo","name":"Ondo","lat":"7.09316000","lon":"4.83528000"},
{"state":"Ondo","name":"Ore","lat":"6.74716000","lon":"4.87610000"},
{"state":"Ondo","name":"Owo","lat":"7.19620000","lon":"5.58681000"},
{"state":"Osun","name":"Apomu","lat":"7.35156000","lon":"4.18335000"},
{"state":"Osun","name":"Ejigbo","lat":"7.90292000","lon":"4.31419000"},
{"state":"Osun","name":"Gbongan","lat":"7.47734000","lon":"4.35351000"},
{"state":"Osun","name":"Ijebu-Jesa","lat":"7.68287000","lon":"4.81769000"},
{"state":"Osun","name":"Ikire","lat":"7.36983000","lon":"4.18630000"},
{"state":"Osun","name":"Ikirun","lat":"7.91283000","lon":"4.66741000"},
{"state":"Osun","name":"Ila Orangun","lat":"8.01714000","lon":"4.90421000"},
{"state":"Osun","name":"Ile-Ife","lat":"7.48240000","lon":"4.56032000"},
{"state":"Osun","name":"Ilesa","lat":"7.62789000","lon":"4.74161000"},
{"state":"Osun","name":"Ilobu","lat":"7.84036000","lon":"4.48557000"},
{"state":"Osun","name":"Inisa","lat":"7.85000000","lon":"4.33333000"},
{"state":"Osun","name":"Iwo","lat":"7.63527000","lon":"4.18156000"},
{"state":"Osun","name":"Modakeke","lat":"7.38299000","lon":"4.26031000"},
{"state":"Osun","name":"Oke Mesi","lat":"7.81667000","lon":"4.91667000"},
{"state":"Osun","name":"Olupona","lat":"7.60000000","lon":"4.18333000"},
{"state":"Osun","name":"Osogbo","lat":"7.77104000","lon":"4.55698000"},
{"state":"Osun","name":"Otan Ayegbaju","lat":"7.94783000","lon":"4.78836000"},
{"state":"Osun","name":"Oyan","lat":"8.05000000","lon":"4.76667000"},
{"state":"Oyo","name":"Ago Are","lat":"8.50000000","lon":"3.41667000"},
{"state":"Oyo","name":"Alapa","lat":"8.61667000","lon":"4.38333000"},
{"state":"Oyo","name":"Fiditi","lat":"7.71361000","lon":"3.91722000"},
{"state":"Oyo","name":"Ibadan","lat":"7.37756000","lon":"3.90591000"},
{"state":"Oyo","name":"Igbeti","lat":"8.74921000","lon":"4.13113000"},
{"state":"Oyo","name":"Igbo-Ora","lat":"7.43383000","lon":"3.28788000"},
{"state":"Oyo","name":"Igboho","lat":"8.83784000","lon":"3.75628000"},
{"state":"Oyo","name":"Kisi","lat":"9.08297000","lon":"3.85196000"},
{"state":"Oyo","name":"Lalupon","lat":"7.46791000","lon":"4.06594000"},
{"state":"Oyo","name":"Ogbomoso","lat":"8.13373000","lon":"4.24014000"},
{"state":"Oyo","name":"Okeho","lat":"8.03386000","lon":"3.34759000"},
{"state":"Oyo","name":"Orita Eruwa","lat":"7.55000000","lon":"3.43333000"},
{"state":"Oyo","name":"Oyo","lat":"7.85257000","lon":"3.93125000"},
{"state":"Oyo","name":"Saki","lat":"8.66762000","lon":"3.39393000"},
{"state":"Plateau","name":"Amper","lat":"9.35509000","lon":"9.70121000"},
{"state":"Plateau","name":"Bukuru","lat":"9.79399000","lon":"8.86397000"},
{"state":"Plateau","name":"Dengi","lat":"9.36872000","lon":"9.96223000"},
{"state":"Plateau","name":"Jos","lat":"9.92849000","lon":"8.89212000"},
{"state":"Plateau","name":"Kwolla","lat":"8.90361000","lon":"9.29086000"},
{"state":"Plateau","name":"Langtang","lat":"9.14164000","lon":"9.79101000"},
{"state":"Plateau","name":"Pankshin","lat":"9.32541000","lon":"9.43520000"},
{"state":"Plateau","name":"Panyam","lat":"9.40756000","lon":"9.21481000"},
{"state":"Plateau","name":"Vom","lat":"9.72910000","lon":"8.79138000"},
{"state":"Plateau","name":"Yelwa","lat":"8.83333000","lon":"9.63333000"},
{"state":"Rivers","name":"Abalama","lat":"4.76305556","lon":"6.84027778"},
{"state":"Rivers","name":"Abonnema","lat":"4.72311690","lon":"6.77884610"},
{"state":"Rivers","name":"Ahoada","lat":"5.08333333","lon":"6.65000000"},
{"state":"Rivers","name":"Bori","lat":"4.67277778","lon":"7.37027778"},
{"state":"Rivers","name":"Buguma","lat":"4.73333333","lon":"6.86666667"},
{"state":"Rivers","name":"Chokocho","lat":"4.99083300","lon":"7.05444400"},
{"state":"Rivers","name":"Elele","lat":"5.10184167","lon":"6.81902222"},
{"state":"Rivers","name":"Obonoma","lat":"4.71138889","lon":"6.79083333"},
{"state":"Rivers","name":"Omoku","lat":"5.34200000","lon":"6.65600000"},
{"state":"Rivers","name":"Onne","lat":"4.74444444","lon":"7.03611111"},
{"state":"Rivers","name":"Opobo","lat":"4.51138889","lon":"7.54000000"},
{"state":"Rivers","name":"Port Harcourt","lat":"4.75000000","lon":"7.00000000"},
{"state":"Rivers","name":"Rumuokoro","lat":"4.86666667","lon":"6.98333333"},
{"state":"Sokoto","name":"Binji","lat":"13.22294000","lon":"4.90888000"},
{"state":"Sokoto","name":"Dange","lat":"12.85313000","lon":"5.34572000"},
{"state":"Sokoto","name":"Gandi","lat":"12.96358000","lon":"5.74337000"},
{"state":"Sokoto","name":"Goronyo","lat":"13.44226000","lon":"5.67234000"},
{"state":"Sokoto","name":"Gwadabawa","lat":"13.35819000","lon":"5.23812000"},
{"state":"Sokoto","name":"Illela","lat":"13.73064000","lon":"5.29777000"},
{"state":"Sokoto","name":"Rabah","lat":"13.12257000","lon":"5.50762000"},
{"state":"Sokoto","name":"Sokoto","lat":"13.06269000","lon":"5.24322000"},
{"state":"Sokoto","name":"Tambuwal","lat":"12.40592000","lon":"4.64605000"},
{"state":"Sokoto","name":"Wurno","lat":"13.29048000","lon":"5.42373000"},
{"state":"Taraba","name":"Baissa","lat":"7.23087000","lon":"10.62444000"},
{"state":"Taraba","name":"Beli","lat":"7.85868000","lon":"10.97187000"},
{"state":"Taraba","name":"Gassol","lat":"8.53535000","lon":"10.44615000"},
{"state":"Taraba","name":"Gembu","lat":"6.72556000","lon":"11.25652000"},
{"state":"Taraba","name":"Ibi","lat":"8.18122000","lon":"9.74431000"},
{"state":"Taraba","name":"Jalingo","lat":"8.89367000","lon":"11.35960000"},
{"state":"Taraba","name":"Lau","lat":"9.20827000","lon":"11.27541000"},
{"state":"Taraba","name":"Mutum Biyu","lat":"8.64138000","lon":"10.77355000"},
{"state":"Taraba","name":"Riti","lat":"7.90844000","lon":"9.61688000"},
{"state":"Taraba","name":"Wukari","lat":"7.87139000","lon":"9.77786000"},
{"state":"Yobe","name":"Damaturu","lat":"11.74697000","lon":"11.96083000"},
{"state":"Yobe","name":"Dankalwa","lat":"11.74449000","lon":"12.18545000"},
{"state":"Yobe","name":"Dapchi","lat":"12.49536000","lon":"11.49977000"},
{"state":"Yobe","name":"Daura","lat":"11.55410000","lon":"11.40600000"},
{"state":"Yobe","name":"Fika","lat":"11.37700000","lon":"11.23746000"},
{"state":"Yobe","name":"Gashua","lat":"12.87398000","lon":"11.04057000"},
{"state":"Yobe","name":"Geidam","lat":"12.89439000","lon":"11.92649000"},
{"state":"Yobe","name":"Goniri","lat":"11.48451000","lon":"12.31264000"},
{"state":"Yobe","name":"Gorgoram","lat":"12.63958000","lon":"10.70422000"},
{"state":"Yobe","name":"Gujba","lat":"11.49959000","lon":"11.93396000"},
{"state":"Yobe","name":"Gwio Kura","lat":"12.67479000","lon":"11.06690000"},
{"state":"Yobe","name":"Kumagunnam","lat":"13.15498000","lon":"10.63468000"},
{"state":"Yobe","name":"Lajere","lat":"11.98022000","lon":"11.44002000"},
{"state":"Yobe","name":"Machina","lat":"13.13639000","lon":"10.04924000"},
{"state":"Yobe","name":"Nguru","lat":"12.87695000","lon":"10.45536000"},
{"state":"Yobe","name":"Potiskum","lat":"11.71391000","lon":"11.08108000"},
{"state":"Zamfara","name":"Anka","lat":"12.11347000","lon":"5.92681000"},
{"state":"Zamfara","name":"Dan Sadau","lat":"11.29621000","lon":"6.49520000"},
{"state":"Zamfara","name":"Gummi","lat":"12.14484000","lon":"5.11776000"},
{"state":"Zamfara","name":"Gusau","lat":"12.17024000","lon":"6.66412000"},
{"state":"Zamfara","name":"Kaura Namoda","lat":"12.59371000","lon":"6.58648000"},
{"state":"Zamfara","name":"Kwatarkwashi","lat":"12.14082000","lon":"6.82196000"},
{"state":"Zamfara","name":"Maru","lat":"12.33360000","lon":"6.40372000"},
{"state":"Zamfara","name":"Moriki","lat":"12.87405000","lon":"6.48754000"},
{"state":"Zamfara","name":"Sauri","lat":"11.72655000","lon":"6.78374000"},
{"state":"Zamfara","name":"Tsafe","lat":"11.95775000","lon":"6.92083000"}]