[{"state":"Boaco","name":"Boaco","lat":"12.47224000","lon":"-85.65860000"},
{"state":"Boaco","name":"Camoapa","lat":"12.38383000","lon":"-85.51277000"},
{"state":"Boaco","name":"San José de los Remates","lat":"12.59750000","lon":"-85.76174000"},
{"state":"Boaco","name":"San Lorenzo","lat":"12.37830000","lon":"-85.66646000"},
{"state":"Boaco","name":"Santa Lucía","lat":"12.53262000","lon":"-85.71074000"},
{"state":"Boaco","name":"Teustepe","lat":"12.42030000","lon":"-85.79798000"},
{"state":"Carazo","name":"Diriamba","lat":"11.85812000","lon":"-86.23922000"},
{"state":"Carazo","name":"Dolores","lat":"11.85672000","lon":"-86.21552000"},
{"state":"Carazo","name":"El Rosario","lat":"11.77756000","lon":"-86.37374000"},
{"state":"Carazo","name":"Jinotepe","lat":"11.84962000","lon":"-86.19903000"},
{"state":"Carazo","name":"La Conquista","lat":"11.73426000","lon":"-86.19279000"},
{"state":"Carazo","name":"La Paz de Carazo","lat":"11.82311000","lon":"-86.12781000"},
{"state":"Carazo","name":"Municipio de San Marcos","lat":"11.91784000","lon":"-86.27474000"},
{"state":"Carazo","name":"San Marcos","lat":"11.90949000","lon":"-86.20351000"},
{"state":"Carazo","name":"Santa Teresa","lat":"11.74321000","lon":"-86.21413000"},
{"state":"Chinandega","name":"Chichigalpa","lat":"12.57758000","lon":"-87.02705000"},
{"state":"Chinandega","name":"Chinandega","lat":"12.62937000","lon":"-87.13105000"},
{"state":"Chinandega","name":"Cinco Pinos","lat":"13.22956000","lon":"-86.86808000"},
{"state":"Chinandega","name":"Corinto","lat":"12.48250000","lon":"-87.17304000"},
{"state":"Chinandega","name":"El Realejo","lat":"12.54333000","lon":"-87.16517000"},
{"state":"Chinandega","name":"El Viejo","lat":"12.66348000","lon":"-87.16663000"},
{"state":"Chinandega","name":"Jiquilillo","lat":"12.74593000","lon":"-87.45160000"},
{"state":"Chinandega","name":"Municipio de San Francisco del Norte","lat":"13.21187000","lon":"-86.77107000"},
{"state":"Chinandega","name":"Posoltega","lat":"12.54422000","lon":"-86.97982000"},
{"state":"Chinandega","name":"Puerto Morazán","lat":"12.85042000","lon":"-87.17167000"},
{"state":"Chinandega","name":"Santo Tomás del Norte","lat":"13.18610000","lon":"-86.92267000"},
{"state":"Chinandega","name":"Somotillo","lat":"13.04387000","lon":"-86.90506000"},
{"state":"Chontales","name":"Acoyapa","lat":"11.97028000","lon":"-85.17113000"},
{"state":"Chontales","name":"Comalapa","lat":"12.28345000","lon":"-85.51081000"},
{"state":"Chontales","name":"Cuapa","lat":"12.26875000","lon":"-85.38205000"},
{"state":"Chontales","name":"El Ayote","lat":"12.19046000","lon":"-85.28737000"},
{"state":"Chontales","name":"Juigalpa","lat":"12.10629000","lon":"-85.36452000"},
{"state":"Chontales","name":"La Libertad","lat":"12.21635000","lon":"-85.16595000"},
{"state":"Chontales","name":"Santo Domingo","lat":"12.26438000","lon":"-85.08235000"},
{"state":"Chontales","name":"Santo Tomás","lat":"12.06938000","lon":"-85.09059000"},
{"state":"Chontales","name":"Villa Sandino","lat":"12.04830000","lon":"-84.99362000"},
{"state":"Estelí","name":"Condega","lat":"13.36502000","lon":"-86.39846000"},
{"state":"Estelí","name":"Estelí","lat":"13.09185000","lon":"-86.35384000"},
{"state":"Estelí","name":"La Trinidad","lat":"12.96881000","lon":"-86.23534000"},
{"state":"Estelí","name":"Pueblo Nuevo","lat":"13.37984000","lon":"-86.48075000"},
{"state":"Estelí","name":"San Juan de Limay","lat":"13.17603000","lon":"-86.61234000"},
{"state":"Granada","name":"Diriá","lat":"11.88420000","lon":"-86.05508000"},
{"state":"Granada","name":"Diriomo","lat":"11.87631000","lon":"-86.05184000"},
{"state":"Granada","name":"Granada","lat":"11.92988000","lon":"-85.95602000"},
{"state":"Granada","name":"Nandaime","lat":"11.75696000","lon":"-86.05286000"},
{"state":"Jinotega","name":"El Cuá","lat":"13.41667000","lon":"-85.75000000"},
{"state":"Jinotega","name":"Jinotega","lat":"13.09103000","lon":"-86.00234000"},
{"state":"Jinotega","name":"La Concordia","lat":"13.19528000","lon":"-86.16659000"},
{"state":"Jinotega","name":"Las Praderas","lat":"13.17000000","lon":"-85.85000000"},
{"state":"Jinotega","name":"LLano de La Cruz","lat":"13.12449000","lon":"-86.00833000"},
{"state":"Jinotega","name":"San José de Bocay","lat":"13.54204000","lon":"-85.53942000"},
{"state":"Jinotega","name":"San Rafael del Norte","lat":"13.21248000","lon":"-86.11089000"},
{"state":"Jinotega","name":"San Sebastián de Yalí","lat":"13.30540000","lon":"-86.18641000"},
{"state":"León","name":"Achuapa","lat":"13.05370000","lon":"-86.59004000"},
{"state":"León","name":"El Jicaral","lat":"12.72676000","lon":"-86.38057000"},
{"state":"León","name":"El Sauce","lat":"12.88687000","lon":"-86.53903000"},
{"state":"León","name":"La Paz Centro","lat":"12.34000000","lon":"-86.67528000"},
{"state":"León","name":"Larreynaga","lat":"12.67692000","lon":"-86.57193000"},
{"state":"León","name":"León","lat":"12.43787000","lon":"-86.87804000"},
{"state":"León","name":"Nagarote","lat":"12.26593000","lon":"-86.56474000"},
{"state":"León","name":"Quezalguaque","lat":"12.50683000","lon":"-86.90292000"},
{"state":"León","name":"Santa Rosa del Peñón","lat":"12.80116000","lon":"-86.36994000"},
{"state":"León","name":"Telica","lat":"12.52200000","lon":"-86.85938000"},
{"state":"Madriz","name":"Las Sabanas","lat":"13.34302000","lon":"-86.62184000"},
{"state":"Madriz","name":"Palacagüina","lat":"13.45566000","lon":"-86.40622000"},
{"state":"Madriz","name":"San José de Cusmapa","lat":"13.28841000","lon":"-86.65539000"},
{"state":"Madriz","name":"San Juan de Río Coco","lat":"13.54476000","lon":"-86.16499000"},
{"state":"Madriz","name":"San Lucas","lat":"13.41380000","lon":"-86.61110000"},
{"state":"Madriz","name":"Somoto","lat":"13.48082000","lon":"-86.58208000"},
{"state":"Madriz","name":"Telpaneca","lat":"13.53151000","lon":"-86.28710000"},
{"state":"Madriz","name":"Totogalpa","lat":"13.56284000","lon":"-86.49254000"},
{"state":"Madriz","name":"Yalagüina","lat":"13.48383000","lon":"-86.49305000"},
{"state":"Managua","name":"Ciudad Sandino","lat":"12.15889000","lon":"-86.34417000"},
{"state":"Managua","name":"El Crucero","lat":"11.99008000","lon":"-86.30954000"},
{"state":"Managua","name":"Managua","lat":"12.13282000","lon":"-86.25040000"},
{"state":"Managua","name":"Masachapa","lat":"11.78687000","lon":"-86.51416000"},
{"state":"Managua","name":"San Rafael del Sur","lat":"11.84854000","lon":"-86.43839000"},
{"state":"Managua","name":"Ticuantepe","lat":"12.02263000","lon":"-86.20493000"},
{"state":"Managua","name":"Tipitapa","lat":"12.19732000","lon":"-86.09706000"},
{"state":"Managua","name":"Valle San Francisco","lat":"12.51667000","lon":"-86.28333000"},
{"state":"Managua","name":"Villa El Carmen","lat":"11.98009000","lon":"-86.50571000"},
{"state":"Masaya","name":"Catarina","lat":"11.91197000","lon":"-86.07383000"},
{"state":"Masaya","name":"La Concepción","lat":"11.93711000","lon":"-86.18976000"},
{"state":"Masaya","name":"Masatepe","lat":"11.91445000","lon":"-86.14458000"},
{"state":"Masaya","name":"Masaya","lat":"11.97444000","lon":"-86.09417000"},
{"state":"Masaya","name":"Municipio de Masatepe","lat":"11.90567000","lon":"-86.14946000"},
{"state":"Masaya","name":"Municipio de Nandasmo","lat":"11.93333000","lon":"-86.11667000"},
{"state":"Masaya","name":"Municipio de Niquinohomo","lat":"11.88228000","lon":"-86.10035000"},
{"state":"Masaya","name":"Municipio de San Juan de Oriente","lat":"11.90517000","lon":"-86.07460000"},
{"state":"Masaya","name":"Nandasmo","lat":"11.92411000","lon":"-86.12072000"},
{"state":"Masaya","name":"Nindirí","lat":"12.00386000","lon":"-86.12128000"},
{"state":"Masaya","name":"Niquinohomo","lat":"11.90518000","lon":"-86.09446000"},
{"state":"Masaya","name":"San Juan de Oriente","lat":"11.90624000","lon":"-86.07343000"},
{"state":"Masaya","name":"Tisma","lat":"12.08194000","lon":"-86.01739000"},
{"state":"Matagalpa","name":"Ciudad Darío","lat":"12.73143000","lon":"-86.12402000"},
{"state":"Matagalpa","name":"Matagalpa","lat":"12.92559000","lon":"-85.91747000"},
{"state":"Matagalpa","name":"Matiguás","lat":"12.83734000","lon":"-85.46218000"},
{"state":"Matagalpa","name":"Muy Muy","lat":"12.76224000","lon":"-85.62915000"},
{"state":"Matagalpa","name":"Río Blanco","lat":"12.93435000","lon":"-85.22354000"},
{"state":"Matagalpa","name":"San Dionisio","lat":"12.76023000","lon":"-85.85018000"},
{"state":"Matagalpa","name":"San Ramón","lat":"12.92344000","lon":"-85.83898000"},
{"state":"Matagalpa","name":"Terrabona","lat":"12.73028000","lon":"-85.96474000"},
{"state":"North Caribbean Coast","name":"Bonanza","lat":"14.02885000","lon":"-84.59103000"},
{"state":"North Caribbean Coast","name":"Prinzapolka","lat":"13.40708000","lon":"-83.56452000"},
{"state":"North Caribbean Coast","name":"Puerto Cabezas","lat":"14.03507000","lon":"-83.38882000"},
{"state":"North Caribbean Coast","name":"Siuna","lat":"13.73321000","lon":"-84.77725000"},
{"state":"North Caribbean Coast","name":"Waslala","lat":"13.23333000","lon":"-85.38333000"},
{"state":"North Caribbean Coast","name":"Waspán","lat":"14.74189000","lon":"-83.97170000"},
{"state":"Nueva Segovia","name":"Ciudad Antigua","lat":"13.63929030","lon":"-86.31189830"},
{"state":"Nueva Segovia","name":"Dipilto","lat":"13.72225520","lon":"-86.51366060"},
{"state":"Nueva Segovia","name":"El Jícaro","lat":"13.72222480","lon":"-86.14115420"},
{"state":"Nueva Segovia","name":"Jalapa","lat":"13.92071420","lon":"-86.14212330"},
{"state":"Nueva Segovia","name":"Macuelizo","lat":"13.65192960","lon":"-86.61427170"},
{"state":"Nueva Segovia","name":"Mozonte","lat":"13.65956840","lon":"-86.44536490"},
{"state":"Nueva Segovia","name":"Murra","lat":"13.75927550","lon":"-86.02196840"},
{"state":"Nueva Segovia","name":"Ocotal","lat":"13.63411380","lon":"-86.50107470"},
{"state":"Nueva Segovia","name":"Quilalí","lat":"13.56491080","lon":"-86.02921480"},
{"state":"Nueva Segovia","name":"San Fernando","lat":"13.67873430","lon":"-86.32079750"},
{"state":"Nueva Segovia","name":"Santa María","lat":"13.74665480","lon":"-86.71124070"},
{"state":"Nueva Segovia","name":"Wiwilí","lat":"13.62076450","lon":"-85.83169700"},
{"state":"Río San Juan","name":"El Almendro","lat":"11.67859000","lon":"-84.70269000"},
{"state":"Río San Juan","name":"Greytown","lat":"10.94684000","lon":"-83.73467000"},
{"state":"Río San Juan","name":"Morrito","lat":"11.62118000","lon":"-85.08052000"},
{"state":"Río San Juan","name":"San Carlos","lat":"11.12360000","lon":"-84.77795000"},
{"state":"Río San Juan","name":"San Miguelito","lat":"11.40255000","lon":"-84.89991000"},
{"state":"Rivas","name":"Altagracia","lat":"11.56615000","lon":"-85.57840000"},
{"state":"Rivas","name":"Belén","lat":"11.50299000","lon":"-85.88935000"},
{"state":"Rivas","name":"Buenos Aires","lat":"11.46916000","lon":"-85.81661000"},
{"state":"Rivas","name":"Cárdenas","lat":"11.19639000","lon":"-85.50890000"},
{"state":"Rivas","name":"Moyogalpa","lat":"11.54006000","lon":"-85.69795000"},
{"state":"Rivas","name":"Municipio de Altagracia","lat":"11.47983000","lon":"-85.54166000"},
{"state":"Rivas","name":"Municipio de Belén","lat":"11.57193000","lon":"-85.96316000"},
{"state":"Rivas","name":"Municipio de Buenos Aires","lat":"11.51760000","lon":"-85.78333000"},
{"state":"Rivas","name":"Municipio de Cárdenas","lat":"11.14912000","lon":"-85.42323000"},
{"state":"Rivas","name":"Municipio de Moyogalpa","lat":"11.52632000","lon":"-85.67329000"},
{"state":"Rivas","name":"Municipio de Potosí","lat":"11.57854000","lon":"-85.87764000"},
{"state":"Rivas","name":"Municipio de Rivas","lat":"11.43931000","lon":"-85.82700000"},
{"state":"Rivas","name":"Municipio de San Jorge","lat":"11.42703000","lon":"-85.78904000"},
{"state":"Rivas","name":"Municipio de San Juan del Sur","lat":"11.22368000","lon":"-85.78289000"},
{"state":"Rivas","name":"Municipio de Tola","lat":"11.46009000","lon":"-86.00789000"},
{"state":"Rivas","name":"Potosí","lat":"11.49416000","lon":"-85.85680000"},
{"state":"Rivas","name":"Rivas","lat":"11.43716000","lon":"-85.82632000"},
{"state":"Rivas","name":"San Jorge","lat":"11.45584000","lon":"-85.80308000"},
{"state":"Rivas","name":"San Juan del Sur","lat":"11.25292000","lon":"-85.87049000"},
{"state":"Rivas","name":"Tola","lat":"11.43927000","lon":"-85.93891000"},
{"state":"South Caribbean Coast","name":"Bluefields","lat":"12.01366000","lon":"-83.76353000"},
{"state":"South Caribbean Coast","name":"Bocana de Paiwas","lat":"12.78571000","lon":"-85.12269000"},
{"state":"South Caribbean Coast","name":"Corn Island","lat":"12.17575000","lon":"-83.06145000"},
{"state":"South Caribbean Coast","name":"El Rama","lat":"12.15965000","lon":"-84.21952000"},
{"state":"South Caribbean Coast","name":"El Tortuguero","lat":"12.82247000","lon":"-84.19629000"},
{"state":"South Caribbean Coast","name":"Kukrahill","lat":"12.24096000","lon":"-83.74517000"},
{"state":"South Caribbean Coast","name":"La Cruz de Río Grande","lat":"13.11290000","lon":"-84.18588000"},
{"state":"South Caribbean Coast","name":"Laguna de Perlas","lat":"12.34294000","lon":"-83.67123000"},
{"state":"South Caribbean Coast","name":"Muelle de los Bueyes","lat":"12.06999000","lon":"-84.53503000"},
{"state":"South Caribbean Coast","name":"Nueva Guinea","lat":"11.68758000","lon":"-84.45616000"}]