[{"state":"Bonaire","name":"Boven Bolivia","lat":"12.18190000","lon":"-68.21810000"},
{"state":"Bonaire","name":"Dorp Tera Kora","lat":"12.13333000","lon":"-68.26667000"},
{"state":"Bonaire","name":"Oranjestad","lat":"17.48333333","lon":"-62.98333333"},
{"state":"Bonaire","name":"Rincon","lat":"12.23833333","lon":"-68.33250000"},
{"state":"Bonaire","name":"St. Johns","lat":"17.62100750","lon":"-63.24316830"},
{"state":"Bonaire","name":"The Bottom","lat":"17.62611111","lon":"-63.24916667"},
{"state":"Bonaire","name":"Windwardside","lat":"17.62864000","lon":"-63.23136000"},
{"state":"Bonaire","name":"Zion's Hill","lat":"17.64300000","lon":"-63.22649000"},
{"state":"Drenthe","name":"Aalden","lat":"52.79000000","lon":"6.71806000"},
{"state":"Drenthe","name":"Angelslo","lat":"52.78090000","lon":"6.92645000"},
{"state":"Drenthe","name":"Annen","lat":"53.05750000","lon":"6.71944000"},
{"state":"Drenthe","name":"Assen","lat":"52.99667000","lon":"6.56250000"},
{"state":"Drenthe","name":"Ballast","lat":"52.67218000","lon":"6.73299000"},
{"state":"Drenthe","name":"Barger-Oosterveld","lat":"52.77000000","lon":"6.95833000"},
{"state":"Drenthe","name":"Bargeres","lat":"52.76152000","lon":"6.88145000"},
{"state":"Drenthe","name":"Beilen","lat":"52.86333000","lon":"6.51389000"},
{"state":"Drenthe","name":"Borger","lat":"52.92333000","lon":"6.79306000"},
{"state":"Drenthe","name":"Coevorden","lat":"52.66103000","lon":"6.74046000"},
{"state":"Drenthe","name":"Dalen","lat":"52.69917000","lon":"6.75556000"},
{"state":"Drenthe","name":"De Loo","lat":"52.67167000","lon":"6.73967000"},
{"state":"Drenthe","name":"De Wijk","lat":"52.67333000","lon":"6.29028000"},
{"state":"Drenthe","name":"Diever","lat":"52.85417000","lon":"6.31806000"},
{"state":"Drenthe","name":"Dwingeloo","lat":"52.83417000","lon":"6.36944000"},
{"state":"Drenthe","name":"Eelde","lat":"53.13583000","lon":"6.56250000"},
{"state":"Drenthe","name":"Eext","lat":"53.01750000","lon":"6.73472000"},
{"state":"Drenthe","name":"Emmen","lat":"52.77917000","lon":"6.90694000"},
{"state":"Drenthe","name":"Emmer-Compascuum","lat":"52.81167000","lon":"7.04722000"},
{"state":"Drenthe","name":"Emmer-Erfscheidenveen","lat":"52.80667000","lon":"6.98889000"},
{"state":"Drenthe","name":"Emmerhout","lat":"52.78755000","lon":"6.93881000"},
{"state":"Drenthe","name":"Emmermeer","lat":"52.80071000","lon":"6.89315000"},
{"state":"Drenthe","name":"Emmerschans","lat":"52.80083000","lon":"6.93889000"},
{"state":"Drenthe","name":"Exloo","lat":"52.88250000","lon":"6.86389000"},
{"state":"Drenthe","name":"Gasselte","lat":"52.97167000","lon":"6.79444000"},
{"state":"Drenthe","name":"Gasselternijveen","lat":"52.98833000","lon":"6.85278000"},
{"state":"Drenthe","name":"Gieten","lat":"53.00500000","lon":"6.76389000"},
{"state":"Drenthe","name":"Havelte","lat":"52.76941000","lon":"6.24015000"},
{"state":"Drenthe","name":"Hoogeveen","lat":"52.72250000","lon":"6.47639000"},
{"state":"Drenthe","name":"Klazienaveen","lat":"52.72417000","lon":"6.99028000"},
{"state":"Drenthe","name":"Koekange","lat":"52.69917000","lon":"6.31667000"},
{"state":"Drenthe","name":"Krakeel","lat":"52.72339000","lon":"6.51146000"},
{"state":"Drenthe","name":"Marsdijk","lat":"53.01766000","lon":"6.58527000"},
{"state":"Drenthe","name":"Meppel","lat":"52.69583000","lon":"6.19444000"},
{"state":"Drenthe","name":"Nieuw-Buinen","lat":"52.96250000","lon":"6.95000000"},
{"state":"Drenthe","name":"Nieuw-Dordrecht","lat":"52.74833000","lon":"6.96806000"},
{"state":"Drenthe","name":"Nieuw-Roden","lat":"53.13167000","lon":"6.39722000"},
{"state":"Drenthe","name":"Noordbarge","lat":"52.77237000","lon":"6.88713000"},
{"state":"Drenthe","name":"Norg","lat":"53.06667000","lon":"6.45833000"},
{"state":"Drenthe","name":"Odoorn","lat":"52.84917000","lon":"6.85139000"},
{"state":"Drenthe","name":"Oosterhesselen","lat":"52.75417000","lon":"6.72222000"},
{"state":"Drenthe","name":"Paterswolde","lat":"53.14500000","lon":"6.56528000"},
{"state":"Drenthe","name":"Peelo","lat":"53.01719000","lon":"6.56208000"},
{"state":"Drenthe","name":"Peize","lat":"53.14667000","lon":"6.49722000"},
{"state":"Drenthe","name":"Roden","lat":"53.13750000","lon":"6.42083000"},
{"state":"Drenthe","name":"Rolde","lat":"52.98417000","lon":"6.64861000"},
{"state":"Drenthe","name":"Ruinen","lat":"52.76250000","lon":"6.35417000"},
{"state":"Drenthe","name":"Ruinerwold","lat":"52.72333000","lon":"6.24861000"},
{"state":"Drenthe","name":"Schoonebeek","lat":"52.66250000","lon":"6.88472000"},
{"state":"Drenthe","name":"Schoonoord","lat":"52.84583000","lon":"6.75556000"},
{"state":"Drenthe","name":"Sleen","lat":"52.77167000","lon":"6.80278000"},
{"state":"Drenthe","name":"Tweede Exloërmond","lat":"52.90917000","lon":"6.93333000"},
{"state":"Drenthe","name":"Tynaarlo","lat":"53.07750000","lon":"6.61667000"},
{"state":"Drenthe","name":"Uffelte","lat":"52.79000000","lon":"6.28056000"},
{"state":"Drenthe","name":"Valthe","lat":"52.84583000","lon":"6.89444000"},
{"state":"Drenthe","name":"Valthermond","lat":"52.88167000","lon":"6.96250000"},
{"state":"Drenthe","name":"Veenoord","lat":"52.71087000","lon":"6.84869000"},
{"state":"Drenthe","name":"Vledder","lat":"52.85583000","lon":"6.20833000"},
{"state":"Drenthe","name":"Vries","lat":"53.07417000","lon":"6.57778000"},
{"state":"Drenthe","name":"Weiteveen","lat":"52.67250000","lon":"6.98750000"},
{"state":"Drenthe","name":"Westerbork","lat":"52.85000000","lon":"6.60833000"},
{"state":"Drenthe","name":"Westlaren","lat":"53.08480000","lon":"6.66469000"},
{"state":"Drenthe","name":"Wolfsbos","lat":"52.71734000","lon":"6.49881000"},
{"state":"Drenthe","name":"Zuidlaren","lat":"53.09417000","lon":"6.68194000"},
{"state":"Flevoland","name":"Almere Stad","lat":"52.37025000","lon":"5.21413000"},
{"state":"Flevoland","name":"Biddinghuizen","lat":"52.45500000","lon":"5.69306000"},
{"state":"Flevoland","name":"Dronten","lat":"52.52500000","lon":"5.71806000"},
{"state":"Flevoland","name":"Emmeloord","lat":"52.71083000","lon":"5.74861000"},
{"state":"Flevoland","name":"Ens","lat":"52.63667000","lon":"5.82778000"},
{"state":"Flevoland","name":"Lelystad","lat":"52.50833000","lon":"5.47500000"},
{"state":"Flevoland","name":"Urk","lat":"52.66250000","lon":"5.60139000"},
{"state":"Flevoland","name":"Zeewolde","lat":"52.33000000","lon":"5.54167000"},
{"state":"Friesland","name":"Akkrum","lat":"53.05024000","lon":"5.83087000"},
{"state":"Friesland","name":"Aldeboarn","lat":"53.05000000","lon":"5.90000000"},
{"state":"Friesland","name":"Aldlân-Oost","lat":"53.18860000","lon":"5.82825000"},
{"state":"Friesland","name":"Appelscha","lat":"52.95526000","lon":"6.35053000"},
{"state":"Friesland","name":"Augustinusga","lat":"53.21785000","lon":"6.16170000"},
{"state":"Friesland","name":"Bakhuizen","lat":"52.86975000","lon":"5.45926000"},
{"state":"Friesland","name":"Bakkeveen","lat":"53.08072000","lon":"6.25671000"},
{"state":"Friesland","name":"Balk","lat":"52.89756000","lon":"5.57964000"},
{"state":"Friesland","name":"Beetsterzwaag","lat":"53.05914000","lon":"6.07711000"},
{"state":"Friesland","name":"Berltsum","lat":"53.24370000","lon":"5.65101000"},
{"state":"Friesland","name":"Bilgaard","lat":"53.21551000","lon":"5.79574000"},
{"state":"Friesland","name":"Bolsward","lat":"53.06555000","lon":"5.53176000"},
{"state":"Friesland","name":"Boornbergum","lat":"53.08284000","lon":"6.04578000"},
{"state":"Friesland","name":"Broeksterwâld","lat":"53.27466000","lon":"5.99648000"},
{"state":"Friesland","name":"Buitenpost","lat":"53.25166000","lon":"6.14483000"},
{"state":"Friesland","name":"Burdaard","lat":"53.29421000","lon":"5.87897000"},
{"state":"Friesland","name":"Burgum","lat":"53.19243000","lon":"5.99009000"},
{"state":"Friesland","name":"Camminghaburen","lat":"53.20973000","lon":"5.84318000"},
{"state":"Friesland","name":"Damwâld","lat":"53.29046000","lon":"5.99785000"},
{"state":"Friesland","name":"De Domp","lat":"53.03113000","lon":"5.67716000"},
{"state":"Friesland","name":"De Drait","lat":"53.09743000","lon":"6.06791000"},
{"state":"Friesland","name":"De Fryske Marren","lat":"52.96906000","lon":"5.77246000"},
{"state":"Friesland","name":"De Greiden","lat":"52.94960000","lon":"5.91366000"},
{"state":"Friesland","name":"De Knipe","lat":"52.96829000","lon":"5.97116000"},
{"state":"Friesland","name":"De Westereen","lat":"53.25731000","lon":"6.03630000"},
{"state":"Friesland","name":"Dokkum","lat":"53.32224000","lon":"5.99697000"},
{"state":"Friesland","name":"Donkerbroek","lat":"53.01734000","lon":"6.23927000"},
{"state":"Friesland","name":"Drachten","lat":"53.11254000","lon":"6.09890000"},
{"state":"Friesland","name":"Drachtstercompagnie","lat":"53.13462000","lon":"6.14153000"},
{"state":"Friesland","name":"Drogeham","lat":"53.20213000","lon":"6.11183000"},
{"state":"Friesland","name":"Dronryp","lat":"53.20000000","lon":"5.65000000"},
{"state":"Friesland","name":"Eastermar","lat":"53.17466000","lon":"6.05999000"},
{"state":"Friesland","name":"Echtenerbrug","lat":"52.87141000","lon":"5.82147000"},
{"state":"Friesland","name":"Feanwâlden","lat":"53.23558000","lon":"5.98832000"},
{"state":"Friesland","name":"Ferwert","lat":"53.33784000","lon":"5.82533000"},
{"state":"Friesland","name":"Franeker","lat":"53.18546000","lon":"5.54123000"},
{"state":"Friesland","name":"Garyp","lat":"53.16667000","lon":"5.96667000"},
{"state":"Friesland","name":"Gorredijk","lat":"53.00659000","lon":"6.06402000"},
{"state":"Friesland","name":"Goutum","lat":"53.17734000","lon":"5.80370000"},
{"state":"Friesland","name":"Grou","lat":"53.09456000","lon":"5.83745000"},
{"state":"Friesland","name":"Gytsjerk","lat":"53.24293000","lon":"5.89502000"},
{"state":"Friesland","name":"Hallum","lat":"53.30657000","lon":"5.78379000"},
{"state":"Friesland","name":"Harkema","lat":"53.18333000","lon":"6.13333000"},
{"state":"Friesland","name":"Harlingen","lat":"53.17477000","lon":"5.42244000"},
{"state":"Friesland","name":"Haulerwijk","lat":"53.06468000","lon":"6.33453000"},
{"state":"Friesland","name":"Heechterp","lat":"53.20963000","lon":"5.82250000"},
{"state":"Friesland","name":"Heeg","lat":"52.96860000","lon":"5.61075000"},
{"state":"Friesland","name":"Heerenveen","lat":"52.95929000","lon":"5.91854000"},
{"state":"Friesland","name":"Hoek","lat":"53.20455000","lon":"5.80192000"},
{"state":"Friesland","name":"Hollum","lat":"53.43940000","lon":"5.63805000"},
{"state":"Friesland","name":"Holwerd","lat":"53.36815000","lon":"5.90073000"},
{"state":"Friesland","name":"Huizum","lat":"53.19170000","lon":"5.81119000"},
{"state":"Friesland","name":"Hurdegaryp","lat":"53.21333000","lon":"5.94137000"},
{"state":"Friesland","name":"IJlst","lat":"53.01009000","lon":"5.62312000"},
{"state":"Friesland","name":"Jirnsum","lat":"53.07753000","lon":"5.79254000"},
{"state":"Friesland","name":"Joure","lat":"52.96570000","lon":"5.80301000"},
{"state":"Friesland","name":"Jubbega","lat":"53.00396000","lon":"6.12183000"},
{"state":"Friesland","name":"Kollum","lat":"53.27695000","lon":"6.15293000"},
{"state":"Friesland","name":"Kollumerzwaag","lat":"53.26224000","lon":"6.07544000"},
{"state":"Friesland","name":"Kootstertille","lat":"53.21261000","lon":"6.09209000"},
{"state":"Friesland","name":"Koudum","lat":"52.91551000","lon":"5.44834000"},
{"state":"Friesland","name":"Langweer","lat":"52.95836000","lon":"5.72173000"},
{"state":"Friesland","name":"Leeuwarden","lat":"53.20139000","lon":"5.80859000"},
{"state":"Friesland","name":"Lemmer","lat":"52.84618000","lon":"5.70912000"},
{"state":"Friesland","name":"Makkum","lat":"53.05458000","lon":"5.40231000"},
{"state":"Friesland","name":"Mantgum","lat":"53.12865000","lon":"5.71924000"},
{"state":"Friesland","name":"Marrum","lat":"53.32277000","lon":"5.80198000"},
{"state":"Friesland","name":"Marsum","lat":"53.21050000","lon":"5.72637000"},
{"state":"Friesland","name":"Menaam","lat":"53.21797000","lon":"5.66124000"},
{"state":"Friesland","name":"Minnertsga","lat":"53.25104000","lon":"5.59513000"},
{"state":"Friesland","name":"Nes","lat":"53.44502000","lon":"5.77400000"},
{"state":"Friesland","name":"Nieuwehorne","lat":"52.95113000","lon":"6.06342000"},
{"state":"Friesland","name":"Noardburgum","lat":"53.22135000","lon":"6.00523000"},
{"state":"Friesland","name":"Noordwolde","lat":"52.88964000","lon":"6.14153000"},
{"state":"Friesland","name":"Oentsjerk","lat":"53.25000000","lon":"5.90000000"},
{"state":"Friesland","name":"Oldeberkoop","lat":"52.93788000","lon":"6.13089000"},
{"state":"Friesland","name":"Oost-Vlieland","lat":"53.29703000","lon":"5.07431000"},
{"state":"Friesland","name":"Oosterwolde","lat":"52.99164000","lon":"6.29096000"},
{"state":"Friesland","name":"Opeinde","lat":"53.13410000","lon":"6.05656000"},
{"state":"Friesland","name":"Oppenhuizen","lat":"53.01194000","lon":"5.69495000"},
{"state":"Friesland","name":"Oranjewoud","lat":"52.94579000","lon":"5.95038000"},
{"state":"Friesland","name":"Oudega","lat":"53.12504000","lon":"5.99888000"},
{"state":"Friesland","name":"Oudehaske","lat":"52.95709000","lon":"5.87095000"},
{"state":"Friesland","name":"Oudemirdum","lat":"52.85019000","lon":"5.53544000"},
{"state":"Friesland","name":"Oudeschoot","lat":"52.93343000","lon":"5.95579000"},
{"state":"Friesland","name":"Rottevalle","lat":"53.14523000","lon":"6.10411000"},
{"state":"Friesland","name":"Scharnegoutum","lat":"53.06051000","lon":"5.67822000"},
{"state":"Friesland","name":"Schiermonnikoog","lat":"53.48025000","lon":"6.15209000"},
{"state":"Friesland","name":"Sexbierum","lat":"53.21823000","lon":"5.48402000"},
{"state":"Friesland","name":"Sint Annaparochie","lat":"53.27620000","lon":"5.65727000"},
{"state":"Friesland","name":"Sint Jacobiparochie","lat":"53.27291000","lon":"5.60354000"},
{"state":"Friesland","name":"Sint Nicolaasga","lat":"52.92293000","lon":"5.74242000"},
{"state":"Friesland","name":"Sintjohannesga","lat":"52.93157000","lon":"5.85588000"},
{"state":"Friesland","name":"Sneek","lat":"53.03297000","lon":"5.65890000"},
{"state":"Friesland","name":"Stadsfenne","lat":"53.03987000","lon":"5.67844000"},
{"state":"Friesland","name":"Stiens","lat":"53.26234000","lon":"5.75769000"},
{"state":"Friesland","name":"Sûdwest Fryslân","lat":"53.01056000","lon":"5.52580000"},
{"state":"Friesland","name":"Surhuisterveen","lat":"53.18477000","lon":"6.17031000"},
{"state":"Friesland","name":"Ternaard","lat":"53.38203000","lon":"5.96523000"},
{"state":"Friesland","name":"Tijnje","lat":"53.03058000","lon":"5.99193000"},
{"state":"Friesland","name":"Tinga","lat":"53.02064000","lon":"5.64575000"},
{"state":"Friesland","name":"Twijzel","lat":"53.23152000","lon":"6.08952000"},
{"state":"Friesland","name":"Twijzelerheide","lat":"53.24015000","lon":"6.04591000"},
{"state":"Friesland","name":"Tytsjerk","lat":"53.21343000","lon":"5.90961000"},
{"state":"Friesland","name":"Tzummarum","lat":"53.23733000","lon":"5.54612000"},
{"state":"Friesland","name":"Ureterp","lat":"53.09244000","lon":"6.16718000"},
{"state":"Friesland","name":"Waadhoeke","lat":"53.18947000","lon":"5.50793000"},
{"state":"Friesland","name":"Warga","lat":"53.15145000","lon":"5.84404000"},
{"state":"Friesland","name":"West-Terschelling","lat":"53.35911000","lon":"5.21482000"},
{"state":"Friesland","name":"Westeinde","lat":"53.20853000","lon":"5.76812000"},
{"state":"Friesland","name":"Wijnjewoude","lat":"53.05814000","lon":"6.20470000"},
{"state":"Friesland","name":"Wirdum","lat":"53.14893000","lon":"5.80387000"},
{"state":"Friesland","name":"Witmarsum","lat":"53.10452000","lon":"5.46902000"},
{"state":"Friesland","name":"Wolvega","lat":"52.87545000","lon":"5.99691000"},
{"state":"Friesland","name":"Wommels","lat":"53.10883000","lon":"5.58749000"},
{"state":"Friesland","name":"Workum","lat":"52.97969000","lon":"5.44710000"},
{"state":"Friesland","name":"Woudsend","lat":"52.94357000","lon":"5.62843000"},
{"state":"Friesland","name":"Zuiderburen","lat":"53.17340000","lon":"5.84271000"},
{"state":"Gelderland","name":"'s-Heerenberg","lat":"51.87670000","lon":"6.25877000"},
{"state":"Gelderland","name":"Aalst","lat":"51.78250000","lon":"5.12778000"},
{"state":"Gelderland","name":"Aalten","lat":"51.92500000","lon":"6.58056000"},
{"state":"Gelderland","name":"Afferden","lat":"51.88000000","lon":"5.63472000"},
{"state":"Gelderland","name":"Alverna","lat":"51.80417000","lon":"5.75972000"},
{"state":"Gelderland","name":"Ammerzoden","lat":"51.74917000","lon":"5.22083000"},
{"state":"Gelderland","name":"Andelst","lat":"51.90833000","lon":"5.72917000"},
{"state":"Gelderland","name":"Angeren","lat":"51.91583000","lon":"5.95833000"},
{"state":"Gelderland","name":"Angerlo","lat":"51.99583000","lon":"6.13472000"},
{"state":"Gelderland","name":"Anklaar","lat":"52.23111000","lon":"5.98497000"},
{"state":"Gelderland","name":"Apeldoorn","lat":"52.21000000","lon":"5.96944000"},
{"state":"Gelderland","name":"Arnhem","lat":"51.98000000","lon":"5.91111000"},
{"state":"Gelderland","name":"Babberich","lat":"51.90750000","lon":"6.11111000"},
{"state":"Gelderland","name":"Bakenberg","lat":"52.00511000","lon":"5.87710000"},
{"state":"Gelderland","name":"Barneveld","lat":"52.14000000","lon":"5.58472000"},
{"state":"Gelderland","name":"Beek gem Montferland","lat":"51.90667000","lon":"6.18750000"},
{"state":"Gelderland","name":"Beekbergen","lat":"52.16000000","lon":"5.96389000"},
{"state":"Gelderland","name":"Beesd","lat":"51.88750000","lon":"5.19167000"},
{"state":"Gelderland","name":"Beltrum","lat":"52.06667000","lon":"6.56389000"},
{"state":"Gelderland","name":"Bemmel","lat":"51.89167000","lon":"5.89861000"},
{"state":"Gelderland","name":"Bennekom","lat":"51.99833000","lon":"5.67639000"},
{"state":"Gelderland","name":"Berg en Bos","lat":"52.22009000","lon":"5.93340000"},
{"state":"Gelderland","name":"Berg en Dal","lat":"51.82167000","lon":"5.91667000"},
{"state":"Gelderland","name":"Bergharen","lat":"51.85083000","lon":"5.66944000"},
{"state":"Gelderland","name":"Berkelland","lat":"52.10606000","lon":"6.56748000"},
{"state":"Gelderland","name":"Beuningen","lat":"51.86083000","lon":"5.76667000"},
{"state":"Gelderland","name":"Beusichem","lat":"51.95000000","lon":"5.29167000"},
{"state":"Gelderland","name":"Binnenstad","lat":"52.21304000","lon":"5.95957000"},
{"state":"Gelderland","name":"Borculo","lat":"52.11583000","lon":"6.52222000"},
{"state":"Gelderland","name":"Brakel","lat":"51.81750000","lon":"5.09028000"},
{"state":"Gelderland","name":"Brakkenstein","lat":"51.81324000","lon":"5.86539000"},
{"state":"Gelderland","name":"Bredevoort","lat":"51.94167000","lon":"6.62083000"},
{"state":"Gelderland","name":"Bredeweg","lat":"51.76019000","lon":"5.94189000"},
{"state":"Gelderland","name":"Brinkhorst","lat":"52.21302000","lon":"5.95167000"},
{"state":"Gelderland","name":"Bruchem","lat":"51.78667000","lon":"5.23611000"},
{"state":"Gelderland","name":"Brummelhof","lat":"52.20503000","lon":"5.96789000"},
{"state":"Gelderland","name":"Brummen","lat":"52.09000000","lon":"6.15556000"},
{"state":"Gelderland","name":"Burgemeesterswijk","lat":"51.98943000","lon":"5.89597000"},
{"state":"Gelderland","name":"Componistenkwartier","lat":"52.18977000","lon":"5.96609000"},
{"state":"Gelderland","name":"Corlaer","lat":"52.21639000","lon":"5.46535000"},
{"state":"Gelderland","name":"Culemborg","lat":"51.95500000","lon":"5.22778000"},
{"state":"Gelderland","name":"De Bouwhof","lat":"52.18546000","lon":"5.94704000"},
{"state":"Gelderland","name":"De Haven","lat":"52.21045000","lon":"5.97407000"},
{"state":"Gelderland","name":"De Heeze","lat":"52.20061000","lon":"5.95365000"},
{"state":"Gelderland","name":"De Mheen","lat":"52.21954000","lon":"5.99141000"},
{"state":"Gelderland","name":"Deest","lat":"51.89000000","lon":"5.66667000"},
{"state":"Gelderland","name":"Deil","lat":"51.88417000","lon":"5.24306000"},
{"state":"Gelderland","name":"Dieren","lat":"52.05250000","lon":"6.10000000"},
{"state":"Gelderland","name":"Doesburg","lat":"52.01250000","lon":"6.13889000"},
{"state":"Gelderland","name":"Doetinchem","lat":"51.96500000","lon":"6.28889000"},
{"state":"Gelderland","name":"Doornenburg","lat":"51.89000000","lon":"6.00000000"},
{"state":"Gelderland","name":"Doornspijk","lat":"52.41833000","lon":"5.81806000"},
{"state":"Gelderland","name":"Doornsteeg","lat":"52.23000000","lon":"5.45417000"},
{"state":"Gelderland","name":"Doorwerth","lat":"51.97917000","lon":"5.79722000"},
{"state":"Gelderland","name":"Driehuizen","lat":"52.20879000","lon":"5.94442000"},
{"state":"Gelderland","name":"Driel","lat":"51.95917000","lon":"5.81389000"},
{"state":"Gelderland","name":"Drumpt","lat":"51.89700000","lon":"5.41043000"},
{"state":"Gelderland","name":"Druten","lat":"51.88833000","lon":"5.60556000"},
{"state":"Gelderland","name":"Duiven","lat":"51.94667000","lon":"6.01389000"},
{"state":"Gelderland","name":"Ede","lat":"52.03333000","lon":"5.65833000"},
{"state":"Gelderland","name":"Ederveen","lat":"52.06333000","lon":"5.57778000"},
{"state":"Gelderland","name":"Eefde","lat":"52.16667000","lon":"6.22500000"},
{"state":"Gelderland","name":"Eerbeek","lat":"52.10500000","lon":"6.05833000"},
{"state":"Gelderland","name":"Eibergen","lat":"52.10000000","lon":"6.64861000"},
{"state":"Gelderland","name":"Elburg","lat":"52.44750000","lon":"5.84306000"},
{"state":"Gelderland","name":"Elden","lat":"51.95833000","lon":"5.88194000"},
{"state":"Gelderland","name":"Ellecom","lat":"52.03250000","lon":"6.08750000"},
{"state":"Gelderland","name":"Elspeet","lat":"52.29167000","lon":"5.78889000"},
{"state":"Gelderland","name":"Elst","lat":"51.91917000","lon":"5.84167000"},
{"state":"Gelderland","name":"Emst","lat":"52.31583000","lon":"5.97361000"},
{"state":"Gelderland","name":"Epe","lat":"52.34750000","lon":"5.98333000"},
{"state":"Gelderland","name":"Epse","lat":"52.22500000","lon":"6.20000000"},
{"state":"Gelderland","name":"Ermelo","lat":"52.29833000","lon":"5.62222000"},
{"state":"Gelderland","name":"Etten","lat":"51.91667000","lon":"6.33611000"},
{"state":"Gelderland","name":"Gameren","lat":"51.80083000","lon":"5.20417000"},
{"state":"Gelderland","name":"Garderen","lat":"52.23083000","lon":"5.71389000"},
{"state":"Gelderland","name":"Geitenkamp","lat":"52.00379000","lon":"5.93862000"},
{"state":"Gelderland","name":"Geldermalsen","lat":"51.88083000","lon":"5.28889000"},
{"state":"Gelderland","name":"Geldermalsen-West","lat":"51.87968000","lon":"5.28015000"},
{"state":"Gelderland","name":"Gendringen","lat":"51.87333000","lon":"6.37639000"},
{"state":"Gelderland","name":"Gendt","lat":"51.87750000","lon":"5.97083000"},
{"state":"Gelderland","name":"Giesbeek","lat":"51.99333000","lon":"6.06667000"},
{"state":"Gelderland","name":"Gorssel","lat":"52.20167000","lon":"6.20139000"},
{"state":"Gelderland","name":"Groesbeek","lat":"51.77667000","lon":"5.93611000"},
{"state":"Gelderland","name":"Groessen","lat":"51.93167000","lon":"6.02639000"},
{"state":"Gelderland","name":"Gulden Bodem","lat":"51.99428000","lon":"5.89080000"},
{"state":"Gelderland","name":"Haaften","lat":"51.81583000","lon":"5.21111000"},
{"state":"Gelderland","name":"Haalderen","lat":"51.88750000","lon":"5.92917000"},
{"state":"Gelderland","name":"Harderwijk","lat":"52.34167000","lon":"5.62083000"},
{"state":"Gelderland","name":"Harskamp","lat":"52.13000000","lon":"5.75278000"},
{"state":"Gelderland","name":"Hatert","lat":"51.80635000","lon":"5.83057000"},
{"state":"Gelderland","name":"Hattem","lat":"52.47500000","lon":"6.06389000"},
{"state":"Gelderland","name":"Hattemerbroek","lat":"52.47417000","lon":"6.02222000"},
{"state":"Gelderland","name":"Hedel","lat":"51.74802000","lon":"5.26134000"},
{"state":"Gelderland","name":"Heelsum","lat":"51.98417000","lon":"5.75833000"},
{"state":"Gelderland","name":"Heerde","lat":"52.38723000","lon":"6.04016000"},
{"state":"Gelderland","name":"Heerewaarden","lat":"51.81769000","lon":"5.39300000"},
{"state":"Gelderland","name":"Hees","lat":"51.84136000","lon":"5.82846000"},
{"state":"Gelderland","name":"Hengelo","lat":"52.05083000","lon":"6.30972000"},
{"state":"Gelderland","name":"Hengstdal","lat":"51.83333000","lon":"5.88333000"},
{"state":"Gelderland","name":"Herwijnen","lat":"51.82667000","lon":"5.12917000"},
{"state":"Gelderland","name":"Het Loo","lat":"52.23390000","lon":"5.95275000"},
{"state":"Gelderland","name":"Heteren","lat":"51.95667000","lon":"5.75556000"},
{"state":"Gelderland","name":"Heumen","lat":"51.76500000","lon":"5.84444000"},
{"state":"Gelderland","name":"Hoogkamp","lat":"51.99630000","lon":"5.88026000"},
{"state":"Gelderland","name":"Horssen","lat":"51.85583000","lon":"5.60972000"},
{"state":"Gelderland","name":"Hummelo","lat":"52.00417000","lon":"6.23333000"},
{"state":"Gelderland","name":"Hunnerberg","lat":"51.84209000","lon":"5.87876000"},
{"state":"Gelderland","name":"Ingen","lat":"51.95917000","lon":"5.48472000"},
{"state":"Gelderland","name":"Keijenborg","lat":"52.02917000","lon":"6.29444000"},
{"state":"Gelderland","name":"Kerkdriel","lat":"51.77167000","lon":"5.33472000"},
{"state":"Gelderland","name":"Kerschoten","lat":"52.23333000","lon":"5.96667000"},
{"state":"Gelderland","name":"Kesteren","lat":"51.93500000","lon":"5.56944000"},
{"state":"Gelderland","name":"Kootwijkerbroek","lat":"52.15083000","lon":"5.66944000"},
{"state":"Gelderland","name":"Laren","lat":"52.19417000","lon":"6.36528000"},
{"state":"Gelderland","name":"Leesten","lat":"52.12790000","lon":"6.23217000"},
{"state":"Gelderland","name":"Lent","lat":"51.86167000","lon":"5.86667000"},
{"state":"Gelderland","name":"Leuth","lat":"51.83917000","lon":"5.99167000"},
{"state":"Gelderland","name":"Lichtenvoorde","lat":"51.98667000","lon":"6.56667000"},
{"state":"Gelderland","name":"Lienden","lat":"51.94833000","lon":"5.51806000"},
{"state":"Gelderland","name":"Lindenholt","lat":"51.83270000","lon":"5.79340000"},
{"state":"Gelderland","name":"Lobith","lat":"51.86250000","lon":"6.11806000"},
{"state":"Gelderland","name":"Lochem","lat":"52.15917000","lon":"6.41111000"},
{"state":"Gelderland","name":"Loenen","lat":"52.11750000","lon":"6.01944000"},
{"state":"Gelderland","name":"Lunteren","lat":"52.08500000","lon":"5.62222000"},
{"state":"Gelderland","name":"Malburgen West","lat":"51.96811000","lon":"5.89743000"},
{"state":"Gelderland","name":"Matendonk","lat":"52.19766000","lon":"6.01115000"},
{"state":"Gelderland","name":"Matendreef","lat":"52.19993000","lon":"5.98592000"},
{"state":"Gelderland","name":"Matengaarde","lat":"52.19793000","lon":"5.99570000"},
{"state":"Gelderland","name":"Matenhoeve","lat":"52.19056000","lon":"6.01338000"},
{"state":"Gelderland","name":"Matenhorst","lat":"52.20482000","lon":"5.99304000"},
{"state":"Gelderland","name":"Matenveld","lat":"52.18767000","lon":"5.99879000"},
{"state":"Gelderland","name":"Maurik","lat":"51.96083000","lon":"5.42222000"},
{"state":"Gelderland","name":"Meteren","lat":"51.86500000","lon":"5.28333000"},
{"state":"Gelderland","name":"Nederhemert","lat":"51.76518000","lon":"5.16817000"},
{"state":"Gelderland","name":"Nederhemert-Noord","lat":"51.76322000","lon":"5.17305000"},
{"state":"Gelderland","name":"Nederwoud","lat":"52.10083000","lon":"5.57083000"},
{"state":"Gelderland","name":"Neede","lat":"52.13417000","lon":"6.61389000"},
{"state":"Gelderland","name":"Nijkerk","lat":"52.22000000","lon":"5.48611000"},
{"state":"Gelderland","name":"Nijkerkerveen","lat":"52.19500000","lon":"5.46667000"},
{"state":"Gelderland","name":"Nijmegen","lat":"51.84250000","lon":"5.85278000"},
{"state":"Gelderland","name":"Nunspeet","lat":"52.37917000","lon":"5.78611000"},
{"state":"Gelderland","name":"Ochten","lat":"51.91000000","lon":"5.56944000"},
{"state":"Gelderland","name":"Oldebroek","lat":"52.44500000","lon":"5.90139000"},
{"state":"Gelderland","name":"Ooij","lat":"51.85465000","lon":"5.93915000"},
{"state":"Gelderland","name":"Oost Gelre","lat":"52.00425000","lon":"6.54958000"},
{"state":"Gelderland","name":"Oostendorp","lat":"52.44722000","lon":"5.85443000"},
{"state":"Gelderland","name":"Oosterbeek","lat":"51.98583000","lon":"5.84583000"},
{"state":"Gelderland","name":"Oosterhout","lat":"51.88000000","lon":"5.82639000"},
{"state":"Gelderland","name":"Ooy","lat":"51.91917000","lon":"6.05833000"},
{"state":"Gelderland","name":"Ooyerhoek","lat":"52.12838000","lon":"6.22307000"},
{"state":"Gelderland","name":"Ophemert","lat":"51.84500000","lon":"5.38750000"},
{"state":"Gelderland","name":"Opheusden","lat":"51.93167000","lon":"5.63194000"},
{"state":"Gelderland","name":"Opijnen","lat":"51.82917000","lon":"5.29861000"},
{"state":"Gelderland","name":"Orden","lat":"52.20113000","lon":"5.93417000"},
{"state":"Gelderland","name":"Otterlo","lat":"52.10000000","lon":"5.77222000"},
{"state":"Gelderland","name":"Oude IJsselstreek","lat":"51.89963000","lon":"6.38078000"},
{"state":"Gelderland","name":"Overasselt","lat":"51.76000000","lon":"5.78889000"},
{"state":"Gelderland","name":"Pannerden","lat":"51.89083000","lon":"6.03889000"},
{"state":"Gelderland","name":"Puiflijk","lat":"51.87833000","lon":"5.59028000"},
{"state":"Gelderland","name":"Putten","lat":"52.25917000","lon":"5.60694000"},
{"state":"Gelderland","name":"Renkum","lat":"51.97667000","lon":"5.73333000"},
{"state":"Gelderland","name":"Rheden","lat":"52.00500000","lon":"6.02917000"},
{"state":"Gelderland","name":"Rivierenkwartier","lat":"52.18914000","lon":"5.97665000"},
{"state":"Gelderland","name":"Rossum","lat":"51.80083000","lon":"5.33333000"},
{"state":"Gelderland","name":"Rozendaal","lat":"52.00583000","lon":"5.96250000"},
{"state":"Gelderland","name":"Ruurlo","lat":"52.08833000","lon":"6.45000000"},
{"state":"Gelderland","name":"Scherpenzeel","lat":"52.08000000","lon":"5.48889000"},
{"state":"Gelderland","name":"Silvolde","lat":"51.90917000","lon":"6.38750000"},
{"state":"Gelderland","name":"Sluisoord","lat":"52.22291000","lon":"5.98145000"},
{"state":"Gelderland","name":"Spainkbos","lat":"52.22228000","lon":"5.94738000"},
{"state":"Gelderland","name":"Sprengenbos","lat":"52.21902000","lon":"5.94163000"},
{"state":"Gelderland","name":"Sprengenweg-Noord","lat":"52.21839000","lon":"5.95068000"},
{"state":"Gelderland","name":"Sprenkelaar","lat":"52.22512000","lon":"5.99922000"},
{"state":"Gelderland","name":"Staatsliedenkwartier","lat":"52.19951000","lon":"5.97691000"},
{"state":"Gelderland","name":"Steenderen","lat":"52.06417000","lon":"6.18750000"},
{"state":"Gelderland","name":"Stegeslag","lat":"51.94151000","lon":"6.06194000"},
{"state":"Gelderland","name":"Sterrenberg","lat":"51.99350000","lon":"5.88387000"},
{"state":"Gelderland","name":"Terborg","lat":"51.92000000","lon":"6.35417000"},
{"state":"Gelderland","name":"Terschuur","lat":"52.16500000","lon":"5.51667000"},
{"state":"Gelderland","name":"Terwolde","lat":"52.28333000","lon":"6.10000000"},
{"state":"Gelderland","name":"Tiel","lat":"51.88667000","lon":"5.42917000"},
{"state":"Gelderland","name":"Tolkamer","lat":"51.85500000","lon":"6.10278000"},
{"state":"Gelderland","name":"Tricht","lat":"51.89083000","lon":"5.26806000"},
{"state":"Gelderland","name":"Twello","lat":"52.23667000","lon":"6.10278000"},
{"state":"Gelderland","name":"Uddel","lat":"52.25917000","lon":"5.78056000"},
{"state":"Gelderland","name":"Ugchelen","lat":"52.18464000","lon":"5.93177000"},
{"state":"Gelderland","name":"Vaassen","lat":"52.28583000","lon":"5.96667000"},
{"state":"Gelderland","name":"Valburg","lat":"51.91167000","lon":"5.79028000"},
{"state":"Gelderland","name":"Valendries","lat":"51.80658000","lon":"5.73445000"},
{"state":"Gelderland","name":"Varsseveld","lat":"51.94333000","lon":"6.45833000"},
{"state":"Gelderland","name":"Velp","lat":"51.99500000","lon":"5.97361000"},
{"state":"Gelderland","name":"Vogelkwartier","lat":"52.19777000","lon":"5.96721000"},
{"state":"Gelderland","name":"Voorst","lat":"52.17000000","lon":"6.14167000"},
{"state":"Gelderland","name":"Voorthuizen","lat":"52.18667000","lon":"5.60556000"},
{"state":"Gelderland","name":"Vorden","lat":"52.10500000","lon":"6.30972000"},
{"state":"Gelderland","name":"Vredenburg","lat":"51.95355000","lon":"5.90284000"},
{"state":"Gelderland","name":"Vuren","lat":"51.82500000","lon":"5.04583000"},
{"state":"Gelderland","name":"Waardenburg","lat":"51.83250000","lon":"5.25694000"},
{"state":"Gelderland","name":"Wageningen","lat":"51.97000000","lon":"5.66667000"},
{"state":"Gelderland","name":"Wapenveld","lat":"52.42917000","lon":"6.07361000"},
{"state":"Gelderland","name":"Warnsveld","lat":"52.13750000","lon":"6.23056000"},
{"state":"Gelderland","name":"Wekerom","lat":"52.11250000","lon":"5.71389000"},
{"state":"Gelderland","name":"Welgelegen","lat":"52.21397000","lon":"5.97643000"},
{"state":"Gelderland","name":"West Betuwe","lat":"51.86158000","lon":"5.20935000"},
{"state":"Gelderland","name":"Westeneng","lat":"52.12750000","lon":"5.71528000"},
{"state":"Gelderland","name":"Westenenk","lat":"52.19624000","lon":"5.95656000"},
{"state":"Gelderland","name":"Westervoort","lat":"51.95583000","lon":"5.97222000"},
{"state":"Gelderland","name":"Wijchen","lat":"51.80917000","lon":"5.72500000"},
{"state":"Gelderland","name":"Winkewijert","lat":"52.19082000","lon":"5.95794000"},
{"state":"Gelderland","name":"Winterswijk","lat":"51.97250000","lon":"6.71944000"},
{"state":"Gelderland","name":"Wisch","lat":"51.92648000","lon":"6.41705000"},
{"state":"Gelderland","name":"Wolfheze","lat":"52.00333000","lon":"5.79028000"},
{"state":"Gelderland","name":"Woudhuis","lat":"52.21323000","lon":"6.01124000"},
{"state":"Gelderland","name":"Zaltbommel","lat":"51.81000000","lon":"5.24444000"},
{"state":"Gelderland","name":"Zeddam","lat":"51.90333000","lon":"6.25972000"},
{"state":"Gelderland","name":"Zelhem","lat":"52.00667000","lon":"6.34861000"},
{"state":"Gelderland","name":"Zetten","lat":"51.92833000","lon":"5.71389000"},
{"state":"Gelderland","name":"Zevenaar","lat":"51.93000000","lon":"6.07083000"},
{"state":"Gelderland","name":"Zevenhuizen","lat":"52.21816000","lon":"5.97841000"},
{"state":"Gelderland","name":"Zoelen","lat":"51.91250000","lon":"5.40278000"},
{"state":"Gelderland","name":"Zonnemaat","lat":"51.93115000","lon":"6.06235000"},
{"state":"Gelderland","name":"Zuilichem","lat":"51.80917000","lon":"5.13611000"},
{"state":"Gelderland","name":"Zutphen","lat":"52.13833000","lon":"6.20139000"},
{"state":"Groningen","name":"Aduard","lat":"53.25667000","lon":"6.45972000"},
{"state":"Groningen","name":"Appingedam","lat":"53.32167000","lon":"6.85833000"},
{"state":"Groningen","name":"Baflo","lat":"53.36250000","lon":"6.51389000"},
{"state":"Groningen","name":"Bedum","lat":"53.30083000","lon":"6.60278000"},
{"state":"Groningen","name":"Bellingwolde","lat":"53.11583000","lon":"7.16528000"},
{"state":"Groningen","name":"Blijham","lat":"53.10917000","lon":"7.07639000"},
{"state":"Groningen","name":"Coendersborg","lat":"53.19410000","lon":"6.58944000"},
{"state":"Groningen","name":"De Wijert","lat":"53.19450000","lon":"6.57117000"},
{"state":"Groningen","name":"Delfzijl","lat":"53.33000000","lon":"6.91806000"},
{"state":"Groningen","name":"Eenrum","lat":"53.36250000","lon":"6.45833000"},
{"state":"Groningen","name":"Eexta","lat":"53.16386000","lon":"6.98344000"},
{"state":"Groningen","name":"Farmsum","lat":"53.32167000","lon":"6.92639000"},
{"state":"Groningen","name":"Gemeente Appingedam","lat":"53.31926000","lon":"6.84864000"},
{"state":"Groningen","name":"Gemeente Delfzijl","lat":"53.30019000","lon":"6.93129000"},
{"state":"Groningen","name":"Gemeente Groningen","lat":"53.22369000","lon":"6.56479000"},
{"state":"Groningen","name":"Gemeente Loppersum","lat":"53.33849000","lon":"6.72149000"},
{"state":"Groningen","name":"Gemeente Oldambt","lat":"53.16859000","lon":"7.04224000"},
{"state":"Groningen","name":"Gemeente Pekela","lat":"53.05969000","lon":"6.96510000"},
{"state":"Groningen","name":"Gemeente Stadskanaal","lat":"53.00005000","lon":"6.98906000"},
{"state":"Groningen","name":"Gemeente Veendam","lat":"53.08951000","lon":"6.87923000"},
{"state":"Groningen","name":"Glimmen","lat":"53.13917000","lon":"6.62917000"},
{"state":"Groningen","name":"Grijpskerk","lat":"53.26250000","lon":"6.30833000"},
{"state":"Groningen","name":"Groningen","lat":"53.21917000","lon":"6.56667000"},
{"state":"Groningen","name":"Grootegast","lat":"53.21250000","lon":"6.27361000"},
{"state":"Groningen","name":"Haren","lat":"53.17209000","lon":"6.60931000"},
{"state":"Groningen","name":"Harkstede","lat":"53.21333000","lon":"6.69861000"},
{"state":"Groningen","name":"Heiligerlee","lat":"53.15667000","lon":"7.00972000"},
{"state":"Groningen","name":"Helpman","lat":"53.19794000","lon":"6.57978000"},
{"state":"Groningen","name":"Hoogezand","lat":"53.16167000","lon":"6.76111000"},
{"state":"Groningen","name":"Korrewegwijk","lat":"53.23235000","lon":"6.56804000"},
{"state":"Groningen","name":"Leek","lat":"53.16250000","lon":"6.37639000"},
{"state":"Groningen","name":"Leens","lat":"53.36000000","lon":"6.37917000"},
{"state":"Groningen","name":"Loppersum","lat":"53.33167000","lon":"6.74722000"},
{"state":"Groningen","name":"Marum","lat":"53.14417000","lon":"6.26250000"},
{"state":"Groningen","name":"Meeden","lat":"53.14000000","lon":"6.92639000"},
{"state":"Groningen","name":"Middelstum","lat":"53.34667000","lon":"6.64167000"},
{"state":"Groningen","name":"Midden-Groningen","lat":"53.15113000","lon":"6.83313000"},
{"state":"Groningen","name":"Midwolda","lat":"53.19500000","lon":"7.01389000"},
{"state":"Groningen","name":"Niekerk","lat":"53.22500000","lon":"6.35278000"},
{"state":"Groningen","name":"Nieuwe Pekela","lat":"53.07917000","lon":"6.96528000"},
{"state":"Groningen","name":"Nieuwolda","lat":"53.24417000","lon":"6.97500000"},
{"state":"Groningen","name":"Noordbroek","lat":"53.19500000","lon":"6.87361000"},
{"state":"Groningen","name":"Noordhorn","lat":"53.26167000","lon":"6.39583000"},
{"state":"Groningen","name":"Obergum","lat":"53.33333000","lon":"6.51667000"},
{"state":"Groningen","name":"Oldehove","lat":"53.30333000","lon":"6.39583000"},
{"state":"Groningen","name":"Ommelanderwijk","lat":"53.08917000","lon":"6.90556000"},
{"state":"Groningen","name":"Onstwedde","lat":"53.03500000","lon":"7.04028000"},
{"state":"Groningen","name":"Oosterhoogebrug","lat":"53.22892000","lon":"6.60141000"},
{"state":"Groningen","name":"Oosterpark","lat":"53.22370000","lon":"6.58530000"},
{"state":"Groningen","name":"Oude Pekela","lat":"53.10417000","lon":"7.00972000"},
{"state":"Groningen","name":"Reitdiep","lat":"53.24252000","lon":"6.51957000"},
{"state":"Groningen","name":"Sappemeer","lat":"53.16417000","lon":"6.79028000"},
{"state":"Groningen","name":"Scheemda","lat":"53.17333000","lon":"6.97222000"},
{"state":"Groningen","name":"Schildwolde","lat":"53.23327000","lon":"6.81566000"},
{"state":"Groningen","name":"Sellingen","lat":"52.94583000","lon":"7.15139000"},
{"state":"Groningen","name":"Selwerd","lat":"53.23520000","lon":"6.55450000"},
{"state":"Groningen","name":"Siddeburen","lat":"53.25000000","lon":"6.86806000"},
{"state":"Groningen","name":"Slochteren","lat":"53.22078000","lon":"6.80547000"},
{"state":"Groningen","name":"Spijk","lat":"53.39000000","lon":"6.83750000"},
{"state":"Groningen","name":"Stadskanaal","lat":"52.98947000","lon":"6.95040000"},
{"state":"Groningen","name":"Ten Boer","lat":"53.27583000","lon":"6.69444000"},
{"state":"Groningen","name":"Ter Apel","lat":"52.87667000","lon":"7.05972000"},
{"state":"Groningen","name":"Tuikwerd","lat":"53.31667000","lon":"6.90000000"},
{"state":"Groningen","name":"Uithuizen","lat":"53.40750000","lon":"6.67083000"},
{"state":"Groningen","name":"Uithuizermeeden","lat":"53.41417000","lon":"6.72361000"},
{"state":"Groningen","name":"Ulrum","lat":"53.35917000","lon":"6.33333000"},
{"state":"Groningen","name":"Usquert","lat":"53.40250000","lon":"6.61111000"},
{"state":"Groningen","name":"Veendam","lat":"53.10667000","lon":"6.87917000"},
{"state":"Groningen","name":"Vlagtwedde","lat":"53.02750000","lon":"7.10833000"},
{"state":"Groningen","name":"Wagenborgen","lat":"53.25583000","lon":"6.93333000"},
{"state":"Groningen","name":"Warffum","lat":"53.39250000","lon":"6.55833000"},
{"state":"Groningen","name":"Westerlee","lat":"53.14583000","lon":"6.98750000"},
{"state":"Groningen","name":"Westerwolde","lat":"53.02800000","lon":"7.15671000"},
{"state":"Groningen","name":"Wildervank","lat":"53.08083000","lon":"6.86250000"},
{"state":"Groningen","name":"Winschoten","lat":"53.14417000","lon":"7.03472000"},
{"state":"Groningen","name":"Winsum","lat":"53.33000000","lon":"6.52083000"},
{"state":"Groningen","name":"Zoutkamp","lat":"53.33917000","lon":"6.30417000"},
{"state":"Groningen","name":"Zuidbroek","lat":"53.16333000","lon":"6.86111000"},
{"state":"Groningen","name":"Zuidhorn","lat":"53.24667000","lon":"6.40278000"},
{"state":"Limburg","name":"Abdissenbosch","lat":"50.91667000","lon":"6.03333000"},
{"state":"Limburg","name":"Amby","lat":"50.86215000","lon":"5.73226000"},
{"state":"Limburg","name":"America","lat":"51.43667000","lon":"5.97917000"},
{"state":"Limburg","name":"Amstenrade","lat":"50.93917000","lon":"5.92361000"},
{"state":"Limburg","name":"Arcen","lat":"51.47667000","lon":"6.18056000"},
{"state":"Limburg","name":"Baarlo","lat":"51.33083000","lon":"6.09444000"},
{"state":"Limburg","name":"Banholt","lat":"50.79000000","lon":"5.80833000"},
{"state":"Limburg","name":"Beegden","lat":"51.18917000","lon":"5.91944000"},
{"state":"Limburg","name":"Beek","lat":"50.94083000","lon":"5.79722000"},
{"state":"Limburg","name":"Beersdal","lat":"50.90597000","lon":"5.96440000"},
{"state":"Limburg","name":"Beesel","lat":"51.26833000","lon":"6.03889000"},
{"state":"Limburg","name":"Belfort","lat":"50.84698000","lon":"5.65991000"},
{"state":"Limburg","name":"Berg","lat":"50.86167000","lon":"5.78333000"},
{"state":"Limburg","name":"Beringe","lat":"51.33667000","lon":"5.94861000"},
{"state":"Limburg","name":"Biesland","lat":"50.84110000","lon":"5.67573000"},
{"state":"Limburg","name":"Bleijerheide","lat":"50.85538000","lon":"6.06789000"},
{"state":"Limburg","name":"Blitterswijck","lat":"51.53083000","lon":"6.10833000"},
{"state":"Limburg","name":"Bocholtz","lat":"50.81833000","lon":"6.00556000"},
{"state":"Limburg","name":"Borgharen","lat":"50.87750000","lon":"5.68750000"},
{"state":"Limburg","name":"Born","lat":"51.03167000","lon":"5.80972000"},
{"state":"Limburg","name":"Brabander","lat":"51.53583000","lon":"5.96806000"},
{"state":"Limburg","name":"Brachterbeek","lat":"51.14694000","lon":"5.90446000"},
{"state":"Limburg","name":"Broekhem","lat":"50.87119000","lon":"5.82069000"},
{"state":"Limburg","name":"Broeksittard","lat":"51.00290000","lon":"5.89511000"},
{"state":"Limburg","name":"Brukske","lat":"51.52101000","lon":"5.99270000"},
{"state":"Limburg","name":"Brunssum","lat":"50.94667000","lon":"5.97083000"},
{"state":"Limburg","name":"Buchten","lat":"51.04333000","lon":"5.80972000"},
{"state":"Limburg","name":"Budschop","lat":"51.28511000","lon":"5.75898000"},
{"state":"Limburg","name":"Bunde","lat":"50.89667000","lon":"5.73194000"},
{"state":"Limburg","name":"Chevremont","lat":"50.87554000","lon":"6.05981000"},
{"state":"Limburg","name":"De Heeg","lat":"50.82454000","lon":"5.72309000"},
{"state":"Limburg","name":"Doenrade","lat":"50.96750000","lon":"5.90694000"},
{"state":"Limburg","name":"Egchel","lat":"51.31417000","lon":"5.97222000"},
{"state":"Limburg","name":"Eijsden","lat":"50.78000000","lon":"5.71770000"},
{"state":"Limburg","name":"Eijsden-Margraten","lat":"50.80090000","lon":"5.77408000"},
{"state":"Limburg","name":"Einighausen","lat":"51.00167000","lon":"5.82778000"},
{"state":"Limburg","name":"Elsloo","lat":"50.94917000","lon":"5.77083000"},
{"state":"Limburg","name":"Geleen","lat":"50.97417000","lon":"5.82917000"},
{"state":"Limburg","name":"Gennep","lat":"51.69833000","lon":"5.97361000"},
{"state":"Limburg","name":"Gracht","lat":"50.85175000","lon":"6.02793000"},
{"state":"Limburg","name":"Grashoek","lat":"51.36083000","lon":"5.94306000"},
{"state":"Limburg","name":"Grevenbicht","lat":"51.03833000","lon":"5.77500000"},
{"state":"Limburg","name":"Gronsveld","lat":"50.81083000","lon":"5.73056000"},
{"state":"Limburg","name":"Gulpen","lat":"50.81583000","lon":"5.88889000"},
{"state":"Limburg","name":"Gulpen-Wittem","lat":"50.81374000","lon":"5.89296000"},
{"state":"Limburg","name":"Guttecoven","lat":"51.01500000","lon":"5.81806000"},
{"state":"Limburg","name":"Haanrade","lat":"50.87981000","lon":"6.07411000"},
{"state":"Limburg","name":"Haelen","lat":"51.23583000","lon":"5.95694000"},
{"state":"Limburg","name":"Heel","lat":"51.17917000","lon":"5.89444000"},
{"state":"Limburg","name":"Heer","lat":"50.83836000","lon":"5.72989000"},
{"state":"Limburg","name":"Heerlen","lat":"50.88365000","lon":"5.98154000"},
{"state":"Limburg","name":"Hegelsom","lat":"51.43917000","lon":"6.03889000"},
{"state":"Limburg","name":"Heide","lat":"51.06833000","lon":"5.87222000"},
{"state":"Limburg","name":"Heijen","lat":"51.67500000","lon":"5.98056000"},
{"state":"Limburg","name":"Heksenberg","lat":"50.92068000","lon":"5.97373000"},
{"state":"Limburg","name":"Helden","lat":"51.31917000","lon":"6.00000000"},
{"state":"Limburg","name":"Herkenbosch","lat":"51.15333000","lon":"6.06389000"},
{"state":"Limburg","name":"Herten","lat":"51.18083000","lon":"5.96250000"},
{"state":"Limburg","name":"Heugem","lat":"50.82791000","lon":"5.70774000"},
{"state":"Limburg","name":"Heythuysen","lat":"51.25000000","lon":"5.89861000"},
{"state":"Limburg","name":"Hoensbroek","lat":"50.92387000","lon":"5.92528000"},
{"state":"Limburg","name":"Holtum","lat":"51.04750000","lon":"5.82222000"},
{"state":"Limburg","name":"Holz","lat":"50.86415000","lon":"6.07424000"},
{"state":"Limburg","name":"Hopel","lat":"50.89245000","lon":"6.05046000"},
{"state":"Limburg","name":"Houthem","lat":"50.87250000","lon":"5.79306000"},
{"state":"Limburg","name":"Hulsberg","lat":"50.88917000","lon":"5.85556000"},
{"state":"Limburg","name":"Husken","lat":"50.89567000","lon":"5.95648000"},
{"state":"Limburg","name":"Kaalheide","lat":"50.86505000","lon":"6.03643000"},
{"state":"Limburg","name":"Kakert","lat":"50.90414000","lon":"6.00463000"},
{"state":"Limburg","name":"Keent","lat":"51.24218000","lon":"5.70079000"},
{"state":"Limburg","name":"Kelpen-Oler","lat":"51.21817000","lon":"5.82602000"},
{"state":"Limburg","name":"Kerensheide","lat":"50.97210000","lon":"5.77666000"},
{"state":"Limburg","name":"Kerkrade","lat":"50.86583000","lon":"6.06250000"},
{"state":"Limburg","name":"Kessel","lat":"51.29167000","lon":"6.05417000"},
{"state":"Limburg","name":"Klimmen","lat":"50.87583000","lon":"5.88056000"},
{"state":"Limburg","name":"Koningsbosch","lat":"51.05167000","lon":"5.95833000"},
{"state":"Limburg","name":"Koningslust","lat":"51.35750000","lon":"5.99306000"},
{"state":"Limburg","name":"Kruisberg","lat":"50.94234000","lon":"5.96519000"},
{"state":"Limburg","name":"Kunrade","lat":"50.87769000","lon":"5.93107000"},
{"state":"Limburg","name":"Landgraaf","lat":"50.91333000","lon":"6.05722000"},
{"state":"Limburg","name":"Lauradorp","lat":"50.91229000","lon":"6.04591000"},
{"state":"Limburg","name":"Leeuwen","lat":"51.21032000","lon":"5.99862000"},
{"state":"Limburg","name":"Leuken","lat":"51.25288000","lon":"5.73460000"},
{"state":"Limburg","name":"Leunen","lat":"51.51000000","lon":"5.97917000"},
{"state":"Limburg","name":"Lichtenberg","lat":"50.90220000","lon":"6.02523000"},
{"state":"Limburg","name":"Limbricht","lat":"51.01167000","lon":"5.83750000"},
{"state":"Limburg","name":"Limmel","lat":"50.86718000","lon":"5.70719000"},
{"state":"Limburg","name":"Lindenheuvel","lat":"50.98509000","lon":"5.81667000"},
{"state":"Limburg","name":"Linne","lat":"51.15500000","lon":"5.93889000"},
{"state":"Limburg","name":"Lottum","lat":"51.46167000","lon":"6.16111000"},
{"state":"Limburg","name":"Maasbracht","lat":"51.13929000","lon":"5.88627000"},
{"state":"Limburg","name":"Maasbree","lat":"51.35750000","lon":"6.04861000"},
{"state":"Limburg","name":"Maastricht","lat":"50.84833000","lon":"5.68889000"},
{"state":"Limburg","name":"Malberg","lat":"50.86244000","lon":"5.65419000"},
{"state":"Limburg","name":"Margraten","lat":"50.82083000","lon":"5.82083000"},
{"state":"Limburg","name":"Mariarade","lat":"50.92906000","lon":"5.92738000"},
{"state":"Limburg","name":"Mechelen","lat":"50.79583000","lon":"5.92639000"},
{"state":"Limburg","name":"Meerlo","lat":"51.51333000","lon":"6.08472000"},
{"state":"Limburg","name":"Meerssen","lat":"50.88750000","lon":"5.75000000"},
{"state":"Limburg","name":"Meezenbroek","lat":"50.89680000","lon":"5.99051000"},
{"state":"Limburg","name":"Meijel","lat":"51.34417000","lon":"5.88472000"},
{"state":"Limburg","name":"Melderslo","lat":"51.46167000","lon":"6.08611000"},
{"state":"Limburg","name":"Melick","lat":"51.15917000","lon":"6.01667000"},
{"state":"Limburg","name":"Merkelbeek","lat":"50.95389000","lon":"5.94069000"},
{"state":"Limburg","name":"Merselo","lat":"51.53000000","lon":"5.92778000"},
{"state":"Limburg","name":"Merum","lat":"51.17333000","lon":"5.95972000"},
{"state":"Limburg","name":"Milsbeek","lat":"51.72500000","lon":"5.94861000"},
{"state":"Limburg","name":"Moesel","lat":"51.23828000","lon":"5.71778000"},
{"state":"Limburg","name":"Montfort","lat":"51.12583000","lon":"5.94861000"},
{"state":"Limburg","name":"Mook","lat":"51.75250000","lon":"5.88194000"},
{"state":"Limburg","name":"Munstergeleen","lat":"50.97500000","lon":"5.86389000"},
{"state":"Limburg","name":"Nederweert","lat":"51.28583000","lon":"5.74861000"},
{"state":"Limburg","name":"Neerbeek","lat":"50.95000000","lon":"5.81528000"},
{"state":"Limburg","name":"Nieuw-Lotbroek","lat":"50.91283000","lon":"5.92798000"},
{"state":"Limburg","name":"Nieuwdorp","lat":"50.96216000","lon":"5.77297000"},
{"state":"Limburg","name":"Nuth","lat":"50.91750000","lon":"5.88611000"},
{"state":"Limburg","name":"Obbicht","lat":"51.02833000","lon":"5.78056000"},
{"state":"Limburg","name":"Offenbeek","lat":"51.28225000","lon":"6.09500000"},
{"state":"Limburg","name":"Oirlo","lat":"51.51167000","lon":"6.03750000"},
{"state":"Limburg","name":"Oirsbeek","lat":"50.95083000","lon":"5.90833000"},
{"state":"Limburg","name":"Oostrum","lat":"51.52917000","lon":"6.01667000"},
{"state":"Limburg","name":"Ophoven","lat":"50.99036000","lon":"5.85868000"},
{"state":"Limburg","name":"Ospel","lat":"51.29750000","lon":"5.78472000"},
{"state":"Limburg","name":"Ottersum","lat":"51.70333000","lon":"5.98333000"},
{"state":"Limburg","name":"Oud-Caberg","lat":"50.86539000","lon":"5.66444000"},
{"state":"Limburg","name":"Overhoven","lat":"51.00869000","lon":"5.86628000"},
{"state":"Limburg","name":"Panningen","lat":"51.32667000","lon":"5.97917000"},
{"state":"Limburg","name":"Passart","lat":"50.92389000","lon":"5.94674000"},
{"state":"Limburg","name":"Peij","lat":"51.09417000","lon":"5.89583000"},
{"state":"Limburg","name":"Posterholt","lat":"51.12333000","lon":"6.03472000"},
{"state":"Limburg","name":"Pottenberg","lat":"50.85135000","lon":"5.65668000"},
{"state":"Limburg","name":"Puth","lat":"50.95417000","lon":"5.87361000"},
{"state":"Limburg","name":"Reuver","lat":"51.28417000","lon":"6.07778000"},
{"state":"Limburg","name":"Roermond","lat":"51.19417000","lon":"5.98750000"},
{"state":"Limburg","name":"Roosteren","lat":"51.08333000","lon":"5.81806000"},
{"state":"Limburg","name":"Rothem","lat":"50.87667000","lon":"5.73889000"},
{"state":"Limburg","name":"Scharn","lat":"50.85000000","lon":"5.73333000"},
{"state":"Limburg","name":"Schilberg","lat":"51.09917000","lon":"5.88611000"},
{"state":"Limburg","name":"Schimmert","lat":"50.90667000","lon":"5.82361000"},
{"state":"Limburg","name":"Schinnen","lat":"50.94333000","lon":"5.88889000"},
{"state":"Limburg","name":"Schinveld","lat":"50.96917000","lon":"5.97917000"},
{"state":"Limburg","name":"Sevenum","lat":"51.41250000","lon":"6.03750000"},
{"state":"Limburg","name":"Sibbe","lat":"50.84417000","lon":"5.82639000"},
{"state":"Limburg","name":"Simpelveld","lat":"50.83417000","lon":"5.98194000"},
{"state":"Limburg","name":"Sint Joost","lat":"51.11750000","lon":"5.89861000"},
{"state":"Limburg","name":"Sint Odiliënberg","lat":"51.14333000","lon":"6.00000000"},
{"state":"Limburg","name":"Sittard","lat":"50.99833000","lon":"5.86944000"},
{"state":"Limburg","name":"Spaubeek","lat":"50.94000000","lon":"5.84306000"},
{"state":"Limburg","name":"Spekholzerheide","lat":"50.85559000","lon":"6.02471000"},
{"state":"Limburg","name":"Stadbroek","lat":"51.00187000","lon":"5.87656000"},
{"state":"Limburg","name":"Stein","lat":"50.96917000","lon":"5.76667000"},
{"state":"Limburg","name":"Stramproy","lat":"51.19417000","lon":"5.71944000"},
{"state":"Limburg","name":"Tegelen","lat":"51.34417000","lon":"6.13611000"},
{"state":"Limburg","name":"Terwinselen","lat":"50.86659000","lon":"6.02471000"},
{"state":"Limburg","name":"Thorn","lat":"51.16167000","lon":"5.84167000"},
{"state":"Limburg","name":"Tienray","lat":"51.49500000","lon":"6.09306000"},
{"state":"Limburg","name":"Ubachsberg","lat":"50.85333000","lon":"5.94861000"},
{"state":"Limburg","name":"Ulestraten","lat":"50.90583000","lon":"5.78194000"},
{"state":"Limburg","name":"Urmond","lat":"50.99083000","lon":"5.77222000"},
{"state":"Limburg","name":"Vaals","lat":"50.77083000","lon":"6.01806000"},
{"state":"Limburg","name":"Valkenburg","lat":"50.86523000","lon":"5.83205000"},
{"state":"Limburg","name":"Valkenburg aan de Geul","lat":"50.85711000","lon":"5.83489000"},
{"state":"Limburg","name":"Veltum","lat":"51.51954000","lon":"5.96032000"},
{"state":"Limburg","name":"Venlo","lat":"51.37000000","lon":"6.16806000"},
{"state":"Limburg","name":"Venray","lat":"51.52500000","lon":"5.97500000"},
{"state":"Limburg","name":"Vijlen","lat":"50.78833000","lon":"5.96528000"},
{"state":"Limburg","name":"Vlodrop","lat":"51.13333000","lon":"6.07639000"},
{"state":"Limburg","name":"Voerendaal","lat":"50.88327000","lon":"5.92978000"},
{"state":"Limburg","name":"Vrieheide","lat":"50.92192000","lon":"5.96701000"},
{"state":"Limburg","name":"Wanssum","lat":"51.53583000","lon":"6.07639000"},
{"state":"Limburg","name":"Waubach","lat":"50.91833000","lon":"6.05000000"},
{"state":"Limburg","name":"Weert","lat":"51.25167000","lon":"5.70694000"},
{"state":"Limburg","name":"Well","lat":"51.55000000","lon":"6.08889000"},
{"state":"Limburg","name":"Wellerlooi","lat":"51.53417000","lon":"6.13611000"},
{"state":"Limburg","name":"Wessem","lat":"51.15954000","lon":"5.88146000"},
{"state":"Limburg","name":"Wijlre","lat":"50.83333000","lon":"5.89583000"},
{"state":"Limburg","name":"Wijnandsrade","lat":"50.90583000","lon":"5.88333000"},
{"state":"Limburg","name":"Wolder","lat":"50.83752000","lon":"5.65938000"},
{"state":"Limburg","name":"Ysselsteyn","lat":"51.49000000","lon":"5.89722000"},
{"state":"North Brabant","name":"'s Gravenmoer","lat":"51.65594000","lon":"4.94076000"},
{"state":"North Brabant","name":"'s-Hertogenbosch","lat":"51.69917000","lon":"5.30417000"},
{"state":"North Brabant","name":"'t Hofke","lat":"51.44943000","lon":"5.51926000"},
{"state":"North Brabant","name":"Aalburg","lat":"51.75482000","lon":"5.13156000"},
{"state":"North Brabant","name":"Aalst","lat":"51.39667000","lon":"5.47778000"},
{"state":"North Brabant","name":"Aarle-Rixtel","lat":"51.50976000","lon":"5.63839000"},
{"state":"North Brabant","name":"Abcoven","lat":"51.52750000","lon":"5.08333000"},
{"state":"North Brabant","name":"Akert","lat":"51.41407000","lon":"5.55960000"},
{"state":"North Brabant","name":"Almkerk","lat":"51.77083000","lon":"4.95972000"},
{"state":"North Brabant","name":"Alphen","lat":"51.48167000","lon":"4.95833000"},
{"state":"North Brabant","name":"Andel","lat":"51.78333000","lon":"5.05833000"},
{"state":"North Brabant","name":"Asten","lat":"51.40417000","lon":"5.74861000"},
{"state":"North Brabant","name":"Baardwijk","lat":"51.69246000","lon":"5.09628000"},
{"state":"North Brabant","name":"Baarle-Nassau","lat":"51.44750000","lon":"4.92917000"},
{"state":"North Brabant","name":"Bakel","lat":"51.50333000","lon":"5.74028000"},
{"state":"North Brabant","name":"Bavel","lat":"51.56583000","lon":"4.83056000"},
{"state":"North Brabant","name":"Beek","lat":"51.52890000","lon":"5.63382000"},
{"state":"North Brabant","name":"Beers","lat":"51.72583000","lon":"5.82778000"},
{"state":"North Brabant","name":"Belcrum","lat":"51.59911000","lon":"4.76994000"},
{"state":"North Brabant","name":"Bergeijk","lat":"51.30182000","lon":"5.33946000"},
{"state":"North Brabant","name":"Bergen op Zoom","lat":"51.49500000","lon":"4.29167000"},
{"state":"North Brabant","name":"Berghem","lat":"51.76991000","lon":"5.56827000"},
{"state":"North Brabant","name":"Berlicum","lat":"51.67750000","lon":"5.40000000"},
{"state":"North Brabant","name":"Besoijen","lat":"51.68333000","lon":"5.05000000"},
{"state":"North Brabant","name":"Best","lat":"51.50750000","lon":"5.39028000"},
{"state":"North Brabant","name":"Besterd","lat":"51.56380000","lon":"5.08658000"},
{"state":"North Brabant","name":"Biesdonk","lat":"51.60613000","lon":"4.78515000"},
{"state":"North Brabant","name":"Bitswijk","lat":"51.66870000","lon":"5.60921000"},
{"state":"North Brabant","name":"Blaarthem","lat":"51.42501000","lon":"5.45784000"},
{"state":"North Brabant","name":"Bladel","lat":"51.36833000","lon":"5.22083000"},
{"state":"North Brabant","name":"Boekel","lat":"51.60333000","lon":"5.67500000"},
{"state":"North Brabant","name":"Bosschenhoofd","lat":"51.56083000","lon":"4.54028000"},
{"state":"North Brabant","name":"Boxmeer","lat":"51.64667000","lon":"5.94722000"},
{"state":"North Brabant","name":"Boxtel","lat":"51.59083000","lon":"5.32917000"},
{"state":"North Brabant","name":"Brand","lat":"51.45839000","lon":"5.62427000"},
{"state":"North Brabant","name":"Breda","lat":"51.58656000","lon":"4.77596000"},
{"state":"North Brabant","name":"Breugel","lat":"51.51750000","lon":"5.51111000"},
{"state":"North Brabant","name":"Broekhoven","lat":"51.54801000","lon":"5.09175000"},
{"state":"North Brabant","name":"Budel","lat":"51.27167000","lon":"5.57500000"},
{"state":"North Brabant","name":"Budel-Dorplein","lat":"51.23667000","lon":"5.58750000"},
{"state":"North Brabant","name":"Budel-Schoot","lat":"51.24750000","lon":"5.56528000"},
{"state":"North Brabant","name":"Chaam","lat":"51.50583000","lon":"4.86111000"},
{"state":"North Brabant","name":"Coevering","lat":"51.41742000","lon":"5.57463000"},
{"state":"North Brabant","name":"Cranendonck","lat":"51.30417000","lon":"5.58889000"},
{"state":"North Brabant","name":"Cuijk","lat":"51.73083000","lon":"5.87917000"},
{"state":"North Brabant","name":"De Blaak","lat":"51.54626000","lon":"5.04465000"},
{"state":"North Brabant","name":"De Doornakkers","lat":"51.43844000","lon":"5.50887000"},
{"state":"North Brabant","name":"De Kruiskamp","lat":"51.69978000","lon":"5.26032000"},
{"state":"North Brabant","name":"De Reit","lat":"51.56038000","lon":"5.04932000"},
{"state":"North Brabant","name":"De Rompert","lat":"51.71667000","lon":"5.31667000"},
{"state":"North Brabant","name":"Den Dungen","lat":"51.66500000","lon":"5.37222000"},
{"state":"North Brabant","name":"Deuteren","lat":"51.68667000","lon":"5.26667000"},
{"state":"North Brabant","name":"Diessen","lat":"51.47583000","lon":"5.17500000"},
{"state":"North Brabant","name":"Dinteloord","lat":"51.63500000","lon":"4.36944000"},
{"state":"North Brabant","name":"Dommelen","lat":"51.34624000","lon":"5.43394000"},
{"state":"North Brabant","name":"Dongen","lat":"51.62667000","lon":"4.93889000"},
{"state":"North Brabant","name":"Donk","lat":"51.53843000","lon":"5.62914000"},
{"state":"North Brabant","name":"Doonheide","lat":"51.56667000","lon":"5.69444000"},
{"state":"North Brabant","name":"Dorst","lat":"51.59000000","lon":"4.85694000"},
{"state":"North Brabant","name":"Duizel","lat":"51.36833000","lon":"5.29722000"},
{"state":"North Brabant","name":"Eckart","lat":"51.47320000","lon":"5.49449000"},
{"state":"North Brabant","name":"Eerde","lat":"51.60417000","lon":"5.49861000"},
{"state":"North Brabant","name":"Eerschot","lat":"51.56833000","lon":"5.47361000"},
{"state":"North Brabant","name":"Eersel","lat":"51.35750000","lon":"5.31806000"},
{"state":"North Brabant","name":"Eindhoven","lat":"51.44083000","lon":"5.47778000"},
{"state":"North Brabant","name":"Ekenrooi","lat":"51.39656000","lon":"5.48624000"},
{"state":"North Brabant","name":"Elshout","lat":"51.70083000","lon":"5.14167000"},
{"state":"North Brabant","name":"Enschot","lat":"51.57846000","lon":"5.13885000"},
{"state":"North Brabant","name":"Erp","lat":"51.60000000","lon":"5.60694000"},
{"state":"North Brabant","name":"Esch","lat":"51.61083000","lon":"5.29028000"},
{"state":"North Brabant","name":"Fijnaart","lat":"51.63750000","lon":"4.46944000"},
{"state":"North Brabant","name":"Gageldonk","lat":"51.60167000","lon":"4.73889000"},
{"state":"North Brabant","name":"Geenhoven","lat":"51.35935000","lon":"5.46021000"},
{"state":"North Brabant","name":"Geertruidenberg","lat":"51.70167000","lon":"4.85694000"},
{"state":"North Brabant","name":"Geffen","lat":"51.74000000","lon":"5.46389000"},
{"state":"North Brabant","name":"Geldrop","lat":"51.42167000","lon":"5.55972000"},
{"state":"North Brabant","name":"Gemert","lat":"51.55583000","lon":"5.69028000"},
{"state":"North Brabant","name":"Gemonde","lat":"51.61833000","lon":"5.35694000"},
{"state":"North Brabant","name":"Genderen","lat":"51.73583000","lon":"5.08750000"},
{"state":"North Brabant","name":"Genoenhuis","lat":"51.40917000","lon":"5.53889000"},
{"state":"North Brabant","name":"Gerwen","lat":"51.49000000","lon":"5.56250000"},
{"state":"North Brabant","name":"Giessen","lat":"51.79000000","lon":"5.03056000"},
{"state":"North Brabant","name":"Gilze","lat":"51.54417000","lon":"4.94028000"},
{"state":"North Brabant","name":"Ginneken","lat":"51.56593000","lon":"4.79310000"},
{"state":"North Brabant","name":"Goirle","lat":"51.52083000","lon":"5.06667000"},
{"state":"North Brabant","name":"Grasrijk","lat":"51.43916000","lon":"5.41544000"},
{"state":"North Brabant","name":"Grave","lat":"51.75902000","lon":"5.73882000"},
{"state":"North Brabant","name":"Groenewoud","lat":"51.53860000","lon":"5.09028000"},
{"state":"North Brabant","name":"Haaren","lat":"51.60250000","lon":"5.22222000"},
{"state":"North Brabant","name":"Haarsteeg","lat":"51.71167000","lon":"5.19861000"},
{"state":"North Brabant","name":"Halsteren","lat":"51.52834000","lon":"4.26785000"},
{"state":"North Brabant","name":"Handel","lat":"51.58000000","lon":"5.70972000"},
{"state":"North Brabant","name":"Hapert","lat":"51.36833000","lon":"5.25694000"},
{"state":"North Brabant","name":"Haps","lat":"51.68917000","lon":"5.86111000"},
{"state":"North Brabant","name":"Heerle","lat":"51.51917000","lon":"4.35972000"},
{"state":"North Brabant","name":"Heesch","lat":"51.73362000","lon":"5.52672000"},
{"state":"North Brabant","name":"Heesterakker","lat":"51.48610000","lon":"5.49681000"},
{"state":"North Brabant","name":"Heeswijk-Dinther","lat":"51.65083000","lon":"5.47500000"},
{"state":"North Brabant","name":"Heeze","lat":"51.38280000","lon":"5.57145000"},
{"state":"North Brabant","name":"Helmond","lat":"51.48167000","lon":"5.66111000"},
{"state":"North Brabant","name":"Helvoirt","lat":"51.63167000","lon":"5.23056000"},
{"state":"North Brabant","name":"Herpen","lat":"51.77167000","lon":"5.64167000"},
{"state":"North Brabant","name":"Heusden","lat":"51.38417000","lon":"5.76389000"},
{"state":"North Brabant","name":"Heusdenhout","lat":"51.58811000","lon":"4.81930000"},
{"state":"North Brabant","name":"Hilvarenbeek","lat":"51.48583000","lon":"5.13750000"},
{"state":"North Brabant","name":"Hoeven","lat":"51.57917000","lon":"4.58333000"},
{"state":"North Brabant","name":"Hoge Vucht","lat":"51.60794000","lon":"4.79150000"},
{"state":"North Brabant","name":"Hooge Mierde","lat":"51.38750000","lon":"5.12917000"},
{"state":"North Brabant","name":"Hooge Zwaluwe","lat":"51.68750000","lon":"4.74444000"},
{"state":"North Brabant","name":"Hoogeloon","lat":"51.39750000","lon":"5.26806000"},
{"state":"North Brabant","name":"Hoogerheide","lat":"51.42417000","lon":"4.32500000"},
{"state":"North Brabant","name":"Huijbergen","lat":"51.43250000","lon":"4.37639000"},
{"state":"North Brabant","name":"Jagershoef","lat":"51.47330000","lon":"5.46720000"},
{"state":"North Brabant","name":"Kalsdonk","lat":"51.53973000","lon":"4.47111000"},
{"state":"North Brabant","name":"Klein-Zundert","lat":"51.48083000","lon":"4.65417000"},
{"state":"North Brabant","name":"Klundert","lat":"51.66500000","lon":"4.53472000"},
{"state":"North Brabant","name":"Korvel","lat":"51.54954000","lon":"5.07079000"},
{"state":"North Brabant","name":"Krooswijk","lat":"51.64665000","lon":"4.59203000"},
{"state":"North Brabant","name":"Kruisland","lat":"51.56917000","lon":"4.40972000"},
{"state":"North Brabant","name":"Lage Mierde","lat":"51.40583000","lon":"5.14722000"},
{"state":"North Brabant","name":"Lakerlopen","lat":"51.43791000","lon":"5.50106000"},
{"state":"North Brabant","name":"Langenboom","lat":"51.70417000","lon":"5.73056000"},
{"state":"North Brabant","name":"Leende","lat":"51.35083000","lon":"5.55417000"},
{"state":"North Brabant","name":"Leest","lat":"51.60983000","lon":"5.54312000"},
{"state":"North Brabant","name":"Lepelstraat","lat":"51.54833000","lon":"4.27639000"},
{"state":"North Brabant","name":"Liempde","lat":"51.56917000","lon":"5.37222000"},
{"state":"North Brabant","name":"Lierop","lat":"51.41917000","lon":"5.67917000"},
{"state":"North Brabant","name":"Lieshout","lat":"51.52036000","lon":"5.59479000"},
{"state":"North Brabant","name":"Liessel","lat":"51.41333000","lon":"5.82083000"},
{"state":"North Brabant","name":"Lievendaal","lat":"51.44219000","lon":"5.43405000"},
{"state":"North Brabant","name":"Lith","lat":"51.80583000","lon":"5.43889000"},
{"state":"North Brabant","name":"Loon op Zand","lat":"51.62750000","lon":"5.07500000"},
{"state":"North Brabant","name":"Loosbroek","lat":"51.67833000","lon":"5.50694000"},
{"state":"North Brabant","name":"Loven","lat":"51.56480000","lon":"5.09748000"},
{"state":"North Brabant","name":"Luyksgestel","lat":"51.28917000","lon":"5.32361000"},
{"state":"North Brabant","name":"Maarheeze","lat":"51.31167000","lon":"5.61667000"},
{"state":"North Brabant","name":"Maaskantje","lat":"51.65833000","lon":"5.37083000"},
{"state":"North Brabant","name":"Made","lat":"51.67667000","lon":"4.79306000"},
{"state":"North Brabant","name":"Mariahout","lat":"51.54083000","lon":"5.57222000"},
{"state":"North Brabant","name":"Meerhoven","lat":"51.44267000","lon":"5.41102000"},
{"state":"North Brabant","name":"Meerveldhoven","lat":"51.41705000","lon":"5.41618000"},
{"state":"North Brabant","name":"Megen","lat":"51.82167000","lon":"5.56250000"},
{"state":"North Brabant","name":"Meierijstad","lat":"51.59968000","lon":"5.50278000"},
{"state":"North Brabant","name":"Melle","lat":"51.66244000","lon":"5.63367000"},
{"state":"North Brabant","name":"Middelbeers","lat":"51.46667000","lon":"5.25000000"},
{"state":"North Brabant","name":"Middelrode","lat":"51.66417000","lon":"5.41944000"},
{"state":"North Brabant","name":"Mierlo","lat":"51.44000000","lon":"5.61944000"},
{"state":"North Brabant","name":"Milheeze","lat":"51.50167000","lon":"5.77917000"},
{"state":"North Brabant","name":"Moerdijk","lat":"51.70167000","lon":"4.62639000"},
{"state":"North Brabant","name":"Molenhoek","lat":"51.71113000","lon":"5.36809000"},
{"state":"North Brabant","name":"Muschberg en Geestenberg","lat":"51.44384000","lon":"5.52329000"},
{"state":"North Brabant","name":"Naastenbest","lat":"51.50484000","lon":"5.38579000"},
{"state":"North Brabant","name":"Neerkant","lat":"51.36833000","lon":"5.86667000"},
{"state":"North Brabant","name":"Nieuw-Vossemeer","lat":"51.59000000","lon":"4.21806000"},
{"state":"North Brabant","name":"Nieuwkuijk","lat":"51.69000000","lon":"5.18194000"},
{"state":"North Brabant","name":"Nijnsel","lat":"51.55083000","lon":"5.48333000"},
{"state":"North Brabant","name":"Nispen","lat":"51.48331000","lon":"4.46131000"},
{"state":"North Brabant","name":"Nistelrode","lat":"51.70417000","lon":"5.56250000"},
{"state":"North Brabant","name":"Noordgeest","lat":"51.50917000","lon":"4.27917000"},
{"state":"North Brabant","name":"Noordhoek","lat":"51.64250000","lon":"4.53194000"},
{"state":"North Brabant","name":"Nuenen","lat":"51.47000000","lon":"5.55278000"},
{"state":"North Brabant","name":"Odiliapeel","lat":"51.64333000","lon":"5.70556000"},
{"state":"North Brabant","name":"Oerle","lat":"51.42255000","lon":"5.37163000"},
{"state":"North Brabant","name":"Oirschot","lat":"51.50500000","lon":"5.31389000"},
{"state":"North Brabant","name":"Oisterwijk","lat":"51.57917000","lon":"5.18889000"},
{"state":"North Brabant","name":"Oosteind","lat":"51.64418000","lon":"4.89784000"},
{"state":"North Brabant","name":"Oostelbeers","lat":"51.47171000","lon":"5.26897000"},
{"state":"North Brabant","name":"Oosterhout","lat":"51.64500000","lon":"4.85972000"},
{"state":"North Brabant","name":"Orthen","lat":"51.70613000","lon":"5.30468000"},
{"state":"North Brabant","name":"Oss","lat":"51.76500000","lon":"5.51806000"},
{"state":"North Brabant","name":"Ossendrecht","lat":"51.39417000","lon":"4.32639000"},
{"state":"North Brabant","name":"Oud Gastel","lat":"51.58667000","lon":"4.45972000"},
{"state":"North Brabant","name":"Overloon","lat":"51.57167000","lon":"5.94722000"},
{"state":"North Brabant","name":"Princenhage","lat":"51.57632000","lon":"4.73906000"},
{"state":"North Brabant","name":"Prinsenbeek","lat":"51.59833000","lon":"4.71250000"},
{"state":"North Brabant","name":"Putte","lat":"51.36000000","lon":"4.39583000"},
{"state":"North Brabant","name":"Quirijnstok","lat":"51.58430000","lon":"5.09810000"},
{"state":"North Brabant","name":"Raam","lat":"51.65967000","lon":"5.63637000"},
{"state":"North Brabant","name":"Raamsdonk","lat":"51.68750000","lon":"4.90833000"},
{"state":"North Brabant","name":"Raamsdonksveer","lat":"51.69667000","lon":"4.87361000"},
{"state":"North Brabant","name":"Ravenstein","lat":"51.79667000","lon":"5.65000000"},
{"state":"North Brabant","name":"Reek","lat":"51.74583000","lon":"5.68194000"},
{"state":"North Brabant","name":"Reusel","lat":"51.36250000","lon":"5.16528000"},
{"state":"North Brabant","name":"Riethoven","lat":"51.35417000","lon":"5.38750000"},
{"state":"North Brabant","name":"Rijen","lat":"51.59083000","lon":"4.91944000"},
{"state":"North Brabant","name":"Rijsbergen","lat":"51.51750000","lon":"4.69722000"},
{"state":"North Brabant","name":"Rijswijk","lat":"51.79750000","lon":"5.02500000"},
{"state":"North Brabant","name":"Roosendaal","lat":"51.53083000","lon":"4.46528000"},
{"state":"North Brabant","name":"Rucphen","lat":"51.53167000","lon":"4.55833000"},
{"state":"North Brabant","name":"Salderes","lat":"51.51505000","lon":"5.38991000"},
{"state":"North Brabant","name":"Schaijk","lat":"51.74583000","lon":"5.63194000"},
{"state":"North Brabant","name":"Schijndel","lat":"51.62250000","lon":"5.43194000"},
{"state":"North Brabant","name":"Schutsboom","lat":"51.46152000","lon":"5.62260000"},
{"state":"North Brabant","name":"Sint Anthonis","lat":"51.62667000","lon":"5.88194000"},
{"state":"North Brabant","name":"Sint Willebrord","lat":"51.54833000","lon":"4.58889000"},
{"state":"North Brabant","name":"Sint-Michielsgestel","lat":"51.64167000","lon":"5.35278000"},
{"state":"North Brabant","name":"Sint-Oedenrode","lat":"51.56750000","lon":"5.45972000"},
{"state":"North Brabant","name":"Soerendonk","lat":"51.30083000","lon":"5.57500000"},
{"state":"North Brabant","name":"Someren","lat":"51.38500000","lon":"5.71111000"},
{"state":"North Brabant","name":"Someren-Eind","lat":"51.35750000","lon":"5.73333000"},
{"state":"North Brabant","name":"Son","lat":"51.51136000","lon":"5.49282000"},
{"state":"North Brabant","name":"Speelheide","lat":"51.50607000","lon":"5.40519000"},
{"state":"North Brabant","name":"Sprundel","lat":"51.53750000","lon":"4.59722000"},
{"state":"North Brabant","name":"Stampersgat","lat":"51.61333000","lon":"4.44444000"},
{"state":"North Brabant","name":"Standdaarbuiten","lat":"51.61333000","lon":"4.51389000"},
{"state":"North Brabant","name":"Steenbergen","lat":"51.58417000","lon":"4.31944000"},
{"state":"North Brabant","name":"Steensel","lat":"51.37667000","lon":"5.35278000"},
{"state":"North Brabant","name":"Stepekolk","lat":"51.45500000","lon":"5.61251000"},
{"state":"North Brabant","name":"Terheijden","lat":"51.64333000","lon":"4.75417000"},
{"state":"North Brabant","name":"Teteringen","lat":"51.60917000","lon":"4.82083000"},
{"state":"North Brabant","name":"Theereheide","lat":"51.63843000","lon":"5.33729000"},
{"state":"North Brabant","name":"Tilburg","lat":"51.55551000","lon":"5.09130000"},
{"state":"North Brabant","name":"Tivoli","lat":"51.42069000","lon":"5.50818000"},
{"state":"North Brabant","name":"Tongelre","lat":"51.44889000","lon":"5.51978000"},
{"state":"North Brabant","name":"Uden","lat":"51.66083000","lon":"5.61944000"},
{"state":"North Brabant","name":"Udenhout","lat":"51.60917000","lon":"5.14306000"},
{"state":"North Brabant","name":"Ulvenhout","lat":"51.54907000","lon":"4.79931000"},
{"state":"North Brabant","name":"Vaartbroek","lat":"51.47954000","lon":"5.49806000"},
{"state":"North Brabant","name":"Valkenswaard","lat":"51.35083000","lon":"5.45972000"},
{"state":"North Brabant","name":"Veen","lat":"51.77750000","lon":"5.10833000"},
{"state":"North Brabant","name":"Veghel","lat":"51.61667000","lon":"5.54861000"},
{"state":"North Brabant","name":"Veldhoven","lat":"51.41833000","lon":"5.40278000"},
{"state":"North Brabant","name":"Ven","lat":"51.64000000","lon":"5.55000000"},
{"state":"North Brabant","name":"Venhorst","lat":"51.60833000","lon":"5.73750000"},
{"state":"North Brabant","name":"Villapark","lat":"51.44144000","lon":"5.49385000"},
{"state":"North Brabant","name":"Vliedberg","lat":"51.68961000","lon":"5.19031000"},
{"state":"North Brabant","name":"Vlierden","lat":"51.44500000","lon":"5.75833000"},
{"state":"North Brabant","name":"Vlokhoven","lat":"51.46667000","lon":"5.48333000"},
{"state":"North Brabant","name":"Voldijn","lat":"51.40052000","lon":"5.47196000"},
{"state":"North Brabant","name":"Volkel","lat":"51.64250000","lon":"5.65417000"},
{"state":"North Brabant","name":"Vorstenbosch","lat":"51.65250000","lon":"5.55000000"},
{"state":"North Brabant","name":"Vught","lat":"51.65333000","lon":"5.28750000"},
{"state":"North Brabant","name":"Waalre","lat":"51.38667000","lon":"5.44444000"},
{"state":"North Brabant","name":"Waalwijk","lat":"51.68250000","lon":"5.07083000"},
{"state":"North Brabant","name":"Wagenberg","lat":"51.66500000","lon":"4.74861000"},
{"state":"North Brabant","name":"Wanroij","lat":"51.65750000","lon":"5.81806000"},
{"state":"North Brabant","name":"Waspik","lat":"51.68667000","lon":"4.94444000"},
{"state":"North Brabant","name":"Waterdonken","lat":"51.60959000","lon":"4.80452000"},
{"state":"North Brabant","name":"Welberg","lat":"51.57667000","lon":"4.33056000"},
{"state":"North Brabant","name":"Werkendam","lat":"51.81000000","lon":"4.89444000"},
{"state":"North Brabant","name":"Wernhout","lat":"51.45500000","lon":"4.64167000"},
{"state":"North Brabant","name":"Westerhoven","lat":"51.33250000","lon":"5.39583000"},
{"state":"North Brabant","name":"Wijbosch","lat":"51.61667000","lon":"5.46806000"},
{"state":"North Brabant","name":"Wilhelminadorp","lat":"51.49742000","lon":"5.39223000"},
{"state":"North Brabant","name":"Wisselaar","lat":"51.61285000","lon":"4.78444000"},
{"state":"North Brabant","name":"Woensdrecht","lat":"51.42897000","lon":"4.30355000"},
{"state":"North Brabant","name":"Woenselse Heide","lat":"51.48333000","lon":"5.46667000"},
{"state":"North Brabant","name":"Woudrichem","lat":"51.81500000","lon":"5.00139000"},
{"state":"North Brabant","name":"Wouw","lat":"51.52167000","lon":"4.39028000"},
{"state":"North Brabant","name":"Zandberg","lat":"51.57333000","lon":"4.78472000"},
{"state":"North Brabant","name":"Zeeland","lat":"51.69750000","lon":"5.67639000"},
{"state":"North Brabant","name":"Zeelst","lat":"51.42421000","lon":"5.41566000"},
{"state":"North Brabant","name":"Zegge","lat":"51.55667000","lon":"4.51806000"},
{"state":"North Brabant","name":"Zeilberg","lat":"51.45469000","lon":"5.81878000"},
{"state":"North Brabant","name":"Zesgehuchten","lat":"51.41667000","lon":"5.55000000"},
{"state":"North Brabant","name":"Zevenbergschen Hoek","lat":"51.67250000","lon":"4.67917000"},
{"state":"North Brabant","name":"Zijtaart","lat":"51.59250000","lon":"5.54167000"},
{"state":"North Brabant","name":"Zonderwijk","lat":"51.41141000","lon":"5.39361000"},
{"state":"North Brabant","name":"Zundert","lat":"51.47167000","lon":"4.65556000"},
{"state":"North Holland","name":"'s-Graveland","lat":"52.24420000","lon":"5.12110000"},
{"state":"North Holland","name":"'t Horntje","lat":"53.00560000","lon":"4.78610000"},
{"state":"North Holland","name":"'t Kabel","lat":"52.25610000","lon":"4.64970000"},
{"state":"North Holland","name":"'t Nopeind","lat":"52.41000000","lon":"4.96360000"},
{"state":"North Holland","name":"'t Veld","lat":"52.73920000","lon":"4.85560000"},
{"state":"North Holland","name":"'t Zand","lat":"52.83667000","lon":"4.75556000"},
{"state":"North Holland","name":"Aagtdorp","lat":"52.68890000","lon":"4.70190000"},
{"state":"North Holland","name":"Aalsmeer","lat":"52.25917000","lon":"4.75972000"},
{"state":"North Holland","name":"Aalsmeerderbrug","lat":"52.27580000","lon":"4.75000000"},
{"state":"North Holland","name":"Aartswoud","lat":"52.74440000","lon":"4.95360000"},
{"state":"North Holland","name":"Abbekerk","lat":"52.73167000","lon":"5.01806000"},
{"state":"North Holland","name":"Abbenes","lat":"52.23390000","lon":"4.58940000"},
{"state":"North Holland","name":"Akersloot","lat":"52.56030000","lon":"4.72830000"},
{"state":"North Holland","name":"Alkmaar","lat":"52.63167000","lon":"4.74861000"},
{"state":"North Holland","name":"Amstelveen","lat":"52.30083000","lon":"4.86389000"},
{"state":"North Holland","name":"Amsterdam","lat":"52.37403000","lon":"4.88969000"},
{"state":"North Holland","name":"Amsterdam-Zuidoost","lat":"52.30750000","lon":"4.97222000"},
{"state":"North Holland","name":"Andijk","lat":"52.75000000","lon":"5.22000000"},
{"state":"North Holland","name":"Ankeveen","lat":"52.26530000","lon":"5.09890000"},
{"state":"North Holland","name":"Ankeveense Rade","lat":"52.25891000","lon":"5.10160000"},
{"state":"North Holland","name":"Assendelft","lat":"52.46666667","lon":"4.75000000"},
{"state":"North Holland","name":"Avenhorn","lat":"52.61750000","lon":"4.95139000"},
{"state":"North Holland","name":"Badhoevedorp","lat":"52.33810000","lon":"4.78030000"},
{"state":"North Holland","name":"Bakkum","lat":"52.55830000","lon":"4.65670000"},
{"state":"North Holland","name":"Bangert","lat":"52.73582000","lon":"5.18010000"},
{"state":"North Holland","name":"Bargen","lat":"53.08416667","lon":"4.83472222"},
{"state":"North Holland","name":"Barsingerhorn","lat":"52.78527778","lon":"4.84166667"},
{"state":"North Holland","name":"Beemster","lat":"52.55000000","lon":"4.92780000"},
{"state":"North Holland","name":"Beets","lat":"52.58920000","lon":"4.97750000"},
{"state":"North Holland","name":"Beinsdorp","lat":"52.28720000","lon":"4.59440000"},
{"state":"North Holland","name":"Belt","lat":"52.90420000","lon":"4.95390000"},
{"state":"North Holland","name":"Bennebroek","lat":"52.32083000","lon":"4.59861000"},
{"state":"North Holland","name":"Benningbroek","lat":"52.70310000","lon":"5.00970000"},
{"state":"North Holland","name":"Bentveld","lat":"52.36580000","lon":"4.57170000"},
{"state":"North Holland","name":"Bergen","lat":"52.67030000","lon":"4.70540000"},
{"state":"North Holland","name":"Berkhout","lat":"52.64083000","lon":"5.00139000"},
{"state":"North Holland","name":"Berkmeer","lat":"52.68560000","lon":"4.89830000"},
{"state":"North Holland","name":"Beverwijk","lat":"52.48333000","lon":"4.65694000"},
{"state":"North Holland","name":"Bijlmermeer","lat":"52.31861000","lon":"4.96528000"},
{"state":"North Holland","name":"Bijvanck","lat":"52.28585000","lon":"5.26534000"},
{"state":"North Holland","name":"Binnenstad","lat":"52.37200000","lon":"4.89600000"},
{"state":"North Holland","name":"Blaricum","lat":"52.27250000","lon":"5.24167000"},
{"state":"North Holland","name":"Blauwe Keet","lat":"52.89560000","lon":"4.78190000"},
{"state":"North Holland","name":"Bloemendaal","lat":"52.40250000","lon":"4.62222000"},
{"state":"North Holland","name":"Blokker","lat":"52.66917000","lon":"5.11806000"},
{"state":"North Holland","name":"Bobeldijk","lat":"52.65360000","lon":"5.00440000"},
{"state":"North Holland","name":"Boekel","lat":"52.59000000","lon":"4.75330000"},
{"state":"North Holland","name":"Boesingheliede","lat":"52.35830000","lon":"4.72830000"},
{"state":"North Holland","name":"Bos en Lommer","lat":"52.37865000","lon":"4.85050700"},
{"state":"North Holland","name":"Bovenkarspel","lat":"52.70000000","lon":"5.25000000"},
{"state":"North Holland","name":"Breezand","lat":"52.89000000","lon":"4.80417000"},
{"state":"North Holland","name":"Bregtdorp","lat":"52.71666667","lon":"4.68333333"},
{"state":"North Holland","name":"Breukeleveen","lat":"52.17810000","lon":"5.06920000"},
{"state":"North Holland","name":"Broek in Waterland","lat":"52.43417000","lon":"4.99583000"},
{"state":"North Holland","name":"Broek op Langedijk","lat":"52.67417000","lon":"4.80556000"},
{"state":"North Holland","name":"Buiksloot","lat":"52.39890000","lon":"4.92210000"},
{"state":"North Holland","name":"Buikslotermeer","lat":"52.40350000","lon":"4.93740000"},
{"state":"North Holland","name":"Buitenkaag","lat":"52.21970000","lon":"4.56080000"},
{"state":"North Holland","name":"Buitenveldert","lat":"52.33000000","lon":"4.87420000"},
{"state":"North Holland","name":"Burgerbrug","lat":"52.74810000","lon":"4.70220000"},
{"state":"North Holland","name":"Burgerveen","lat":"52.24030000","lon":"4.68220000"},
{"state":"North Holland","name":"Burgervlotbrug","lat":"52.75390000","lon":"4.68190000"},
{"state":"North Holland","name":"Bussum","lat":"52.27333000","lon":"5.16111000"},
{"state":"North Holland","name":"Butterhuizen","lat":"52.64970000","lon":"4.81670000"},
{"state":"North Holland","name":"Callantsoog","lat":"52.84000000","lon":"4.69583000"},
{"state":"North Holland","name":"Calslagen","lat":"52.23330000","lon":"4.73080000"},
{"state":"North Holland","name":"Camperduin","lat":"52.73333333","lon":"4.65000000"},
{"state":"North Holland","name":"Castricum","lat":"52.54833000","lon":"4.66944000"},
{"state":"North Holland","name":"Catrijp","lat":"52.71390000","lon":"4.68170000"},
{"state":"North Holland","name":"Commandeurs","lat":"52.50902000","lon":"4.65843000"},
{"state":"North Holland","name":"Cruquius","lat":"52.33333333","lon":"4.63333333"},
{"state":"North Holland","name":"De Aker","lat":"52.35140000","lon":"4.77920000"},
{"state":"North Holland","name":"De Cocksdorp","lat":"53.15500000","lon":"4.86670000"},
{"state":"North Holland","name":"De Glip","lat":"52.33083000","lon":"4.61111000"},
{"state":"North Holland","name":"De Goorn","lat":"52.62583000","lon":"4.94722000"},
{"state":"North Holland","name":"De Haukes","lat":"52.88830000","lon":"4.93610000"},
{"state":"North Holland","name":"De Hulk","lat":"52.63610000","lon":"5.02220000"},
{"state":"North Holland","name":"De Koog","lat":"53.09750000","lon":"4.76111000"},
{"state":"North Holland","name":"De Kooy","lat":"52.91440000","lon":"4.78580000"},
{"state":"North Holland","name":"De Kwakel","lat":"52.24080000","lon":"4.79080000"},
{"state":"North Holland","name":"De Maer","lat":"52.51901000","lon":"4.68171000"},
{"state":"North Holland","name":"De Noord","lat":"52.70750000","lon":"4.85139000"},
{"state":"North Holland","name":"De Pijp","lat":"52.35310000","lon":"4.89610000"},
{"state":"North Holland","name":"De Rijp","lat":"52.55667000","lon":"4.84583000"},
{"state":"North Holland","name":"De Stolpen","lat":"52.81220000","lon":"4.72970000"},
{"state":"North Holland","name":"De Waal","lat":"53.07190000","lon":"4.82280000"},
{"state":"North Holland","name":"De Wallen","lat":"52.37348000","lon":"4.89806000"},
{"state":"North Holland","name":"De Weere","lat":"52.77444444","lon":"4.86694444"},
{"state":"North Holland","name":"De Weere","lat":"52.72280000","lon":"4.99860000"},
{"state":"North Holland","name":"De Woude","lat":"52.54667000","lon":"4.77361000"},
{"state":"North Holland","name":"Den Burg","lat":"53.05417000","lon":"4.79722000"},
{"state":"North Holland","name":"Den Helder","lat":"52.95988000","lon":"4.75933000"},
{"state":"North Holland","name":"Den Hoorn","lat":"53.02500000","lon":"4.75110000"},
{"state":"North Holland","name":"Den Ilp","lat":"52.45030000","lon":"4.90750000"},
{"state":"North Holland","name":"Den Oever","lat":"52.93353000","lon":"5.03079000"},
{"state":"North Holland","name":"Diemen","lat":"52.33964000","lon":"4.96256000"},
{"state":"North Holland","name":"Dirkshorn","lat":"52.75000000","lon":"4.77500000"},
{"state":"North Holland","name":"Drechterland","lat":"52.66454000","lon":"5.16569000"},
{"state":"North Holland","name":"Driehuis","lat":"52.44720000","lon":"4.63670000"},
{"state":"North Holland","name":"Driehuizen","lat":"52.57890000","lon":"4.80890000"},
{"state":"North Holland","name":"Driehuizen","lat":"53.04666667","lon":"4.77611111"},
{"state":"North Holland","name":"Driemond","lat":"52.30583000","lon":"5.01667000"},
{"state":"North Holland","name":"Duivendrecht","lat":"52.32941000","lon":"4.93964000"},
{"state":"North Holland","name":"Durgerdam","lat":"52.37770000","lon":"4.98908000"},
{"state":"North Holland","name":"Edam","lat":"52.51215000","lon":"5.04805000"},
{"state":"North Holland","name":"Edam-Volendam","lat":"52.50190000","lon":"5.06140000"},
{"state":"North Holland","name":"Eenigenburg","lat":"52.74250000","lon":"4.72560000"},
{"state":"North Holland","name":"Egmond aan den Hoef","lat":"52.62190000","lon":"4.65310000"},
{"state":"North Holland","name":"Egmond aan Zee","lat":"52.62040000","lon":"4.62705000"},
{"state":"North Holland","name":"Egmond-Binnen","lat":"52.59583000","lon":"4.65556000"},
{"state":"North Holland","name":"Enkhuizen","lat":"52.70333000","lon":"5.29167000"},
{"state":"North Holland","name":"Etersheim","lat":"52.58500000","lon":"5.02220000"},
{"state":"North Holland","name":"Friese Buurt","lat":"52.92140000","lon":"4.76670000"},
{"state":"North Holland","name":"Geuzenveld","lat":"52.37790000","lon":"4.79965000"},
{"state":"North Holland","name":"Gooise Meren","lat":"52.29735000","lon":"5.13371000"},
{"state":"North Holland","name":"Gouwe","lat":"52.72940000","lon":"4.96250000"},
{"state":"North Holland","name":"Graft","lat":"52.56080000","lon":"4.83390000"},
{"state":"North Holland","name":"Grootebroek","lat":"52.69890000","lon":"5.21890000"},
{"state":"North Holland","name":"Grootschermer","lat":"52.58080000","lon":"4.85170000"},
{"state":"North Holland","name":"Grosthuizen","lat":"52.61666667","lon":"4.98333333"},
{"state":"North Holland","name":"Haarlem","lat":"52.38084000","lon":"4.63683000"},
{"state":"North Holland","name":"Haarlemmerliede","lat":"52.38810000","lon":"4.68750000"},
{"state":"North Holland","name":"Haarlemmermeer","lat":"52.30080000","lon":"4.66530000"},
{"state":"North Holland","name":"Hakkelaarsbrug","lat":"52.31920000","lon":"5.10220000"},
{"state":"North Holland","name":"Halfweg","lat":"52.38250000","lon":"4.75417000"},
{"state":"North Holland","name":"Harderwijk","lat":"52.73833333","lon":"4.99333333"},
{"state":"North Holland","name":"Harenkarspel","lat":"52.73416000","lon":"4.77682000"},
{"state":"North Holland","name":"Hargen","lat":"52.72167000","lon":"4.66250000"},
{"state":"North Holland","name":"Haringhuizen","lat":"52.77330000","lon":"4.82890000"},
{"state":"North Holland","name":"Hauwert","lat":"52.70750000","lon":"5.09890000"},
{"state":"North Holland","name":"Heemskerk","lat":"52.51108000","lon":"4.67165000"},
{"state":"North Holland","name":"Heemstede","lat":"52.34992000","lon":"4.62301000"},
{"state":"North Holland","name":"Heerhugowaard","lat":"52.67144000","lon":"4.84862000"},
{"state":"North Holland","name":"Heiloo","lat":"52.60252000","lon":"4.68815000"},
{"state":"North Holland","name":"Hem","lat":"52.66083000","lon":"5.18333000"},
{"state":"North Holland","name":"Hensbroek","lat":"52.65833000","lon":"4.88472000"},
{"state":"North Holland","name":"Hilversum","lat":"52.22333000","lon":"5.17639000"},
{"state":"North Holland","name":"Hilversumse Meent","lat":"52.27115000","lon":"5.13729000"},
{"state":"North Holland","name":"Hinderdam","lat":"52.28280000","lon":"5.05690000"},
{"state":"North Holland","name":"Hippolytushoef","lat":"52.90750000","lon":"4.96250000"},
{"state":"North Holland","name":"Hobrede","lat":"52.54500000","lon":"4.98080000"},
{"state":"North Holland","name":"Hofgeest","lat":"52.44333000","lon":"4.65833000"},
{"state":"North Holland","name":"Hollands Kroon","lat":"52.87830000","lon":"4.81140000"},
{"state":"North Holland","name":"Holysloot","lat":"52.41310000","lon":"5.02530000"},
{"state":"North Holland","name":"Hoofddorp","lat":"52.30250000","lon":"4.68889000"},
{"state":"North Holland","name":"Hoogkarspel","lat":"52.69470000","lon":"5.17780000"},
{"state":"North Holland","name":"Hoogwoud","lat":"52.71583000","lon":"4.93889000"},
{"state":"North Holland","name":"Hoorn","lat":"52.64250000","lon":"5.05972000"},
{"state":"North Holland","name":"Horstermeer","lat":"52.24970000","lon":"5.07420000"},
{"state":"North Holland","name":"Huigsloot","lat":"52.21667000","lon":"4.59722000"},
{"state":"North Holland","name":"Huisduinen","lat":"52.95330000","lon":"4.72500000"},
{"state":"North Holland","name":"Huizen","lat":"52.29917000","lon":"5.24167000"},
{"state":"North Holland","name":"IJburg","lat":"52.35500000","lon":"4.99778000"},
{"state":"North Holland","name":"IJmuiden","lat":"52.45860000","lon":"4.61940000"},
{"state":"North Holland","name":"Ilpendam","lat":"52.46333000","lon":"4.95000000"},
{"state":"North Holland","name":"Jisp","lat":"52.50670000","lon":"4.84890000"},
{"state":"North Holland","name":"Jordaan","lat":"52.37917000","lon":"4.88028000"},
{"state":"North Holland","name":"Julianadorp","lat":"52.89060000","lon":"4.73890000"},
{"state":"North Holland","name":"Kadoelen","lat":"52.41750000","lon":"4.90561000"},
{"state":"North Holland","name":"Kalverdijk","lat":"52.73250000","lon":"4.76806000"},
{"state":"North Holland","name":"Kapel","lat":"52.58333333","lon":"4.69305556"},
{"state":"North Holland","name":"Katwoude","lat":"52.46940000","lon":"5.05060000"},
{"state":"North Holland","name":"Kerkbuurt","lat":"52.73996100","lon":"4.75877500"},
{"state":"North Holland","name":"Kerkelanden","lat":"52.21755000","lon":"5.13575000"},
{"state":"North Holland","name":"Koedijk","lat":"52.67500000","lon":"4.74830000"},
{"state":"North Holland","name":"Koggenland","lat":"52.63333333","lon":"4.95000000"},
{"state":"North Holland","name":"Kolhorn","lat":"52.79280000","lon":"4.88890000"},
{"state":"North Holland","name":"Koog aan de Zaan","lat":"52.46666667","lon":"4.80000000"},
{"state":"North Holland","name":"Kortenhoef","lat":"52.23917000","lon":"5.10694000"},
{"state":"North Holland","name":"Krabbendam","lat":"52.73220000","lon":"4.70250000"},
{"state":"North Holland","name":"Kreileroord","lat":"52.84220000","lon":"5.08140000"},
{"state":"North Holland","name":"Krommenie","lat":"52.50000000","lon":"4.76666667"},
{"state":"North Holland","name":"Kudelstaart","lat":"52.23417000","lon":"4.75139000"},
{"state":"North Holland","name":"Kwadijk","lat":"52.52750000","lon":"4.98110000"},
{"state":"North Holland","name":"Lambertschaag","lat":"52.74580000","lon":"5.01670000"},
{"state":"North Holland","name":"Landsmeer","lat":"52.43083000","lon":"4.91528000"},
{"state":"North Holland","name":"Langedijk","lat":"52.69360000","lon":"4.79440000"},
{"state":"North Holland","name":"Langeheit","lat":"52.49200000","lon":"4.75849000"},
{"state":"North Holland","name":"Langereis","lat":"52.71111111","lon":"4.90361111"},
{"state":"North Holland","name":"Laren","lat":"52.25667000","lon":"5.22778000"},
{"state":"North Holland","name":"Leimuiderbrug","lat":"52.23083000","lon":"4.66806000"},
{"state":"North Holland","name":"Lijnden","lat":"52.35220000","lon":"4.75970000"},
{"state":"North Holland","name":"Limmen","lat":"52.56917000","lon":"4.69444000"},
{"state":"North Holland","name":"Lisserbroek","lat":"52.25667000","lon":"4.57222000"},
{"state":"North Holland","name":"Loosdrecht","lat":"52.20000000","lon":"5.13333333"},
{"state":"North Holland","name":"Lutjebroek","lat":"52.69750000","lon":"5.20417000"},
{"state":"North Holland","name":"Lutjewinkel","lat":"52.76890000","lon":"4.88280000"},
{"state":"North Holland","name":"Marken","lat":"52.45833000","lon":"5.10278000"},
{"state":"North Holland","name":"Markenbinnen","lat":"52.53080000","lon":"4.78060000"},
{"state":"North Holland","name":"Medemblik","lat":"52.77167000","lon":"5.10556000"},
{"state":"North Holland","name":"Middelie","lat":"52.53220000","lon":"5.01720000"},
{"state":"North Holland","name":"Middenbeemster","lat":"52.54917000","lon":"4.91250000"},
{"state":"North Holland","name":"Middenmeer","lat":"52.80667000","lon":"4.99861000"},
{"state":"North Holland","name":"Midwoud","lat":"52.71667000","lon":"5.07500000"},
{"state":"North Holland","name":"Moerbeek","lat":"52.76310000","lon":"4.85280000"},
{"state":"North Holland","name":"Monnickendam","lat":"52.45833000","lon":"5.03750000"},
{"state":"North Holland","name":"Muiden","lat":"52.33000000","lon":"5.06944000"},
{"state":"North Holland","name":"Muiderberg","lat":"52.32583000","lon":"5.12083000"},
{"state":"North Holland","name":"Muyeveld","lat":"52.18640000","lon":"5.07170000"},
{"state":"North Holland","name":"Naarden","lat":"52.29583000","lon":"5.16250000"},
{"state":"North Holland","name":"Neck","lat":"52.50830000","lon":"4.91250000"},
{"state":"North Holland","name":"Nederhorst den Berg","lat":"52.25670000","lon":"5.04580000"},
{"state":"North Holland","name":"Nes aan de Amstel","lat":"52.25940000","lon":"4.87030000"},
{"state":"North Holland","name":"Nibbixwoud","lat":"52.69280000","lon":"5.05530000"},
{"state":"North Holland","name":"Nieuw-Loosdrecht","lat":"52.19917000","lon":"5.13889000"},
{"state":"North Holland","name":"Nieuw-Vennep","lat":"52.26390000","lon":"4.63750000"},
{"state":"North Holland","name":"Nieuwe Meer","lat":"52.32640000","lon":"4.81530000"},
{"state":"North Holland","name":"Nieuwe Niedorp","lat":"52.74000000","lon":"4.89861000"},
{"state":"North Holland","name":"Nieuwebrug","lat":"52.37220000","lon":"4.67360000"},
{"state":"North Holland","name":"Nieuwendam","lat":"52.39150000","lon":"4.93410000"},
{"state":"North Holland","name":"Nieuwesluis","lat":"52.83560000","lon":"4.89080000"},
{"state":"North Holland","name":"Noord-Scharwoude","lat":"52.69833000","lon":"4.81111000"},
{"state":"North Holland","name":"Noordbeemster","lat":"52.58250000","lon":"4.93670000"},
{"state":"North Holland","name":"Noordburen","lat":"52.91940000","lon":"4.96280000"},
{"state":"North Holland","name":"Noorddijk","lat":"52.63333333","lon":"4.91666667"},
{"state":"North Holland","name":"Noordeinde","lat":"52.57190000","lon":"4.83610000"},
{"state":"North Holland","name":"Obdam","lat":"52.67583000","lon":"4.90694000"},
{"state":"North Holland","name":"Omval","lat":"52.34310000","lon":"4.91640000"},
{"state":"North Holland","name":"Onderdijk","lat":"52.74333000","lon":"5.13750000"},
{"state":"North Holland","name":"Oost-Graftdijk","lat":"52.54640000","lon":"4.81470000"},
{"state":"North Holland","name":"Oosteinde","lat":"52.27917000","lon":"4.79583000"},
{"state":"North Holland","name":"Oosterdijk","lat":"52.74470000","lon":"5.26890000"},
{"state":"North Holland","name":"Oosterend","lat":"53.08640000","lon":"4.87610000"},
{"state":"North Holland","name":"Oosterland","lat":"52.92920000","lon":"5.01140000"},
{"state":"North Holland","name":"Oosterleek","lat":"52.63830000","lon":"5.19750000"},
{"state":"North Holland","name":"Oosterzij","lat":"52.58500000","lon":"4.70556000"},
{"state":"North Holland","name":"Oosthuizen","lat":"52.57250000","lon":"4.99583000"},
{"state":"North Holland","name":"Oostknollendam","lat":"52.51720000","lon":"4.79030000"},
{"state":"North Holland","name":"Oostwoud","lat":"52.72440000","lon":"5.09030000"},
{"state":"North Holland","name":"Oostzaan","lat":"52.44060000","lon":"4.87890000"},
{"state":"North Holland","name":"Opmeer","lat":"52.70667000","lon":"4.94444000"},
{"state":"North Holland","name":"Opperdoes","lat":"52.75915000","lon":"5.07534000"},
{"state":"North Holland","name":"Osdorp","lat":"52.35694000","lon":"4.80077000"},
{"state":"North Holland","name":"Oterleek","lat":"52.63333333","lon":"4.84166667"},
{"state":"North Holland","name":"Oud-Loosdrecht","lat":"52.20667000","lon":"5.08056000"},
{"state":"North Holland","name":"Oude Meer","lat":"52.28750000","lon":"4.78220000"},
{"state":"North Holland","name":"Oude Niedorp","lat":"52.71780000","lon":"4.87190000"},
{"state":"North Holland","name":"Oudendijk","lat":"52.60000000","lon":"4.96666667"},
{"state":"North Holland","name":"Ouder-Amstel","lat":"52.29060000","lon":"4.91170000"},
{"state":"North Holland","name":"Ouderkerk aan de Amstel","lat":"52.29504000","lon":"4.90746000"},
{"state":"North Holland","name":"Oudeschild","lat":"53.03917000","lon":"4.84722000"},
{"state":"North Holland","name":"Oudesluis","lat":"52.83530000","lon":"4.80640000"},
{"state":"North Holland","name":"Oudkarspel","lat":"52.71583000","lon":"4.80556000"},
{"state":"North Holland","name":"Oudorp","lat":"52.63310000","lon":"4.77360000"},
{"state":"North Holland","name":"Overleek","lat":"52.45360000","lon":"4.99580000"},
{"state":"North Holland","name":"Overmeer","lat":"52.25420000","lon":"5.04640000"},
{"state":"North Holland","name":"Overveen","lat":"52.39167000","lon":"4.61389000"},
{"state":"North Holland","name":"Penningsveer","lat":"52.39280000","lon":"4.67610000"},
{"state":"North Holland","name":"Petten","lat":"52.76667000","lon":"4.66111000"},
{"state":"North Holland","name":"Purmerend","lat":"52.50500000","lon":"4.95972000"},
{"state":"North Holland","name":"Purmerland","lat":"52.47810000","lon":"4.92170000"},
{"state":"North Holland","name":"Ransdorp","lat":"52.39310000","lon":"4.99420000"},
{"state":"North Holland","name":"Rijsenhout","lat":"52.26060000","lon":"4.71000000"},
{"state":"North Holland","name":"Risdam","lat":"52.66139200","lon":"5.05250900"},
{"state":"North Holland","name":"Ruigoord","lat":"52.40920000","lon":"4.74890000"},
{"state":"North Holland","name":"Rustenburg","lat":"52.63470000","lon":"4.87670000"},
{"state":"North Holland","name":"Santpoort","lat":"52.42250000","lon":"4.62610000"},
{"state":"North Holland","name":"Schagen","lat":"52.78750000","lon":"4.79861000"},
{"state":"North Holland","name":"Schagerbrug","lat":"52.80250000","lon":"4.75833000"},
{"state":"North Holland","name":"Schalkwijk","lat":"52.35890000","lon":"4.65560000"},
{"state":"North Holland","name":"Schardam","lat":"52.59690000","lon":"5.01690000"},
{"state":"North Holland","name":"Scharwoude","lat":"52.62250000","lon":"5.00810000"},
{"state":"North Holland","name":"Schellingwoude","lat":"52.38440000","lon":"4.96610000"},
{"state":"North Holland","name":"Schellinkhout","lat":"52.63420000","lon":"5.12030000"},
{"state":"North Holland","name":"Schermerhorn","lat":"52.60083000","lon":"4.89167000"},
{"state":"North Holland","name":"Schiphol-Rijk","lat":"52.28000000","lon":"4.75670000"},
{"state":"North Holland","name":"Schoorl","lat":"52.70140000","lon":"4.69440000"},
{"state":"North Holland","name":"Schoorldam","lat":"52.70000000","lon":"4.71666667"},
{"state":"North Holland","name":"Sijbekarspel","lat":"52.70861111","lon":"4.99055556"},
{"state":"North Holland","name":"Sint Maartenszee","lat":"52.79250000","lon":"4.68970000"},
{"state":"North Holland","name":"Sint Pancras","lat":"52.66000000","lon":"4.78333000"},
{"state":"North Holland","name":"Slootdorp","lat":"52.84250000","lon":"4.97222000"},
{"state":"North Holland","name":"Sloten","lat":"52.34277778","lon":"4.79638889"},
{"state":"North Holland","name":"Sloterdijk","lat":"52.38722222","lon":"4.84638889"},
{"state":"North Holland","name":"Slotermeer","lat":"52.37832000","lon":"4.82231000"},
{"state":"North Holland","name":"Slotervaart (former borough)","lat":"52.35100000","lon":"4.83400000"},
{"state":"North Holland","name":"Spaarndam-Oost","lat":"52.41388889","lon":"4.69000000"},
{"state":"North Holland","name":"Spaarndam-West","lat":"52.41500000","lon":"4.67690000"},
{"state":"North Holland","name":"Spaarnwoude","lat":"52.40388889","lon":"4.69416667"},
{"state":"North Holland","name":"Spanbroek","lat":"52.69810000","lon":"4.96080000"},
{"state":"North Holland","name":"Spierdijk","lat":"52.65083000","lon":"4.94306000"},
{"state":"North Holland","name":"Spijkerboor","lat":"52.53830000","lon":"4.83330000"},
{"state":"North Holland","name":"Starnmeer","lat":"52.54190000","lon":"4.79330000"},
{"state":"North Holland","name":"Stede Broec","lat":"52.70060000","lon":"5.22530000"},
{"state":"North Holland","name":"Stierop","lat":"52.53330000","lon":"4.77530000"},
{"state":"North Holland","name":"Stompetoren","lat":"52.61333000","lon":"4.82083000"},
{"state":"North Holland","name":"Stroe","lat":"52.93333333","lon":"4.98333333"},
{"state":"North Holland","name":"Stroet","lat":"52.75000000","lon":"4.75000000"},
{"state":"North Holland","name":"Terdiek","lat":"52.72690000","lon":"4.89690000"},
{"state":"North Holland","name":"Texel","lat":"53.06666667","lon":"4.80000000"},
{"state":"North Holland","name":"Tuindorp Oostzaan","lat":"52.41135000","lon":"4.89291100"},
{"state":"North Holland","name":"Tuitjenhorn","lat":"52.73333333","lon":"4.75000000"},
{"state":"North Holland","name":"Twisk","lat":"52.74083000","lon":"5.05278000"},
{"state":"North Holland","name":"Uitdam","lat":"52.41917000","lon":"5.07083000"},
{"state":"North Holland","name":"Uitgeest","lat":"52.52917000","lon":"4.70972000"},
{"state":"North Holland","name":"Uithoorn","lat":"52.23750000","lon":"4.82639000"},
{"state":"North Holland","name":"Ursem","lat":"52.62720000","lon":"4.89170000"},
{"state":"North Holland","name":"Valkkoog","lat":"52.78333333","lon":"4.76666667"},
{"state":"North Holland","name":"Van Ewijcksluis","lat":"52.88330000","lon":"4.87330000"},
{"state":"North Holland","name":"Vatrop","lat":"52.93390000","lon":"5.00530000"},
{"state":"North Holland","name":"Veenhuizen","lat":"52.70250000","lon":"4.89030000"},
{"state":"North Holland","name":"Velsen","lat":"52.46666667","lon":"4.61666667"},
{"state":"North Holland","name":"Velsen-Zuid","lat":"52.46000000","lon":"4.65000000"},
{"state":"North Holland","name":"Velserbroek","lat":"52.43500000","lon":"4.65720000"},
{"state":"North Holland","name":"Venhuizen","lat":"52.66666667","lon":"5.21666667"},
{"state":"North Holland","name":"Vijfhuizen","lat":"52.35083000","lon":"4.67778000"},
{"state":"North Holland","name":"Vinkebrug","lat":"52.38670000","lon":"4.72030000"},
{"state":"North Holland","name":"Vogelenzang","lat":"52.31917000","lon":"4.57778000"},
{"state":"North Holland","name":"Volendam","lat":"52.49500000","lon":"5.07083000"},
{"state":"North Holland","name":"Waarland","lat":"52.72667000","lon":"4.83194000"},
{"state":"North Holland","name":"Wadway","lat":"52.69170000","lon":"4.97970000"},
{"state":"North Holland","name":"Warder","lat":"52.56410000","lon":"5.03110000"},
{"state":"North Holland","name":"Warmenhuizen","lat":"52.72250000","lon":"4.73970000"},
{"state":"North Holland","name":"Waterakkers","lat":"52.50440000","lon":"4.65608000"},
{"state":"North Holland","name":"Watergang","lat":"52.43333333","lon":"4.95000000"},
{"state":"North Holland","name":"Watergraafsmeer","lat":"52.34900000","lon":"4.93800000"},
{"state":"North Holland","name":"Wateringskant","lat":"52.76111111","lon":"4.87361111"},
{"state":"North Holland","name":"Waterland","lat":"52.45110000","lon":"5.02000000"},
{"state":"North Holland","name":"Waver","lat":"52.25290000","lon":"4.90780000"},
{"state":"North Holland","name":"Weesp","lat":"52.30750000","lon":"5.04167000"},
{"state":"North Holland","name":"Weidevenne","lat":"52.49716700","lon":"4.93883300"},
{"state":"North Holland","name":"Wervershoof","lat":"52.73470000","lon":"5.14920000"},
{"state":"North Holland","name":"West-Graftdijk","lat":"52.55390000","lon":"4.79610000"},
{"state":"North Holland","name":"West-Knollendam","lat":"52.51780000","lon":"4.78640000"},
{"state":"North Holland","name":"Westbeemster","lat":"52.57440000","lon":"4.89860000"},
{"state":"North Holland","name":"Westerland","lat":"52.89420000","lon":"4.93080000"},
{"state":"North Holland","name":"Westwoud","lat":"52.68500000","lon":"5.13472000"},
{"state":"North Holland","name":"Westzaan","lat":"52.46666667","lon":"4.76666667"},
{"state":"North Holland","name":"Weteringbrug","lat":"52.22250000","lon":"4.64390000"},
{"state":"North Holland","name":"Wieringerwaard","lat":"52.83583000","lon":"4.86528000"},
{"state":"North Holland","name":"Wieringerwerf","lat":"52.85083000","lon":"5.02639000"},
{"state":"North Holland","name":"Wijdemeren","lat":"52.23000000","lon":"5.12000000"},
{"state":"North Holland","name":"Wijdenes","lat":"52.63500000","lon":"5.15694000"},
{"state":"North Holland","name":"Wijdewormer","lat":"52.50024000","lon":"4.89244000"},
{"state":"North Holland","name":"Wijk aan Zee","lat":"52.49360000","lon":"4.59409000"},
{"state":"North Holland","name":"Wimmenum","lat":"52.63920000","lon":"4.65580000"},
{"state":"North Holland","name":"Winkel","lat":"52.75417000","lon":"4.90278000"},
{"state":"North Holland","name":"Wognum","lat":"52.68420000","lon":"5.02080000"},
{"state":"North Holland","name":"Wormerland","lat":"52.50860000","lon":"4.87140000"},
{"state":"North Holland","name":"Wormerveer","lat":"52.48333333","lon":"4.78333333"},
{"state":"North Holland","name":"Zaandam","lat":"52.43854000","lon":"4.82643000"},
{"state":"North Holland","name":"Zaandijk","lat":"52.47494000","lon":"4.80686000"},
{"state":"North Holland","name":"Zaanstad","lat":"52.45313000","lon":"4.81356000"},
{"state":"North Holland","name":"Zandvoort","lat":"52.37125000","lon":"4.53306000"},
{"state":"North Holland","name":"Zuid-Scharwoude","lat":"52.68667000","lon":"4.80833000"},
{"state":"North Holland","name":"Zuidermeer","lat":"52.66560000","lon":"4.97580000"},
{"state":"North Holland","name":"Zwaag","lat":"52.66860000","lon":"5.07530000"},
{"state":"North Holland","name":"Zwaagdijk-Oost","lat":"52.70750000","lon":"5.14028000"},
{"state":"North Holland","name":"Zwaagdijk-West","lat":"52.67580000","lon":"5.05920000"},
{"state":"North Holland","name":"Zwaanshoek","lat":"52.31250000","lon":"4.61667000"},
{"state":"Overijssel","name":"Almelo","lat":"52.35667000","lon":"6.66250000"},
{"state":"Overijssel","name":"Baalder","lat":"52.58579000","lon":"6.65299000"},
{"state":"Overijssel","name":"Berkum","lat":"52.52395000","lon":"6.13655000"},
{"state":"Overijssel","name":"Blokzijl","lat":"52.72667000","lon":"5.96111000"},
{"state":"Overijssel","name":"Borgele","lat":"52.27630000","lon":"6.14926000"},
{"state":"Overijssel","name":"Borne","lat":"52.30136000","lon":"6.74820000"},
{"state":"Overijssel","name":"Boskamp","lat":"52.33083000","lon":"6.12778000"},
{"state":"Overijssel","name":"Brunnepe","lat":"52.56185000","lon":"5.90343000"},
{"state":"Overijssel","name":"Dalfsen","lat":"52.51167000","lon":"6.25694000"},
{"state":"Overijssel","name":"De Hoven","lat":"52.24901000","lon":"6.14367000"},
{"state":"Overijssel","name":"Delden","lat":"52.26000000","lon":"6.71111000"},
{"state":"Overijssel","name":"Den Ham","lat":"52.46583000","lon":"6.49583000"},
{"state":"Overijssel","name":"Deventer","lat":"52.25500000","lon":"6.16389000"},
{"state":"Overijssel","name":"Diepenheim","lat":"52.20000000","lon":"6.55556000"},
{"state":"Overijssel","name":"Enschede","lat":"52.21833000","lon":"6.89583000"},
{"state":"Overijssel","name":"Flevowijk","lat":"52.54583000","lon":"5.91338000"},
{"state":"Overijssel","name":"Frankhuis","lat":"52.52500000","lon":"6.06806000"},
{"state":"Overijssel","name":"Giethoorn","lat":"52.74000000","lon":"6.07917000"},
{"state":"Overijssel","name":"Goor","lat":"52.23333000","lon":"6.58611000"},
{"state":"Overijssel","name":"Grafhorst","lat":"52.58250000","lon":"5.93333000"},
{"state":"Overijssel","name":"Haaksbergen","lat":"52.15667000","lon":"6.73889000"},
{"state":"Overijssel","name":"Haarle","lat":"52.35917000","lon":"6.38056000"},
{"state":"Overijssel","name":"Hardenberg","lat":"52.57583000","lon":"6.61944000"},
{"state":"Overijssel","name":"Hasselt","lat":"52.59267000","lon":"6.09527000"},
{"state":"Overijssel","name":"Heino","lat":"52.43661000","lon":"6.23282000"},
{"state":"Overijssel","name":"Hengelo","lat":"52.26583000","lon":"6.79306000"},
{"state":"Overijssel","name":"Hengevelde","lat":"52.19917000","lon":"6.63611000"},
{"state":"Overijssel","name":"Het Oostrik","lat":"52.25000000","lon":"6.21667000"},
{"state":"Overijssel","name":"Kampen","lat":"52.55500000","lon":"5.91111000"},
{"state":"Overijssel","name":"Klein Driene","lat":"52.26935000","lon":"6.81613000"},
{"state":"Overijssel","name":"Losser","lat":"52.26083000","lon":"7.00417000"},
{"state":"Overijssel","name":"Magele","lat":"52.46917000","lon":"6.52083000"},
{"state":"Overijssel","name":"Markelo","lat":"52.23500000","lon":"6.49861000"},
{"state":"Overijssel","name":"Mekkelholt","lat":"52.23645000","lon":"6.89058000"},
{"state":"Overijssel","name":"Nieuwoord","lat":"52.46667000","lon":"6.55000000"},
{"state":"Overijssel","name":"Nijrees","lat":"52.33500000","lon":"6.66389000"},
{"state":"Overijssel","name":"Oldemarkt","lat":"52.82083000","lon":"5.97500000"},
{"state":"Overijssel","name":"Oldenzaal","lat":"52.31333000","lon":"6.92917000"},
{"state":"Overijssel","name":"Olst","lat":"52.33750000","lon":"6.10972000"},
{"state":"Overijssel","name":"Ommen","lat":"52.52083000","lon":"6.42083000"},
{"state":"Overijssel","name":"Oosterholt","lat":"52.55917000","lon":"5.95556000"},
{"state":"Overijssel","name":"Oostermeenthe","lat":"52.79319000","lon":"6.13138000"},
{"state":"Overijssel","name":"Ootmarsum","lat":"52.40833000","lon":"6.90139000"},
{"state":"Overijssel","name":"Pathmos","lat":"52.21397000","lon":"6.87555000"},
{"state":"Overijssel","name":"Pierik","lat":"52.50141000","lon":"6.11170000"},
{"state":"Overijssel","name":"Raalte","lat":"52.38583000","lon":"6.27500000"},
{"state":"Overijssel","name":"Rossum","lat":"52.35167000","lon":"6.92222000"},
{"state":"Overijssel","name":"Schalkhaar","lat":"52.26833000","lon":"6.19444000"},
{"state":"Overijssel","name":"Sint Jansklooster","lat":"52.67750000","lon":"6.00556000"},
{"state":"Overijssel","name":"Staphorst","lat":"52.64500000","lon":"6.21111000"},
{"state":"Overijssel","name":"Steenwijk","lat":"52.78750000","lon":"6.12083000"},
{"state":"Overijssel","name":"Steenwijkerwold","lat":"52.80417000","lon":"6.06389000"},
{"state":"Overijssel","name":"Tubbergen","lat":"52.40750000","lon":"6.78472000"},
{"state":"Overijssel","name":"Tuk","lat":"52.79667000","lon":"6.09444000"},
{"state":"Overijssel","name":"Twekkelerveld","lat":"52.23064000","lon":"6.86004000"},
{"state":"Overijssel","name":"Vollenhove","lat":"52.68083000","lon":"5.95417000"},
{"state":"Overijssel","name":"Vriezenveen","lat":"52.40833000","lon":"6.62222000"},
{"state":"Overijssel","name":"Vroomshoop","lat":"52.46083000","lon":"6.56528000"},
{"state":"Overijssel","name":"Westerhaar-Vriezenveensewijk","lat":"52.45583000","lon":"6.62361000"},
{"state":"Overijssel","name":"Wierden","lat":"52.35917000","lon":"6.59306000"},
{"state":"Overijssel","name":"Wijhe","lat":"52.38667000","lon":"6.13472000"},
{"state":"Overijssel","name":"Woolde","lat":"52.27210000","lon":"6.75891000"},
{"state":"Overijssel","name":"Wooldrik","lat":"52.21667000","lon":"6.91667000"},
{"state":"Overijssel","name":"Zuid-Berghuizen","lat":"52.30083000","lon":"6.93333000"},
{"state":"Overijssel","name":"Zwolle","lat":"52.51250000","lon":"6.09444000"},
{"state":"South Holland","name":"'s-Gravenland","lat":"51.92336000","lon":"4.55315000"},
{"state":"South Holland","name":"'s-Gravenzande","lat":"52.00167000","lon":"4.16528000"},
{"state":"South Holland","name":"Adegeest","lat":"52.13621000","lon":"4.45249000"},
{"state":"South Holland","name":"Alblasserdam","lat":"51.86583000","lon":"4.66111000"},
{"state":"South Holland","name":"Alphen aan den Rijn","lat":"52.12917000","lon":"4.65546000"},
{"state":"South Holland","name":"Ammerstol","lat":"51.92750000","lon":"4.80833000"},
{"state":"South Holland","name":"Arkel","lat":"51.86417000","lon":"4.99444000"},
{"state":"South Holland","name":"Barendrecht","lat":"51.85667000","lon":"4.53472000"},
{"state":"South Holland","name":"Benthuizen","lat":"52.07750000","lon":"4.54444000"},
{"state":"South Holland","name":"Bergschenhoek","lat":"51.99000000","lon":"4.49861000"},
{"state":"South Holland","name":"Bergstoep","lat":"51.92250000","lon":"4.78472000"},
{"state":"South Holland","name":"Berkel en Rodenrijs","lat":"51.99313000","lon":"4.47865000"},
{"state":"South Holland","name":"Berkenwoude","lat":"51.94500000","lon":"4.70694000"},
{"state":"South Holland","name":"Binnenhof","lat":"52.16418000","lon":"4.53644000"},
{"state":"South Holland","name":"Bleiswijk","lat":"52.01083000","lon":"4.53194000"},
{"state":"South Holland","name":"Bleskensgraaf","lat":"51.87250000","lon":"4.78333000"},
{"state":"South Holland","name":"Bloemendaal","lat":"52.02878000","lon":"4.69440000"},
{"state":"South Holland","name":"Bloemhof","lat":"51.89723000","lon":"4.49943000"},
{"state":"South Holland","name":"Bodegraven","lat":"52.08250000","lon":"4.75000000"},
{"state":"South Holland","name":"Bodegraven-Reeuwijk","lat":"52.06541000","lon":"4.76634000"},
{"state":"South Holland","name":"Bolnes","lat":"51.89500000","lon":"4.57917000"},
{"state":"South Holland","name":"Boskoop","lat":"52.07500000","lon":"4.65556000"},
{"state":"South Holland","name":"Boven-Hardinxveld","lat":"51.82333000","lon":"4.88194000"},
{"state":"South Holland","name":"Brielle","lat":"51.90167000","lon":"4.16250000"},
{"state":"South Holland","name":"Capelle aan den IJssel","lat":"51.92917000","lon":"4.57778000"},
{"state":"South Holland","name":"Capelle-West","lat":"51.91667000","lon":"4.56667000"},
{"state":"South Holland","name":"Carnisse","lat":"51.88932000","lon":"4.47758000"},
{"state":"South Holland","name":"De Kieviet","lat":"52.12333000","lon":"4.35839000"},
{"state":"South Holland","name":"De Lier","lat":"51.97500000","lon":"4.24861000"},
{"state":"South Holland","name":"De Peulen","lat":"51.82362000","lon":"4.82165000"},
{"state":"South Holland","name":"Delfshaven","lat":"51.90488000","lon":"4.45315000"},
{"state":"South Holland","name":"Delft","lat":"52.00667000","lon":"4.35556000"},
{"state":"South Holland","name":"Dirksland","lat":"51.74917000","lon":"4.10000000"},
{"state":"South Holland","name":"Dordrecht","lat":"51.81000000","lon":"4.67361000"},
{"state":"South Holland","name":"Driebruggen","lat":"52.04417000","lon":"4.80000000"},
{"state":"South Holland","name":"Driemanspolder","lat":"52.05176000","lon":"4.48504000"},
{"state":"South Holland","name":"Duindorp","lat":"52.09078000","lon":"4.26038000"},
{"state":"South Holland","name":"Duinzigt","lat":"52.10485000","lon":"4.32494000"},
{"state":"South Holland","name":"Essesteijn","lat":"52.08534000","lon":"4.37263000"},
{"state":"South Holland","name":"Feijenoord","lat":"51.91169000","lon":"4.50645000"},
{"state":"South Holland","name":"Giessenburg","lat":"51.85083000","lon":"4.89028000"},
{"state":"South Holland","name":"Giessendam","lat":"51.83257000","lon":"4.83583000"},
{"state":"South Holland","name":"Goedereede","lat":"51.81750000","lon":"3.98056000"},
{"state":"South Holland","name":"Gorinchem","lat":"51.83652000","lon":"4.97243000"},
{"state":"South Holland","name":"Gouda","lat":"52.01667000","lon":"4.70833000"},
{"state":"South Holland","name":"Gouderak","lat":"51.98417000","lon":"4.67778000"},
{"state":"South Holland","name":"Goudswaard","lat":"51.79417000","lon":"4.27639000"},
{"state":"South Holland","name":"Gouwsluis","lat":"52.11943000","lon":"4.66899000"},
{"state":"South Holland","name":"Groenswaard","lat":"52.05154000","lon":"4.64541000"},
{"state":"South Holland","name":"Groot IJsselmonde","lat":"51.88264000","lon":"4.54937000"},
{"state":"South Holland","name":"Groot-Ammers","lat":"51.92333000","lon":"4.82361000"},
{"state":"South Holland","name":"Haastrecht","lat":"52.00074000","lon":"4.77639000"},
{"state":"South Holland","name":"Heerjansdam","lat":"51.83583000","lon":"4.56389000"},
{"state":"South Holland","name":"Heijplaat","lat":"51.89333000","lon":"4.42083000"},
{"state":"South Holland","name":"Hellevoetsluis","lat":"51.83333000","lon":"4.13333000"},
{"state":"South Holland","name":"Hendrik-Ido-Ambacht","lat":"51.84417000","lon":"4.63889000"},
{"state":"South Holland","name":"Hillegom","lat":"52.29083000","lon":"4.58333000"},
{"state":"South Holland","name":"Hoek van Holland","lat":"51.97750000","lon":"4.13333000"},
{"state":"South Holland","name":"Hoge Mors","lat":"52.15616000","lon":"4.46025000"},
{"state":"South Holland","name":"Honselersdijk","lat":"52.00665000","lon":"4.22441000"},
{"state":"South Holland","name":"Hoogblokland","lat":"51.87500000","lon":"4.97639000"},
{"state":"South Holland","name":"Hoogmade","lat":"52.16917000","lon":"4.58194000"},
{"state":"South Holland","name":"Katendrecht","lat":"51.90074000","lon":"4.48254000"},
{"state":"South Holland","name":"Katwijk aan den Rijn","lat":"52.19417000","lon":"4.42222000"},
{"state":"South Holland","name":"Katwijk aan Zee","lat":"52.20333000","lon":"4.39861000"},
{"state":"South Holland","name":"Kerkehout","lat":"52.11018000","lon":"4.37957000"},
{"state":"South Holland","name":"Kijkduin","lat":"52.06765000","lon":"4.22188000"},
{"state":"South Holland","name":"Klaaswaal","lat":"51.77000000","lon":"4.44583000"},
{"state":"South Holland","name":"Kop van Zuid","lat":"51.90553000","lon":"4.48706000"},
{"state":"South Holland","name":"Krimpen aan den IJssel","lat":"51.91667000","lon":"4.60278000"},
{"state":"South Holland","name":"Krimpenerwaard","lat":"51.98171000","lon":"4.77828000"},
{"state":"South Holland","name":"Kwintsheul","lat":"52.01333000","lon":"4.25556000"},
{"state":"South Holland","name":"Leiden","lat":"52.15833000","lon":"4.49306000"},
{"state":"South Holland","name":"Leiderdorp","lat":"52.15833000","lon":"4.52917000"},
{"state":"South Holland","name":"Leimuiden","lat":"52.22417000","lon":"4.66944000"},
{"state":"South Holland","name":"Liesveld","lat":"51.93250000","lon":"4.83194000"},
{"state":"South Holland","name":"Lisse","lat":"52.26000000","lon":"4.55694000"},
{"state":"South Holland","name":"Lombardijen","lat":"51.87380000","lon":"4.52192000"},
{"state":"South Holland","name":"Maasdijk","lat":"51.95917000","lon":"4.21389000"},
{"state":"South Holland","name":"Maasland","lat":"51.93417000","lon":"4.27222000"},
{"state":"South Holland","name":"Maassluis","lat":"51.92333000","lon":"4.25000000"},
{"state":"South Holland","name":"Merenwijk","lat":"52.17655000","lon":"4.50885000"},
{"state":"South Holland","name":"Middelharnis","lat":"51.75750000","lon":"4.16528000"},
{"state":"South Holland","name":"Middelsluis","lat":"51.74250000","lon":"4.44167000"},
{"state":"South Holland","name":"Mijnsheerenland","lat":"51.79667000","lon":"4.48750000"},
{"state":"South Holland","name":"Monster","lat":"52.02583000","lon":"4.17500000"},
{"state":"South Holland","name":"Naaldwijk","lat":"51.99417000","lon":"4.20972000"},
{"state":"South Holland","name":"Neder-Hardinxveld","lat":"51.82879000","lon":"4.85489000"},
{"state":"South Holland","name":"Nieuw-Beijerland","lat":"51.81250000","lon":"4.34306000"},
{"state":"South Holland","name":"Nieuw-Lekkerland","lat":"51.88915000","lon":"4.68653000"},
{"state":"South Holland","name":"Nieuwenhoorn","lat":"51.85417000","lon":"4.14306000"},
{"state":"South Holland","name":"Nieuwkoop","lat":"52.15083000","lon":"4.77639000"},
{"state":"South Holland","name":"Nieuwpoort","lat":"51.93583000","lon":"4.86806000"},
{"state":"South Holland","name":"Nieuwveen","lat":"52.19667000","lon":"4.75694000"},
{"state":"South Holland","name":"Nissewaard","lat":"51.83716000","lon":"4.27540000"},
{"state":"South Holland","name":"Noord-Hofland","lat":"52.14059000","lon":"4.45864000"},
{"state":"South Holland","name":"Noordeinde","lat":"52.01667000","lon":"4.48333000"},
{"state":"South Holland","name":"Noordeloos","lat":"51.90333000","lon":"4.94167000"},
{"state":"South Holland","name":"Noordwijk-Binnen","lat":"52.23400000","lon":"4.44474000"},
{"state":"South Holland","name":"Noordwijkerhout","lat":"52.26167000","lon":"4.49306000"},
{"state":"South Holland","name":"Numansdorp","lat":"51.73167000","lon":"4.43750000"},
{"state":"South Holland","name":"Oegstgeest","lat":"52.18000000","lon":"4.46944000"},
{"state":"South Holland","name":"Ommoord","lat":"51.95951000","lon":"4.54533000"},
{"state":"South Holland","name":"Oostdorp","lat":"52.14994000","lon":"4.39319000"},
{"state":"South Holland","name":"Oostvoorne","lat":"51.91250000","lon":"4.09861000"},
{"state":"South Holland","name":"Oranjewijk","lat":"52.04922000","lon":"4.65374000"},
{"state":"South Holland","name":"Oud-Beijerland","lat":"51.82417000","lon":"4.41250000"},
{"state":"South Holland","name":"Ouddorp","lat":"51.81167000","lon":"3.93472000"},
{"state":"South Holland","name":"Oude Wetering","lat":"52.21417000","lon":"4.64444000"},
{"state":"South Holland","name":"Ouderkerk aan den IJssel","lat":"51.93417000","lon":"4.63611000"},
{"state":"South Holland","name":"Overschie","lat":"51.93863000","lon":"4.42766000"},
{"state":"South Holland","name":"Palenstein","lat":"52.05579000","lon":"4.50869000"},
{"state":"South Holland","name":"Papendrecht","lat":"51.83167000","lon":"4.68750000"},
{"state":"South Holland","name":"Papenveer","lat":"52.18500000","lon":"4.72500000"},
{"state":"South Holland","name":"Pendrecht","lat":"51.87152000","lon":"4.46901000"},
{"state":"South Holland","name":"Pernis","lat":"51.88833000","lon":"4.38889000"},
{"state":"South Holland","name":"Piershil","lat":"51.79333000","lon":"4.31389000"},
{"state":"South Holland","name":"Pijnacker","lat":"52.01954000","lon":"4.42946000"},
{"state":"South Holland","name":"Poeldijk","lat":"52.02417000","lon":"4.21944000"},
{"state":"South Holland","name":"Reeuwijk","lat":"52.04667000","lon":"4.72500000"},
{"state":"South Holland","name":"Rhoon","lat":"51.85750000","lon":"4.42222000"},
{"state":"South Holland","name":"Ridderkerk","lat":"51.87250000","lon":"4.60278000"},
{"state":"South Holland","name":"Rijnsaterwoude","lat":"52.19583000","lon":"4.67083000"},
{"state":"South Holland","name":"Rijnsburg","lat":"52.19000000","lon":"4.44167000"},
{"state":"South Holland","name":"Rijpwetering","lat":"52.19250000","lon":"4.58333000"},
{"state":"South Holland","name":"Rijsoord","lat":"51.85083000","lon":"4.59583000"},
{"state":"South Holland","name":"Rijswijk","lat":"52.03634000","lon":"4.32501000"},
{"state":"South Holland","name":"Rockanje","lat":"51.87167000","lon":"4.07083000"},
{"state":"South Holland","name":"Roelofarendsveen","lat":"52.20333000","lon":"4.63333000"},
{"state":"South Holland","name":"Rotterdam","lat":"51.92250000","lon":"4.47917000"},
{"state":"South Holland","name":"Rozenburg","lat":"51.90417000","lon":"4.24861000"},
{"state":"South Holland","name":"Rugge","lat":"51.89921000","lon":"4.15231000"},
{"state":"South Holland","name":"Sassenheim","lat":"52.22500000","lon":"4.52222000"},
{"state":"South Holland","name":"Schelluinen","lat":"51.84333000","lon":"4.92639000"},
{"state":"South Holland","name":"Scheveningen","lat":"52.10461000","lon":"4.27557000"},
{"state":"South Holland","name":"Schiebroek","lat":"51.95838000","lon":"4.47124000"},
{"state":"South Holland","name":"Schiedam","lat":"51.91917000","lon":"4.38889000"},
{"state":"South Holland","name":"Schipluiden","lat":"51.97583000","lon":"4.31389000"},
{"state":"South Holland","name":"Schoonhoven","lat":"51.94750000","lon":"4.84861000"},
{"state":"South Holland","name":"Sliedrecht","lat":"51.82083000","lon":"4.77639000"},
{"state":"South Holland","name":"Slikkerveer","lat":"51.88531000","lon":"4.60494000"},
{"state":"South Holland","name":"Spangen","lat":"51.91688000","lon":"4.43539000"},
{"state":"South Holland","name":"Spijkenisse","lat":"51.84500000","lon":"4.32917000"},
{"state":"South Holland","name":"Spoorwijk","lat":"52.05347000","lon":"4.31339000"},
{"state":"South Holland","name":"Statenkwartier","lat":"52.09311000","lon":"4.27577000"},
{"state":"South Holland","name":"Stein","lat":"52.00333000","lon":"4.78194000"},
{"state":"South Holland","name":"Stolwijk","lat":"51.97250000","lon":"4.77361000"},
{"state":"South Holland","name":"Strijen","lat":"51.74521000","lon":"4.55083000"},
{"state":"South Holland","name":"Strijp","lat":"52.03083000","lon":"4.30139000"},
{"state":"South Holland","name":"Terbregge","lat":"51.95328000","lon":"4.51537000"},
{"state":"South Holland","name":"The Hague","lat":"52.07667000","lon":"4.29861000"},
{"state":"South Holland","name":"Tuindorp","lat":"51.93032000","lon":"4.37840000"},
{"state":"South Holland","name":"Valkenburg","lat":"52.18000000","lon":"4.43194000"},
{"state":"South Holland","name":"Vierpolders","lat":"51.87917000","lon":"4.17917000"},
{"state":"South Holland","name":"Vlaardingen","lat":"51.91250000","lon":"4.34167000"},
{"state":"South Holland","name":"Vlietwijk","lat":"52.12436000","lon":"4.45736000"},
{"state":"South Holland","name":"Vogelwijk","lat":"52.07631000","lon":"4.24790000"},
{"state":"South Holland","name":"Vondelwijk","lat":"52.05497000","lon":"4.65314000"},
{"state":"South Holland","name":"Voorburg","lat":"52.07417000","lon":"4.35972000"},
{"state":"South Holland","name":"Voorhout","lat":"52.22167000","lon":"4.48472000"},
{"state":"South Holland","name":"Voorschoten","lat":"52.12750000","lon":"4.44861000"},
{"state":"South Holland","name":"Vreewijk","lat":"51.88428000","lon":"4.51967000"},
{"state":"South Holland","name":"Waarder","lat":"52.06083000","lon":"4.82083000"},
{"state":"South Holland","name":"Waddinxveen","lat":"52.04500000","lon":"4.65139000"},
{"state":"South Holland","name":"Warmond","lat":"52.19667000","lon":"4.50278000"},
{"state":"South Holland","name":"Wassenaar","lat":"52.14583000","lon":"4.40278000"},
{"state":"South Holland","name":"Weerestein","lat":"52.30381000","lon":"4.58861000"},
{"state":"South Holland","name":"Weijpoort","lat":"52.08167000","lon":"4.80278000"},
{"state":"South Holland","name":"Westmaas","lat":"51.78667000","lon":"4.47500000"},
{"state":"South Holland","name":"Woubrugge","lat":"52.17000000","lon":"4.63611000"},
{"state":"South Holland","name":"Ypenburg","lat":"52.04098000","lon":"4.36981000"},
{"state":"South Holland","name":"Zevenhoven","lat":"52.18167000","lon":"4.77917000"},
{"state":"South Holland","name":"Zoetermeer","lat":"52.05750000","lon":"4.49306000"},
{"state":"South Holland","name":"Zoeterwoude-Dorp","lat":"52.12000000","lon":"4.49583000"},
{"state":"South Holland","name":"Zuid-Beijerland","lat":"51.75083000","lon":"4.36806000"},
{"state":"South Holland","name":"Zuidwijk","lat":"51.87532000","lon":"4.48514000"},
{"state":"South Holland","name":"Zwijndrecht","lat":"51.81750000","lon":"4.63333000"},
{"state":"Utrecht","name":"Abcoude","lat":"52.27250000","lon":"4.96944000"},
{"state":"Utrecht","name":"Amerongen","lat":"52.00250000","lon":"5.45972000"},
{"state":"Utrecht","name":"Amersfoort","lat":"52.15500000","lon":"5.38750000"},
{"state":"Utrecht","name":"Austerlitz","lat":"52.08000000","lon":"5.31528000"},
{"state":"Utrecht","name":"Baambrugge","lat":"52.24583000","lon":"4.98889000"},
{"state":"Utrecht","name":"Baarn","lat":"52.21167000","lon":"5.28750000"},
{"state":"Utrecht","name":"Bosch en Duin","lat":"52.11667000","lon":"5.24167000"},
{"state":"Utrecht","name":"Breukelen","lat":"52.17417000","lon":"5.00139000"},
{"state":"Utrecht","name":"Bunnik","lat":"52.06667000","lon":"5.19861000"},
{"state":"Utrecht","name":"Bunschoten","lat":"52.24304000","lon":"5.37884000"},
{"state":"Utrecht","name":"Cothen","lat":"51.99667000","lon":"5.30833000"},
{"state":"Utrecht","name":"De Bilt","lat":"52.11000000","lon":"5.18056000"},
{"state":"Utrecht","name":"De Hagen","lat":"51.99381000","lon":"5.10263000"},
{"state":"Utrecht","name":"De Uithof","lat":"52.08526000","lon":"5.17456000"},
{"state":"Utrecht","name":"Doorn","lat":"52.03343000","lon":"5.34571000"},
{"state":"Utrecht","name":"Driebergen-Rijsenburg","lat":"52.05333000","lon":"5.28056000"},
{"state":"Utrecht","name":"Groenekan","lat":"52.12333000","lon":"5.15278000"},
{"state":"Utrecht","name":"Hollandsche Rading","lat":"52.17500000","lon":"5.17778000"},
{"state":"Utrecht","name":"Houten","lat":"52.02833000","lon":"5.16806000"},
{"state":"Utrecht","name":"IJsselstein","lat":"52.02000000","lon":"5.04306000"},
{"state":"Utrecht","name":"Kedichem","lat":"51.86000000","lon":"5.05000000"},
{"state":"Utrecht","name":"Kerckebosch","lat":"52.07844000","lon":"5.26584000"},
{"state":"Utrecht","name":"Langenoord","lat":"52.18768000","lon":"5.38034000"},
{"state":"Utrecht","name":"Leerdam","lat":"51.89333000","lon":"5.09167000"},
{"state":"Utrecht","name":"Leersum","lat":"52.01167000","lon":"5.42778000"},
{"state":"Utrecht","name":"Leusden","lat":"52.13250000","lon":"5.43194000"},
{"state":"Utrecht","name":"Linschoten","lat":"52.06250000","lon":"4.91528000"},
{"state":"Utrecht","name":"Lopik","lat":"51.97250000","lon":"4.94861000"},
{"state":"Utrecht","name":"Lunetten","lat":"52.06178000","lon":"5.13474000"},
{"state":"Utrecht","name":"Maarn","lat":"52.06417000","lon":"5.37083000"},
{"state":"Utrecht","name":"Maarssen","lat":"52.13917000","lon":"5.04167000"},
{"state":"Utrecht","name":"Maartensdijk","lat":"52.15500000","lon":"5.17500000"},
{"state":"Utrecht","name":"Mijdrecht","lat":"52.20667000","lon":"4.86250000"},
{"state":"Utrecht","name":"Montfoort","lat":"52.04583000","lon":"4.95278000"},
{"state":"Utrecht","name":"Nieuwegein","lat":"52.02917000","lon":"5.08056000"},
{"state":"Utrecht","name":"Nijenheim","lat":"52.08689000","lon":"5.21852000"},
{"state":"Utrecht","name":"Odijk","lat":"52.05250000","lon":"5.23611000"},
{"state":"Utrecht","name":"Oog in Al","lat":"52.08636000","lon":"5.08470000"},
{"state":"Utrecht","name":"Oudewater","lat":"52.02500000","lon":"4.86806000"},
{"state":"Utrecht","name":"Overberg","lat":"52.04000000","lon":"5.49444000"},
{"state":"Utrecht","name":"Randenbroek","lat":"52.14863000","lon":"5.40120000"},
{"state":"Utrecht","name":"Renswoude","lat":"52.07333000","lon":"5.54028000"},
{"state":"Utrecht","name":"Rhenen","lat":"51.95917000","lon":"5.56806000"},
{"state":"Utrecht","name":"Schoonrewoerd","lat":"51.92083000","lon":"5.11667000"},
{"state":"Utrecht","name":"Soest","lat":"52.17333000","lon":"5.29167000"},
{"state":"Utrecht","name":"Soestdijk","lat":"52.19083000","lon":"5.28472000"},
{"state":"Utrecht","name":"Spakenburg","lat":"52.25000000","lon":"5.36667000"},
{"state":"Utrecht","name":"Spechtenkamp","lat":"52.13926000","lon":"5.01758000"},
{"state":"Utrecht","name":"Stichtse Vecht","lat":"52.17679000","lon":"5.01259000"},
{"state":"Utrecht","name":"Utrecht","lat":"52.09083000","lon":"5.12222000"},
{"state":"Utrecht","name":"Veenendaal","lat":"52.02863000","lon":"5.55891000"},
{"state":"Utrecht","name":"Veldhuizen","lat":"52.07537000","lon":"5.01234000"},
{"state":"Utrecht","name":"Vianen","lat":"51.99250000","lon":"5.09167000"},
{"state":"Utrecht","name":"Vinkeveen","lat":"52.21507000","lon":"4.93372000"},
{"state":"Utrecht","name":"Vleuten","lat":"52.10583000","lon":"5.01528000"},
{"state":"Utrecht","name":"Vreeswijk","lat":"52.01088000","lon":"5.09285000"},
{"state":"Utrecht","name":"Werkhoven","lat":"52.02500000","lon":"5.24444000"},
{"state":"Utrecht","name":"Wijk bij Duurstede","lat":"51.97417000","lon":"5.34167000"},
{"state":"Utrecht","name":"Wilnis","lat":"52.19667000","lon":"4.89722000"},
{"state":"Utrecht","name":"Woerden","lat":"52.08500000","lon":"4.88333000"},
{"state":"Utrecht","name":"Woudenberg","lat":"52.08083000","lon":"5.41667000"},
{"state":"Utrecht","name":"Zeist","lat":"52.09000000","lon":"5.23333000"},
{"state":"Zeeland","name":"Aagtekerke","lat":"51.54667000","lon":"3.50972000"},
{"state":"Zeeland","name":"Aardenburg","lat":"51.27333000","lon":"3.44722000"},
{"state":"Zeeland","name":"Arnemuiden","lat":"51.50167000","lon":"3.67500000"},
{"state":"Zeeland","name":"Axel","lat":"51.26667000","lon":"3.90833000"},
{"state":"Zeeland","name":"Borssele","lat":"51.42333000","lon":"3.73472000"},
{"state":"Zeeland","name":"Breskens","lat":"51.39583000","lon":"3.55556000"},
{"state":"Zeeland","name":"Brouwershaven","lat":"51.72667000","lon":"3.91250000"},
{"state":"Zeeland","name":"Bruinisse","lat":"51.66167000","lon":"4.09444000"},
{"state":"Zeeland","name":"Colijnsplaat","lat":"51.59917000","lon":"3.84861000"},
{"state":"Zeeland","name":"Dauwendaele","lat":"51.49299000","lon":"3.62624000"},
{"state":"Zeeland","name":"Domburg","lat":"51.56333000","lon":"3.49583000"},
{"state":"Zeeland","name":"Goes","lat":"51.50417000","lon":"3.88889000"},
{"state":"Zeeland","name":"Griffioen","lat":"51.50548000","lon":"3.59598000"},
{"state":"Zeeland","name":"Grijpskerke","lat":"51.53417000","lon":"3.56111000"},
{"state":"Zeeland","name":"Haamstede","lat":"51.69682000","lon":"3.74299000"},
{"state":"Zeeland","name":"Hulst","lat":"51.28000000","lon":"4.05278000"},
{"state":"Zeeland","name":"IJzendijke","lat":"51.32167000","lon":"3.61667000"},
{"state":"Zeeland","name":"Kamperland","lat":"51.57167000","lon":"3.70417000"},
{"state":"Zeeland","name":"Kapelle","lat":"51.48627000","lon":"3.95804000"},
{"state":"Zeeland","name":"Klarenbeek","lat":"51.50964000","lon":"3.61132000"},
{"state":"Zeeland","name":"Kloetinge","lat":"51.49833000","lon":"3.91528000"},
{"state":"Zeeland","name":"Koewacht","lat":"51.22833000","lon":"3.97361000"},
{"state":"Zeeland","name":"Koudekerke","lat":"51.48167000","lon":"3.55417000"},
{"state":"Zeeland","name":"Lammerenburg","lat":"51.46667000","lon":"3.55833000"},
{"state":"Zeeland","name":"Malta","lat":"51.65000000","lon":"3.93333000"},
{"state":"Zeeland","name":"Meliskerke","lat":"51.51417000","lon":"3.50972000"},
{"state":"Zeeland","name":"Middelburg","lat":"51.50000000","lon":"3.61389000"},
{"state":"Zeeland","name":"Nieuw- en Sint Joosland","lat":"51.48333000","lon":"3.65694000"},
{"state":"Zeeland","name":"Nieuwerkerk","lat":"51.65083000","lon":"4.00139000"},
{"state":"Zeeland","name":"Oostburg","lat":"51.32583000","lon":"3.48750000"},
{"state":"Zeeland","name":"Oosterland","lat":"51.65000000","lon":"4.03611000"},
{"state":"Zeeland","name":"Oostkapelle","lat":"51.56667000","lon":"3.55139000"},
{"state":"Zeeland","name":"Othene","lat":"51.33083000","lon":"3.85972000"},
{"state":"Zeeland","name":"Oud-Vossemeer","lat":"51.57083000","lon":"4.19861000"},
{"state":"Zeeland","name":"Poortvliet","lat":"51.54417000","lon":"4.14306000"},
{"state":"Zeeland","name":"Renesse","lat":"51.73250000","lon":"3.77500000"},
{"state":"Zeeland","name":"Sas van Gent","lat":"51.22750000","lon":"3.79861000"},
{"state":"Zeeland","name":"Scharendijke","lat":"51.73583000","lon":"3.84306000"},
{"state":"Zeeland","name":"Scherpenisse","lat":"51.54667000","lon":"4.10556000"},
{"state":"Zeeland","name":"Schoondijke","lat":"51.35417000","lon":"3.55556000"},
{"state":"Zeeland","name":"Schouwen-Duiveland","lat":"51.69294000","lon":"3.88676000"},
{"state":"Zeeland","name":"Serooskerke","lat":"51.54833000","lon":"3.59444000"},
{"state":"Zeeland","name":"Sint Laurens","lat":"51.52750000","lon":"3.60278000"},
{"state":"Zeeland","name":"Sint Philipsland","lat":"51.61667000","lon":"4.16528000"},
{"state":"Zeeland","name":"Sluis","lat":"51.30833000","lon":"3.38611000"},
{"state":"Zeeland","name":"Sluiskil","lat":"51.27833000","lon":"3.83611000"},
{"state":"Zeeland","name":"Stavenisse","lat":"51.58750000","lon":"4.01250000"},
{"state":"Zeeland","name":"Terneuzen","lat":"51.33583000","lon":"3.82778000"},
{"state":"Zeeland","name":"Tholen","lat":"51.53167000","lon":"4.22083000"},
{"state":"Zeeland","name":"Vlissingen","lat":"51.44250000","lon":"3.57361000"},
{"state":"Zeeland","name":"Waarde","lat":"51.41750000","lon":"4.06806000"},
{"state":"Zeeland","name":"Wemeldinge","lat":"51.51833000","lon":"3.99722000"},
{"state":"Zeeland","name":"West-Souburg","lat":"51.46417000","lon":"3.59167000"},
{"state":"Zeeland","name":"Westdorpe","lat":"51.23250000","lon":"3.82639000"},
{"state":"Zeeland","name":"Westerzicht","lat":"51.46252000","lon":"3.58687000"},
{"state":"Zeeland","name":"Westkapelle","lat":"51.52917000","lon":"3.44028000"},
{"state":"Zeeland","name":"Wissenkerke","lat":"51.58500000","lon":"3.74722000"},
{"state":"Zeeland","name":"Wolphaartsdijk","lat":"51.53167000","lon":"3.81944000"},
{"state":"Zeeland","name":"Yerseke","lat":"51.49250000","lon":"4.05000000"},
{"state":"Zeeland","name":"Zaamslag","lat":"51.31250000","lon":"3.91250000"},
{"state":"Zeeland","name":"Zierikzee","lat":"51.65000000","lon":"3.91944000"},
{"state":"Zeeland","name":"Zoutelande","lat":"51.50167000","lon":"3.48472000"}]