[{"state":"Agder","name":"Åseral","lat":"58.61730000","lon":"7.41118000"},
{"state":"Agder","name":"Audnedal","lat":"58.28378000","lon":"7.35487000"},
{"state":"Agder","name":"Farsund","lat":"58.09538000","lon":"6.80403000"},
{"state":"Agder","name":"Flekkefjord","lat":"58.29791000","lon":"6.66345000"},
{"state":"Agder","name":"Hægebostad","lat":"58.37572000","lon":"7.21973000"},
{"state":"Agder","name":"Justvik","lat":"58.19691000","lon":"8.03107000"},
{"state":"Agder","name":"Kristiansand","lat":"58.14642000","lon":"7.99687000"},
{"state":"Agder","name":"Kvinesdal","lat":"58.23894000","lon":"6.71445000"},
{"state":"Agder","name":"Liknes","lat":"58.31216000","lon":"6.96180000"},
{"state":"Agder","name":"Lindesnes","lat":"58.08435000","lon":"7.30162000"},
{"state":"Agder","name":"Lyngdal","lat":"58.13829000","lon":"7.06836000"},
{"state":"Agder","name":"Mandal","lat":"58.02633000","lon":"7.45014000"},
{"state":"Agder","name":"Marnardal","lat":"58.19802000","lon":"7.52802000"},
{"state":"Agder","name":"Nodeland","lat":"58.15517000","lon":"7.83576000"},
{"state":"Agder","name":"Sirdal","lat":"58.66510000","lon":"6.71585000"},
{"state":"Agder","name":"Skålevik","lat":"58.07955000","lon":"8.01602000"},
{"state":"Agder","name":"Songdalen","lat":"58.15273000","lon":"7.83677000"},
{"state":"Agder","name":"Søgne","lat":"58.09663000","lon":"7.81491000"},
{"state":"Agder","name":"Strai","lat":"58.18930000","lon":"7.92826000"},
{"state":"Agder","name":"Tonstad","lat":"58.66263000","lon":"6.71694000"},
{"state":"Agder","name":"Tveit","lat":"58.23366000","lon":"8.12199000"},
{"state":"Agder","name":"Vanse","lat":"58.09812000","lon":"6.69184000"},
{"state":"Agder","name":"Vennesla","lat":"58.34271000","lon":"7.97596000"},
{"state":"Agder","name":"Vestbygd","lat":"58.09991000","lon":"6.58696000"},
{"state":"Agder","name":"Vigeland","lat":"58.08437000","lon":"7.30497000"},
{"state":"Innlandet","name":"Alvdal","lat":"62.10854000","lon":"10.63483000"},
{"state":"Innlandet","name":"Åmot","lat":"61.13199000","lon":"11.37328000"},
{"state":"Innlandet","name":"Åsnes","lat":"60.61363000","lon":"12.01200000"},
{"state":"Innlandet","name":"Bagn","lat":"60.82249000","lon":"9.55207000"},
{"state":"Innlandet","name":"Brumunddal","lat":"60.88095000","lon":"10.93948000"},
{"state":"Innlandet","name":"Dokka","lat":"60.83500000","lon":"10.07362000"},
{"state":"Innlandet","name":"Dombås","lat":"62.07554000","lon":"9.12785000"},
{"state":"Innlandet","name":"Dovre","lat":"61.98582000","lon":"9.24947000"},
{"state":"Innlandet","name":"Eidskog","lat":"59.98556000","lon":"12.12502000"},
{"state":"Innlandet","name":"Elverum","lat":"60.88159000","lon":"11.56314000"},
{"state":"Innlandet","name":"Engerdal","lat":"61.75774000","lon":"11.95966000"},
{"state":"Innlandet","name":"Etnedal","lat":"60.88872000","lon":"9.64031000"},
{"state":"Innlandet","name":"Fagernes","lat":"60.98584000","lon":"9.23236000"},
{"state":"Innlandet","name":"Folldal","lat":"62.13329000","lon":"9.99710000"},
{"state":"Innlandet","name":"Fossbergom","lat":"61.83772000","lon":"8.56842000"},
{"state":"Innlandet","name":"Gausdal","lat":"61.22685000","lon":"10.22145000"},
{"state":"Innlandet","name":"Gjøvik","lat":"60.79472000","lon":"10.69287000"},
{"state":"Innlandet","name":"Gran","lat":"60.39293000","lon":"10.56045000"},
{"state":"Innlandet","name":"Grua","lat":"60.25701000","lon":"10.66222000"},
{"state":"Innlandet","name":"Grue","lat":"60.45133000","lon":"12.05489000"},
{"state":"Innlandet","name":"Hamar","lat":"60.79450000","lon":"11.06798000"},
{"state":"Innlandet","name":"Hov","lat":"60.69870000","lon":"10.35193000"},
{"state":"Innlandet","name":"Hundorp","lat":"61.55523000","lon":"9.94069000"},
{"state":"Innlandet","name":"Innbygda","lat":"61.31484000","lon":"12.26374000"},
{"state":"Innlandet","name":"Jevnaker","lat":"60.24060000","lon":"10.38587000"},
{"state":"Innlandet","name":"Kirkenær","lat":"60.45790000","lon":"12.05855000"},
{"state":"Innlandet","name":"Kongsvinger","lat":"60.19117000","lon":"11.99916000"},
{"state":"Innlandet","name":"Koppang","lat":"61.57219000","lon":"11.04659000"},
{"state":"Innlandet","name":"Lena","lat":"60.67391000","lon":"10.81317000"},
{"state":"Innlandet","name":"Lesja","lat":"62.11785000","lon":"8.86262000"},
{"state":"Innlandet","name":"Lillehammer","lat":"61.11464000","lon":"10.46743000"},
{"state":"Innlandet","name":"Lom","lat":"61.83639000","lon":"8.56811000"},
{"state":"Innlandet","name":"Løten","lat":"60.81771000","lon":"11.34373000"},
{"state":"Innlandet","name":"Lunner","lat":"60.29462000","lon":"10.60860000"},
{"state":"Innlandet","name":"Moelv","lat":"60.93333000","lon":"10.70000000"},
{"state":"Innlandet","name":"Nord-Aurdal","lat":"60.98531000","lon":"9.23661000"},
{"state":"Innlandet","name":"Nord-Fron","lat":"61.59556000","lon":"9.74830000"},
{"state":"Innlandet","name":"Nord-Odal","lat":"60.39195000","lon":"11.54151000"},
{"state":"Innlandet","name":"Nordre Land","lat":"60.83471000","lon":"10.07543000"},
{"state":"Innlandet","name":"Os","lat":"62.49536000","lon":"11.22807000"},
{"state":"Innlandet","name":"Otta","lat":"61.77120000","lon":"9.53529000"},
{"state":"Innlandet","name":"Østre Toten","lat":"60.67659000","lon":"10.81997000"},
{"state":"Innlandet","name":"Øyer","lat":"61.26495000","lon":"10.41297000"},
{"state":"Innlandet","name":"Øystre Slidre","lat":"61.13377000","lon":"9.07872000"},
{"state":"Innlandet","name":"Raufoss","lat":"60.72604000","lon":"10.61330000"},
{"state":"Innlandet","name":"Reinsvoll","lat":"60.67977000","lon":"10.62175000"},
{"state":"Innlandet","name":"Rena","lat":"61.13222000","lon":"11.37156000"},
{"state":"Innlandet","name":"Rendalen","lat":"61.89004000","lon":"11.07694000"},
{"state":"Innlandet","name":"Ringebu","lat":"61.52980000","lon":"10.14180000"},
{"state":"Innlandet","name":"Ringsaker","lat":"60.88216000","lon":"10.95030000"},
{"state":"Innlandet","name":"Sand","lat":"60.39220000","lon":"11.54030000"},
{"state":"Innlandet","name":"Sel","lat":"61.77278000","lon":"9.53415000"},
{"state":"Innlandet","name":"Skarnes","lat":"60.25391000","lon":"11.68485000"},
{"state":"Innlandet","name":"Skjåk","lat":"61.88349000","lon":"8.26490000"},
{"state":"Innlandet","name":"Skotterud","lat":"59.98281000","lon":"12.12825000"},
{"state":"Innlandet","name":"Skreia","lat":"60.65257000","lon":"10.93564000"},
{"state":"Innlandet","name":"Søndre Land","lat":"60.69944000","lon":"10.35086000"},
{"state":"Innlandet","name":"Sør-Aurdal","lat":"60.82242000","lon":"9.54836000"},
{"state":"Innlandet","name":"Sør-Fron","lat":"61.55652000","lon":"9.93949000"},
{"state":"Innlandet","name":"Sør-Odal","lat":"60.25455000","lon":"11.68246000"},
{"state":"Innlandet","name":"Spetalen","lat":"60.18333000","lon":"11.90000000"},
{"state":"Innlandet","name":"Stange","lat":"60.71576000","lon":"11.19069000"},
{"state":"Innlandet","name":"Stor-Elvdal","lat":"61.57198000","lon":"11.04759000"},
{"state":"Innlandet","name":"Tolga","lat":"62.40984000","lon":"10.99770000"},
{"state":"Innlandet","name":"Tretten","lat":"61.31423000","lon":"10.30066000"},
{"state":"Innlandet","name":"Trysil","lat":"61.31549000","lon":"12.26422000"},
{"state":"Innlandet","name":"Tynset","lat":"62.27387000","lon":"10.77626000"},
{"state":"Innlandet","name":"Vågå","lat":"61.87565000","lon":"9.09572000"},
{"state":"Innlandet","name":"Vågåmo","lat":"61.87505000","lon":"9.09671000"},
{"state":"Innlandet","name":"Våler","lat":"60.67845000","lon":"11.83314000"},
{"state":"Innlandet","name":"Vang","lat":"61.12564000","lon":"8.57167000"},
{"state":"Innlandet","name":"Vestre Slidre","lat":"61.08842000","lon":"8.98196000"},
{"state":"Innlandet","name":"Vestre Toten","lat":"60.72593000","lon":"10.60764000"},
{"state":"Innlandet","name":"Vinstra","lat":"61.59496000","lon":"9.75134000"},
{"state":"Møre og Romsdal","name":"Ålesund","lat":"62.47225000","lon":"6.15492000"},
{"state":"Møre og Romsdal","name":"Åndalsnes","lat":"62.56749000","lon":"7.68709000"},
{"state":"Møre og Romsdal","name":"Aukra","lat":"62.80500000","lon":"6.88722000"},
{"state":"Møre og Romsdal","name":"Aure","lat":"63.26750000","lon":"8.52778000"},
{"state":"Møre og Romsdal","name":"Averøy","lat":"63.05344000","lon":"7.63265000"},
{"state":"Møre og Romsdal","name":"Batnfjordsøra","lat":"62.89463000","lon":"7.67251000"},
{"state":"Møre og Romsdal","name":"Brattvåg","lat":"62.59991000","lon":"6.44426000"},
{"state":"Møre og Romsdal","name":"Eide","lat":"62.91570000","lon":"7.44496000"},
{"state":"Møre og Romsdal","name":"Eidsvåg","lat":"62.77656000","lon":"8.06550000"},
{"state":"Møre og Romsdal","name":"Elnesvågen","lat":"62.85426000","lon":"7.13769000"},
{"state":"Møre og Romsdal","name":"Fræna","lat":"62.85375000","lon":"7.15380000"},
{"state":"Møre og Romsdal","name":"Giske","lat":"62.50070000","lon":"6.13472000"},
{"state":"Møre og Romsdal","name":"Gjemnes","lat":"62.89379000","lon":"7.67714000"},
{"state":"Møre og Romsdal","name":"Halsa","lat":"63.11855000","lon":"8.31536000"},
{"state":"Møre og Romsdal","name":"Haram","lat":"62.59898000","lon":"6.44483000"},
{"state":"Møre og Romsdal","name":"Hareid","lat":"62.36742000","lon":"6.02114000"},
{"state":"Møre og Romsdal","name":"Herøy","lat":"62.33333000","lon":"5.63598000"},
{"state":"Møre og Romsdal","name":"Hjelset","lat":"62.78050000","lon":"7.49277000"},
{"state":"Møre og Romsdal","name":"Hopen","lat":"63.46539000","lon":"8.01437000"},
{"state":"Møre og Romsdal","name":"Kristiansund","lat":"63.11152000","lon":"7.73198000"},
{"state":"Møre og Romsdal","name":"Larsnes","lat":"62.20282000","lon":"5.57729000"},
{"state":"Møre og Romsdal","name":"Midsund","lat":"62.67614000","lon":"6.67776000"},
{"state":"Møre og Romsdal","name":"Molde","lat":"62.73807000","lon":"7.15882000"},
{"state":"Møre og Romsdal","name":"Nesset","lat":"62.77619000","lon":"8.06623000"},
{"state":"Møre og Romsdal","name":"Norddal","lat":"62.29910000","lon":"7.26145000"},
{"state":"Møre og Romsdal","name":"Nordstranda","lat":"62.51384000","lon":"6.13166000"},
{"state":"Møre og Romsdal","name":"Ørskog","lat":"62.48450000","lon":"6.82025000"},
{"state":"Møre og Romsdal","name":"Ørsta","lat":"62.19937000","lon":"6.13084000"},
{"state":"Møre og Romsdal","name":"Rauma","lat":"62.56810000","lon":"7.68612000"},
{"state":"Møre og Romsdal","name":"Rensvik","lat":"63.09843000","lon":"7.82026000"},
{"state":"Møre og Romsdal","name":"Sande","lat":"62.20455000","lon":"5.57971000"},
{"state":"Møre og Romsdal","name":"Sandøy","lat":"62.78167000","lon":"6.46875000"},
{"state":"Møre og Romsdal","name":"Sjøholt","lat":"62.48263000","lon":"6.81376000"},
{"state":"Møre og Romsdal","name":"Skodje","lat":"62.50306000","lon":"6.69817000"},
{"state":"Møre og Romsdal","name":"Smøla","lat":"63.46526000","lon":"8.01814000"},
{"state":"Møre og Romsdal","name":"Steinshamn","lat":"62.78389000","lon":"6.47065000"},
{"state":"Møre og Romsdal","name":"Stordal","lat":"62.38214000","lon":"6.98708000"},
{"state":"Møre og Romsdal","name":"Stranda","lat":"62.31132000","lon":"6.93115000"},
{"state":"Møre og Romsdal","name":"Sula","lat":"62.44447000","lon":"6.21229000"},
{"state":"Møre og Romsdal","name":"Sunndal","lat":"62.67464000","lon":"8.56188000"},
{"state":"Møre og Romsdal","name":"Sunndalsøra","lat":"62.67519000","lon":"8.56327000"},
{"state":"Møre og Romsdal","name":"Surnadal","lat":"62.97533000","lon":"8.72490000"},
{"state":"Møre og Romsdal","name":"Sykkylven","lat":"62.38962000","lon":"6.57825000"},
{"state":"Møre og Romsdal","name":"Tingvoll","lat":"62.91194000","lon":"8.20673000"},
{"state":"Møre og Romsdal","name":"Tomra","lat":"62.58118000","lon":"6.93106000"},
{"state":"Møre og Romsdal","name":"Ulstein","lat":"62.34423000","lon":"5.85241000"},
{"state":"Møre og Romsdal","name":"Ulsteinvik","lat":"62.34317000","lon":"5.84869000"},
{"state":"Møre og Romsdal","name":"Ulsteinvik weather pws station","lat":"62.34338000","lon":"5.84385000"},
{"state":"Møre og Romsdal","name":"Vanylven","lat":"62.10003000","lon":"5.55827000"},
{"state":"Møre og Romsdal","name":"Vatne","lat":"62.55826000","lon":"6.61708000"},
{"state":"Møre og Romsdal","name":"Vestnes","lat":"62.62130000","lon":"7.08966000"},
{"state":"Møre og Romsdal","name":"Volda","lat":"62.14678000","lon":"6.06800000"},
{"state":"Nordland","name":"Alstahaug","lat":"65.97556000","lon":"12.56836000"},
{"state":"Nordland","name":"Andenes","lat":"69.31428000","lon":"16.11939000"},
{"state":"Nordland","name":"Andøy","lat":"69.08033000","lon":"15.77637000"},
{"state":"Nordland","name":"Ballangen","lat":"68.34365000","lon":"16.83317000"},
{"state":"Nordland","name":"Beiarn","lat":"67.00725000","lon":"14.57304000"},
{"state":"Nordland","name":"Bindal","lat":"65.08780000","lon":"12.37747000"},
{"state":"Nordland","name":"Bjerkvik","lat":"68.54917000","lon":"17.55709000"},
{"state":"Nordland","name":"Bodø","lat":"67.28325000","lon":"14.38319000"},
{"state":"Nordland","name":"Bogen","lat":"68.52647000","lon":"16.99280000"},
{"state":"Nordland","name":"Bø","lat":"68.68823000","lon":"14.47899000"},
{"state":"Nordland","name":"Brønnøy","lat":"65.46786000","lon":"12.20626000"},
{"state":"Nordland","name":"Brønnøysund","lat":"65.47487000","lon":"12.21285000"},
{"state":"Nordland","name":"Dønna","lat":"66.10606000","lon":"12.48189000"},
{"state":"Nordland","name":"Evenes","lat":"68.52334000","lon":"17.00888000"},
{"state":"Nordland","name":"Evjen","lat":"68.26667000","lon":"13.73333000"},
{"state":"Nordland","name":"Fauske","lat":"67.25963000","lon":"15.39410000"},
{"state":"Nordland","name":"Flakstad","lat":"68.09292000","lon":"13.23310000"},
{"state":"Nordland","name":"Gildeskål","lat":"67.03394000","lon":"14.02582000"},
{"state":"Nordland","name":"Gladstad","lat":"65.67683000","lon":"11.96218000"},
{"state":"Nordland","name":"Glomfjord","lat":"66.81663000","lon":"13.94404000"},
{"state":"Nordland","name":"Grane","lat":"65.53865000","lon":"13.38499000"},
{"state":"Nordland","name":"Gravdal","lat":"68.11832000","lon":"13.55339000"},
{"state":"Nordland","name":"Hadsel","lat":"68.56328000","lon":"14.90835000"},
{"state":"Nordland","name":"Hamarøy","lat":"68.08381000","lon":"15.61671000"},
{"state":"Nordland","name":"Hattfjelldal","lat":"65.59765000","lon":"13.98948000"},
{"state":"Nordland","name":"Hauknes","lat":"66.28333000","lon":"14.06667000"},
{"state":"Nordland","name":"Hemnes","lat":"66.07712000","lon":"13.81350000"},
{"state":"Nordland","name":"Hemnesberget","lat":"66.22489000","lon":"13.61643000"},
{"state":"Nordland","name":"Herøy","lat":"65.98427000","lon":"12.28916000"},
{"state":"Nordland","name":"Inndyr","lat":"67.03353000","lon":"14.02663000"},
{"state":"Nordland","name":"Kabelvåg","lat":"68.21066000","lon":"14.47554000"},
{"state":"Nordland","name":"Kjøpsvik","lat":"68.09696000","lon":"16.37416000"},
{"state":"Nordland","name":"Korgen","lat":"66.07662000","lon":"13.82160000"},
{"state":"Nordland","name":"Leirfjord","lat":"66.06348000","lon":"12.93667000"},
{"state":"Nordland","name":"Leknes","lat":"68.14746000","lon":"13.61151000"},
{"state":"Nordland","name":"Leland","lat":"66.06406000","lon":"12.94325000"},
{"state":"Nordland","name":"Løding","lat":"67.30055000","lon":"14.73852000"},
{"state":"Nordland","name":"Lødingen","lat":"68.40998000","lon":"15.99012000"},
{"state":"Nordland","name":"Løpsmarka","lat":"67.31343000","lon":"14.44934000"},
{"state":"Nordland","name":"Lurøy","lat":"66.41887000","lon":"12.84248000"},
{"state":"Nordland","name":"Melbu","lat":"68.50246000","lon":"14.79962000"},
{"state":"Nordland","name":"Meløy","lat":"66.87204000","lon":"13.70763000"},
{"state":"Nordland","name":"Mo i Rana","lat":"66.31278000","lon":"14.14278000"},
{"state":"Nordland","name":"Mosjøen","lat":"65.83599000","lon":"13.19076000"},
{"state":"Nordland","name":"Moskenes","lat":"67.93467000","lon":"13.09109000"},
{"state":"Nordland","name":"Myre","lat":"68.91400000","lon":"15.07843000"},
{"state":"Nordland","name":"Narvik","lat":"68.43896000","lon":"17.42775000"},
{"state":"Nordland","name":"Nesna","lat":"66.19796000","lon":"13.02229000"},
{"state":"Nordland","name":"Øksnes","lat":"68.91463000","lon":"15.08703000"},
{"state":"Nordland","name":"Ørnes","lat":"66.86878000","lon":"13.70579000"},
{"state":"Nordland","name":"Rana","lat":"66.31122000","lon":"14.13996000"},
{"state":"Nordland","name":"Reine","lat":"67.93249000","lon":"13.08955000"},
{"state":"Nordland","name":"Rognan","lat":"67.10021000","lon":"15.39086000"},
{"state":"Nordland","name":"Rødøy","lat":"66.71195000","lon":"13.28530000"},
{"state":"Nordland","name":"Røst","lat":"67.51727000","lon":"12.11564000"},
{"state":"Nordland","name":"Saltdal","lat":"67.10144000","lon":"15.39458000"},
{"state":"Nordland","name":"Sandnessjøen","lat":"66.02166000","lon":"12.63158000"},
{"state":"Nordland","name":"Sortland","lat":"68.69618000","lon":"15.41174000"},
{"state":"Nordland","name":"Sømna","lat":"65.31379000","lon":"12.16729000"},
{"state":"Nordland","name":"Sørfold","lat":"67.34803000","lon":"15.59445000"},
{"state":"Nordland","name":"Sørland","lat":"67.66564000","lon":"12.69784000"},
{"state":"Nordland","name":"Steigen","lat":"67.77625000","lon":"15.01621000"},
{"state":"Nordland","name":"Stokmarknes","lat":"68.56462000","lon":"14.91075000"},
{"state":"Nordland","name":"Straume","lat":"68.68880000","lon":"14.47205000"},
{"state":"Nordland","name":"Straumen","lat":"67.34769000","lon":"15.60493000"},
{"state":"Nordland","name":"Svolvær","lat":"68.23417000","lon":"14.56834000"},
{"state":"Nordland","name":"Terråk","lat":"65.08700000","lon":"12.37148000"},
{"state":"Nordland","name":"Tjeldsund","lat":"68.55557000","lon":"16.36172000"},
{"state":"Nordland","name":"Træna","lat":"66.50159000","lon":"12.09645000"},
{"state":"Nordland","name":"Trofors","lat":"65.53335000","lon":"13.40631000"},
{"state":"Nordland","name":"Tysfjord","lat":"68.09772000","lon":"16.37591000"},
{"state":"Nordland","name":"Vågan","lat":"68.23220000","lon":"14.56226000"},
{"state":"Nordland","name":"Værøy","lat":"67.66374000","lon":"12.69337000"},
{"state":"Nordland","name":"Vefsn","lat":"65.84109000","lon":"13.20024000"},
{"state":"Nordland","name":"Vega","lat":"65.67539000","lon":"11.96456000"},
{"state":"Nordland","name":"Vestvågøy","lat":"68.14830000","lon":"13.61119000"},
{"state":"Nordland","name":"Vevelstad","lat":"65.70002000","lon":"12.43921000"},
{"state":"Nordland","name":"Vik","lat":"65.31254000","lon":"12.16734000"},
{"state":"Oslo","name":"Oslo","lat":"59.91273000","lon":"10.74609000"},
{"state":"Oslo","name":"Sjølyststranda","lat":"59.92105000","lon":"10.68017000"},
{"state":"Rogaland","name":"Åkrehamn","lat":"59.26053000","lon":"5.18689000"},
{"state":"Rogaland","name":"Bjerkreim","lat":"58.63050000","lon":"6.08130000"},
{"state":"Rogaland","name":"Bokn","lat":"59.23062000","lon":"5.43524000"},
{"state":"Rogaland","name":"Bryne","lat":"58.73536000","lon":"5.64766000"},
{"state":"Rogaland","name":"Egersund","lat":"58.45133000","lon":"5.99970000"},
{"state":"Rogaland","name":"Eigersund","lat":"58.45236000","lon":"6.00314000"},
{"state":"Rogaland","name":"Eike","lat":"59.39833000","lon":"5.36389000"},
{"state":"Rogaland","name":"Finnøy","lat":"59.17117000","lon":"5.87398000"},
{"state":"Rogaland","name":"Forsand","lat":"58.89929000","lon":"6.09642000"},
{"state":"Rogaland","name":"Gjesdal","lat":"58.76478000","lon":"5.85500000"},
{"state":"Rogaland","name":"Hå","lat":"58.61610000","lon":"5.64497000"},
{"state":"Rogaland","name":"Hauge i Dalane","lat":"58.34361000","lon":"6.28121000"},
{"state":"Rogaland","name":"Haugesund","lat":"59.41015000","lon":"5.27551000"},
{"state":"Rogaland","name":"Hjelmeland","lat":"59.23668000","lon":"6.17912000"},
{"state":"Rogaland","name":"Hommersåk","lat":"58.92556000","lon":"5.85104000"},
{"state":"Rogaland","name":"Jørpeland","lat":"59.02251000","lon":"6.04078000"},
{"state":"Rogaland","name":"Judaberg","lat":"59.17204000","lon":"5.87617000"},
{"state":"Rogaland","name":"Karmøy","lat":"59.28079000","lon":"5.30529000"},
{"state":"Rogaland","name":"Klepp","lat":"58.77655000","lon":"5.63009000"},
{"state":"Rogaland","name":"Kopervik","lat":"59.28354000","lon":"5.30669000"},
{"state":"Rogaland","name":"Kvitsøy","lat":"59.06471000","lon":"5.40537000"},
{"state":"Rogaland","name":"Lund","lat":"58.45715000","lon":"6.54871000"},
{"state":"Rogaland","name":"Lyefjell","lat":"58.73539000","lon":"5.73615000"},
{"state":"Rogaland","name":"Moi","lat":"58.45674000","lon":"6.55184000"},
{"state":"Rogaland","name":"Nærbø","lat":"58.66546000","lon":"5.63788000"},
{"state":"Rogaland","name":"Ølen","lat":"59.60437000","lon":"5.80799000"},
{"state":"Rogaland","name":"Randaberg","lat":"58.99870000","lon":"5.62055000"},
{"state":"Rogaland","name":"Rennesøy","lat":"59.09899000","lon":"5.69966000"},
{"state":"Rogaland","name":"Sandnes","lat":"58.84760000","lon":"5.72855000"},
{"state":"Rogaland","name":"Sauda","lat":"59.65067000","lon":"6.35312000"},
{"state":"Rogaland","name":"Sæveland","lat":"59.26667000","lon":"5.20000000"},
{"state":"Rogaland","name":"Skudeneshavn","lat":"59.14856000","lon":"5.25687000"},
{"state":"Rogaland","name":"Sokndal","lat":"58.34256000","lon":"6.29425000"},
{"state":"Rogaland","name":"Sola","lat":"58.88806000","lon":"5.64728000"},
{"state":"Rogaland","name":"Stavanger","lat":"58.96941000","lon":"5.72856000"},
{"state":"Rogaland","name":"Strand","lat":"59.02353000","lon":"6.04343000"},
{"state":"Rogaland","name":"Suldal","lat":"59.48571000","lon":"6.25222000"},
{"state":"Rogaland","name":"Tananger","lat":"58.93618000","lon":"5.57410000"},
{"state":"Rogaland","name":"Tau","lat":"59.06481000","lon":"5.92250000"},
{"state":"Rogaland","name":"Time","lat":"58.73636000","lon":"5.65297000"},
{"state":"Rogaland","name":"Tysvær","lat":"59.42159000","lon":"5.44781000"},
{"state":"Rogaland","name":"Utsira","lat":"59.30565000","lon":"4.88621000"},
{"state":"Rogaland","name":"Varhaug","lat":"58.61810000","lon":"5.65702000"},
{"state":"Rogaland","name":"Vedavågen","lat":"59.29483000","lon":"5.21874000"},
{"state":"Rogaland","name":"Vigrestad","lat":"58.57103000","lon":"5.68182000"},
{"state":"Rogaland","name":"Vikeså","lat":"58.63759000","lon":"6.09133000"},
{"state":"Rogaland","name":"Vikevåg","lat":"59.09754000","lon":"5.69790000"},
{"state":"Rogaland","name":"Vindafjord","lat":"59.60543000","lon":"5.80784000"},
{"state":"Rogaland","name":"Vormedal","lat":"59.35607000","lon":"5.31962000"},
{"state":"Troms og Finnmark","name":"Alta","lat":"69.97675000","lon":"23.29634000"},
{"state":"Troms og Finnmark","name":"Ávanuorri","lat":"70.99634000","lon":"24.66217000"},
{"state":"Troms og Finnmark","name":"Balsfjord","lat":"69.24024000","lon":"19.22653000"},
{"state":"Troms og Finnmark","name":"Bardu","lat":"68.86058000","lon":"18.35052000"},
{"state":"Troms og Finnmark","name":"Båtsfjord","lat":"70.63428000","lon":"29.71750000"},
{"state":"Troms og Finnmark","name":"Berg","lat":"69.44444000","lon":"17.29950000"},
{"state":"Troms og Finnmark","name":"Berlevåg","lat":"70.85778000","lon":"29.08636000"},
{"state":"Troms og Finnmark","name":"Bjørnevatn","lat":"69.66745000","lon":"29.98722000"},
{"state":"Troms og Finnmark","name":"Borkenes","lat":"68.77261000","lon":"16.17115000"},
{"state":"Troms og Finnmark","name":"Dyrøy","lat":"69.09154000","lon":"17.69094000"},
{"state":"Troms og Finnmark","name":"Evenskjer","lat":"68.58283000","lon":"16.57203000"},
{"state":"Troms og Finnmark","name":"Finnsnes","lat":"69.22959000","lon":"17.98114000"},
{"state":"Troms og Finnmark","name":"Gamvik","lat":"71.04107000","lon":"27.85144000"},
{"state":"Troms og Finnmark","name":"Gratangen","lat":"68.69273000","lon":"17.53186000"},
{"state":"Troms og Finnmark","name":"Gryllefjord","lat":"69.36304000","lon":"17.05284000"},
{"state":"Troms og Finnmark","name":"Hammerfest","lat":"70.66257000","lon":"23.68295000"},
{"state":"Troms og Finnmark","name":"Hansnes","lat":"69.96701000","lon":"19.62752000"},
{"state":"Troms og Finnmark","name":"Harstad","lat":"68.79896000","lon":"16.52930000"},
{"state":"Troms og Finnmark","name":"Hasvik","lat":"70.59164000","lon":"22.30272000"},
{"state":"Troms og Finnmark","name":"Honningsvåg","lat":"70.98209000","lon":"25.97037000"},
{"state":"Troms og Finnmark","name":"Ibestad","lat":"68.77866000","lon":"17.17661000"},
{"state":"Troms og Finnmark","name":"Kåfjord","lat":"69.60400000","lon":"20.53456000"},
{"state":"Troms og Finnmark","name":"Kárášjohka","lat":"69.47187000","lon":"25.51122000"},
{"state":"Troms og Finnmark","name":"Karasjok","lat":"69.47224000","lon":"25.51885000"},
{"state":"Troms og Finnmark","name":"Karlsøy","lat":"69.96185000","lon":"19.61811000"},
{"state":"Troms og Finnmark","name":"Kautokeino","lat":"69.01151000","lon":"23.04151000"},
{"state":"Troms og Finnmark","name":"Kirkenes","lat":"69.72706000","lon":"30.04578000"},
{"state":"Troms og Finnmark","name":"Kjøllefjord","lat":"70.94574000","lon":"27.34650000"},
{"state":"Troms og Finnmark","name":"Kvalsund","lat":"70.49910000","lon":"23.97393000"},
{"state":"Troms og Finnmark","name":"Kvæfjord","lat":"68.77201000","lon":"16.17294000"},
{"state":"Troms og Finnmark","name":"Kvænangen","lat":"69.93890000","lon":"22.04935000"},
{"state":"Troms og Finnmark","name":"Lakselv","lat":"70.05133000","lon":"24.97182000"},
{"state":"Troms og Finnmark","name":"Lavangen","lat":"68.74722000","lon":"17.80558000"},
{"state":"Troms og Finnmark","name":"Lebesby","lat":"70.94535000","lon":"27.35134000"},
{"state":"Troms og Finnmark","name":"Lenvik","lat":"69.23111000","lon":"17.98739000"},
{"state":"Troms og Finnmark","name":"Loppa","lat":"70.23952000","lon":"22.35136000"},
{"state":"Troms og Finnmark","name":"Lyngen","lat":"69.57621000","lon":"20.21702000"},
{"state":"Troms og Finnmark","name":"Lyngseidet","lat":"69.57629000","lon":"20.21887000"},
{"state":"Troms og Finnmark","name":"Målselv","lat":"69.12389000","lon":"18.61498000"},
{"state":"Troms og Finnmark","name":"Måsøy","lat":"70.99654000","lon":"24.66146000"},
{"state":"Troms og Finnmark","name":"Mehamn","lat":"71.04137000","lon":"27.85133000"},
{"state":"Troms og Finnmark","name":"Moen","lat":"69.13043000","lon":"18.61226000"},
{"state":"Troms og Finnmark","name":"Nesseby","lat":"69.88541000","lon":"28.43368000"},
{"state":"Troms og Finnmark","name":"Nordkapp","lat":"70.97808000","lon":"25.97473000"},
{"state":"Troms og Finnmark","name":"Nordreisa","lat":"69.76825000","lon":"21.02569000"},
{"state":"Troms og Finnmark","name":"Olderdalen","lat":"69.60407000","lon":"20.53272000"},
{"state":"Troms og Finnmark","name":"Øksfjord","lat":"70.23936000","lon":"22.35070000"},
{"state":"Troms og Finnmark","name":"Porsanger","lat":"70.05214000","lon":"24.95592000"},
{"state":"Troms og Finnmark","name":"Rypefjord","lat":"70.64126000","lon":"23.67213000"},
{"state":"Troms og Finnmark","name":"Salangen","lat":"68.87669000","lon":"17.83375000"},
{"state":"Troms og Finnmark","name":"Setermoen","lat":"68.86099000","lon":"18.34857000"},
{"state":"Troms og Finnmark","name":"Sjøvegan","lat":"68.87363000","lon":"17.84706000"},
{"state":"Troms og Finnmark","name":"Skånland","lat":"68.58378000","lon":"16.57305000"},
{"state":"Troms og Finnmark","name":"Skjervøy","lat":"70.03379000","lon":"20.97365000"},
{"state":"Troms og Finnmark","name":"Sør-Varanger","lat":"69.72859000","lon":"30.04264000"},
{"state":"Troms og Finnmark","name":"Sørreisa","lat":"69.14697000","lon":"18.15629000"},
{"state":"Troms og Finnmark","name":"Storfjord","lat":"69.26860000","lon":"19.96089000"},
{"state":"Troms og Finnmark","name":"Storslett","lat":"69.76783000","lon":"21.02466000"},
{"state":"Troms og Finnmark","name":"Storsteinnes","lat":"69.24081000","lon":"19.23437000"},
{"state":"Troms og Finnmark","name":"Tana","lat":"70.19976000","lon":"28.18494000"},
{"state":"Troms og Finnmark","name":"Torsken","lat":"69.36184000","lon":"17.05384000"},
{"state":"Troms og Finnmark","name":"Tranøy","lat":"69.17022000","lon":"17.73480000"},
{"state":"Troms og Finnmark","name":"Tromsø","lat":"69.64961000","lon":"18.95702000"},
{"state":"Troms og Finnmark","name":"Vadsø","lat":"70.07412000","lon":"29.74922000"},
{"state":"Troms og Finnmark","name":"Vardø","lat":"70.37040000","lon":"31.10866000"},
{"state":"Trøndelag","name":"Å i Åfjord","lat":"63.96068000","lon":"10.22468000"},
{"state":"Trøndelag","name":"Åfjord","lat":"63.96196000","lon":"10.22587000"},
{"state":"Trøndelag","name":"Agdenes","lat":"63.50575000","lon":"9.82623000"},
{"state":"Trøndelag","name":"Berkåk","lat":"62.82496000","lon":"10.01177000"},
{"state":"Trøndelag","name":"Bjugn","lat":"63.76522000","lon":"9.80940000"},
{"state":"Trøndelag","name":"Botngård","lat":"63.76484000","lon":"9.80863000"},
{"state":"Trøndelag","name":"Brekstad","lat":"63.68697000","lon":"9.66541000"},
{"state":"Trøndelag","name":"Fillan","lat":"63.60638000","lon":"8.96961000"},
{"state":"Trøndelag","name":"Flatanger","lat":"64.41282000","lon":"11.03285000"},
{"state":"Trøndelag","name":"Fosnes","lat":"64.65910000","lon":"11.26535000"},
{"state":"Trøndelag","name":"Frosta","lat":"63.58910000","lon":"10.74230000"},
{"state":"Trøndelag","name":"Frøya","lat":"63.73005000","lon":"8.82426000"},
{"state":"Trøndelag","name":"Grong","lat":"64.46397000","lon":"12.31114000"},
{"state":"Trøndelag","name":"Hemne","lat":"63.29095000","lon":"9.08893000"},
{"state":"Trøndelag","name":"Hitra","lat":"63.54528000","lon":"8.78029000"},
{"state":"Trøndelag","name":"Holtålen","lat":"62.84318000","lon":"11.29284000"},
{"state":"Trøndelag","name":"Hommelvik","lat":"63.41083000","lon":"10.79424000"},
{"state":"Trøndelag","name":"Høylandet","lat":"64.62759000","lon":"12.30041000"},
{"state":"Trøndelag","name":"Inderøy","lat":"63.87826000","lon":"11.28424000"},
{"state":"Trøndelag","name":"Indre Fosen","lat":"63.58897000","lon":"9.95847000"},
{"state":"Trøndelag","name":"Klæbu","lat":"63.30060000","lon":"10.48188000"},
{"state":"Trøndelag","name":"Kolvereid","lat":"64.86549000","lon":"11.60465000"},
{"state":"Trøndelag","name":"Kyrksæterøra","lat":"63.29057000","lon":"9.08909000"},
{"state":"Trøndelag","name":"Lauvsnes","lat":"64.50061000","lon":"10.89396000"},
{"state":"Trøndelag","name":"Leka","lat":"65.09244000","lon":"11.70513000"},
{"state":"Trøndelag","name":"Levanger","lat":"63.74585000","lon":"11.29991000"},
{"state":"Trøndelag","name":"Lierne","lat":"64.46413000","lon":"13.59249000"},
{"state":"Trøndelag","name":"Lundamo","lat":"63.15216000","lon":"10.28555000"},
{"state":"Trøndelag","name":"Malm","lat":"64.07534000","lon":"11.22398000"},
{"state":"Trøndelag","name":"Malvik","lat":"63.41057000","lon":"10.79382000"},
{"state":"Trøndelag","name":"Meldal","lat":"63.04598000","lon":"9.71088000"},
{"state":"Trøndelag","name":"Melhus","lat":"63.28755000","lon":"10.27686000"},
{"state":"Trøndelag","name":"Meråker","lat":"63.41423000","lon":"11.74558000"},
{"state":"Trøndelag","name":"Midtre Gauldal","lat":"63.03902000","lon":"10.28701000"},
{"state":"Trøndelag","name":"Namdalseid","lat":"64.10843000","lon":"10.91862000"},
{"state":"Trøndelag","name":"Namsos","lat":"64.47842000","lon":"11.54182000"},
{"state":"Trøndelag","name":"Namsskogan","lat":"64.92597000","lon":"13.15932000"},
{"state":"Trøndelag","name":"Nærøy","lat":"64.86298000","lon":"11.60505000"},
{"state":"Trøndelag","name":"Oppdal","lat":"62.59495000","lon":"9.68761000"},
{"state":"Trøndelag","name":"Orkdal","lat":"63.29989000","lon":"9.84365000"},
{"state":"Trøndelag","name":"Osen","lat":"64.29875000","lon":"10.51284000"},
{"state":"Trøndelag","name":"Overhalla","lat":"64.49380000","lon":"11.94753000"},
{"state":"Trøndelag","name":"Ørland","lat":"63.68574000","lon":"9.66633000"},
{"state":"Trøndelag","name":"Raarvihke - Røyrvik","lat":"64.88380000","lon":"13.56310000"},
{"state":"Trøndelag","name":"Ranemsletta","lat":"64.49447000","lon":"11.94912000"},
{"state":"Trøndelag","name":"Rennebu","lat":"62.82864000","lon":"10.00487000"},
{"state":"Trøndelag","name":"Rindal","lat":"63.05511000","lon":"9.21274000"},
{"state":"Trøndelag","name":"Roan","lat":"64.17281000","lon":"10.22511000"},
{"state":"Trøndelag","name":"Røros","lat":"62.57562000","lon":"11.38730000"},
{"state":"Trøndelag","name":"Rørvik","lat":"64.86185000","lon":"11.23969000"},
{"state":"Trøndelag","name":"Røyrvik","lat":"64.88394000","lon":"13.56256000"},
{"state":"Trøndelag","name":"Selbu","lat":"63.21770000","lon":"11.03938000"},
{"state":"Trøndelag","name":"Sistranda","lat":"63.72523000","lon":"8.83318000"},
{"state":"Trøndelag","name":"Skaun","lat":"63.32386000","lon":"10.06745000"},
{"state":"Trøndelag","name":"Skogn","lat":"63.70374000","lon":"11.19262000"},
{"state":"Trøndelag","name":"Snåase","lat":"64.24570000","lon":"12.37779000"},
{"state":"Trøndelag","name":"Snåase - Snåsa","lat":"64.24606000","lon":"12.38294000"},
{"state":"Trøndelag","name":"Snillfjord","lat":"63.39973000","lon":"9.50194000"},
{"state":"Trøndelag","name":"Steinkjer","lat":"64.19303000","lon":"11.38505000"},
{"state":"Trøndelag","name":"Stjørdal","lat":"63.56699000","lon":"11.02730000"},
{"state":"Trøndelag","name":"Stjørdalshalsen","lat":"63.46810000","lon":"10.92618000"},
{"state":"Trøndelag","name":"Straumen","lat":"63.87163000","lon":"11.29617000"},
{"state":"Trøndelag","name":"Trondheim","lat":"63.42811000","lon":"10.39687000"},
{"state":"Trøndelag","name":"Tydal","lat":"63.04477000","lon":"11.65038000"},
{"state":"Trøndelag","name":"Verdal","lat":"63.90023000","lon":"11.72724000"},
{"state":"Trøndelag","name":"Verran","lat":"64.07100000","lon":"11.21795000"},
{"state":"Trøndelag","name":"Vikna","lat":"64.86362000","lon":"11.24198000"},
{"state":"Vestfold og Telemark","name":"Årøysund","lat":"59.18321000","lon":"10.45743000"},
{"state":"Vestfold og Telemark","name":"Åsgårdstrand","lat":"59.34938000","lon":"10.46948000"},
{"state":"Vestfold og Telemark","name":"Bamble","lat":"59.00146000","lon":"9.74573000"},
{"state":"Vestfold og Telemark","name":"Barkåker","lat":"59.31859000","lon":"10.38963000"},
{"state":"Vestfold og Telemark","name":"Berger","lat":"59.54994000","lon":"10.38641000"},
{"state":"Vestfold og Telemark","name":"Bø","lat":"59.41281000","lon":"9.06618000"},
{"state":"Vestfold og Telemark","name":"Dalen","lat":"59.44499000","lon":"8.00492000"},
{"state":"Vestfold og Telemark","name":"Drangedal","lat":"59.09655000","lon":"9.05960000"},
{"state":"Vestfold og Telemark","name":"Færder","lat":"59.22791000","lon":"10.41530000"},
{"state":"Vestfold og Telemark","name":"Fyresdal","lat":"59.18651000","lon":"8.08953000"},
{"state":"Vestfold og Telemark","name":"Gullhaug","lat":"59.50130000","lon":"10.25224000"},
{"state":"Vestfold og Telemark","name":"Gvarv","lat":"59.38767000","lon":"9.17240000"},
{"state":"Vestfold og Telemark","name":"Herre","lat":"59.10351000","lon":"9.56195000"},
{"state":"Vestfold og Telemark","name":"Hjartdal","lat":"59.61276000","lon":"8.94942000"},
{"state":"Vestfold og Telemark","name":"Holmestrand","lat":"59.48976000","lon":"10.31515000"},
{"state":"Vestfold og Telemark","name":"Horten","lat":"59.41547000","lon":"10.48527000"},
{"state":"Vestfold og Telemark","name":"Kragerø","lat":"58.86792000","lon":"9.41099000"},
{"state":"Vestfold og Telemark","name":"Kviteseid","lat":"59.40194000","lon":"8.49459000"},
{"state":"Vestfold og Telemark","name":"Larvik","lat":"59.05234000","lon":"10.02701000"},
{"state":"Vestfold og Telemark","name":"Lunde","lat":"59.29832000","lon":"9.10268000"},
{"state":"Vestfold og Telemark","name":"Melsomvik","lat":"59.22394000","lon":"10.33616000"},
{"state":"Vestfold og Telemark","name":"Nissedal","lat":"59.01958000","lon":"8.52127000"},
{"state":"Vestfold og Telemark","name":"Nome","lat":"59.28136000","lon":"9.25678000"},
{"state":"Vestfold og Telemark","name":"Notodden","lat":"59.55992000","lon":"9.26046000"},
{"state":"Vestfold og Telemark","name":"Porsgrunn","lat":"59.14190000","lon":"9.65680000"},
{"state":"Vestfold og Telemark","name":"Prestestranda","lat":"59.09773000","lon":"9.05866000"},
{"state":"Vestfold og Telemark","name":"Re","lat":"59.35056000","lon":"10.24763000"},
{"state":"Vestfold og Telemark","name":"Rjukan","lat":"59.87891000","lon":"8.59411000"},
{"state":"Vestfold og Telemark","name":"Sande","lat":"59.59362000","lon":"10.20757000"},
{"state":"Vestfold og Telemark","name":"Sandefjord","lat":"59.12881000","lon":"10.21971000"},
{"state":"Vestfold og Telemark","name":"Sauherad","lat":"59.39642000","lon":"9.24910000"},
{"state":"Vestfold og Telemark","name":"Seljord","lat":"59.48274000","lon":"8.62672000"},
{"state":"Vestfold og Telemark","name":"Selvik","lat":"59.56645000","lon":"10.26004000"},
{"state":"Vestfold og Telemark","name":"Sem","lat":"59.28230000","lon":"10.33004000"},
{"state":"Vestfold og Telemark","name":"Siljan","lat":"59.28251000","lon":"9.73368000"},
{"state":"Vestfold og Telemark","name":"Skien","lat":"59.20748000","lon":"9.61052000"},
{"state":"Vestfold og Telemark","name":"Skoppum","lat":"59.38613000","lon":"10.41077000"},
{"state":"Vestfold og Telemark","name":"Stavern","lat":"59.00000000","lon":"10.03333000"},
{"state":"Vestfold og Telemark","name":"Stokke","lat":"59.22255000","lon":"10.30055000"},
{"state":"Vestfold og Telemark","name":"Svelvik","lat":"59.60677000","lon":"10.40225000"},
{"state":"Vestfold og Telemark","name":"Tinn","lat":"59.83486000","lon":"9.13528000"},
{"state":"Vestfold og Telemark","name":"Tjøme","lat":"59.11090000","lon":"10.39330000"},
{"state":"Vestfold og Telemark","name":"Tokke","lat":"59.44569000","lon":"8.01388000"},
{"state":"Vestfold og Telemark","name":"Tønsberg","lat":"59.26754000","lon":"10.40762000"},
{"state":"Vestfold og Telemark","name":"Ulefoss","lat":"59.28245000","lon":"9.26548000"},
{"state":"Vestfold og Telemark","name":"Vinje","lat":"59.56924000","lon":"7.98896000"},
{"state":"Vestland","name":"Ågotnes","lat":"60.40306000","lon":"5.01927000"},
{"state":"Vestland","name":"Årdal","lat":"61.23639000","lon":"7.70204000"},
{"state":"Vestland","name":"Årdalstangen","lat":"61.23581000","lon":"7.70370000"},
{"state":"Vestland","name":"Askøy","lat":"60.40916000","lon":"5.22599000"},
{"state":"Vestland","name":"Askvoll","lat":"61.34850000","lon":"5.05318000"},
{"state":"Vestland","name":"Aurland","lat":"60.90556000","lon":"7.18734000"},
{"state":"Vestland","name":"Austevoll","lat":"60.09578000","lon":"5.22722000"},
{"state":"Vestland","name":"Austrheim","lat":"60.77742000","lon":"4.93227000"},
{"state":"Vestland","name":"Balestrand","lat":"61.20809000","lon":"6.53551000"},
{"state":"Vestland","name":"Bergen","lat":"60.39200000","lon":"5.32800000"},
{"state":"Vestland","name":"Bømlo","lat":"59.79384000","lon":"5.17624000"},
{"state":"Vestland","name":"Bremanger","lat":"61.76862000","lon":"5.28907000"},
{"state":"Vestland","name":"Dale","lat":"61.36353000","lon":"5.40036000"},
{"state":"Vestland","name":"Dale","lat":"60.58639000","lon":"5.81888000"},
{"state":"Vestland","name":"Eid","lat":"61.90684000","lon":"5.99321000"},
{"state":"Vestland","name":"Eidfjord","lat":"60.46741000","lon":"7.06971000"},
{"state":"Vestland","name":"Eikelandsosen","lat":"60.24175000","lon":"5.74433000"},
{"state":"Vestland","name":"Eivindvik","lat":"60.98133000","lon":"5.07497000"},
{"state":"Vestland","name":"Espeland","lat":"60.38249000","lon":"5.46570000"},
{"state":"Vestland","name":"Etne","lat":"59.66472000","lon":"5.93438000"},
{"state":"Vestland","name":"Farnes","lat":"61.30850000","lon":"7.79694000"},
{"state":"Vestland","name":"Fedje","lat":"60.77873000","lon":"4.71965000"},
{"state":"Vestland","name":"Fitjar","lat":"59.91742000","lon":"5.31637000"},
{"state":"Vestland","name":"Fjaler","lat":"61.36383000","lon":"5.39808000"},
{"state":"Vestland","name":"Fjell","lat":"60.36267000","lon":"5.12194000"},
{"state":"Vestland","name":"Flora","lat":"61.59994000","lon":"5.03144000"},
{"state":"Vestland","name":"Florø","lat":"61.59957000","lon":"5.03280000"},
{"state":"Vestland","name":"Førde","lat":"61.45045000","lon":"5.85397000"},
{"state":"Vestland","name":"Frekhaug","lat":"60.51321000","lon":"5.24252000"},
{"state":"Vestland","name":"Fusa","lat":"60.24072000","lon":"5.74458000"},
{"state":"Vestland","name":"Gaular","lat":"61.32564000","lon":"5.79523000"},
{"state":"Vestland","name":"Gaupne","lat":"61.40472000","lon":"7.29458000"},
{"state":"Vestland","name":"Gloppen","lat":"61.77728000","lon":"6.21561000"},
{"state":"Vestland","name":"Granvin","lat":"60.52629000","lon":"6.72178000"},
{"state":"Vestland","name":"Gulen","lat":"60.98192000","lon":"5.07408000"},
{"state":"Vestland","name":"Hagavik","lat":"60.18076000","lon":"5.40146000"},
{"state":"Vestland","name":"Hardbakke","lat":"61.07562000","lon":"4.84111000"},
{"state":"Vestland","name":"Hermansverk","lat":"61.18461000","lon":"6.85016000"},
{"state":"Vestland","name":"Hornindal","lat":"61.96925000","lon":"6.52249000"},
{"state":"Vestland","name":"Høyanger","lat":"61.21880000","lon":"6.07308000"},
{"state":"Vestland","name":"Hylkje","lat":"60.51028000","lon":"5.35444000"},
{"state":"Vestland","name":"Hyllestad","lat":"61.17036000","lon":"5.29614000"},
{"state":"Vestland","name":"Indre Arna","lat":"60.41768000","lon":"5.47087000"},
{"state":"Vestland","name":"Jondal","lat":"60.27620000","lon":"6.25257000"},
{"state":"Vestland","name":"Jølster","lat":"61.56923000","lon":"6.48351000"},
{"state":"Vestland","name":"Kinsarvik","lat":"60.37567000","lon":"6.71948000"},
{"state":"Vestland","name":"Knappskog","lat":"60.37906000","lon":"5.05602000"},
{"state":"Vestland","name":"Knarvik","lat":"60.54530000","lon":"5.28208000"},
{"state":"Vestland","name":"Kvam","lat":"60.36977000","lon":"6.14344000"},
{"state":"Vestland","name":"Kvinnherad","lat":"59.98421000","lon":"6.01227000"},
{"state":"Vestland","name":"Lærdal","lat":"61.09842000","lon":"7.48101000"},
{"state":"Vestland","name":"Lærdalsøyri","lat":"61.10001000","lon":"7.47374000"},
{"state":"Vestland","name":"Leikanger","lat":"61.18556000","lon":"6.82199000"},
{"state":"Vestland","name":"Leirvik","lat":"59.77977000","lon":"5.50051000"},
{"state":"Vestland","name":"Lindås","lat":"60.54910000","lon":"5.28559000"},
{"state":"Vestland","name":"Lonevåg","lat":"60.52556000","lon":"5.49563000"},
{"state":"Vestland","name":"Luster","lat":"61.40310000","lon":"7.29793000"},
{"state":"Vestland","name":"Måløy","lat":"61.93535000","lon":"5.11362000"},
{"state":"Vestland","name":"Manger","lat":"60.64145000","lon":"5.04136000"},
{"state":"Vestland","name":"Masfjorden","lat":"60.79947000","lon":"5.30035000"},
{"state":"Vestland","name":"Meland","lat":"60.51777000","lon":"5.24063000"},
{"state":"Vestland","name":"Modalen","lat":"60.81735000","lon":"5.80790000"},
{"state":"Vestland","name":"Mosterhamn","lat":"59.69919000","lon":"5.38585000"},
{"state":"Vestland","name":"Naustdal","lat":"61.51034000","lon":"5.71719000"},
{"state":"Vestland","name":"Nordfjordeid","lat":"61.91220000","lon":"5.98557000"},
{"state":"Vestland","name":"Norheimsund","lat":"60.37089000","lon":"6.14562000"},
{"state":"Vestland","name":"Odda","lat":"60.06697000","lon":"6.54541000"},
{"state":"Vestland","name":"Os","lat":"60.18547000","lon":"5.46962000"},
{"state":"Vestland","name":"Osterøy","lat":"60.52389000","lon":"5.50551000"},
{"state":"Vestland","name":"Øygarden","lat":"60.59041000","lon":"4.83890000"},
{"state":"Vestland","name":"Øystese","lat":"60.38825000","lon":"6.19251000"},
{"state":"Vestland","name":"Radøy","lat":"60.64187000","lon":"5.04110000"},
{"state":"Vestland","name":"Rosendal","lat":"59.98589000","lon":"6.01157000"},
{"state":"Vestland","name":"Rubbestadneset","lat":"59.81559000","lon":"5.26822000"},
{"state":"Vestland","name":"Sagvåg","lat":"59.78139000","lon":"5.38996000"},
{"state":"Vestland","name":"Samnanger","lat":"60.37745000","lon":"5.76219000"},
{"state":"Vestland","name":"Sandane","lat":"61.77277000","lon":"6.21496000"},
{"state":"Vestland","name":"Sande","lat":"61.32511000","lon":"5.79773000"},
{"state":"Vestland","name":"Sandsli","lat":"60.30323000","lon":"5.28554000"},
{"state":"Vestland","name":"Selje","lat":"62.04263000","lon":"5.34449000"},
{"state":"Vestland","name":"Skogsvågen","lat":"60.25512000","lon":"5.10161000"},
{"state":"Vestland","name":"Sogndal","lat":"61.23144000","lon":"7.10301000"},
{"state":"Vestland","name":"Solund","lat":"61.07394000","lon":"4.83876000"},
{"state":"Vestland","name":"Stord","lat":"59.78092000","lon":"5.49980000"},
{"state":"Vestland","name":"Storebø","lat":"60.09485000","lon":"5.22705000"},
{"state":"Vestland","name":"Straume","lat":"60.36131000","lon":"5.12199000"},
{"state":"Vestland","name":"Stryn","lat":"61.90406000","lon":"6.72400000"},
{"state":"Vestland","name":"Sund","lat":"60.27019000","lon":"5.07225000"},
{"state":"Vestland","name":"Sveio","lat":"59.54303000","lon":"5.35410000"},
{"state":"Vestland","name":"Svelgen","lat":"61.76976000","lon":"5.29544000"},
{"state":"Vestland","name":"Syfteland","lat":"60.23803000","lon":"5.45285000"},
{"state":"Vestland","name":"Tysnes","lat":"60.04076000","lon":"5.53129000"},
{"state":"Vestland","name":"Ullensvang","lat":"60.37501000","lon":"6.72073000"},
{"state":"Vestland","name":"Ulvik","lat":"60.56719000","lon":"6.91871000"},
{"state":"Vestland","name":"Vågsøy","lat":"61.93544000","lon":"5.11402000"},
{"state":"Vestland","name":"Vaksdal","lat":"60.59030000","lon":"5.82272000"},
{"state":"Vestland","name":"Vik","lat":"61.08863000","lon":"6.58512000"},
{"state":"Vestland","name":"Voss","lat":"60.62780000","lon":"6.41831000"},
{"state":"Vestland","name":"Ytre Arna","lat":"60.46175000","lon":"5.43265000"},
{"state":"Vestland","name":"Ytrebygda","lat":"60.30504000","lon":"5.28236000"},
{"state":"Viken","name":"Ål","lat":"60.63028000","lon":"8.56115000"},
{"state":"Viken","name":"Åneby","lat":"60.08926000","lon":"10.86998000"},
{"state":"Viken","name":"Aremark","lat":"59.22198000","lon":"11.69582000"},
{"state":"Viken","name":"Årnes","lat":"60.12237000","lon":"11.47005000"},
{"state":"Viken","name":"Åros","lat":"59.70610000","lon":"10.51092000"},
{"state":"Viken","name":"Ås","lat":"59.66366000","lon":"10.79101000"},
{"state":"Viken","name":"Ask","lat":"60.07131000","lon":"11.03620000"},
{"state":"Viken","name":"Asker","lat":"59.83734000","lon":"10.43595000"},
{"state":"Viken","name":"Askim","lat":"59.58464000","lon":"11.16084000"},
{"state":"Viken","name":"Auli","lat":"60.03450000","lon":"11.36046000"},
{"state":"Viken","name":"Aurskog-Høland","lat":"59.88321000","lon":"11.56491000"},
{"state":"Viken","name":"Aursmoen","lat":"59.92763000","lon":"11.44275000"},
{"state":"Viken","name":"Bærum","lat":"59.88996000","lon":"10.52649000"},
{"state":"Viken","name":"Billingstad","lat":"59.87548000","lon":"10.48230000"},
{"state":"Viken","name":"Bjørkelangen","lat":"59.88357000","lon":"11.56396000"},
{"state":"Viken","name":"Blakstad","lat":"59.81910000","lon":"10.46450000"},
{"state":"Viken","name":"Drammen","lat":"59.74389000","lon":"10.20449000"},
{"state":"Viken","name":"Drøbak","lat":"59.66333000","lon":"10.62975000"},
{"state":"Viken","name":"Eidsberg","lat":"59.55148000","lon":"11.33587000"},
{"state":"Viken","name":"Eidsvoll","lat":"60.32893000","lon":"11.26119000"},
{"state":"Viken","name":"Enebakk","lat":"59.76452000","lon":"11.14492000"},
{"state":"Viken","name":"Fagerstrand","lat":"59.73746000","lon":"10.59404000"},
{"state":"Viken","name":"Fet","lat":"59.92216000","lon":"11.16778000"},
{"state":"Viken","name":"Fetsund","lat":"59.92463000","lon":"11.15711000"},
{"state":"Viken","name":"Fjellfoten","lat":"60.08967000","lon":"11.47222000"},
{"state":"Viken","name":"Flå","lat":"60.42910000","lon":"9.46611000"},
{"state":"Viken","name":"Flateby","lat":"59.82951000","lon":"11.15345000"},
{"state":"Viken","name":"Flesberg","lat":"59.83283000","lon":"9.58308000"},
{"state":"Viken","name":"Fossby","lat":"59.22218000","lon":"11.69928000"},
{"state":"Viken","name":"Fredrikstad","lat":"59.21759000","lon":"10.93787000"},
{"state":"Viken","name":"Frogn","lat":"59.66665000","lon":"10.63566000"},
{"state":"Viken","name":"Frogner","lat":"60.02463000","lon":"11.10284000"},
{"state":"Viken","name":"Geilo","lat":"60.53369000","lon":"8.20539000"},
{"state":"Viken","name":"Gjerdrum","lat":"60.07159000","lon":"11.03597000"},
{"state":"Viken","name":"Gol","lat":"60.69953000","lon":"8.95024000"},
{"state":"Viken","name":"Halden","lat":"59.12258000","lon":"11.38709000"},
{"state":"Viken","name":"Hemsedal","lat":"60.86114000","lon":"8.56537000"},
{"state":"Viken","name":"Hobøl","lat":"59.62252000","lon":"10.94979000"},
{"state":"Viken","name":"Hol","lat":"60.61528000","lon":"8.30194000"},
{"state":"Viken","name":"Hole","lat":"60.08017000","lon":"10.27840000"},
{"state":"Viken","name":"Hønefoss","lat":"60.16804000","lon":"10.25647000"},
{"state":"Viken","name":"Hurdal","lat":"60.43518000","lon":"11.06707000"},
{"state":"Viken","name":"Hurum","lat":"59.61401000","lon":"10.45763000"},
{"state":"Viken","name":"Hvaler","lat":"59.02809000","lon":"11.03110000"},
{"state":"Viken","name":"Hvittingfoss","lat":"59.48572000","lon":"10.01173000"},
{"state":"Viken","name":"Jessheim","lat":"60.14151000","lon":"11.17515000"},
{"state":"Viken","name":"Karlshus","lat":"59.35195000","lon":"10.87226000"},
{"state":"Viken","name":"Kløfta","lat":"60.07407000","lon":"11.13805000"},
{"state":"Viken","name":"Knappstad","lat":"59.62424000","lon":"11.03274000"},
{"state":"Viken","name":"Kongsberg","lat":"59.66516000","lon":"9.64653000"},
{"state":"Viken","name":"Krødsherad","lat":"60.17944000","lon":"9.62124000"},
{"state":"Viken","name":"Larkollen","lat":"59.33196000","lon":"10.66687000"},
{"state":"Viken","name":"Leirsund","lat":"59.99682000","lon":"11.08746000"},
{"state":"Viken","name":"Lervik","lat":"59.27119000","lon":"10.74610000"},
{"state":"Viken","name":"Lier","lat":"59.78663000","lon":"10.24590000"},
{"state":"Viken","name":"Lillestrøm","lat":"59.95597000","lon":"11.04918000"},
{"state":"Viken","name":"Lørenskog","lat":"59.93209000","lon":"10.96079000"},
{"state":"Viken","name":"Lysaker","lat":"59.90994000","lon":"10.63545000"},
{"state":"Viken","name":"Marker","lat":"59.47952000","lon":"11.65917000"},
{"state":"Viken","name":"Maura","lat":"60.25830000","lon":"11.03192000"},
{"state":"Viken","name":"Modum","lat":"59.97346000","lon":"10.00468000"},
{"state":"Viken","name":"Moss","lat":"59.43436000","lon":"10.65968000"},
{"state":"Viken","name":"Mysen","lat":"59.55354000","lon":"11.32578000"},
{"state":"Viken","name":"Nannestad","lat":"60.21707000","lon":"11.01200000"},
{"state":"Viken","name":"Nedre Eiker","lat":"59.75023000","lon":"10.00736000"},
{"state":"Viken","name":"Nes","lat":"60.12252000","lon":"11.46570000"},
{"state":"Viken","name":"Nes","lat":"60.56804000","lon":"9.10169000"},
{"state":"Viken","name":"Nesbyen","lat":"60.56809000","lon":"9.10274000"},
{"state":"Viken","name":"Neskollen","lat":"60.12159000","lon":"11.33926000"},
{"state":"Viken","name":"Nesodden","lat":"59.84220000","lon":"10.64940000"},
{"state":"Viken","name":"Nesoddtangen","lat":"59.86244000","lon":"10.66308000"},
{"state":"Viken","name":"Nittedal","lat":"60.04278000","lon":"10.88167000"},
{"state":"Viken","name":"Nore og Uvdal","lat":"60.26706000","lon":"8.94635000"},
{"state":"Viken","name":"Noresund","lat":"60.17985000","lon":"9.62411000"},
{"state":"Viken","name":"Oppegård","lat":"59.81149000","lon":"10.79712000"},
{"state":"Viken","name":"Ørje","lat":"59.48023000","lon":"11.66016000"},
{"state":"Viken","name":"Øvre Eiker","lat":"59.77111000","lon":"9.90840000"},
{"state":"Viken","name":"Prestfoss","lat":"60.04343000","lon":"9.63520000"},
{"state":"Viken","name":"Råde","lat":"59.35162000","lon":"10.87135000"},
{"state":"Viken","name":"Råholt","lat":"60.27513000","lon":"11.17901000"},
{"state":"Viken","name":"Rakkestad","lat":"59.42822000","lon":"11.34350000"},
{"state":"Viken","name":"Rælingen","lat":"59.92626000","lon":"11.06527000"},
{"state":"Viken","name":"Ringerike","lat":"60.16018000","lon":"10.25660000"},
{"state":"Viken","name":"Rollag","lat":"59.98413000","lon":"9.29489000"},
{"state":"Viken","name":"Rotnes","lat":"60.05707000","lon":"10.86135000"},
{"state":"Viken","name":"Rømskog","lat":"59.74968000","lon":"11.81122000"},
{"state":"Viken","name":"Røyken","lat":"59.74019000","lon":"10.41321000"},
{"state":"Viken","name":"Rygge","lat":"59.40629000","lon":"10.69298000"},
{"state":"Viken","name":"Ryggebyen","lat":"59.37500000","lon":"10.75000000"},
{"state":"Viken","name":"Sarpsborg","lat":"59.28148000","lon":"11.11167000"},
{"state":"Viken","name":"Sætre","lat":"59.68129000","lon":"10.52749000"},
{"state":"Viken","name":"Sigdal","lat":"60.04592000","lon":"9.63673000"},
{"state":"Viken","name":"Skedsmo","lat":"59.95448000","lon":"11.03952000"},
{"state":"Viken","name":"Ski","lat":"59.72049000","lon":"10.83882000"},
{"state":"Viken","name":"Skiptvet","lat":"59.47751000","lon":"11.16171000"},
{"state":"Viken","name":"Skjærhalden","lat":"59.02526000","lon":"11.03685000"},
{"state":"Viken","name":"Skjeberg","lat":"59.21148000","lon":"11.19025000"},
{"state":"Viken","name":"Skoger","lat":"59.71327000","lon":"10.25356000"},
{"state":"Viken","name":"Skui","lat":"59.92746000","lon":"10.44750000"},
{"state":"Viken","name":"Sørum","lat":"59.98709000","lon":"11.24019000"},
{"state":"Viken","name":"Sørumsand","lat":"59.98621000","lon":"11.24154000"},
{"state":"Viken","name":"Spydeberg","lat":"59.62028000","lon":"11.08069000"},
{"state":"Viken","name":"Tofte","lat":"59.54275000","lon":"10.56138000"},
{"state":"Viken","name":"Tomter","lat":"59.65910000","lon":"10.99487000"},
{"state":"Viken","name":"Tranby","lat":"59.80850000","lon":"10.26114000"},
{"state":"Viken","name":"Trøgstad","lat":"59.64016000","lon":"11.31890000"},
{"state":"Viken","name":"Ullensaker","lat":"60.14401000","lon":"11.17441000"},
{"state":"Viken","name":"Våler","lat":"59.48870000","lon":"10.86551000"},
{"state":"Viken","name":"Vestby","lat":"59.60228000","lon":"10.74807000"},
{"state":"Viken","name":"Vikersund","lat":"59.96838000","lon":"9.99107000"}]