[{"name":"Agder","native":null,"cities":[{"name":"Åseral","native":null,"lat":"58.61730000","lon":"7.41118000"},{"name":"Audnedal","native":null,"lat":"58.28378000","lon":"7.35487000"},{"name":"Farsund","native":null,"lat":"58.09538000","lon":"6.80403000"},{"name":"Flekkefjord","native":null,"lat":"58.29791000","lon":"6.66345000"},{"name":"Hægebostad","native":null,"lat":"58.37572000","lon":"7.21973000"},{"name":"Justvik","native":null,"lat":"58.19691000","lon":"8.03107000"},{"name":"Kristiansand","native":null,"lat":"58.14642000","lon":"7.99687000"},{"name":"Kvinesdal","native":null,"lat":"58.23894000","lon":"6.71445000"},{"name":"Liknes","native":null,"lat":"58.31216000","lon":"6.96180000"},{"name":"Lindesnes","native":null,"lat":"58.08435000","lon":"7.30162000"},{"name":"Lyngdal","native":null,"lat":"58.13829000","lon":"7.06836000"},{"name":"Mandal","native":null,"lat":"58.02633000","lon":"7.45014000"},{"name":"Marnardal","native":null,"lat":"58.19802000","lon":"7.52802000"},{"name":"Nodeland","native":null,"lat":"58.15517000","lon":"7.83576000"},{"name":"Sirdal","native":null,"lat":"58.66510000","lon":"6.71585000"},{"name":"Skålevik","native":null,"lat":"58.07955000","lon":"8.01602000"},{"name":"Songdalen","native":null,"lat":"58.15273000","lon":"7.83677000"},{"name":"Søgne","native":null,"lat":"58.09663000","lon":"7.81491000"},{"name":"Strai","native":null,"lat":"58.18930000","lon":"7.92826000"},{"name":"Tonstad","native":null,"lat":"58.66263000","lon":"6.71694000"},{"name":"Tveit","native":null,"lat":"58.23366000","lon":"8.12199000"},{"name":"Vanse","native":null,"lat":"58.09812000","lon":"6.69184000"},{"name":"Vennesla","native":null,"lat":"58.34271000","lon":"7.97596000"},{"name":"Vestbygd","native":null,"lat":"58.09991000","lon":"6.58696000"},{"name":"Vigeland","native":null,"lat":"58.08437000","lon":"7.30497000"}]},{"name":"Innlandet","native":null,"cities":[{"name":"Alvdal","native":null,"lat":"62.10854000","lon":"10.63483000"},{"name":"Åmot","native":null,"lat":"61.13199000","lon":"11.37328000"},{"name":"Åsnes","native":null,"lat":"60.61363000","lon":"12.01200000"},{"name":"Bagn","native":null,"lat":"60.82249000","lon":"9.55207000"},{"name":"Brumunddal","native":null,"lat":"60.88095000","lon":"10.93948000"},{"name":"Dokka","native":null,"lat":"60.83500000","lon":"10.07362000"},{"name":"Dombås","native":null,"lat":"62.07554000","lon":"9.12785000"},{"name":"Dovre","native":null,"lat":"61.98582000","lon":"9.24947000"},{"name":"Eidskog","native":null,"lat":"59.98556000","lon":"12.12502000"},{"name":"Elverum","native":null,"lat":"60.88159000","lon":"11.56314000"},{"name":"Engerdal","native":null,"lat":"61.75774000","lon":"11.95966000"},{"name":"Etnedal","native":null,"lat":"60.88872000","lon":"9.64031000"},{"name":"Fagernes","native":null,"lat":"60.98584000","lon":"9.23236000"},{"name":"Folldal","native":null,"lat":"62.13329000","lon":"9.99710000"},{"name":"Fossbergom","native":null,"lat":"61.83772000","lon":"8.56842000"},{"name":"Gausdal","native":null,"lat":"61.22685000","lon":"10.22145000"},{"name":"Gjøvik","native":null,"lat":"60.79472000","lon":"10.69287000"},{"name":"Gran","native":null,"lat":"60.39293000","lon":"10.56045000"},{"name":"Grua","native":null,"lat":"60.25701000","lon":"10.66222000"},{"name":"Grue","native":null,"lat":"60.45133000","lon":"12.05489000"},{"name":"Hamar","native":null,"lat":"60.79450000","lon":"11.06798000"},{"name":"Hov","native":null,"lat":"60.69870000","lon":"10.35193000"},{"name":"Hundorp","native":null,"lat":"61.55523000","lon":"9.94069000"},{"name":"Innbygda","native":null,"lat":"61.31484000","lon":"12.26374000"},{"name":"Jevnaker","native":null,"lat":"60.24060000","lon":"10.38587000"},{"name":"Kirkenær","native":null,"lat":"60.45790000","lon":"12.05855000"},{"name":"Kongsvinger","native":null,"lat":"60.19117000","lon":"11.99916000"},{"name":"Koppang","native":null,"lat":"61.57219000","lon":"11.04659000"},{"name":"Lena","native":null,"lat":"60.67391000","lon":"10.81317000"},{"name":"Lesja","native":null,"lat":"62.11785000","lon":"8.86262000"},{"name":"Lillehammer","native":null,"lat":"61.11464000","lon":"10.46743000"},{"name":"Lom","native":null,"lat":"61.83639000","lon":"8.56811000"},{"name":"Løten","native":null,"lat":"60.81771000","lon":"11.34373000"},{"name":"Lunner","native":null,"lat":"60.29462000","lon":"10.60860000"},{"name":"Moelv","native":null,"lat":"60.93333000","lon":"10.70000000"},{"name":"Nord-Aurdal","native":null,"lat":"60.98531000","lon":"9.23661000"},{"name":"Nord-Fron","native":null,"lat":"61.59556000","lon":"9.74830000"},{"name":"Nord-Odal","native":null,"lat":"60.39195000","lon":"11.54151000"},{"name":"Nordre Land","native":null,"lat":"60.83471000","lon":"10.07543000"},{"name":"Os","native":null,"lat":"62.49536000","lon":"11.22807000"},{"name":"Otta","native":null,"lat":"61.77120000","lon":"9.53529000"},{"name":"Østre Toten","native":null,"lat":"60.67659000","lon":"10.81997000"},{"name":"Øyer","native":null,"lat":"61.26495000","lon":"10.41297000"},{"name":"Øystre Slidre","native":null,"lat":"61.13377000","lon":"9.07872000"},{"name":"Raufoss","native":null,"lat":"60.72604000","lon":"10.61330000"},{"name":"Reinsvoll","native":null,"lat":"60.67977000","lon":"10.62175000"},{"name":"Rena","native":null,"lat":"61.13222000","lon":"11.37156000"},{"name":"Rendalen","native":null,"lat":"61.89004000","lon":"11.07694000"},{"name":"Ringebu","native":null,"lat":"61.52980000","lon":"10.14180000"},{"name":"Ringsaker","native":null,"lat":"60.88216000","lon":"10.95030000"},{"name":"Sand","native":null,"lat":"60.39220000","lon":"11.54030000"},{"name":"Sel","native":null,"lat":"61.77278000","lon":"9.53415000"},{"name":"Skarnes","native":null,"lat":"60.25391000","lon":"11.68485000"},{"name":"Skjåk","native":null,"lat":"61.88349000","lon":"8.26490000"},{"name":"Skotterud","native":null,"lat":"59.98281000","lon":"12.12825000"},{"name":"Skreia","native":null,"lat":"60.65257000","lon":"10.93564000"},{"name":"Søndre Land","native":null,"lat":"60.69944000","lon":"10.35086000"},{"name":"Sør-Aurdal","native":null,"lat":"60.82242000","lon":"9.54836000"},{"name":"Sør-Fron","native":null,"lat":"61.55652000","lon":"9.93949000"},{"name":"Sør-Odal","native":null,"lat":"60.25455000","lon":"11.68246000"},{"name":"Spetalen","native":null,"lat":"60.18333000","lon":"11.90000000"},{"name":"Stange","native":null,"lat":"60.71576000","lon":"11.19069000"},{"name":"Stor-Elvdal","native":null,"lat":"61.57198000","lon":"11.04759000"},{"name":"Tolga","native":null,"lat":"62.40984000","lon":"10.99770000"},{"name":"Tretten","native":null,"lat":"61.31423000","lon":"10.30066000"},{"name":"Trysil","native":null,"lat":"61.31549000","lon":"12.26422000"},{"name":"Tynset","native":null,"lat":"62.27387000","lon":"10.77626000"},{"name":"Vågå","native":null,"lat":"61.87565000","lon":"9.09572000"},{"name":"Vågåmo","native":null,"lat":"61.87505000","lon":"9.09671000"},{"name":"Våler","native":null,"lat":"60.67845000","lon":"11.83314000"},{"name":"Vang","native":null,"lat":"61.12564000","lon":"8.57167000"},{"name":"Vestre Slidre","native":null,"lat":"61.08842000","lon":"8.98196000"},{"name":"Vestre Toten","native":null,"lat":"60.72593000","lon":"10.60764000"},{"name":"Vinstra","native":null,"lat":"61.59496000","lon":"9.75134000"}]},{"name":"Jan Mayen","native":null,"cities":[]},{"name":"Møre og Romsdal","native":null,"cities":[{"name":"Ålesund","native":null,"lat":"62.47225000","lon":"6.15492000"},{"name":"Åndalsnes","native":null,"lat":"62.56749000","lon":"7.68709000"},{"name":"Aukra","native":null,"lat":"62.80500000","lon":"6.88722000"},{"name":"Aure","native":null,"lat":"63.26750000","lon":"8.52778000"},{"name":"Averøy","native":null,"lat":"63.05344000","lon":"7.63265000"},{"name":"Batnfjordsøra","native":null,"lat":"62.89463000","lon":"7.67251000"},{"name":"Brattvåg","native":null,"lat":"62.59991000","lon":"6.44426000"},{"name":"Eide","native":null,"lat":"62.91570000","lon":"7.44496000"},{"name":"Eidsvåg","native":null,"lat":"62.77656000","lon":"8.06550000"},{"name":"Elnesvågen","native":null,"lat":"62.85426000","lon":"7.13769000"},{"name":"Fræna","native":null,"lat":"62.85375000","lon":"7.15380000"},{"name":"Giske","native":null,"lat":"62.50070000","lon":"6.13472000"},{"name":"Gjemnes","native":null,"lat":"62.89379000","lon":"7.67714000"},{"name":"Halsa","native":null,"lat":"63.11855000","lon":"8.31536000"},{"name":"Haram","native":null,"lat":"62.59898000","lon":"6.44483000"},{"name":"Hareid","native":null,"lat":"62.36742000","lon":"6.02114000"},{"name":"Herøy","native":null,"lat":"62.33333000","lon":"5.63598000"},{"name":"Hjelset","native":null,"lat":"62.78050000","lon":"7.49277000"},{"name":"Hopen","native":null,"lat":"63.46539000","lon":"8.01437000"},{"name":"Kristiansund","native":null,"lat":"63.11152000","lon":"7.73198000"},{"name":"Larsnes","native":null,"lat":"62.20282000","lon":"5.57729000"},{"name":"Midsund","native":null,"lat":"62.67614000","lon":"6.67776000"},{"name":"Molde","native":null,"lat":"62.73807000","lon":"7.15882000"},{"name":"Nesset","native":null,"lat":"62.77619000","lon":"8.06623000"},{"name":"Norddal","native":null,"lat":"62.29910000","lon":"7.26145000"},{"name":"Nordstranda","native":null,"lat":"62.51384000","lon":"6.13166000"},{"name":"Ørskog","native":null,"lat":"62.48450000","lon":"6.82025000"},{"name":"Ørsta","native":null,"lat":"62.19937000","lon":"6.13084000"},{"name":"Rauma","native":null,"lat":"62.56810000","lon":"7.68612000"},{"name":"Rensvik","native":null,"lat":"63.09843000","lon":"7.82026000"},{"name":"Sande","native":null,"lat":"62.20455000","lon":"5.57971000"},{"name":"Sandøy","native":null,"lat":"62.78167000","lon":"6.46875000"},{"name":"Sjøholt","native":null,"lat":"62.48263000","lon":"6.81376000"},{"name":"Skodje","native":null,"lat":"62.50306000","lon":"6.69817000"},{"name":"Smøla","native":null,"lat":"63.46526000","lon":"8.01814000"},{"name":"Steinshamn","native":null,"lat":"62.78389000","lon":"6.47065000"},{"name":"Stordal","native":null,"lat":"62.38214000","lon":"6.98708000"},{"name":"Stranda","native":null,"lat":"62.31132000","lon":"6.93115000"},{"name":"Sula","native":null,"lat":"62.44447000","lon":"6.21229000"},{"name":"Sunndal","native":null,"lat":"62.67464000","lon":"8.56188000"},{"name":"Sunndalsøra","native":null,"lat":"62.67519000","lon":"8.56327000"},{"name":"Surnadal","native":null,"lat":"62.97533000","lon":"8.72490000"},{"name":"Sykkylven","native":null,"lat":"62.38962000","lon":"6.57825000"},{"name":"Tingvoll","native":null,"lat":"62.91194000","lon":"8.20673000"},{"name":"Tomra","native":null,"lat":"62.58118000","lon":"6.93106000"},{"name":"Ulstein","native":null,"lat":"62.34423000","lon":"5.85241000"},{"name":"Ulsteinvik","native":null,"lat":"62.34317000","lon":"5.84869000"},{"name":"Ulsteinvik weather pws station","native":null,"lat":"62.34338000","lon":"5.84385000"},{"name":"Vanylven","native":null,"lat":"62.10003000","lon":"5.55827000"},{"name":"Vatne","native":null,"lat":"62.55826000","lon":"6.61708000"},{"name":"Vestnes","native":null,"lat":"62.62130000","lon":"7.08966000"},{"name":"Volda","native":null,"lat":"62.14678000","lon":"6.06800000"}]},{"name":"Nordland","native":null,"cities":[{"name":"Alstahaug","native":null,"lat":"65.97556000","lon":"12.56836000"},{"name":"Andenes","native":null,"lat":"69.31428000","lon":"16.11939000"},{"name":"Andøy","native":null,"lat":"69.08033000","lon":"15.77637000"},{"name":"Ballangen","native":null,"lat":"68.34365000","lon":"16.83317000"},{"name":"Beiarn","native":null,"lat":"67.00725000","lon":"14.57304000"},{"name":"Bindal","native":null,"lat":"65.08780000","lon":"12.37747000"},{"name":"Bjerkvik","native":null,"lat":"68.54917000","lon":"17.55709000"},{"name":"Bodø","native":null,"lat":"67.28325000","lon":"14.38319000"},{"name":"Bogen","native":null,"lat":"68.52647000","lon":"16.99280000"},{"name":"Bø","native":null,"lat":"68.68823000","lon":"14.47899000"},{"name":"Brønnøy","native":null,"lat":"65.46786000","lon":"12.20626000"},{"name":"Brønnøysund","native":null,"lat":"65.47487000","lon":"12.21285000"},{"name":"Dønna","native":null,"lat":"66.10606000","lon":"12.48189000"},{"name":"Evenes","native":null,"lat":"68.52334000","lon":"17.00888000"},{"name":"Evjen","native":null,"lat":"68.26667000","lon":"13.73333000"},{"name":"Fauske","native":null,"lat":"67.25963000","lon":"15.39410000"},{"name":"Flakstad","native":null,"lat":"68.09292000","lon":"13.23310000"},{"name":"Gildeskål","native":null,"lat":"67.03394000","lon":"14.02582000"},{"name":"Gladstad","native":null,"lat":"65.67683000","lon":"11.96218000"},{"name":"Glomfjord","native":null,"lat":"66.81663000","lon":"13.94404000"},{"name":"Grane","native":null,"lat":"65.53865000","lon":"13.38499000"},{"name":"Gravdal","native":null,"lat":"68.11832000","lon":"13.55339000"},{"name":"Hadsel","native":null,"lat":"68.56328000","lon":"14.90835000"},{"name":"Hamarøy","native":null,"lat":"68.08381000","lon":"15.61671000"},{"name":"Hattfjelldal","native":null,"lat":"65.59765000","lon":"13.98948000"},{"name":"Hauknes","native":null,"lat":"66.28333000","lon":"14.06667000"},{"name":"Hemnes","native":null,"lat":"66.07712000","lon":"13.81350000"},{"name":"Hemnesberget","native":null,"lat":"66.22489000","lon":"13.61643000"},{"name":"Herøy","native":null,"lat":"65.98427000","lon":"12.28916000"},{"name":"Inndyr","native":null,"lat":"67.03353000","lon":"14.02663000"},{"name":"Kabelvåg","native":null,"lat":"68.21066000","lon":"14.47554000"},{"name":"Kjøpsvik","native":null,"lat":"68.09696000","lon":"16.37416000"},{"name":"Korgen","native":null,"lat":"66.07662000","lon":"13.82160000"},{"name":"Leirfjord","native":null,"lat":"66.06348000","lon":"12.93667000"},{"name":"Leknes","native":null,"lat":"68.14746000","lon":"13.61151000"},{"name":"Leland","native":null,"lat":"66.06406000","lon":"12.94325000"},{"name":"Løding","native":null,"lat":"67.30055000","lon":"14.73852000"},{"name":"Lødingen","native":null,"lat":"68.40998000","lon":"15.99012000"},{"name":"Løpsmarka","native":null,"lat":"67.31343000","lon":"14.44934000"},{"name":"Lurøy","native":null,"lat":"66.41887000","lon":"12.84248000"},{"name":"Melbu","native":null,"lat":"68.50246000","lon":"14.79962000"},{"name":"Meløy","native":null,"lat":"66.87204000","lon":"13.70763000"},{"name":"Mo i Rana","native":null,"lat":"66.31278000","lon":"14.14278000"},{"name":"Mosjøen","native":null,"lat":"65.83599000","lon":"13.19076000"},{"name":"Moskenes","native":null,"lat":"67.93467000","lon":"13.09109000"},{"name":"Myre","native":null,"lat":"68.91400000","lon":"15.07843000"},{"name":"Narvik","native":null,"lat":"68.43896000","lon":"17.42775000"},{"name":"Nesna","native":null,"lat":"66.19796000","lon":"13.02229000"},{"name":"Øksnes","native":null,"lat":"68.91463000","lon":"15.08703000"},{"name":"Ørnes","native":null,"lat":"66.86878000","lon":"13.70579000"},{"name":"Rana","native":null,"lat":"66.31122000","lon":"14.13996000"},{"name":"Reine","native":null,"lat":"67.93249000","lon":"13.08955000"},{"name":"Rognan","native":null,"lat":"67.10021000","lon":"15.39086000"},{"name":"Rødøy","native":null,"lat":"66.71195000","lon":"13.28530000"},{"name":"Røst","native":null,"lat":"67.51727000","lon":"12.11564000"},{"name":"Saltdal","native":null,"lat":"67.10144000","lon":"15.39458000"},{"name":"Sandnessjøen","native":null,"lat":"66.02166000","lon":"12.63158000"},{"name":"Sortland","native":null,"lat":"68.69618000","lon":"15.41174000"},{"name":"Sømna","native":null,"lat":"65.31379000","lon":"12.16729000"},{"name":"Sørfold","native":null,"lat":"67.34803000","lon":"15.59445000"},{"name":"Sørland","native":null,"lat":"67.66564000","lon":"12.69784000"},{"name":"Steigen","native":null,"lat":"67.77625000","lon":"15.01621000"},{"name":"Stokmarknes","native":null,"lat":"68.56462000","lon":"14.91075000"},{"name":"Straume","native":null,"lat":"68.68880000","lon":"14.47205000"},{"name":"Straumen","native":null,"lat":"67.34769000","lon":"15.60493000"},{"name":"Svolvær","native":null,"lat":"68.23417000","lon":"14.56834000"},{"name":"Terråk","native":null,"lat":"65.08700000","lon":"12.37148000"},{"name":"Tjeldsund","native":null,"lat":"68.55557000","lon":"16.36172000"},{"name":"Træna","native":null,"lat":"66.50159000","lon":"12.09645000"},{"name":"Trofors","native":null,"lat":"65.53335000","lon":"13.40631000"},{"name":"Tysfjord","native":null,"lat":"68.09772000","lon":"16.37591000"},{"name":"Vågan","native":null,"lat":"68.23220000","lon":"14.56226000"},{"name":"Værøy","native":null,"lat":"67.66374000","lon":"12.69337000"},{"name":"Vefsn","native":null,"lat":"65.84109000","lon":"13.20024000"},{"name":"Vega","native":null,"lat":"65.67539000","lon":"11.96456000"},{"name":"Vestvågøy","native":null,"lat":"68.14830000","lon":"13.61119000"},{"name":"Vevelstad","native":null,"lat":"65.70002000","lon":"12.43921000"},{"name":"Vik","native":null,"lat":"65.31254000","lon":"12.16734000"}]},{"name":"Oslo","native":null,"cities":[{"name":"Oslo","native":null,"lat":"59.91273000","lon":"10.74609000"},{"name":"Sjølyststranda","native":null,"lat":"59.92105000","lon":"10.68017000"}]},{"name":"Rogaland","native":null,"cities":[{"name":"Åkrehamn","native":null,"lat":"59.26053000","lon":"5.18689000"},{"name":"Bjerkreim","native":null,"lat":"58.63050000","lon":"6.08130000"},{"name":"Bokn","native":null,"lat":"59.23062000","lon":"5.43524000"},{"name":"Bryne","native":null,"lat":"58.73536000","lon":"5.64766000"},{"name":"Egersund","native":null,"lat":"58.45133000","lon":"5.99970000"},{"name":"Eigersund","native":null,"lat":"58.45236000","lon":"6.00314000"},{"name":"Eike","native":null,"lat":"59.39833000","lon":"5.36389000"},{"name":"Finnøy","native":null,"lat":"59.17117000","lon":"5.87398000"},{"name":"Forsand","native":null,"lat":"58.89929000","lon":"6.09642000"},{"name":"Gjesdal","native":null,"lat":"58.76478000","lon":"5.85500000"},{"name":"Hå","native":null,"lat":"58.61610000","lon":"5.64497000"},{"name":"Hauge i Dalane","native":null,"lat":"58.34361000","lon":"6.28121000"},{"name":"Haugesund","native":null,"lat":"59.41015000","lon":"5.27551000"},{"name":"Hjelmeland","native":null,"lat":"59.23668000","lon":"6.17912000"},{"name":"Hommersåk","native":null,"lat":"58.92556000","lon":"5.85104000"},{"name":"Jørpeland","native":null,"lat":"59.02251000","lon":"6.04078000"},{"name":"Judaberg","native":null,"lat":"59.17204000","lon":"5.87617000"},{"name":"Karmøy","native":null,"lat":"59.28079000","lon":"5.30529000"},{"name":"Klepp","native":null,"lat":"58.77655000","lon":"5.63009000"},{"name":"Kopervik","native":null,"lat":"59.28354000","lon":"5.30669000"},{"name":"Kvitsøy","native":null,"lat":"59.06471000","lon":"5.40537000"},{"name":"Lund","native":null,"lat":"58.45715000","lon":"6.54871000"},{"name":"Lyefjell","native":null,"lat":"58.73539000","lon":"5.73615000"},{"name":"Moi","native":null,"lat":"58.45674000","lon":"6.55184000"},{"name":"Nærbø","native":null,"lat":"58.66546000","lon":"5.63788000"},{"name":"Ølen","native":null,"lat":"59.60437000","lon":"5.80799000"},{"name":"Randaberg","native":null,"lat":"58.99870000","lon":"5.62055000"},{"name":"Rennesøy","native":null,"lat":"59.09899000","lon":"5.69966000"},{"name":"Sandnes","native":null,"lat":"58.84760000","lon":"5.72855000"},{"name":"Sauda","native":null,"lat":"59.65067000","lon":"6.35312000"},{"name":"Sæveland","native":null,"lat":"59.26667000","lon":"5.20000000"},{"name":"Skudeneshavn","native":null,"lat":"59.14856000","lon":"5.25687000"},{"name":"Sokndal","native":null,"lat":"58.34256000","lon":"6.29425000"},{"name":"Sola","native":null,"lat":"58.88806000","lon":"5.64728000"},{"name":"Stavanger","native":null,"lat":"58.96941000","lon":"5.72856000"},{"name":"Strand","native":null,"lat":"59.02353000","lon":"6.04343000"},{"name":"Suldal","native":null,"lat":"59.48571000","lon":"6.25222000"},{"name":"Tananger","native":null,"lat":"58.93618000","lon":"5.57410000"},{"name":"Tau","native":null,"lat":"59.06481000","lon":"5.92250000"},{"name":"Time","native":null,"lat":"58.73636000","lon":"5.65297000"},{"name":"Tysvær","native":null,"lat":"59.42159000","lon":"5.44781000"},{"name":"Utsira","native":null,"lat":"59.30565000","lon":"4.88621000"},{"name":"Varhaug","native":null,"lat":"58.61810000","lon":"5.65702000"},{"name":"Vedavågen","native":null,"lat":"59.29483000","lon":"5.21874000"},{"name":"Vigrestad","native":null,"lat":"58.57103000","lon":"5.68182000"},{"name":"Vikeså","native":null,"lat":"58.63759000","lon":"6.09133000"},{"name":"Vikevåg","native":null,"lat":"59.09754000","lon":"5.69790000"},{"name":"Vindafjord","native":null,"lat":"59.60543000","lon":"5.80784000"},{"name":"Vormedal","native":null,"lat":"59.35607000","lon":"5.31962000"}]},{"name":"Svalbard","native":null,"cities":[]},{"name":"Troms og Finnmark","native":null,"cities":[{"name":"Alta","native":null,"lat":"69.97675000","lon":"23.29634000"},{"name":"Ávanuorri","native":null,"lat":"70.99634000","lon":"24.66217000"},{"name":"Balsfjord","native":null,"lat":"69.24024000","lon":"19.22653000"},{"name":"Bardu","native":null,"lat":"68.86058000","lon":"18.35052000"},{"name":"Båtsfjord","native":null,"lat":"70.63428000","lon":"29.71750000"},{"name":"Berg","native":null,"lat":"69.44444000","lon":"17.29950000"},{"name":"Berlevåg","native":null,"lat":"70.85778000","lon":"29.08636000"},{"name":"Bjørnevatn","native":null,"lat":"69.66745000","lon":"29.98722000"},{"name":"Borkenes","native":null,"lat":"68.77261000","lon":"16.17115000"},{"name":"Dyrøy","native":null,"lat":"69.09154000","lon":"17.69094000"},{"name":"Evenskjer","native":null,"lat":"68.58283000","lon":"16.57203000"},{"name":"Finnsnes","native":null,"lat":"69.22959000","lon":"17.98114000"},{"name":"Gamvik","native":null,"lat":"71.04107000","lon":"27.85144000"},{"name":"Gratangen","native":null,"lat":"68.69273000","lon":"17.53186000"},{"name":"Gryllefjord","native":null,"lat":"69.36304000","lon":"17.05284000"},{"name":"Hammerfest","native":null,"lat":"70.66257000","lon":"23.68295000"},{"name":"Hansnes","native":null,"lat":"69.96701000","lon":"19.62752000"},{"name":"Harstad","native":null,"lat":"68.79896000","lon":"16.52930000"},{"name":"Hasvik","native":null,"lat":"70.59164000","lon":"22.30272000"},{"name":"Honningsvåg","native":null,"lat":"70.98209000","lon":"25.97037000"},{"name":"Ibestad","native":null,"lat":"68.77866000","lon":"17.17661000"},{"name":"Kåfjord","native":null,"lat":"69.60400000","lon":"20.53456000"},{"name":"Kárášjohka","native":null,"lat":"69.47187000","lon":"25.51122000"},{"name":"Karasjok","native":null,"lat":"69.47224000","lon":"25.51885000"},{"name":"Karlsøy","native":null,"lat":"69.96185000","lon":"19.61811000"},{"name":"Kautokeino","native":null,"lat":"69.01151000","lon":"23.04151000"},{"name":"Kirkenes","native":null,"lat":"69.72706000","lon":"30.04578000"},{"name":"Kjøllefjord","native":null,"lat":"70.94574000","lon":"27.34650000"},{"name":"Kvalsund","native":null,"lat":"70.49910000","lon":"23.97393000"},{"name":"Kvæfjord","native":null,"lat":"68.77201000","lon":"16.17294000"},{"name":"Kvænangen","native":null,"lat":"69.93890000","lon":"22.04935000"},{"name":"Lakselv","native":null,"lat":"70.05133000","lon":"24.97182000"},{"name":"Lavangen","native":null,"lat":"68.74722000","lon":"17.80558000"},{"name":"Lebesby","native":null,"lat":"70.94535000","lon":"27.35134000"},{"name":"Lenvik","native":null,"lat":"69.23111000","lon":"17.98739000"},{"name":"Loppa","native":null,"lat":"70.23952000","lon":"22.35136000"},{"name":"Lyngen","native":null,"lat":"69.57621000","lon":"20.21702000"},{"name":"Lyngseidet","native":null,"lat":"69.57629000","lon":"20.21887000"},{"name":"Målselv","native":null,"lat":"69.12389000","lon":"18.61498000"},{"name":"Måsøy","native":null,"lat":"70.99654000","lon":"24.66146000"},{"name":"Mehamn","native":null,"lat":"71.04137000","lon":"27.85133000"},{"name":"Moen","native":null,"lat":"69.13043000","lon":"18.61226000"},{"name":"Nesseby","native":null,"lat":"69.88541000","lon":"28.43368000"},{"name":"Nordkapp","native":null,"lat":"70.97808000","lon":"25.97473000"},{"name":"Nordreisa","native":null,"lat":"69.76825000","lon":"21.02569000"},{"name":"Olderdalen","native":null,"lat":"69.60407000","lon":"20.53272000"},{"name":"Øksfjord","native":null,"lat":"70.23936000","lon":"22.35070000"},{"name":"Porsanger","native":null,"lat":"70.05214000","lon":"24.95592000"},{"name":"Rypefjord","native":null,"lat":"70.64126000","lon":"23.67213000"},{"name":"Salangen","native":null,"lat":"68.87669000","lon":"17.83375000"},{"name":"Setermoen","native":null,"lat":"68.86099000","lon":"18.34857000"},{"name":"Sjøvegan","native":null,"lat":"68.87363000","lon":"17.84706000"},{"name":"Skånland","native":null,"lat":"68.58378000","lon":"16.57305000"},{"name":"Skjervøy","native":null,"lat":"70.03379000","lon":"20.97365000"},{"name":"Sør-Varanger","native":null,"lat":"69.72859000","lon":"30.04264000"},{"name":"Sørreisa","native":null,"lat":"69.14697000","lon":"18.15629000"},{"name":"Storfjord","native":null,"lat":"69.26860000","lon":"19.96089000"},{"name":"Storslett","native":null,"lat":"69.76783000","lon":"21.02466000"},{"name":"Storsteinnes","native":null,"lat":"69.24081000","lon":"19.23437000"},{"name":"Tana","native":null,"lat":"70.19976000","lon":"28.18494000"},{"name":"Torsken","native":null,"lat":"69.36184000","lon":"17.05384000"},{"name":"Tranøy","native":null,"lat":"69.17022000","lon":"17.73480000"},{"name":"Tromsø","native":null,"lat":"69.64961000","lon":"18.95702000"},{"name":"Vadsø","native":null,"lat":"70.07412000","lon":"29.74922000"},{"name":"Vardø","native":null,"lat":"70.37040000","lon":"31.10866000"}]},{"name":"Trøndelag","native":null,"cities":[{"name":"Å i Åfjord","native":null,"lat":"63.96068000","lon":"10.22468000"},{"name":"Åfjord","native":null,"lat":"63.96196000","lon":"10.22587000"},{"name":"Agdenes","native":null,"lat":"63.50575000","lon":"9.82623000"},{"name":"Berkåk","native":null,"lat":"62.82496000","lon":"10.01177000"},{"name":"Bjugn","native":null,"lat":"63.76522000","lon":"9.80940000"},{"name":"Botngård","native":null,"lat":"63.76484000","lon":"9.80863000"},{"name":"Brekstad","native":null,"lat":"63.68697000","lon":"9.66541000"},{"name":"Fillan","native":null,"lat":"63.60638000","lon":"8.96961000"},{"name":"Flatanger","native":null,"lat":"64.41282000","lon":"11.03285000"},{"name":"Fosnes","native":null,"lat":"64.65910000","lon":"11.26535000"},{"name":"Frosta","native":null,"lat":"63.58910000","lon":"10.74230000"},{"name":"Frøya","native":null,"lat":"63.73005000","lon":"8.82426000"},{"name":"Grong","native":null,"lat":"64.46397000","lon":"12.31114000"},{"name":"Hemne","native":null,"lat":"63.29095000","lon":"9.08893000"},{"name":"Hitra","native":null,"lat":"63.54528000","lon":"8.78029000"},{"name":"Holtålen","native":null,"lat":"62.84318000","lon":"11.29284000"},{"name":"Hommelvik","native":null,"lat":"63.41083000","lon":"10.79424000"},{"name":"Høylandet","native":null,"lat":"64.62759000","lon":"12.30041000"},{"name":"Inderøy","native":null,"lat":"63.87826000","lon":"11.28424000"},{"name":"Indre Fosen","native":null,"lat":"63.58897000","lon":"9.95847000"},{"name":"Klæbu","native":null,"lat":"63.30060000","lon":"10.48188000"},{"name":"Kolvereid","native":null,"lat":"64.86549000","lon":"11.60465000"},{"name":"Kyrksæterøra","native":null,"lat":"63.29057000","lon":"9.08909000"},{"name":"Lauvsnes","native":null,"lat":"64.50061000","lon":"10.89396000"},{"name":"Leka","native":null,"lat":"65.09244000","lon":"11.70513000"},{"name":"Levanger","native":null,"lat":"63.74585000","lon":"11.29991000"},{"name":"Lierne","native":null,"lat":"64.46413000","lon":"13.59249000"},{"name":"Lundamo","native":null,"lat":"63.15216000","lon":"10.28555000"},{"name":"Malm","native":null,"lat":"64.07534000","lon":"11.22398000"},{"name":"Malvik","native":null,"lat":"63.41057000","lon":"10.79382000"},{"name":"Meldal","native":null,"lat":"63.04598000","lon":"9.71088000"},{"name":"Melhus","native":null,"lat":"63.28755000","lon":"10.27686000"},{"name":"Meråker","native":null,"lat":"63.41423000","lon":"11.74558000"},{"name":"Midtre Gauldal","native":null,"lat":"63.03902000","lon":"10.28701000"},{"name":"Namdalseid","native":null,"lat":"64.10843000","lon":"10.91862000"},{"name":"Namsos","native":null,"lat":"64.47842000","lon":"11.54182000"},{"name":"Namsskogan","native":null,"lat":"64.92597000","lon":"13.15932000"},{"name":"Nærøy","native":null,"lat":"64.86298000","lon":"11.60505000"},{"name":"Oppdal","native":null,"lat":"62.59495000","lon":"9.68761000"},{"name":"Orkdal","native":null,"lat":"63.29989000","lon":"9.84365000"},{"name":"Osen","native":null,"lat":"64.29875000","lon":"10.51284000"},{"name":"Overhalla","native":null,"lat":"64.49380000","lon":"11.94753000"},{"name":"Ørland","native":null,"lat":"63.68574000","lon":"9.66633000"},{"name":"Raarvihke - Røyrvik","native":null,"lat":"64.88380000","lon":"13.56310000"},{"name":"Ranemsletta","native":null,"lat":"64.49447000","lon":"11.94912000"},{"name":"Rennebu","native":null,"lat":"62.82864000","lon":"10.00487000"},{"name":"Rindal","native":null,"lat":"63.05511000","lon":"9.21274000"},{"name":"Roan","native":null,"lat":"64.17281000","lon":"10.22511000"},{"name":"Røros","native":null,"lat":"62.57562000","lon":"11.38730000"},{"name":"Rørvik","native":null,"lat":"64.86185000","lon":"11.23969000"},{"name":"Røyrvik","native":null,"lat":"64.88394000","lon":"13.56256000"},{"name":"Selbu","native":null,"lat":"63.21770000","lon":"11.03938000"},{"name":"Sistranda","native":null,"lat":"63.72523000","lon":"8.83318000"},{"name":"Skaun","native":null,"lat":"63.32386000","lon":"10.06745000"},{"name":"Skogn","native":null,"lat":"63.70374000","lon":"11.19262000"},{"name":"Snåase","native":null,"lat":"64.24570000","lon":"12.37779000"},{"name":"Snåase - Snåsa","native":null,"lat":"64.24606000","lon":"12.38294000"},{"name":"Snillfjord","native":null,"lat":"63.39973000","lon":"9.50194000"},{"name":"Steinkjer","native":null,"lat":"64.19303000","lon":"11.38505000"},{"name":"Stjørdal","native":null,"lat":"63.56699000","lon":"11.02730000"},{"name":"Stjørdalshalsen","native":null,"lat":"63.46810000","lon":"10.92618000"},{"name":"Straumen","native":null,"lat":"63.87163000","lon":"11.29617000"},{"name":"Trondheim","native":null,"lat":"63.42811000","lon":"10.39687000"},{"name":"Tydal","native":null,"lat":"63.04477000","lon":"11.65038000"},{"name":"Verdal","native":null,"lat":"63.90023000","lon":"11.72724000"},{"name":"Verran","native":null,"lat":"64.07100000","lon":"11.21795000"},{"name":"Vikna","native":null,"lat":"64.86362000","lon":"11.24198000"}]},{"name":"Vestfold og Telemark","native":null,"cities":[{"name":"Årøysund","native":null,"lat":"59.18321000","lon":"10.45743000"},{"name":"Åsgårdstrand","native":null,"lat":"59.34938000","lon":"10.46948000"},{"name":"Bamble","native":null,"lat":"59.00146000","lon":"9.74573000"},{"name":"Barkåker","native":null,"lat":"59.31859000","lon":"10.38963000"},{"name":"Berger","native":null,"lat":"59.54994000","lon":"10.38641000"},{"name":"Bø","native":null,"lat":"59.41281000","lon":"9.06618000"},{"name":"Dalen","native":null,"lat":"59.44499000","lon":"8.00492000"},{"name":"Drangedal","native":null,"lat":"59.09655000","lon":"9.05960000"},{"name":"Færder","native":null,"lat":"59.22791000","lon":"10.41530000"},{"name":"Fyresdal","native":null,"lat":"59.18651000","lon":"8.08953000"},{"name":"Gullhaug","native":null,"lat":"59.50130000","lon":"10.25224000"},{"name":"Gvarv","native":null,"lat":"59.38767000","lon":"9.17240000"},{"name":"Herre","native":null,"lat":"59.10351000","lon":"9.56195000"},{"name":"Hjartdal","native":null,"lat":"59.61276000","lon":"8.94942000"},{"name":"Holmestrand","native":null,"lat":"59.48976000","lon":"10.31515000"},{"name":"Horten","native":null,"lat":"59.41547000","lon":"10.48527000"},{"name":"Kragerø","native":null,"lat":"58.86792000","lon":"9.41099000"},{"name":"Kviteseid","native":null,"lat":"59.40194000","lon":"8.49459000"},{"name":"Larvik","native":null,"lat":"59.05234000","lon":"10.02701000"},{"name":"Lunde","native":null,"lat":"59.29832000","lon":"9.10268000"},{"name":"Melsomvik","native":null,"lat":"59.22394000","lon":"10.33616000"},{"name":"Nissedal","native":null,"lat":"59.01958000","lon":"8.52127000"},{"name":"Nome","native":null,"lat":"59.28136000","lon":"9.25678000"},{"name":"Notodden","native":null,"lat":"59.55992000","lon":"9.26046000"},{"name":"Porsgrunn","native":null,"lat":"59.14190000","lon":"9.65680000"},{"name":"Prestestranda","native":null,"lat":"59.09773000","lon":"9.05866000"},{"name":"Re","native":null,"lat":"59.35056000","lon":"10.24763000"},{"name":"Rjukan","native":null,"lat":"59.87891000","lon":"8.59411000"},{"name":"Sande","native":null,"lat":"59.59362000","lon":"10.20757000"},{"name":"Sandefjord","native":null,"lat":"59.12881000","lon":"10.21971000"},{"name":"Sauherad","native":null,"lat":"59.39642000","lon":"9.24910000"},{"name":"Seljord","native":null,"lat":"59.48274000","lon":"8.62672000"},{"name":"Selvik","native":null,"lat":"59.56645000","lon":"10.26004000"},{"name":"Sem","native":null,"lat":"59.28230000","lon":"10.33004000"},{"name":"Siljan","native":null,"lat":"59.28251000","lon":"9.73368000"},{"name":"Skien","native":null,"lat":"59.20748000","lon":"9.61052000"},{"name":"Skoppum","native":null,"lat":"59.38613000","lon":"10.41077000"},{"name":"Stavern","native":null,"lat":"59.00000000","lon":"10.03333000"},{"name":"Stokke","native":null,"lat":"59.22255000","lon":"10.30055000"},{"name":"Svelvik","native":null,"lat":"59.60677000","lon":"10.40225000"},{"name":"Tinn","native":null,"lat":"59.83486000","lon":"9.13528000"},{"name":"Tjøme","native":null,"lat":"59.11090000","lon":"10.39330000"},{"name":"Tokke","native":null,"lat":"59.44569000","lon":"8.01388000"},{"name":"Tønsberg","native":null,"lat":"59.26754000","lon":"10.40762000"},{"name":"Ulefoss","native":null,"lat":"59.28245000","lon":"9.26548000"},{"name":"Vinje","native":null,"lat":"59.56924000","lon":"7.98896000"}]},{"name":"Vestland","native":null,"cities":[{"name":"Ågotnes","native":null,"lat":"60.40306000","lon":"5.01927000"},{"name":"Årdal","native":null,"lat":"61.23639000","lon":"7.70204000"},{"name":"Årdalstangen","native":null,"lat":"61.23581000","lon":"7.70370000"},{"name":"Askøy","native":null,"lat":"60.40916000","lon":"5.22599000"},{"name":"Askvoll","native":null,"lat":"61.34850000","lon":"5.05318000"},{"name":"Aurland","native":null,"lat":"60.90556000","lon":"7.18734000"},{"name":"Austevoll","native":null,"lat":"60.09578000","lon":"5.22722000"},{"name":"Austrheim","native":null,"lat":"60.77742000","lon":"4.93227000"},{"name":"Balestrand","native":null,"lat":"61.20809000","lon":"6.53551000"},{"name":"Bergen","native":null,"lat":"60.39200000","lon":"5.32800000"},{"name":"Bømlo","native":null,"lat":"59.79384000","lon":"5.17624000"},{"name":"Bremanger","native":null,"lat":"61.76862000","lon":"5.28907000"},{"name":"Dale","native":null,"lat":"61.36353000","lon":"5.40036000"},{"name":"Dale","native":null,"lat":"60.58639000","lon":"5.81888000"},{"name":"Eid","native":null,"lat":"61.90684000","lon":"5.99321000"},{"name":"Eidfjord","native":null,"lat":"60.46741000","lon":"7.06971000"},{"name":"Eikelandsosen","native":null,"lat":"60.24175000","lon":"5.74433000"},{"name":"Eivindvik","native":null,"lat":"60.98133000","lon":"5.07497000"},{"name":"Espeland","native":null,"lat":"60.38249000","lon":"5.46570000"},{"name":"Etne","native":null,"lat":"59.66472000","lon":"5.93438000"},{"name":"Farnes","native":null,"lat":"61.30850000","lon":"7.79694000"},{"name":"Fedje","native":null,"lat":"60.77873000","lon":"4.71965000"},{"name":"Fitjar","native":null,"lat":"59.91742000","lon":"5.31637000"},{"name":"Fjaler","native":null,"lat":"61.36383000","lon":"5.39808000"},{"name":"Fjell","native":null,"lat":"60.36267000","lon":"5.12194000"},{"name":"Flora","native":null,"lat":"61.59994000","lon":"5.03144000"},{"name":"Florø","native":null,"lat":"61.59957000","lon":"5.03280000"},{"name":"Førde","native":null,"lat":"61.45045000","lon":"5.85397000"},{"name":"Frekhaug","native":null,"lat":"60.51321000","lon":"5.24252000"},{"name":"Fusa","native":null,"lat":"60.24072000","lon":"5.74458000"},{"name":"Gaular","native":null,"lat":"61.32564000","lon":"5.79523000"},{"name":"Gaupne","native":null,"lat":"61.40472000","lon":"7.29458000"},{"name":"Gloppen","native":null,"lat":"61.77728000","lon":"6.21561000"},{"name":"Granvin","native":null,"lat":"60.52629000","lon":"6.72178000"},{"name":"Gulen","native":null,"lat":"60.98192000","lon":"5.07408000"},{"name":"Hagavik","native":null,"lat":"60.18076000","lon":"5.40146000"},{"name":"Hardbakke","native":null,"lat":"61.07562000","lon":"4.84111000"},{"name":"Hermansverk","native":null,"lat":"61.18461000","lon":"6.85016000"},{"name":"Hornindal","native":null,"lat":"61.96925000","lon":"6.52249000"},{"name":"Høyanger","native":null,"lat":"61.21880000","lon":"6.07308000"},{"name":"Hylkje","native":null,"lat":"60.51028000","lon":"5.35444000"},{"name":"Hyllestad","native":null,"lat":"61.17036000","lon":"5.29614000"},{"name":"Indre Arna","native":null,"lat":"60.41768000","lon":"5.47087000"},{"name":"Jondal","native":null,"lat":"60.27620000","lon":"6.25257000"},{"name":"Jølster","native":null,"lat":"61.56923000","lon":"6.48351000"},{"name":"Kinsarvik","native":null,"lat":"60.37567000","lon":"6.71948000"},{"name":"Knappskog","native":null,"lat":"60.37906000","lon":"5.05602000"},{"name":"Knarvik","native":null,"lat":"60.54530000","lon":"5.28208000"},{"name":"Kvam","native":null,"lat":"60.36977000","lon":"6.14344000"},{"name":"Kvinnherad","native":null,"lat":"59.98421000","lon":"6.01227000"},{"name":"Lærdal","native":null,"lat":"61.09842000","lon":"7.48101000"},{"name":"Lærdalsøyri","native":null,"lat":"61.10001000","lon":"7.47374000"},{"name":"Leikanger","native":null,"lat":"61.18556000","lon":"6.82199000"},{"name":"Leirvik","native":null,"lat":"59.77977000","lon":"5.50051000"},{"name":"Lindås","native":null,"lat":"60.54910000","lon":"5.28559000"},{"name":"Lonevåg","native":null,"lat":"60.52556000","lon":"5.49563000"},{"name":"Luster","native":null,"lat":"61.40310000","lon":"7.29793000"},{"name":"Måløy","native":null,"lat":"61.93535000","lon":"5.11362000"},{"name":"Manger","native":null,"lat":"60.64145000","lon":"5.04136000"},{"name":"Masfjorden","native":null,"lat":"60.79947000","lon":"5.30035000"},{"name":"Meland","native":null,"lat":"60.51777000","lon":"5.24063000"},{"name":"Modalen","native":null,"lat":"60.81735000","lon":"5.80790000"},{"name":"Mosterhamn","native":null,"lat":"59.69919000","lon":"5.38585000"},{"name":"Naustdal","native":null,"lat":"61.51034000","lon":"5.71719000"},{"name":"Nordfjordeid","native":null,"lat":"61.91220000","lon":"5.98557000"},{"name":"Norheimsund","native":null,"lat":"60.37089000","lon":"6.14562000"},{"name":"Odda","native":null,"lat":"60.06697000","lon":"6.54541000"},{"name":"Os","native":null,"lat":"60.18547000","lon":"5.46962000"},{"name":"Osterøy","native":null,"lat":"60.52389000","lon":"5.50551000"},{"name":"Øygarden","native":null,"lat":"60.59041000","lon":"4.83890000"},{"name":"Øystese","native":null,"lat":"60.38825000","lon":"6.19251000"},{"name":"Radøy","native":null,"lat":"60.64187000","lon":"5.04110000"},{"name":"Rosendal","native":null,"lat":"59.98589000","lon":"6.01157000"},{"name":"Rubbestadneset","native":null,"lat":"59.81559000","lon":"5.26822000"},{"name":"Sagvåg","native":null,"lat":"59.78139000","lon":"5.38996000"},{"name":"Samnanger","native":null,"lat":"60.37745000","lon":"5.76219000"},{"name":"Sandane","native":null,"lat":"61.77277000","lon":"6.21496000"},{"name":"Sande","native":null,"lat":"61.32511000","lon":"5.79773000"},{"name":"Sandsli","native":null,"lat":"60.30323000","lon":"5.28554000"},{"name":"Selje","native":null,"lat":"62.04263000","lon":"5.34449000"},{"name":"Skogsvågen","native":null,"lat":"60.25512000","lon":"5.10161000"},{"name":"Sogndal","native":null,"lat":"61.23144000","lon":"7.10301000"},{"name":"Solund","native":null,"lat":"61.07394000","lon":"4.83876000"},{"name":"Stord","native":null,"lat":"59.78092000","lon":"5.49980000"},{"name":"Storebø","native":null,"lat":"60.09485000","lon":"5.22705000"},{"name":"Straume","native":null,"lat":"60.36131000","lon":"5.12199000"},{"name":"Stryn","native":null,"lat":"61.90406000","lon":"6.72400000"},{"name":"Sund","native":null,"lat":"60.27019000","lon":"5.07225000"},{"name":"Sveio","native":null,"lat":"59.54303000","lon":"5.35410000"},{"name":"Svelgen","native":null,"lat":"61.76976000","lon":"5.29544000"},{"name":"Syfteland","native":null,"lat":"60.23803000","lon":"5.45285000"},{"name":"Tysnes","native":null,"lat":"60.04076000","lon":"5.53129000"},{"name":"Ullensvang","native":null,"lat":"60.37501000","lon":"6.72073000"},{"name":"Ulvik","native":null,"lat":"60.56719000","lon":"6.91871000"},{"name":"Vågsøy","native":null,"lat":"61.93544000","lon":"5.11402000"},{"name":"Vaksdal","native":null,"lat":"60.59030000","lon":"5.82272000"},{"name":"Vik","native":null,"lat":"61.08863000","lon":"6.58512000"},{"name":"Voss","native":null,"lat":"60.62780000","lon":"6.41831000"},{"name":"Ytre Arna","native":null,"lat":"60.46175000","lon":"5.43265000"},{"name":"Ytrebygda","native":null,"lat":"60.30504000","lon":"5.28236000"}]},{"name":"Viken","native":null,"cities":[{"name":"Ål","native":null,"lat":"60.63028000","lon":"8.56115000"},{"name":"Åneby","native":null,"lat":"60.08926000","lon":"10.86998000"},{"name":"Aremark","native":null,"lat":"59.22198000","lon":"11.69582000"},{"name":"Årnes","native":null,"lat":"60.12237000","lon":"11.47005000"},{"name":"Åros","native":null,"lat":"59.70610000","lon":"10.51092000"},{"name":"Ås","native":null,"lat":"59.66366000","lon":"10.79101000"},{"name":"Ask","native":null,"lat":"60.07131000","lon":"11.03620000"},{"name":"Asker","native":null,"lat":"59.83734000","lon":"10.43595000"},{"name":"Askim","native":null,"lat":"59.58464000","lon":"11.16084000"},{"name":"Auli","native":null,"lat":"60.03450000","lon":"11.36046000"},{"name":"Aurskog-Høland","native":null,"lat":"59.88321000","lon":"11.56491000"},{"name":"Aursmoen","native":null,"lat":"59.92763000","lon":"11.44275000"},{"name":"Bærum","native":null,"lat":"59.88996000","lon":"10.52649000"},{"name":"Billingstad","native":null,"lat":"59.87548000","lon":"10.48230000"},{"name":"Bjørkelangen","native":null,"lat":"59.88357000","lon":"11.56396000"},{"name":"Blakstad","native":null,"lat":"59.81910000","lon":"10.46450000"},{"name":"Drammen","native":null,"lat":"59.74389000","lon":"10.20449000"},{"name":"Drøbak","native":null,"lat":"59.66333000","lon":"10.62975000"},{"name":"Eidsberg","native":null,"lat":"59.55148000","lon":"11.33587000"},{"name":"Eidsvoll","native":null,"lat":"60.32893000","lon":"11.26119000"},{"name":"Enebakk","native":null,"lat":"59.76452000","lon":"11.14492000"},{"name":"Fagerstrand","native":null,"lat":"59.73746000","lon":"10.59404000"},{"name":"Fet","native":null,"lat":"59.92216000","lon":"11.16778000"},{"name":"Fetsund","native":null,"lat":"59.92463000","lon":"11.15711000"},{"name":"Fjellfoten","native":null,"lat":"60.08967000","lon":"11.47222000"},{"name":"Flå","native":null,"lat":"60.42910000","lon":"9.46611000"},{"name":"Flateby","native":null,"lat":"59.82951000","lon":"11.15345000"},{"name":"Flesberg","native":null,"lat":"59.83283000","lon":"9.58308000"},{"name":"Fossby","native":null,"lat":"59.22218000","lon":"11.69928000"},{"name":"Fredrikstad","native":null,"lat":"59.21759000","lon":"10.93787000"},{"name":"Frogn","native":null,"lat":"59.66665000","lon":"10.63566000"},{"name":"Frogner","native":null,"lat":"60.02463000","lon":"11.10284000"},{"name":"Geilo","native":null,"lat":"60.53369000","lon":"8.20539000"},{"name":"Gjerdrum","native":null,"lat":"60.07159000","lon":"11.03597000"},{"name":"Gol","native":null,"lat":"60.69953000","lon":"8.95024000"},{"name":"Halden","native":null,"lat":"59.12258000","lon":"11.38709000"},{"name":"Hemsedal","native":null,"lat":"60.86114000","lon":"8.56537000"},{"name":"Hobøl","native":null,"lat":"59.62252000","lon":"10.94979000"},{"name":"Hol","native":null,"lat":"60.61528000","lon":"8.30194000"},{"name":"Hole","native":null,"lat":"60.08017000","lon":"10.27840000"},{"name":"Hønefoss","native":null,"lat":"60.16804000","lon":"10.25647000"},{"name":"Hurdal","native":null,"lat":"60.43518000","lon":"11.06707000"},{"name":"Hurum","native":null,"lat":"59.61401000","lon":"10.45763000"},{"name":"Hvaler","native":null,"lat":"59.02809000","lon":"11.03110000"},{"name":"Hvittingfoss","native":null,"lat":"59.48572000","lon":"10.01173000"},{"name":"Jessheim","native":null,"lat":"60.14151000","lon":"11.17515000"},{"name":"Karlshus","native":null,"lat":"59.35195000","lon":"10.87226000"},{"name":"Kløfta","native":null,"lat":"60.07407000","lon":"11.13805000"},{"name":"Knappstad","native":null,"lat":"59.62424000","lon":"11.03274000"},{"name":"Kongsberg","native":null,"lat":"59.66516000","lon":"9.64653000"},{"name":"Krødsherad","native":null,"lat":"60.17944000","lon":"9.62124000"},{"name":"Larkollen","native":null,"lat":"59.33196000","lon":"10.66687000"},{"name":"Leirsund","native":null,"lat":"59.99682000","lon":"11.08746000"},{"name":"Lervik","native":null,"lat":"59.27119000","lon":"10.74610000"},{"name":"Lier","native":null,"lat":"59.78663000","lon":"10.24590000"},{"name":"Lillestrøm","native":null,"lat":"59.95597000","lon":"11.04918000"},{"name":"Lørenskog","native":null,"lat":"59.93209000","lon":"10.96079000"},{"name":"Lysaker","native":null,"lat":"59.90994000","lon":"10.63545000"},{"name":"Marker","native":null,"lat":"59.47952000","lon":"11.65917000"},{"name":"Maura","native":null,"lat":"60.25830000","lon":"11.03192000"},{"name":"Modum","native":null,"lat":"59.97346000","lon":"10.00468000"},{"name":"Moss","native":null,"lat":"59.43436000","lon":"10.65968000"},{"name":"Mysen","native":null,"lat":"59.55354000","lon":"11.32578000"},{"name":"Nannestad","native":null,"lat":"60.21707000","lon":"11.01200000"},{"name":"Nedre Eiker","native":null,"lat":"59.75023000","lon":"10.00736000"},{"name":"Nes","native":null,"lat":"60.12252000","lon":"11.46570000"},{"name":"Nes","native":null,"lat":"60.56804000","lon":"9.10169000"},{"name":"Nesbyen","native":null,"lat":"60.56809000","lon":"9.10274000"},{"name":"Neskollen","native":null,"lat":"60.12159000","lon":"11.33926000"},{"name":"Nesodden","native":null,"lat":"59.84220000","lon":"10.64940000"},{"name":"Nesoddtangen","native":null,"lat":"59.86244000","lon":"10.66308000"},{"name":"Nittedal","native":null,"lat":"60.04278000","lon":"10.88167000"},{"name":"Nore og Uvdal","native":null,"lat":"60.26706000","lon":"8.94635000"},{"name":"Noresund","native":null,"lat":"60.17985000","lon":"9.62411000"},{"name":"Oppegård","native":null,"lat":"59.81149000","lon":"10.79712000"},{"name":"Ørje","native":null,"lat":"59.48023000","lon":"11.66016000"},{"name":"Øvre Eiker","native":null,"lat":"59.77111000","lon":"9.90840000"},{"name":"Prestfoss","native":null,"lat":"60.04343000","lon":"9.63520000"},{"name":"Råde","native":null,"lat":"59.35162000","lon":"10.87135000"},{"name":"Råholt","native":null,"lat":"60.27513000","lon":"11.17901000"},{"name":"Rakkestad","native":null,"lat":"59.42822000","lon":"11.34350000"},{"name":"Rælingen","native":null,"lat":"59.92626000","lon":"11.06527000"},{"name":"Ringerike","native":null,"lat":"60.16018000","lon":"10.25660000"},{"name":"Rollag","native":null,"lat":"59.98413000","lon":"9.29489000"},{"name":"Rotnes","native":null,"lat":"60.05707000","lon":"10.86135000"},{"name":"Rømskog","native":null,"lat":"59.74968000","lon":"11.81122000"},{"name":"Røyken","native":null,"lat":"59.74019000","lon":"10.41321000"},{"name":"Rygge","native":null,"lat":"59.40629000","lon":"10.69298000"},{"name":"Ryggebyen","native":null,"lat":"59.37500000","lon":"10.75000000"},{"name":"Sarpsborg","native":null,"lat":"59.28148000","lon":"11.11167000"},{"name":"Sætre","native":null,"lat":"59.68129000","lon":"10.52749000"},{"name":"Sigdal","native":null,"lat":"60.04592000","lon":"9.63673000"},{"name":"Skedsmo","native":null,"lat":"59.95448000","lon":"11.03952000"},{"name":"Ski","native":null,"lat":"59.72049000","lon":"10.83882000"},{"name":"Skiptvet","native":null,"lat":"59.47751000","lon":"11.16171000"},{"name":"Skjærhalden","native":null,"lat":"59.02526000","lon":"11.03685000"},{"name":"Skjeberg","native":null,"lat":"59.21148000","lon":"11.19025000"},{"name":"Skoger","native":null,"lat":"59.71327000","lon":"10.25356000"},{"name":"Skui","native":null,"lat":"59.92746000","lon":"10.44750000"},{"name":"Sørum","native":null,"lat":"59.98709000","lon":"11.24019000"},{"name":"Sørumsand","native":null,"lat":"59.98621000","lon":"11.24154000"},{"name":"Spydeberg","native":null,"lat":"59.62028000","lon":"11.08069000"},{"name":"Tofte","native":null,"lat":"59.54275000","lon":"10.56138000"},{"name":"Tomter","native":null,"lat":"59.65910000","lon":"10.99487000"},{"name":"Tranby","native":null,"lat":"59.80850000","lon":"10.26114000"},{"name":"Trøgstad","native":null,"lat":"59.64016000","lon":"11.31890000"},{"name":"Ullensaker","native":null,"lat":"60.14401000","lon":"11.17441000"},{"name":"Våler","native":null,"lat":"59.48870000","lon":"10.86551000"},{"name":"Vestby","native":null,"lat":"59.60228000","lon":"10.74807000"},{"name":"Vikersund","native":null,"lat":"59.96838000","lon":"9.99107000"}]}]