[{"state":"Central Region","name":"Banepā","lat":"27.63245000","lon":"85.52192000"},
{"state":"Central Region","name":"Bharatpur","lat":"27.67680000","lon":"84.43589000"},
{"state":"Central Region","name":"Birgañj","lat":"27.01709000","lon":"84.88080000"},
{"state":"Central Region","name":"Dhulikhel","lat":"27.62210000","lon":"85.54281000"},
{"state":"Central Region","name":"Gaur","lat":"26.76448000","lon":"85.27841000"},
{"state":"Central Region","name":"Hari Bdr Tamang House","lat":"27.62890000","lon":"85.45893000"},
{"state":"Central Region","name":"Hetauda","lat":"27.42839000","lon":"85.03219000"},
{"state":"Central Region","name":"Jaleshwar","lat":"26.64921000","lon":"85.80017000"},
{"state":"Central Region","name":"Janakpur","lat":"26.72882000","lon":"85.92628000"},
{"state":"Central Region","name":"kankrabari Dovan","lat":"27.62881000","lon":"85.45934000"},
{"state":"Central Region","name":"Kathmandu","lat":"27.70169000","lon":"85.32060000"},
{"state":"Central Region","name":"Kirtipur","lat":"27.67872000","lon":"85.27750000"},
{"state":"Central Region","name":"Madhyapur Thimi","lat":"27.68056000","lon":"85.38750000"},
{"state":"Central Region","name":"Malaṅgawā","lat":"26.85658000","lon":"85.55940000"},
{"state":"Central Region","name":"Nagarkot","lat":"27.71522000","lon":"85.52075000"},
{"state":"Central Region","name":"Panauti","lat":"27.58466000","lon":"85.52122000"},
{"state":"Central Region","name":"Pātan","lat":"27.67658000","lon":"85.31417000"},
{"state":"Central Region","name":"Rāmechhāp","lat":"27.32560000","lon":"86.08768000"},
{"state":"Eastern Development Region","name":"Bhadrapur","lat":"26.54404000","lon":"88.09436000"},
{"state":"Eastern Development Region","name":"Bhojpur","lat":"27.17150000","lon":"87.04607000"},
{"state":"Eastern Development Region","name":"Biratnagar","lat":"26.45505000","lon":"87.27007000"},
{"state":"Eastern Development Region","name":"Dhankutā","lat":"26.98333000","lon":"87.33333000"},
{"state":"Eastern Development Region","name":"Dharān","lat":"26.81436000","lon":"87.27972000"},
{"state":"Eastern Development Region","name":"Ilām","lat":"26.90943000","lon":"87.92824000"},
{"state":"Eastern Development Region","name":"Inaruwa","lat":"26.60675000","lon":"87.14780000"},
{"state":"Eastern Development Region","name":"Khanbari","lat":"27.37604000","lon":"87.20767000"},
{"state":"Eastern Development Region","name":"Lahān","lat":"26.72022000","lon":"86.48258000"},
{"state":"Eastern Development Region","name":"Lobujya","lat":"27.95000000","lon":"86.81667000"},
{"state":"Eastern Development Region","name":"Namche Bazar","lat":"27.80528000","lon":"86.71058000"},
{"state":"Eastern Development Region","name":"Rājbirāj","lat":"26.53968000","lon":"86.74796000"},
{"state":"Eastern Development Region","name":"Siraha","lat":"26.65422000","lon":"86.20795000"},
{"state":"Eastern Development Region","name":"Titahari","lat":"26.66371000","lon":"87.27403000"},
{"state":"Eastern Development Region","name":"Triyuga","lat":"26.79190000","lon":"86.69900000"},
{"state":"Far-Western Development Region","name":"Dadeldhurā","lat":"29.29842000","lon":"80.58059000"},
{"state":"Far-Western Development Region","name":"Dhangaḍhi̇̄","lat":"28.70137000","lon":"80.58975000"},
{"state":"Far-Western Development Region","name":"Dipayal","lat":"29.26083000","lon":"80.94000000"},
{"state":"Far-Western Development Region","name":"Mahendranagar","lat":"28.96399000","lon":"80.17715000"},
{"state":"Far-Western Development Region","name":"Ṭikāpur","lat":"28.52823000","lon":"81.11798000"},
{"state":"Mid-Western Region","name":"Bhojpur","lat":"27.93565000","lon":"81.77555000"},
{"state":"Mid-Western Region","name":"Birendranagar","lat":"28.60194000","lon":"81.63389000"},
{"state":"Mid-Western Region","name":"Dailekh","lat":"28.84434000","lon":"81.71011000"},
{"state":"Mid-Western Region","name":"Gulariyā","lat":"28.20580000","lon":"81.34532000"},
{"state":"Mid-Western Region","name":"Jumla","lat":"29.27472000","lon":"82.18383000"},
{"state":"Mid-Western Region","name":"Nepalgunj","lat":"28.05000000","lon":"81.61667000"},
{"state":"Mid-Western Region","name":"Tulsīpur","lat":"28.13099000","lon":"82.29726000"},
{"state":"Western Region","name":"Bāglung","lat":"28.27189000","lon":"83.58975000"},
{"state":"Western Region","name":"Bhattarai Danda","lat":"27.88333000","lon":"83.93333000"},
{"state":"Western Region","name":"Butwāl","lat":"27.70055000","lon":"83.44836000"},
{"state":"Western Region","name":"Chitre","lat":"28.42673000","lon":"83.69076000"},
{"state":"Western Region","name":"Dārchulā","lat":"29.83000000","lon":"80.55000000"},
{"state":"Western Region","name":"Dihi","lat":"27.87552000","lon":"83.92759000"},
{"state":"Western Region","name":"Pokhara","lat":"28.26689000","lon":"83.96851000"},
{"state":"Western Region","name":"Siddharthanagar","lat":"27.50000000","lon":"83.45000000"},
{"state":"Western Region","name":"Tānsen","lat":"27.86731000","lon":"83.54670000"},
{"state":"Western Region","name":"Wāliṅ","lat":"27.98370000","lon":"83.75925000"}]