[{"state":"Aiwo District","name":"Arijejen","lat":"-0.52545000","lon":"166.91247000"},
{"state":"Anabar District","name":"Anabar","lat":"-0.50845000","lon":"166.95326000"},
{"state":"Baiti District","name":"Baiti","lat":"-0.50803000","lon":"166.92945000"},
{"state":"Ijuw District","name":"Ijuw","lat":"-0.52100000","lon":"166.95813000"},
{"state":"Meneng District","name":"Menen","lat":"-0.54539000","lon":"166.94871000"},
{"state":"Uaboe District","name":"Uaboe","lat":"-0.51393000","lon":"166.92384000"},
{"state":"Yaren District","name":"Yaren","lat":"-0.55085000","lon":"166.92520000"}]