[{"state":"Auckland Region","name":"Auckland","lat":"-36.84853000","lon":"174.76349000"},
{"state":"Auckland Region","name":"Mangere","lat":"-36.96807000","lon":"174.79875000"},
{"state":"Auckland Region","name":"Manukau City","lat":"-36.99282000","lon":"174.87986000"},
{"state":"Auckland Region","name":"Muriwai Beach","lat":"-36.81667000","lon":"174.45000000"},
{"state":"Auckland Region","name":"Murrays Bay","lat":"-36.72819000","lon":"174.75019000"},
{"state":"Auckland Region","name":"North Shore","lat":"-36.80000000","lon":"174.75000000"},
{"state":"Auckland Region","name":"Pakuranga","lat":"-36.88333000","lon":"174.91667000"},
{"state":"Auckland Region","name":"Papakura","lat":"-37.06573000","lon":"174.94393000"},
{"state":"Auckland Region","name":"Parakai","lat":"-36.65000000","lon":"174.43333000"},
{"state":"Auckland Region","name":"Pukekohe East","lat":"-37.20000000","lon":"174.95000000"},
{"state":"Auckland Region","name":"Red Hill","lat":"-37.05820000","lon":"174.97019000"},
{"state":"Auckland Region","name":"Rosebank","lat":"-36.87495000","lon":"174.66991000"},
{"state":"Auckland Region","name":"Rothesay Bay","lat":"-36.72602000","lon":"174.74064000"},
{"state":"Auckland Region","name":"Takanini","lat":"-37.04820000","lon":"174.90019000"},
{"state":"Auckland Region","name":"Tamaki","lat":"-36.88820000","lon":"174.86019000"},
{"state":"Auckland Region","name":"Titirangi","lat":"-36.93754000","lon":"174.65584000"},
{"state":"Auckland Region","name":"Waitakere","lat":"-36.91754000","lon":"174.65773000"},
{"state":"Auckland Region","name":"Waiuku","lat":"-37.24806000","lon":"174.73489000"},
{"state":"Auckland Region","name":"Warkworth","lat":"-36.40000000","lon":"174.66667000"},
{"state":"Auckland Region","name":"Wellsford","lat":"-36.28333000","lon":"174.51667000"},
{"state":"Auckland Region","name":"Wiri","lat":"-36.99820000","lon":"174.86019000"},
{"state":"Bay of Plenty Region","name":"Edgecumbe","lat":"-37.98333000","lon":"176.83333000"},
{"state":"Bay of Plenty Region","name":"Katikati","lat":"-37.55000000","lon":"175.91667000"},
{"state":"Bay of Plenty Region","name":"Kawerau","lat":"-38.10000000","lon":"176.70000000"},
{"state":"Bay of Plenty Region","name":"Maketu","lat":"-37.76667000","lon":"176.45000000"},
{"state":"Bay of Plenty Region","name":"Murupara","lat":"-38.46667000","lon":"176.70000000"},
{"state":"Bay of Plenty Region","name":"Opotiki","lat":"-38.00915000","lon":"177.28706000"},
{"state":"Bay of Plenty Region","name":"Rotorua","lat":"-38.13874000","lon":"176.24516000"},
{"state":"Bay of Plenty Region","name":"Tauranga","lat":"-37.68611000","lon":"176.16667000"},
{"state":"Bay of Plenty Region","name":"Waihi Beach","lat":"-37.40000000","lon":"175.93333000"},
{"state":"Bay of Plenty Region","name":"Whakatane","lat":"-37.95855000","lon":"176.98545000"},
{"state":"Canterbury Region","name":"Amberley","lat":"-43.15589000","lon":"172.72975000"},
{"state":"Canterbury Region","name":"Ashburton","lat":"-43.89834000","lon":"171.73011000"},
{"state":"Canterbury Region","name":"Ashburton District","lat":"-43.90000000","lon":"171.75000000"},
{"state":"Canterbury Region","name":"Burnham","lat":"-43.61667000","lon":"172.31667000"},
{"state":"Canterbury Region","name":"Christchurch","lat":"-43.53333000","lon":"172.63333000"},
{"state":"Canterbury Region","name":"Christchurch City","lat":"-43.64578000","lon":"172.74586000"},
{"state":"Canterbury Region","name":"Darfield","lat":"-43.48333000","lon":"172.11667000"},
{"state":"Canterbury Region","name":"Geraldine","lat":"-44.09061000","lon":"171.24458000"},
{"state":"Canterbury Region","name":"Kaiapoi","lat":"-43.37832000","lon":"172.64013000"},
{"state":"Canterbury Region","name":"Leeston","lat":"-43.76667000","lon":"172.30000000"},
{"state":"Canterbury Region","name":"Lincoln","lat":"-43.65000000","lon":"172.48333000"},
{"state":"Canterbury Region","name":"Mackenzie District","lat":"-43.93987000","lon":"170.51913000"},
{"state":"Canterbury Region","name":"Methven","lat":"-43.63333000","lon":"171.65000000"},
{"state":"Canterbury Region","name":"Oxford","lat":"-43.30000000","lon":"172.18333000"},
{"state":"Canterbury Region","name":"Pleasant Point","lat":"-44.26667000","lon":"171.13333000"},
{"state":"Canterbury Region","name":"Prebbleton","lat":"-43.58333000","lon":"172.51667000"},
{"state":"Canterbury Region","name":"Rakaia","lat":"-43.75000000","lon":"172.01667000"},
{"state":"Canterbury Region","name":"Rolleston","lat":"-43.58333000","lon":"172.38333000"},
{"state":"Canterbury Region","name":"Selwyn District","lat":"-43.32226000","lon":"171.87064000"},
{"state":"Canterbury Region","name":"Timaru","lat":"-44.39672000","lon":"171.25364000"},
{"state":"Canterbury Region","name":"Timaru District","lat":"-44.40000000","lon":"171.21667000"},
{"state":"Canterbury Region","name":"Tinwald","lat":"-43.91667000","lon":"171.71667000"},
{"state":"Canterbury Region","name":"Waimakariri District","lat":"-43.20750000","lon":"172.33286000"},
{"state":"Canterbury Region","name":"Woodend","lat":"-43.31667000","lon":"172.66667000"},
{"state":"Chatham Islands","name":"Waitangi","lat":"-43.95353000","lon":"-176.55973000"},
{"state":"Gisborne District","name":"Gisborne","lat":"-38.65333000","lon":"178.00417000"},
{"state":"Hawke's Bay Region","name":"Hastings","lat":"-39.63810000","lon":"176.84918000"},
{"state":"Hawke's Bay Region","name":"Napier","lat":"-39.49260000","lon":"176.91233000"},
{"state":"Hawke's Bay Region","name":"Taradale","lat":"-39.53333000","lon":"176.85000000"},
{"state":"Hawke's Bay Region","name":"Wairoa","lat":"-39.03333000","lon":"177.36667000"},
{"state":"Manawatu-Wanganui Region","name":"Bulls","lat":"-40.17487000","lon":"175.38463000"},
{"state":"Manawatu-Wanganui Region","name":"Foxton","lat":"-40.46667000","lon":"175.30000000"},
{"state":"Manawatu-Wanganui Region","name":"Horowhenua District","lat":"-40.57733000","lon":"175.38071000"},
{"state":"Manawatu-Wanganui Region","name":"Levin","lat":"-40.63333000","lon":"175.27500000"},
{"state":"Manawatu-Wanganui Region","name":"Manawatu District","lat":"-40.11979000","lon":"175.67426000"},
{"state":"Manawatu-Wanganui Region","name":"Palmerston North","lat":"-40.35636000","lon":"175.61113000"},
{"state":"Manawatu-Wanganui Region","name":"Waiouru","lat":"-39.47753000","lon":"175.66834000"},
{"state":"Manawatu-Wanganui Region","name":"Wanganui","lat":"-39.93333000","lon":"175.05000000"},
{"state":"Marlborough Region","name":"Blenheim","lat":"-41.51603000","lon":"173.95280000"},
{"state":"Marlborough Region","name":"Picton","lat":"-41.29067000","lon":"174.00801000"},
{"state":"Nelson Region","name":"Nelson","lat":"-41.27078000","lon":"173.28404000"},
{"state":"Northland Region","name":"Ahipara","lat":"-35.16667000","lon":"173.16667000"},
{"state":"Northland Region","name":"Dargaville","lat":"-35.93333000","lon":"173.88333000"},
{"state":"Northland Region","name":"Far North District","lat":"-35.03359000","lon":"173.48841000"},
{"state":"Northland Region","name":"Kaipara District","lat":"-35.99546000","lon":"174.04688000"},
{"state":"Northland Region","name":"Kaitaia","lat":"-35.11485000","lon":"173.26366000"},
{"state":"Northland Region","name":"Kawakawa","lat":"-35.38333000","lon":"174.06667000"},
{"state":"Northland Region","name":"Kerikeri","lat":"-35.22676000","lon":"173.94739000"},
{"state":"Northland Region","name":"Maungatapere","lat":"-35.75000000","lon":"174.20000000"},
{"state":"Northland Region","name":"Moerewa","lat":"-35.38333000","lon":"174.03333000"},
{"state":"Northland Region","name":"Ngunguru","lat":"-35.61667000","lon":"174.50000000"},
{"state":"Northland Region","name":"Paihia","lat":"-35.28067000","lon":"174.09103000"},
{"state":"Northland Region","name":"Ruakaka","lat":"-35.90818000","lon":"174.45019000"},
{"state":"Northland Region","name":"Taipa","lat":"-34.99604000","lon":"173.46665000"},
{"state":"Northland Region","name":"Waimate North","lat":"-35.31667000","lon":"173.88333000"},
{"state":"Northland Region","name":"Whangarei","lat":"-35.73167000","lon":"174.32391000"},
{"state":"Otago Region","name":"Arrowtown","lat":"-44.93837000","lon":"168.81007000"},
{"state":"Otago Region","name":"Balclutha","lat":"-46.23389000","lon":"169.75000000"},
{"state":"Otago Region","name":"Clutha District","lat":"-46.03883000","lon":"169.60617000"},
{"state":"Otago Region","name":"Cromwell","lat":"-45.03837000","lon":"169.20008000"},
{"state":"Otago Region","name":"Dunedin","lat":"-45.87416000","lon":"170.50361000"},
{"state":"Otago Region","name":"Kingston","lat":"-45.33288000","lon":"168.71476000"},
{"state":"Otago Region","name":"Milton","lat":"-46.12083000","lon":"169.96944000"},
{"state":"Otago Region","name":"Oamaru","lat":"-45.09758000","lon":"170.97087000"},
{"state":"Otago Region","name":"Papatowai","lat":"-46.56069000","lon":"169.47068000"},
{"state":"Otago Region","name":"Portobello","lat":"-45.85000000","lon":"170.65000000"},
{"state":"Otago Region","name":"Queenstown","lat":"-45.03023000","lon":"168.66271000"},
{"state":"Otago Region","name":"Wanaka","lat":"-44.70000000","lon":"169.15000000"},
{"state":"Southland Region","name":"Bluff","lat":"-46.60000000","lon":"168.33333000"},
{"state":"Southland Region","name":"Gore","lat":"-46.10282000","lon":"168.94357000"},
{"state":"Southland Region","name":"Invercargill","lat":"-46.40000000","lon":"168.35000000"},
{"state":"Southland Region","name":"Riverton","lat":"-46.35000000","lon":"168.01667000"},
{"state":"Southland Region","name":"Southland District","lat":"-45.77256000","lon":"167.85266000"},
{"state":"Southland Region","name":"Te Anau","lat":"-45.41667000","lon":"167.71667000"},
{"state":"Southland Region","name":"Winton","lat":"-46.15000000","lon":"168.33333000"},
{"state":"Taranaki Region","name":"Eltham","lat":"-39.42917000","lon":"174.30000000"},
{"state":"Taranaki Region","name":"Hawera","lat":"-39.59167000","lon":"174.28333000"},
{"state":"Taranaki Region","name":"New Plymouth","lat":"-39.06667000","lon":"174.08333000"},
{"state":"Taranaki Region","name":"New Plymouth District","lat":"-39.05865000","lon":"174.10309000"},
{"state":"Taranaki Region","name":"Opunake","lat":"-39.45556000","lon":"173.85833000"},
{"state":"Taranaki Region","name":"Patea","lat":"-39.75833000","lon":"174.48333000"},
{"state":"Taranaki Region","name":"South Taranaki District","lat":"-39.52156000","lon":"174.37160000"},
{"state":"Taranaki Region","name":"Waitara","lat":"-39.00158000","lon":"174.23836000"},
{"state":"Tasman District","name":"Brightwater","lat":"-41.38333000","lon":"173.11667000"},
{"state":"Tasman District","name":"Mapua","lat":"-41.25000000","lon":"173.10000000"},
{"state":"Tasman District","name":"Motueka","lat":"-41.13333000","lon":"173.01667000"},
{"state":"Tasman District","name":"Richmond","lat":"-41.33333000","lon":"173.18333000"},
{"state":"Tasman District","name":"Takaka","lat":"-40.85000000","lon":"172.80000000"},
{"state":"Tasman District","name":"Wakefield","lat":"-41.40000000","lon":"173.05000000"},
{"state":"Waikato Region","name":"Cambridge","lat":"-37.87822000","lon":"175.44020000"},
{"state":"Waikato Region","name":"Coromandel","lat":"-36.76110000","lon":"175.49634000"},
{"state":"Waikato Region","name":"Hamilton","lat":"-37.78333000","lon":"175.28333000"},
{"state":"Waikato Region","name":"Matamata","lat":"-37.81060000","lon":"175.76237000"},
{"state":"Waikato Region","name":"Ngaruawahia","lat":"-37.66738000","lon":"175.15554000"},
{"state":"Waikato Region","name":"Ngatea","lat":"-37.28333000","lon":"175.50000000"},
{"state":"Waikato Region","name":"Otorohanga","lat":"-38.18333000","lon":"175.20000000"},
{"state":"Waikato Region","name":"Paeroa","lat":"-37.36667000","lon":"175.66667000"},
{"state":"Waikato Region","name":"Raglan","lat":"-37.80000000","lon":"174.88333000"},
{"state":"Waikato Region","name":"South Waikato District","lat":"-38.16797000","lon":"175.88624000"},
{"state":"Waikato Region","name":"Tairua","lat":"-37.01667000","lon":"175.85000000"},
{"state":"Waikato Region","name":"Taupo","lat":"-38.68333000","lon":"176.08333000"},
{"state":"Waikato Region","name":"Te Kauwhata","lat":"-37.40000000","lon":"175.15000000"},
{"state":"Waikato Region","name":"Thames","lat":"-37.13832000","lon":"175.54011000"},
{"state":"Waikato Region","name":"Tokoroa","lat":"-38.23333000","lon":"175.86667000"},
{"state":"Waikato Region","name":"Turangi","lat":"-38.99037000","lon":"175.80837000"},
{"state":"Waikato Region","name":"Waihi","lat":"-37.38333000","lon":"175.83333000"},
{"state":"Waikato Region","name":"Whangamata","lat":"-37.20000000","lon":"175.86667000"},
{"state":"Waikato Region","name":"Whitianga","lat":"-36.83333000","lon":"175.70000000"},
{"state":"Wellington Region","name":"Brooklyn","lat":"-41.30586000","lon":"174.76257000"},
{"state":"Wellington Region","name":"Castlepoint","lat":"-40.90000000","lon":"176.21667000"},
{"state":"Wellington Region","name":"Kapiti Coast District","lat":"-40.85682000","lon":"175.14690000"},
{"state":"Wellington Region","name":"Kelburn","lat":"-41.28333000","lon":"174.76667000"},
{"state":"Wellington Region","name":"Khandallah","lat":"-41.24500000","lon":"174.79422000"},
{"state":"Wellington Region","name":"Lower Hutt","lat":"-41.21667000","lon":"174.91667000"},
{"state":"Wellington Region","name":"Masterton","lat":"-40.95972000","lon":"175.65750000"},
{"state":"Wellington Region","name":"Otaki","lat":"-40.75833000","lon":"175.15000000"},
{"state":"Wellington Region","name":"Paraparaumu","lat":"-40.91667000","lon":"175.01667000"},
{"state":"Wellington Region","name":"Petone","lat":"-41.22827000","lon":"174.87019000"},
{"state":"Wellington Region","name":"Porirua","lat":"-41.13333000","lon":"174.85000000"},
{"state":"Wellington Region","name":"South Wairarapa District","lat":"-41.26731000","lon":"175.38442000"},
{"state":"Wellington Region","name":"Upper Hutt","lat":"-41.13827000","lon":"175.05020000"},
{"state":"Wellington Region","name":"Waipawa","lat":"-41.41222000","lon":"175.51528000"},
{"state":"Wellington Region","name":"Wellington","lat":"-41.28664000","lon":"174.77557000"},
{"state":"Wellington Region","name":"Wellington City","lat":"-41.25300000","lon":"174.75424000"},
{"state":"West Coast Region","name":"Greymouth","lat":"-42.46667000","lon":"171.20000000"},
{"state":"West Coast Region","name":"Hokitika","lat":"-42.71667000","lon":"170.96667000"},
{"state":"West Coast Region","name":"Westport","lat":"-41.75262000","lon":"171.60370000"}]