[{"state":"Bocas del Toro Province","name":"Almirante","lat":"9.30091000","lon":"-82.40180000"},
{"state":"Bocas del Toro Province","name":"Barranco","lat":"9.51984000","lon":"-82.70424000"},
{"state":"Bocas del Toro Province","name":"Barranco Adentro","lat":"9.52757000","lon":"-82.73344000"},
{"state":"Bocas del Toro Province","name":"Bastimentos","lat":"9.34707000","lon":"-82.20880000"},
{"state":"Bocas del Toro Province","name":"Bocas del Toro","lat":"9.34031000","lon":"-82.24204000"},
{"state":"Bocas del Toro Province","name":"Cauchero","lat":"9.15226000","lon":"-82.26450000"},
{"state":"Bocas del Toro Province","name":"Changuinola","lat":"9.43000000","lon":"-82.52000000"},
{"state":"Bocas del Toro Province","name":"Chiriquí Grande","lat":"8.94557000","lon":"-82.11769000"},
{"state":"Bocas del Toro Province","name":"Distrito Chiriquí Grande","lat":"8.94748000","lon":"-82.12418000"},
{"state":"Bocas del Toro Province","name":"Distrito de Bocas del Toro","lat":"9.36235000","lon":"-82.26288000"},
{"state":"Bocas del Toro Province","name":"Distrito de Changuinola","lat":"9.25000000","lon":"-82.63333000"},
{"state":"Bocas del Toro Province","name":"El Empalme","lat":"9.41667000","lon":"-82.51667000"},
{"state":"Bocas del Toro Province","name":"El Silencio","lat":"9.37222000","lon":"-82.52877000"},
{"state":"Bocas del Toro Province","name":"Guabito","lat":"9.48968000","lon":"-82.61279000"},
{"state":"Bocas del Toro Province","name":"Isla Bastimentos","lat":"9.30000000","lon":"-82.13333000"},
{"state":"Bocas del Toro Province","name":"La Mesa","lat":"9.49587000","lon":"-82.67534000"},
{"state":"Bocas del Toro Province","name":"Miramar","lat":"8.99482000","lon":"-82.24147000"},
{"state":"Bocas del Toro Province","name":"Punta Laurel","lat":"9.14100000","lon":"-82.12717000"},
{"state":"Bocas del Toro Province","name":"Punta Peña","lat":"8.91659000","lon":"-82.18488000"},
{"state":"Bocas del Toro Province","name":"Punta Róbalo","lat":"9.03631000","lon":"-82.24952000"},
{"state":"Bocas del Toro Province","name":"Valle del Risco","lat":"9.23064000","lon":"-82.42748000"},
{"state":"Chiriquí Province","name":"Alanje","lat":"8.39791000","lon":"-82.55947000"},
{"state":"Chiriquí Province","name":"Algarrobos Arriba","lat":"8.51550000","lon":"-82.42263000"},
{"state":"Chiriquí Province","name":"Alto Boquete","lat":"8.73458000","lon":"-82.43213000"},
{"state":"Chiriquí Province","name":"Aserrío de Gariché","lat":"8.48257000","lon":"-82.79086000"},
{"state":"Chiriquí Province","name":"Bágala","lat":"8.46399000","lon":"-82.52617000"},
{"state":"Chiriquí Province","name":"Bajo Boquete","lat":"8.77058000","lon":"-82.43306000"},
{"state":"Chiriquí Province","name":"Barrio Guadalupe","lat":"8.86482000","lon":"-82.56523000"},
{"state":"Chiriquí Province","name":"Bijagual","lat":"8.51486000","lon":"-82.33361000"},
{"state":"Chiriquí Province","name":"Boca Chica","lat":"8.21911000","lon":"-82.21592000"},
{"state":"Chiriquí Province","name":"Boca del Monte","lat":"8.35296000","lon":"-82.11379000"},
{"state":"Chiriquí Province","name":"Boquerón","lat":"8.50510000","lon":"-82.57025000"},
{"state":"Chiriquí Province","name":"Boquete","lat":"8.78024000","lon":"-82.44136000"},
{"state":"Chiriquí Province","name":"Breñón","lat":"8.62491000","lon":"-82.81277000"},
{"state":"Chiriquí Province","name":"Bugaba","lat":"8.48255000","lon":"-82.61991000"},
{"state":"Chiriquí Province","name":"Bugabita Arriba","lat":"8.52143000","lon":"-82.63638000"},
{"state":"Chiriquí Province","name":"Caimito","lat":"8.54162000","lon":"-82.41900000"},
{"state":"Chiriquí Province","name":"Caldera","lat":"8.64907000","lon":"-82.38058000"},
{"state":"Chiriquí Province","name":"Cañas Gordas","lat":"8.74309000","lon":"-82.91275000"},
{"state":"Chiriquí Province","name":"Celmira","lat":"8.54026000","lon":"-82.80022000"},
{"state":"Chiriquí Province","name":"Cerro Punta","lat":"8.84968000","lon":"-82.57261000"},
{"state":"Chiriquí Province","name":"Cerro Viejo","lat":"8.25349000","lon":"-81.57658000"},
{"state":"Chiriquí Province","name":"Chiriquí","lat":"8.39291000","lon":"-82.31993000"},
{"state":"Chiriquí Province","name":"Cochea Abajo","lat":"8.50512000","lon":"-82.35878000"},
{"state":"Chiriquí Province","name":"Cordillera","lat":"8.70683000","lon":"-82.60327000"},
{"state":"Chiriquí Province","name":"David","lat":"8.42729000","lon":"-82.43085000"},
{"state":"Chiriquí Province","name":"Distrito de Alanje","lat":"8.39842000","lon":"-82.64065000"},
{"state":"Chiriquí Province","name":"Distrito de Barú","lat":"8.29482000","lon":"-82.92726000"},
{"state":"Chiriquí Province","name":"Distrito de Boquerón","lat":"8.61667000","lon":"-82.56667000"},
{"state":"Chiriquí Province","name":"Distrito de Boquete","lat":"8.74896000","lon":"-82.36842000"},
{"state":"Chiriquí Province","name":"Distrito de Bugaba","lat":"8.68786000","lon":"-82.67937000"},
{"state":"Chiriquí Province","name":"Distrito de David","lat":"8.40000000","lon":"-82.40000000"},
{"state":"Chiriquí Province","name":"Distrito de Dolega","lat":"8.61667000","lon":"-82.45000000"},
{"state":"Chiriquí Province","name":"Distrito de Gualaca","lat":"8.57398000","lon":"-82.22207000"},
{"state":"Chiriquí Province","name":"Distrito de Remedios","lat":"8.20253000","lon":"-81.81163000"},
{"state":"Chiriquí Province","name":"Distrito de Renacimiento","lat":"8.71667000","lon":"-82.76667000"},
{"state":"Chiriquí Province","name":"Distrito de San Félix","lat":"8.27768000","lon":"-81.87377000"},
{"state":"Chiriquí Province","name":"Distrito de San Lorenzo","lat":"8.29366000","lon":"-82.08922000"},
{"state":"Chiriquí Province","name":"Distrito de Tolé","lat":"8.19015000","lon":"-81.66007000"},
{"state":"Chiriquí Province","name":"Divalá","lat":"8.41066000","lon":"-82.71332000"},
{"state":"Chiriquí Province","name":"Dolega District","lat":"8.56667000","lon":"-82.41407000"},
{"state":"Chiriquí Province","name":"El Nancito","lat":"8.23811000","lon":"-81.73218000"},
{"state":"Chiriquí Province","name":"El Palmar","lat":"8.30098000","lon":"-82.85344000"},
{"state":"Chiriquí Province","name":"El Porvenir","lat":"8.22919000","lon":"-81.83278000"},
{"state":"Chiriquí Province","name":"El Tejar","lat":"8.42973000","lon":"-82.57294000"},
{"state":"Chiriquí Province","name":"Finca Blanco","lat":"8.37979000","lon":"-82.87385000"},
{"state":"Chiriquí Province","name":"Gómez","lat":"8.56085000","lon":"-82.74142000"},
{"state":"Chiriquí Province","name":"Guabal","lat":"8.57466000","lon":"-82.53730000"},
{"state":"Chiriquí Province","name":"Guaca Arriba","lat":"8.53733000","lon":"-82.49281000"},
{"state":"Chiriquí Province","name":"Gualaca","lat":"8.53006000","lon":"-82.29959000"},
{"state":"Chiriquí Province","name":"Guarumal","lat":"8.34523000","lon":"-82.53205000"},
{"state":"Chiriquí Province","name":"Guayabal","lat":"8.62193000","lon":"-82.57935000"},
{"state":"Chiriquí Province","name":"Horconcitos","lat":"8.31142000","lon":"-82.15102000"},
{"state":"Chiriquí Province","name":"La Concepción","lat":"8.51212000","lon":"-82.61858000"},
{"state":"Chiriquí Province","name":"La Esperanza","lat":"8.40344000","lon":"-82.79197000"},
{"state":"Chiriquí Province","name":"La Estrella","lat":"8.51572000","lon":"-82.67212000"},
{"state":"Chiriquí Province","name":"Lajas Adentro","lat":"8.24981000","lon":"-81.87779000"},
{"state":"Chiriquí Province","name":"Lajas de Tolé","lat":"8.16994000","lon":"-81.69654000"},
{"state":"Chiriquí Province","name":"Las Lajas","lat":"8.24184000","lon":"-81.86931000"},
{"state":"Chiriquí Province","name":"Las Lomas","lat":"8.42927000","lon":"-82.38743000"},
{"state":"Chiriquí Province","name":"Limones","lat":"8.10007000","lon":"-82.86679000"},
{"state":"Chiriquí Province","name":"Los Algarrobos","lat":"8.49601000","lon":"-82.42417000"},
{"state":"Chiriquí Province","name":"Los Anastacios","lat":"8.53027000","lon":"-82.42295000"},
{"state":"Chiriquí Province","name":"Los Ángeles","lat":"8.52271000","lon":"-82.19997000"},
{"state":"Chiriquí Province","name":"Los Naranjos","lat":"8.79210000","lon":"-82.44665000"},
{"state":"Chiriquí Province","name":"Manaca Civil","lat":"8.32458000","lon":"-82.81570000"},
{"state":"Chiriquí Province","name":"Manaca Norte","lat":"8.33419000","lon":"-82.81003000"},
{"state":"Chiriquí Province","name":"Mata del Nance","lat":"8.45056000","lon":"-82.40057000"},
{"state":"Chiriquí Province","name":"Monte Lirio","lat":"8.78935000","lon":"-82.82865000"},
{"state":"Chiriquí Province","name":"Nuevo San Carlitos","lat":"8.45698000","lon":"-82.43712000"},
{"state":"Chiriquí Province","name":"Paja de Sombrero","lat":"8.68335000","lon":"-82.31911000"},
{"state":"Chiriquí Province","name":"Palmira","lat":"8.73401000","lon":"-82.45887000"},
{"state":"Chiriquí Province","name":"Palmira Centro","lat":"8.73956000","lon":"-82.45228000"},
{"state":"Chiriquí Province","name":"Paraíso","lat":"8.65842000","lon":"-82.58625000"},
{"state":"Chiriquí Province","name":"Paso Canoas Arriba","lat":"8.56516000","lon":"-82.82214000"},
{"state":"Chiriquí Province","name":"Pedregal","lat":"8.36586000","lon":"-82.43524000"},
{"state":"Chiriquí Province","name":"Plaza de Caisán","lat":"8.73672000","lon":"-82.81968000"},
{"state":"Chiriquí Province","name":"Potrerillos Abajo","lat":"8.63978000","lon":"-82.48560000"},
{"state":"Chiriquí Province","name":"Potrerillos Arriba","lat":"8.68547000","lon":"-82.49090000"},
{"state":"Chiriquí Province","name":"Progreso","lat":"8.44669000","lon":"-82.83859000"},
{"state":"Chiriquí Province","name":"Pueblo Viejo","lat":"8.25081000","lon":"-81.66259000"},
{"state":"Chiriquí Province","name":"Puerto Armuelles","lat":"8.27775000","lon":"-82.86206000"},
{"state":"Chiriquí Province","name":"Punta de Burica","lat":"8.03333000","lon":"-82.86667000"},
{"state":"Chiriquí Province","name":"Quebrada de Piedra","lat":"8.09418000","lon":"-81.67915000"},
{"state":"Chiriquí Province","name":"Querévalo","lat":"8.37174000","lon":"-82.52670000"},
{"state":"Chiriquí Province","name":"Quinteño","lat":"8.47102000","lon":"-82.39352000"},
{"state":"Chiriquí Province","name":"Remedios","lat":"8.22436000","lon":"-81.82747000"},
{"state":"Chiriquí Province","name":"Rincón","lat":"8.46374000","lon":"-82.27951000"},
{"state":"Chiriquí Province","name":"Río Sereno","lat":"8.81741000","lon":"-82.85731000"},
{"state":"Chiriquí Province","name":"Rovira Arriba","lat":"8.63822000","lon":"-82.49965000"},
{"state":"Chiriquí Province","name":"San Andrés","lat":"8.60260000","lon":"-82.72588000"},
{"state":"Chiriquí Province","name":"San Carlos","lat":"8.51663000","lon":"-82.50906000"},
{"state":"Chiriquí Province","name":"San Félix","lat":"8.29063000","lon":"-81.86702000"},
{"state":"Chiriquí Province","name":"San Isidro","lat":"8.53032000","lon":"-82.82720000"},
{"state":"Chiriquí Province","name":"San Lorenzo","lat":"8.30561000","lon":"-82.10114000"},
{"state":"Chiriquí Province","name":"San Pablo Nuevo Abajo","lat":"8.42558000","lon":"-82.50173000"},
{"state":"Chiriquí Province","name":"San Pablo Viejo Abajo","lat":"8.45339000","lon":"-82.50179000"},
{"state":"Chiriquí Province","name":"Santa Clara","lat":"8.83376000","lon":"-82.77945000"},
{"state":"Chiriquí Province","name":"Santa Cruz","lat":"8.23219000","lon":"-81.91323000"},
{"state":"Chiriquí Province","name":"Santa Marta","lat":"8.51406000","lon":"-82.69870000"},
{"state":"Chiriquí Province","name":"Santa Rosa","lat":"8.59958000","lon":"-82.68489000"},
{"state":"Chiriquí Province","name":"Santo Domingo","lat":"8.50803000","lon":"-82.71295000"},
{"state":"Chiriquí Province","name":"Santo Tomás","lat":"8.38959000","lon":"-82.65058000"},
{"state":"Chiriquí Province","name":"Sioguí Abajo","lat":"8.48678000","lon":"-82.66539000"},
{"state":"Chiriquí Province","name":"Sioguí Arriba","lat":"8.53865000","lon":"-82.68619000"},
{"state":"Chiriquí Province","name":"Sortova","lat":"8.54642000","lon":"-82.65170000"},
{"state":"Chiriquí Province","name":"Tijeras","lat":"8.47514000","lon":"-82.56058000"},
{"state":"Chiriquí Province","name":"Tinajas","lat":"8.55281000","lon":"-82.45963000"},
{"state":"Chiriquí Province","name":"Tolé","lat":"8.23989000","lon":"-81.67168000"},
{"state":"Chiriquí Province","name":"Veladero","lat":"8.23136000","lon":"-81.65417000"},
{"state":"Chiriquí Province","name":"Volcán","lat":"8.77291000","lon":"-82.63823000"},
{"state":"Coclé Province","name":"Aguadulce","lat":"8.24183000","lon":"-80.54609000"},
{"state":"Coclé Province","name":"Aguas Blancas","lat":"8.50351000","lon":"-80.31169000"},
{"state":"Coclé Province","name":"Alto de La Estancia","lat":"8.58792000","lon":"-80.18443000"},
{"state":"Coclé Province","name":"Antón","lat":"8.39733000","lon":"-80.26063000"},
{"state":"Coclé Province","name":"Barranco Colorado","lat":"8.38937000","lon":"-80.63546000"},
{"state":"Coclé Province","name":"Caballero","lat":"8.54343000","lon":"-80.19769000"},
{"state":"Coclé Province","name":"Cabuya","lat":"8.54703000","lon":"-80.16756000"},
{"state":"Coclé Province","name":"Caimito","lat":"8.62271000","lon":"-80.23919000"},
{"state":"Coclé Province","name":"Cañaveral","lat":"8.51700000","lon":"-80.42916000"},
{"state":"Coclé Province","name":"Capellanía","lat":"8.29858000","lon":"-80.55480000"},
{"state":"Coclé Province","name":"Chigoré","lat":"8.53035000","lon":"-80.35117000"},
{"state":"Coclé Province","name":"Chiguirí Arriba","lat":"8.67187000","lon":"-80.18975000"},
{"state":"Coclé Province","name":"Churuquita Chiquita","lat":"8.57555000","lon":"-80.27161000"},
{"state":"Coclé Province","name":"Churuquita Grande","lat":"8.59449000","lon":"-80.27182000"},
{"state":"Coclé Province","name":"Coclé","lat":"8.45601000","lon":"-80.42899000"},
{"state":"Coclé Province","name":"Distrito de Aguadulce","lat":"8.21270000","lon":"-80.61441000"},
{"state":"Coclé Province","name":"Distrito de Antón","lat":"8.45394000","lon":"-80.18361000"},
{"state":"Coclé Province","name":"Distrito de La Pintada","lat":"8.71801000","lon":"-80.53946000"},
{"state":"Coclé Province","name":"Distrito de Natá","lat":"8.34416000","lon":"-80.60934000"},
{"state":"Coclé Province","name":"Distrito de Olá","lat":"8.48053000","lon":"-80.65324000"},
{"state":"Coclé Province","name":"Distrito Penonomé","lat":"8.63000000","lon":"-80.28333000"},
{"state":"Coclé Province","name":"El Caño","lat":"8.40195000","lon":"-80.51791000"},
{"state":"Coclé Province","name":"El Chirú","lat":"8.39876000","lon":"-80.18721000"},
{"state":"Coclé Province","name":"El Coco","lat":"8.39716000","lon":"-80.35000000"},
{"state":"Coclé Province","name":"El Copé","lat":"8.62036000","lon":"-80.58433000"},
{"state":"Coclé Province","name":"El Cortezo","lat":"8.34556000","lon":"-80.58721000"},
{"state":"Coclé Province","name":"El Cristo","lat":"8.25071000","lon":"-80.62093000"},
{"state":"Coclé Province","name":"El Potrero","lat":"8.52146000","lon":"-80.51681000"},
{"state":"Coclé Province","name":"El Retiro","lat":"8.48014000","lon":"-80.15426000"},
{"state":"Coclé Province","name":"El Roble","lat":"8.16850000","lon":"-80.65897000"},
{"state":"Coclé Province","name":"Entradero","lat":"8.56880000","lon":"-80.20743000"},
{"state":"Coclé Province","name":"Farallón","lat":"8.35658000","lon":"-80.13723000"},
{"state":"Coclé Province","name":"Guzman","lat":"8.51969000","lon":"-80.58405000"},
{"state":"Coclé Province","name":"Juan Díaz","lat":"8.46240000","lon":"-80.28280000"},
{"state":"Coclé Province","name":"La Loma","lat":"8.16667000","lon":"-80.63742000"},
{"state":"Coclé Province","name":"La Pintada","lat":"8.59299000","lon":"-80.44349000"},
{"state":"Coclé Province","name":"Las Huacas del Quije","lat":"8.46702000","lon":"-80.75089000"},
{"state":"Coclé Province","name":"Las Marias","lat":"8.88809000","lon":"-80.21893000"},
{"state":"Coclé Province","name":"Las Minas","lat":"8.64118000","lon":"-80.39432000"},
{"state":"Coclé Province","name":"Las Sabanas","lat":"8.58141000","lon":"-80.67978000"},
{"state":"Coclé Province","name":"Llano Grande","lat":"8.63817000","lon":"-80.43848000"},
{"state":"Coclé Province","name":"Llano Marín","lat":"8.47696000","lon":"-80.32499000"},
{"state":"Coclé Province","name":"Los Pollos","lat":"8.39898000","lon":"-80.15731000"},
{"state":"Coclé Province","name":"Natá","lat":"8.33209000","lon":"-80.51969000"},
{"state":"Coclé Province","name":"Nuestro Amo","lat":"8.44485000","lon":"-80.58934000"},
{"state":"Coclé Province","name":"Olá","lat":"8.41807000","lon":"-80.65123000"},
{"state":"Coclé Province","name":"Penonomé","lat":"8.51889000","lon":"-80.35727000"},
{"state":"Coclé Province","name":"Piedras Gordas","lat":"8.63777000","lon":"-80.51024000"},
{"state":"Coclé Province","name":"Pocrí","lat":"8.25814000","lon":"-80.55000000"},
{"state":"Coclé Province","name":"Río Grande","lat":"8.42679000","lon":"-80.48457000"},
{"state":"Coclé Province","name":"Río Hato","lat":"8.37940000","lon":"-80.16621000"},
{"state":"Coclé Province","name":"San Juan de Dios","lat":"8.55119000","lon":"-80.22623000"},
{"state":"Coclé Province","name":"Toabré","lat":"8.65131000","lon":"-80.32017000"},
{"state":"Coclé Province","name":"Toza","lat":"8.34542000","lon":"-80.64012000"},
{"state":"Coclé Province","name":"Vista Hermosa","lat":"8.52687000","lon":"-80.37486000"},
{"state":"Colón Province","name":"Buena Vista","lat":"9.27356000","lon":"-79.69551000"},
{"state":"Colón Province","name":"Cativá","lat":"9.36218000","lon":"-79.83232000"},
{"state":"Colón Province","name":"Coclé del Norte","lat":"9.07540000","lon":"-80.57177000"},
{"state":"Colón Province","name":"Colón","lat":"9.35451000","lon":"-79.90011000"},
{"state":"Colón Province","name":"Cristóbal","lat":"9.35222000","lon":"-79.90444000"},
{"state":"Colón Province","name":"Distrito de Chagres","lat":"9.12300000","lon":"-80.11841000"},
{"state":"Colón Province","name":"Distrito de Colón","lat":"9.24313000","lon":"-79.79463000"},
{"state":"Colón Province","name":"Distrito de Donoso","lat":"9.01999000","lon":"-80.42967000"},
{"state":"Colón Province","name":"Distrito de Portobelo","lat":"9.49748000","lon":"-79.60730000"},
{"state":"Colón Province","name":"Distrito de Santa Isabel","lat":"9.48333000","lon":"-79.31667000"},
{"state":"Colón Province","name":"El Giral","lat":"9.24509000","lon":"-79.69266000"},
{"state":"Colón Province","name":"El Guabo","lat":"9.07842000","lon":"-80.08316000"},
{"state":"Colón Province","name":"El Valle de la Unión","lat":"9.23630000","lon":"-79.65986000"},
{"state":"Colón Province","name":"Escobal","lat":"9.14373000","lon":"-79.96439000"},
{"state":"Colón Province","name":"Gatún","lat":"9.28922000","lon":"-79.77204000"},
{"state":"Colón Province","name":"Gatuncillo","lat":"9.24346000","lon":"-79.64856000"},
{"state":"Colón Province","name":"Las Margaritas","lat":"9.32603000","lon":"-79.89028000"},
{"state":"Colón Province","name":"María Chiquita","lat":"9.43991000","lon":"-79.75455000"},
{"state":"Colón Province","name":"Miramar","lat":"9.57544000","lon":"-79.33573000"},
{"state":"Colón Province","name":"Nombre de Dios","lat":"9.57937000","lon":"-79.47109000"},
{"state":"Colón Province","name":"Nuevo Chagres","lat":"9.23979000","lon":"-80.08267000"},
{"state":"Colón Province","name":"Nuevo San Juan","lat":"9.22205000","lon":"-79.66602000"},
{"state":"Colón Province","name":"Nuevo Vigía","lat":"9.24263000","lon":"-79.60756000"},
{"state":"Colón Province","name":"Palenque","lat":"9.56970000","lon":"-79.36341000"},
{"state":"Colón Province","name":"Palmas Bellas","lat":"9.22838000","lon":"-80.08503000"},
{"state":"Colón Province","name":"Palmira","lat":"9.54359000","lon":"-79.21946000"},
{"state":"Colón Province","name":"Playa Chiquita","lat":"9.56620000","lon":"-79.29185000"},
{"state":"Colón Province","name":"Portobelo","lat":"9.55303000","lon":"-79.65693000"},
{"state":"Colón Province","name":"Puerto Escondido","lat":"9.19333000","lon":"-80.08833000"},
{"state":"Colón Province","name":"Puerto Pilón","lat":"9.36316000","lon":"-79.79333000"},
{"state":"Colón Province","name":"Quebrada Bonita Adentro","lat":"9.29662000","lon":"-79.70606000"},
{"state":"Colón Province","name":"Río Alejandro","lat":"9.37149000","lon":"-79.78809000"},
{"state":"Colón Province","name":"Río Duque","lat":"9.25688000","lon":"-79.67937000"},
{"state":"Colón Province","name":"Río Rita","lat":"9.30296000","lon":"-79.79234000"},
{"state":"Colón Province","name":"Sabanitas","lat":"9.34269000","lon":"-79.80961000"},
{"state":"Colón Province","name":"Santa Isabel","lat":"9.53922000","lon":"-79.19570000"},
{"state":"Colón Province","name":"Santa Rita Arriba","lat":"9.33032000","lon":"-79.79363000"},
{"state":"Colón Province","name":"Viento Frío","lat":"9.58263000","lon":"-79.40690000"},
{"state":"Darién Province","name":"Boca de Cupé","lat":"8.03003000","lon":"-77.58978000"},
{"state":"Darién Province","name":"Camogantí","lat":"8.04171000","lon":"-77.88682000"},
{"state":"Darién Province","name":"Cucunatí","lat":"8.57508000","lon":"-78.25671000"},
{"state":"Darién Province","name":"Distrito de Chepigana","lat":"7.84374000","lon":"-77.83830000"},
{"state":"Darién Province","name":"Distrito de Pinogana","lat":"7.89343000","lon":"-77.52562000"},
{"state":"Darién Province","name":"Garachiné","lat":"8.06684000","lon":"-78.36436000"},
{"state":"Darién Province","name":"Jaqué","lat":"7.51826000","lon":"-78.16343000"},
{"state":"Darién Province","name":"La Palma","lat":"8.40608000","lon":"-78.13964000"},
{"state":"Darién Province","name":"Metetí","lat":"8.49909000","lon":"-77.97897000"},
{"state":"Darién Province","name":"Mortí","lat":"8.84246000","lon":"-77.97539000"},
{"state":"Darién Province","name":"Púcuro","lat":"7.97876000","lon":"-77.48758000"},
{"state":"Darién Province","name":"Santa Fé","lat":"8.65525000","lon":"-78.16140000"},
{"state":"Darién Province","name":"Yaviza","lat":"8.15835000","lon":"-77.69276000"},
{"state":"Emberá-Wounaan Comarca","name":"Bayamón","lat":"7.96817000","lon":"-78.21648000"},
{"state":"Emberá-Wounaan Comarca","name":"Cémaco","lat":"8.08285000","lon":"-77.54210000"},
{"state":"Emberá-Wounaan Comarca","name":"Corozal","lat":"8.20108000","lon":"-77.59637000"},
{"state":"Emberá-Wounaan Comarca","name":"Sambú","lat":"7.82013000","lon":"-78.11005000"},
{"state":"Emberá-Wounaan Comarca","name":"Unión Chocó","lat":"8.08404000","lon":"-77.53507000"},
{"state":"Emberá-Wounaan Comarca","name":"Yape","lat":"8.09839000","lon":"-77.59817000"},
{"state":"Guna Yala","name":"Achutupo","lat":"9.19827000","lon":"-77.98729000"},
{"state":"Guna Yala","name":"Ailigandí","lat":"9.22810000","lon":"-78.02778000"},
{"state":"Guna Yala","name":"Cartí Sugdup","lat":"9.46460000","lon":"-78.95931000"},
{"state":"Guna Yala","name":"El Porvenir","lat":"9.55276000","lon":"-78.95230000"},
{"state":"Guna Yala","name":"Mulatupo","lat":"8.94672000","lon":"-77.75080000"},
{"state":"Guna Yala","name":"Narganá","lat":"9.44394000","lon":"-78.58666000"},
{"state":"Guna Yala","name":"Playón Chico","lat":"9.31128000","lon":"-78.23270000"},
{"state":"Guna Yala","name":"Puerto Obaldía","lat":"8.66632000","lon":"-77.41922000"},
{"state":"Guna Yala","name":"San Ignacio de Tupile","lat":"9.28905000","lon":"-78.15206000"},
{"state":"Guna Yala","name":"Tubualá","lat":"9.51667000","lon":"-79.03333000"},
{"state":"Guna Yala","name":"Ustupo","lat":"9.13112000","lon":"-77.92620000"},
{"state":"Herrera Province","name":"Boca de Parita","lat":"8.00796000","lon":"-80.45320000"},
{"state":"Herrera Province","name":"Cabuya","lat":"8.03138000","lon":"-80.63227000"},
{"state":"Herrera Province","name":"Cerro Largo","lat":"7.83377000","lon":"-80.83168000"},
{"state":"Herrera Province","name":"Chitré","lat":"7.96082000","lon":"-80.42944000"},
{"state":"Herrera Province","name":"Chumical","lat":"7.84482000","lon":"-80.72627000"},
{"state":"Herrera Province","name":"Chupampa","lat":"8.07620000","lon":"-80.77656000"},
{"state":"Herrera Province","name":"Distrito de Chitré","lat":"7.98333000","lon":"-80.43333000"},
{"state":"Herrera Province","name":"Distrito de Las Minas","lat":"7.76525000","lon":"-80.82249000"},
{"state":"Herrera Province","name":"Distrito de Los Pozos","lat":"7.70944000","lon":"-80.64311000"},
{"state":"Herrera Province","name":"Distrito de Ocú","lat":"7.90641000","lon":"-80.79752000"},
{"state":"Herrera Province","name":"Distrito de Parita","lat":"8.06240000","lon":"-80.56373000"},
{"state":"Herrera Province","name":"Distrito de Pesé","lat":"7.88194000","lon":"-80.63261000"},
{"state":"Herrera Province","name":"Distrito de Santa María","lat":"8.11667000","lon":"-80.68333000"},
{"state":"Herrera Province","name":"El Calabacito","lat":"7.71843000","lon":"-80.59757000"},
{"state":"Herrera Province","name":"El Capurí","lat":"7.72571000","lon":"-80.64349000"},
{"state":"Herrera Province","name":"El Cedro","lat":"7.68565000","lon":"-80.65927000"},
{"state":"Herrera Province","name":"El Pedregoso","lat":"7.93642000","lon":"-80.63807000"},
{"state":"Herrera Province","name":"El Rincón","lat":"8.11923000","lon":"-80.61707000"},
{"state":"Herrera Province","name":"El Toro","lat":"7.75110000","lon":"-80.86943000"},
{"state":"Herrera Province","name":"La Arena","lat":"7.96766000","lon":"-80.46523000"},
{"state":"Herrera Province","name":"La Trinidad","lat":"7.91457000","lon":"-80.70332000"},
{"state":"Herrera Province","name":"Las Guabas","lat":"7.90949000","lon":"-80.80706000"},
{"state":"Herrera Province","name":"Las Minas","lat":"7.79581000","lon":"-80.74570000"},
{"state":"Herrera Province","name":"Leones Arriba","lat":"7.76590000","lon":"-80.84515000"},
{"state":"Herrera Province","name":"Limón de Tijeras","lat":"7.81756000","lon":"-80.91335000"},
{"state":"Herrera Province","name":"Llano Bonito","lat":"7.97637000","lon":"-80.41646000"},
{"state":"Herrera Province","name":"Llano de La Cruz","lat":"7.95178000","lon":"-80.64239000"},
{"state":"Herrera Province","name":"Llano Grande","lat":"7.97406000","lon":"-80.71103000"},
{"state":"Herrera Province","name":"Los Canelos","lat":"8.11722000","lon":"-80.70769000"},
{"state":"Herrera Province","name":"Los Castillos","lat":"7.98565000","lon":"-80.61886000"},
{"state":"Herrera Province","name":"Los Cerritos","lat":"7.79746000","lon":"-80.61071000"},
{"state":"Herrera Province","name":"Los Cerros de Paja","lat":"7.71821000","lon":"-80.67273000"},
{"state":"Herrera Province","name":"Los Pozos","lat":"7.78300000","lon":"-80.64524000"},
{"state":"Herrera Province","name":"Monagrillo","lat":"7.98179000","lon":"-80.43764000"},
{"state":"Herrera Province","name":"Ocú","lat":"7.94052000","lon":"-80.77936000"},
{"state":"Herrera Province","name":"París","lat":"8.05053000","lon":"-80.55409000"},
{"state":"Herrera Province","name":"Parita","lat":"7.99393000","lon":"-80.52097000"},
{"state":"Herrera Province","name":"Peñas Chatas","lat":"8.01502000","lon":"-80.80366000"},
{"state":"Herrera Province","name":"Pesé","lat":"7.90863000","lon":"-80.61433000"},
{"state":"Herrera Province","name":"Pitaloza Arriba","lat":"7.64216000","lon":"-80.66788000"},
{"state":"Herrera Province","name":"Portobelillo","lat":"8.01738000","lon":"-80.59538000"},
{"state":"Herrera Province","name":"Potuga","lat":"8.06317000","lon":"-80.62271000"},
{"state":"Herrera Province","name":"Quebrada del Rosario","lat":"7.71238000","lon":"-80.74222000"},
{"state":"Herrera Province","name":"Rincón Hondo","lat":"7.84436000","lon":"-80.60397000"},
{"state":"Herrera Province","name":"Sabana Grande","lat":"7.88002000","lon":"-80.63818000"},
{"state":"Herrera Province","name":"San Juan Bautista","lat":"7.96099000","lon":"-80.41283000"},
{"state":"Herrera Province","name":"Santa María","lat":"8.11143000","lon":"-80.66582000"},
{"state":"Los Santos Province","name":"Agua Buena","lat":"7.83465000","lon":"-80.39405000"},
{"state":"Los Santos Province","name":"Ave María","lat":"7.32481000","lon":"-80.45361000"},
{"state":"Los Santos Province","name":"Bahía Honda","lat":"7.70517000","lon":"-80.45342000"},
{"state":"Los Santos Province","name":"Bajo Corral","lat":"7.60463000","lon":"-80.26016000"},
{"state":"Los Santos Province","name":"Bayano","lat":"7.63014000","lon":"-80.38201000"},
{"state":"Los Santos Province","name":"Bella Vista","lat":"7.75000000","lon":"-80.23333000"},
{"state":"Los Santos Province","name":"Cambutal","lat":"7.26534000","lon":"-80.49105000"},
{"state":"Los Santos Province","name":"Cañas","lat":"7.44713000","lon":"-80.26480000"},
{"state":"Los Santos Province","name":"Cedro Arriba","lat":"7.78097000","lon":"-80.53057000"},
{"state":"Los Santos Province","name":"Distrito de Guararé","lat":"7.77021000","lon":"-80.37515000"},
{"state":"Los Santos Province","name":"Distrito de Las Tablas","lat":"7.64843000","lon":"-80.29933000"},
{"state":"Los Santos Province","name":"Distrito de Los Santos","lat":"7.88333000","lon":"-80.45000000"},
{"state":"Los Santos Province","name":"Distrito de Macaracas","lat":"7.65817000","lon":"-80.53526000"},
{"state":"Los Santos Province","name":"Distrito de Pedasí","lat":"7.48528000","lon":"-80.12747000"},
{"state":"Los Santos Province","name":"Distrito de Pocrí","lat":"7.63721000","lon":"-80.16470000"},
{"state":"Los Santos Province","name":"Distrito de Tonosí","lat":"7.43597000","lon":"-80.45828000"},
{"state":"Los Santos Province","name":"El Cacao","lat":"7.44570000","lon":"-80.40938000"},
{"state":"Los Santos Province","name":"El Cañafístulo","lat":"7.61768000","lon":"-80.23322000"},
{"state":"Los Santos Province","name":"El Carate","lat":"7.73124000","lon":"-80.29691000"},
{"state":"Los Santos Province","name":"El Cocal","lat":"7.73697000","lon":"-80.27980000"},
{"state":"Los Santos Province","name":"El Cortezo","lat":"7.42661000","lon":"-80.63311000"},
{"state":"Los Santos Province","name":"El Ejido","lat":"7.91634000","lon":"-80.38686000"},
{"state":"Los Santos Province","name":"El Guásimo","lat":"7.80640000","lon":"-80.52991000"},
{"state":"Los Santos Province","name":"El Hato","lat":"7.79316000","lon":"-80.38267000"},
{"state":"Los Santos Province","name":"El Macano","lat":"7.68489000","lon":"-80.40309000"},
{"state":"Los Santos Province","name":"El Manantial","lat":"7.78245000","lon":"-80.24713000"},
{"state":"Los Santos Province","name":"El Muñoz","lat":"7.67582000","lon":"-80.32130000"},
{"state":"Los Santos Province","name":"El Pedregoso","lat":"7.69173000","lon":"-80.32793000"},
{"state":"Los Santos Province","name":"Flores","lat":"7.48157000","lon":"-80.40695000"},
{"state":"Los Santos Province","name":"Guararé","lat":"7.81531000","lon":"-80.28345000"},
{"state":"Los Santos Province","name":"Guararé Arriba","lat":"7.80023000","lon":"-80.35983000"},
{"state":"Los Santos Province","name":"La Colorada","lat":"7.82362000","lon":"-80.55552000"},
{"state":"Los Santos Province","name":"La Enea","lat":"7.83333000","lon":"-80.27417000"},
{"state":"Los Santos Province","name":"La Espigadilla","lat":"7.88389000","lon":"-80.39039000"},
{"state":"Los Santos Province","name":"La Laja","lat":"7.73102000","lon":"-80.25298000"},
{"state":"Los Santos Province","name":"La Mesa","lat":"7.65670000","lon":"-80.61794000"},
{"state":"Los Santos Province","name":"La Miel","lat":"7.56022000","lon":"-80.32736000"},
{"state":"Los Santos Province","name":"La Palma","lat":"7.71667000","lon":"-80.38333000"},
{"state":"Los Santos Province","name":"La Pasera","lat":"7.79757000","lon":"-80.30342000"},
{"state":"Los Santos Province","name":"La Tiza","lat":"7.75110000","lon":"-80.29216000"},
{"state":"Los Santos Province","name":"La Tronosa","lat":"7.43609000","lon":"-80.58698000"},
{"state":"Los Santos Province","name":"Lajamina","lat":"7.58587000","lon":"-80.13212000"},
{"state":"Los Santos Province","name":"Las Cruces","lat":"7.82285000","lon":"-80.43003000"},
{"state":"Los Santos Province","name":"Las Guabas","lat":"7.81469000","lon":"-80.50155000"},
{"state":"Los Santos Province","name":"Las Palmas","lat":"7.68314000","lon":"-80.49728000"},
{"state":"Los Santos Province","name":"Las Palmitas","lat":"7.76523000","lon":"-80.29350000"},
{"state":"Los Santos Province","name":"Las Tablas","lat":"7.76472000","lon":"-80.27483000"},
{"state":"Los Santos Province","name":"Las Trancas","lat":"7.73400000","lon":"-80.37384000"},
{"state":"Los Santos Province","name":"Llano Abajo","lat":"7.78598000","lon":"-80.41060000"},
{"state":"Los Santos Province","name":"Llano de Piedra","lat":"7.65972000","lon":"-80.56347000"},
{"state":"Los Santos Province","name":"Llano Largo","lat":"7.90607000","lon":"-80.42561000"},
{"state":"Los Santos Province","name":"Los Ángeles","lat":"7.88422000","lon":"-80.35772000"},
{"state":"Los Santos Province","name":"Los Asientos","lat":"7.51656000","lon":"-80.13521000"},
{"state":"Los Santos Province","name":"Los Olivos","lat":"7.91589000","lon":"-80.48884000"},
{"state":"Los Santos Province","name":"Los Santos","lat":"7.93333000","lon":"-80.41667000"},
{"state":"Los Santos Province","name":"Macaracas","lat":"7.73168000","lon":"-80.55364000"},
{"state":"Los Santos Province","name":"Mogollón","lat":"7.64261000","lon":"-80.45950000"},
{"state":"Los Santos Province","name":"Nuario","lat":"7.53047000","lon":"-80.32692000"},
{"state":"Los Santos Province","name":"Oria Arriba","lat":"7.50505000","lon":"-80.20567000"},
{"state":"Los Santos Province","name":"Palmira","lat":"7.66347000","lon":"-80.35728000"},
{"state":"Los Santos Province","name":"Paraíso","lat":"7.68510000","lon":"-80.16082000"},
{"state":"Los Santos Province","name":"Paritilla","lat":"7.62848000","lon":"-80.17240000"},
{"state":"Los Santos Province","name":"Pedasí","lat":"7.53034000","lon":"-80.02699000"},
{"state":"Los Santos Province","name":"Peña Blanca","lat":"7.71931000","lon":"-80.28366000"},
{"state":"Los Santos Province","name":"Perales","lat":"7.77461000","lon":"-80.32494000"},
{"state":"Los Santos Province","name":"Pocrí","lat":"7.65816000","lon":"-80.12119000"},
{"state":"Los Santos Province","name":"Río Hondo","lat":"7.71192000","lon":"-80.35904000"},
{"state":"Los Santos Province","name":"Sabana Grande","lat":"7.83543000","lon":"-80.36490000"},
{"state":"Los Santos Province","name":"San José","lat":"7.67395000","lon":"-80.24438000"},
{"state":"Los Santos Province","name":"Santa Ana Arriba","lat":"7.93300000","lon":"-80.36369000"},
{"state":"Los Santos Province","name":"Santo Domingo","lat":"7.74614000","lon":"-80.24173000"},
{"state":"Los Santos Province","name":"Sesteadero","lat":"7.73885000","lon":"-80.24854000"},
{"state":"Los Santos Province","name":"Tonosí","lat":"7.40684000","lon":"-80.44217000"},
{"state":"Los Santos Province","name":"Tres Quebradas","lat":"7.84018000","lon":"-80.40740000"},
{"state":"Los Santos Province","name":"Valle Rico","lat":"7.62011000","lon":"-80.35076000"},
{"state":"Los Santos Province","name":"Vallerriquito","lat":"7.62163000","lon":"-80.31975000"},
{"state":"Los Santos Province","name":"Villa Lourdes","lat":"7.81141000","lon":"-80.47029000"},
{"state":"Ngöbe-Buglé Comarca","name":"Bahía Azul","lat":"9.14176000","lon":"-81.89425000"},
{"state":"Ngöbe-Buglé Comarca","name":"Besiko","lat":"8.54863000","lon":"-82.08980000"},
{"state":"Ngöbe-Buglé Comarca","name":"Bisira","lat":"8.89553000","lon":"-81.85352000"},
{"state":"Ngöbe-Buglé Comarca","name":"Boca de Balsa","lat":"8.52995000","lon":"-82.03132000"},
{"state":"Ngöbe-Buglé Comarca","name":"Buenos Aires","lat":"8.41384000","lon":"-81.48440000"},
{"state":"Ngöbe-Buglé Comarca","name":"Camarón Arriba","lat":"8.38324000","lon":"-81.99345000"},
{"state":"Ngöbe-Buglé Comarca","name":"Cerro Banco","lat":"8.45797000","lon":"-82.03081000"},
{"state":"Ngöbe-Buglé Comarca","name":"Cerro Caña","lat":"8.35174000","lon":"-81.61050000"},
{"state":"Ngöbe-Buglé Comarca","name":"Cerro Plata","lat":"8.47733000","lon":"-81.54585000"},
{"state":"Ngöbe-Buglé Comarca","name":"Chichica","lat":"8.35885000","lon":"-81.66582000"},
{"state":"Ngöbe-Buglé Comarca","name":"Guayabito","lat":"8.53949000","lon":"-81.48225000"},
{"state":"Ngöbe-Buglé Comarca","name":"Hato Chami","lat":"8.44281000","lon":"-81.77196000"},
{"state":"Ngöbe-Buglé Comarca","name":"Hato Corotú","lat":"8.33516000","lon":"-81.97030000"},
{"state":"Ngöbe-Buglé Comarca","name":"Kankintú","lat":"8.89503000","lon":"-81.85750000"},
{"state":"Ngöbe-Buglé Comarca","name":"Kusapín","lat":"9.17119000","lon":"-81.89621000"},
{"state":"Ngöbe-Buglé Comarca","name":"Lajero Arriba","lat":"8.29060000","lon":"-81.77047000"},
{"state":"Ngöbe-Buglé Comarca","name":"Llano Ñopo","lat":"8.41996000","lon":"-81.61865000"},
{"state":"Ngöbe-Buglé Comarca","name":"Loma Yuca","lat":"8.71817000","lon":"-81.40492000"},
{"state":"Ngöbe-Buglé Comarca","name":"Mirono","lat":"8.40469000","lon":"-81.83064000"},
{"state":"Ngöbe-Buglé Comarca","name":"Müna","lat":"8.35035000","lon":"-81.67219000"},
{"state":"Ngöbe-Buglé Comarca","name":"Nole Düima","lat":"8.32682000","lon":"-81.81531000"},
{"state":"Ngöbe-Buglé Comarca","name":"Nurun","lat":"8.47815000","lon":"-81.47015000"},
{"state":"Ngöbe-Buglé Comarca","name":"Oma","lat":"8.35019000","lon":"-81.80177000"},
{"state":"Ngöbe-Buglé Comarca","name":"Paredón Arriba","lat":"8.45977000","lon":"-81.19592000"},
{"state":"Ngöbe-Buglé Comarca","name":"Plan de Chorcha","lat":"8.46168000","lon":"-82.15924000"},
{"state":"Ngöbe-Buglé Comarca","name":"Pueblo Nuevo","lat":"8.88070000","lon":"-82.22411000"},
{"state":"Ngöbe-Buglé Comarca","name":"Quebrada Canoa","lat":"8.43333000","lon":"-81.78333000"},
{"state":"Ngöbe-Buglé Comarca","name":"Quebrada Tula","lat":"8.84037000","lon":"-81.99645000"},
{"state":"Ngöbe-Buglé Comarca","name":"Sitio Prado","lat":"8.37233000","lon":"-81.58141000"},
{"state":"Ngöbe-Buglé Comarca","name":"Tobobe","lat":"9.12111000","lon":"-81.82471000"},
{"state":"Panamá Oeste Province","name":"Alto del Espino","lat":"8.84213000","lon":"-79.84551000"},
{"state":"Panamá Oeste Province","name":"Altos de San Francisco","lat":"8.86167000","lon":"-79.79000000"},
{"state":"Panamá Oeste Province","name":"Arenosa","lat":"9.03978000","lon":"-79.95128000"},
{"state":"Panamá Oeste Province","name":"Arosemena","lat":"8.97091000","lon":"-79.96641000"},
{"state":"Panamá Oeste Province","name":"Arraiján","lat":"8.95187000","lon":"-79.66011000"},
{"state":"Panamá Oeste Province","name":"Bejuco","lat":"8.60037000","lon":"-79.88988000"},
{"state":"Panamá Oeste Province","name":"Buenos Aires","lat":"8.63146000","lon":"-79.94775000"},
{"state":"Panamá Oeste Province","name":"Cabuya","lat":"8.57472000","lon":"-79.92714000"},
{"state":"Panamá Oeste Province","name":"Caimito","lat":"8.81143000","lon":"-79.94738000"},
{"state":"Panamá Oeste Province","name":"Capira","lat":"8.75636000","lon":"-79.87996000"},
{"state":"Panamá Oeste Province","name":"Cermeño","lat":"8.74082000","lon":"-79.85299000"},
{"state":"Panamá Oeste Province","name":"Cerro Cama","lat":"9.02802000","lon":"-79.90744000"},
{"state":"Panamá Oeste Province","name":"Chame","lat":"8.57753000","lon":"-79.88595000"},
{"state":"Panamá Oeste Province","name":"Cirí de Los Sotos","lat":"8.97206000","lon":"-80.09209000"},
{"state":"Panamá Oeste Province","name":"Distrito Arraiján","lat":"8.95000000","lon":"-79.70000000"},
{"state":"Panamá Oeste Province","name":"Distrito de Capira","lat":"8.76228000","lon":"-79.88275000"},
{"state":"Panamá Oeste Province","name":"Distrito de Chame","lat":"8.60000000","lon":"-79.91667000"},
{"state":"Panamá Oeste Province","name":"Distrito de La Chorrera","lat":"8.95000000","lon":"-79.85000000"},
{"state":"Panamá Oeste Province","name":"Distrito de San Carlos","lat":"8.53196000","lon":"-80.06906000"},
{"state":"Panamá Oeste Province","name":"El Cacao","lat":"8.76134000","lon":"-80.01294000"},
{"state":"Panamá Oeste Province","name":"El Coco","lat":"8.87009000","lon":"-79.80415000"},
{"state":"Panamá Oeste Province","name":"El Espavé","lat":"8.66161000","lon":"-79.87584000"},
{"state":"Panamá Oeste Province","name":"El Espino","lat":"8.83795000","lon":"-79.84925000"},
{"state":"Panamá Oeste Province","name":"El Higo","lat":"8.44731000","lon":"-80.03603000"},
{"state":"Panamá Oeste Province","name":"El Líbano","lat":"8.61685000","lon":"-79.83483000"},
{"state":"Panamá Oeste Province","name":"Guadalupe","lat":"8.85452000","lon":"-79.81408000"},
{"state":"Panamá Oeste Province","name":"Guayabito","lat":"8.54828000","lon":"-80.01350000"},
{"state":"Panamá Oeste Province","name":"Hato Montaña","lat":"8.91938000","lon":"-79.73915000"},
{"state":"Panamá Oeste Province","name":"La Chorrera","lat":"8.88028000","lon":"-79.78333000"},
{"state":"Panamá Oeste Province","name":"La Ermita","lat":"8.45622000","lon":"-80.06835000"},
{"state":"Panamá Oeste Province","name":"La Herradura","lat":"8.84848000","lon":"-79.80404000"},
{"state":"Panamá Oeste Province","name":"La Laguna","lat":"9.04404000","lon":"-79.84215000"},
{"state":"Panamá Oeste Province","name":"La Mitra","lat":"8.84091000","lon":"-79.78648000"},
{"state":"Panamá Oeste Province","name":"La Pesa","lat":"8.85073000","lon":"-79.82374000"},
{"state":"Panamá Oeste Province","name":"Las Colinas","lat":"8.55000000","lon":"-80.08333000"},
{"state":"Panamá Oeste Province","name":"Las Lajas","lat":"8.54963000","lon":"-79.93521000"},
{"state":"Panamá Oeste Province","name":"Las Uvas","lat":"8.45937000","lon":"-80.00075000"},
{"state":"Panamá Oeste Province","name":"Llano Largo","lat":"8.83463000","lon":"-79.80765000"},
{"state":"Panamá Oeste Province","name":"Los Llanitos","lat":"8.59787000","lon":"-80.09503000"},
{"state":"Panamá Oeste Province","name":"Mendoza","lat":"9.01471000","lon":"-79.85073000"},
{"state":"Panamá Oeste Province","name":"Nueva Arenosa","lat":"8.86944000","lon":"-79.99472000"},
{"state":"Panamá Oeste Province","name":"Nueva Gorgona","lat":"8.55000000","lon":"-79.87547000"},
{"state":"Panamá Oeste Province","name":"Nuevo Arraiján","lat":"8.92453000","lon":"-79.72004000"},
{"state":"Panamá Oeste Province","name":"Nuevo Emperador","lat":"9.00273000","lon":"-79.73141000"},
{"state":"Panamá Oeste Province","name":"Playa Leona","lat":"8.78389000","lon":"-79.77547000"},
{"state":"Panamá Oeste Province","name":"Potrero Grande","lat":"8.88051000","lon":"-79.82795000"},
{"state":"Panamá Oeste Province","name":"Puerto Caimito","lat":"8.87022000","lon":"-79.71423000"},
{"state":"Panamá Oeste Province","name":"Río Congo","lat":"8.96666000","lon":"-79.76105000"},
{"state":"Panamá Oeste Province","name":"San Carlos","lat":"8.47323000","lon":"-79.96104000"},
{"state":"Panamá Oeste Province","name":"San José","lat":"8.93333000","lon":"-79.73333000"},
{"state":"Panamá Oeste Province","name":"San Vicente de Bique","lat":"8.91143000","lon":"-79.67360000"},
{"state":"Panamá Oeste Province","name":"Santa Clara","lat":"9.02875000","lon":"-79.75443000"},
{"state":"Panamá Oeste Province","name":"Santa Rita","lat":"8.85681000","lon":"-79.87954000"},
{"state":"Panamá Oeste Province","name":"Sorá","lat":"8.63191000","lon":"-80.00888000"},
{"state":"Panamá Oeste Province","name":"Veracruz","lat":"8.88988000","lon":"-79.62603000"},
{"state":"Panamá Oeste Province","name":"Villa Carmen","lat":"8.79832000","lon":"-79.86929000"},
{"state":"Panamá Oeste Province","name":"Villa Rosario","lat":"8.77379000","lon":"-79.87547000"},
{"state":"Panamá Oeste Province","name":"Vista Alegre","lat":"8.92772000","lon":"-79.70280000"},
{"state":"Panamá Province","name":"Alcalde Díaz","lat":"9.12016000","lon":"-79.55641000"},
{"state":"Panamá Province","name":"Ancón","lat":"8.96015000","lon":"-79.55140000"},
{"state":"Panamá Province","name":"Brujas","lat":"8.58536000","lon":"-78.53008000"},
{"state":"Panamá Province","name":"Cabra Número Uno","lat":"9.10863000","lon":"-79.33694000"},
{"state":"Panamá Province","name":"Caimitillo","lat":"9.15559000","lon":"-79.53974000"},
{"state":"Panamá Province","name":"Calzada Larga","lat":"9.17272000","lon":"-79.56212000"},
{"state":"Panamá Province","name":"Cañita","lat":"9.22236000","lon":"-78.89509000"},
{"state":"Panamá Province","name":"Cerro Azul","lat":"9.15735000","lon":"-79.42097000"},
{"state":"Panamá Province","name":"Chepillo","lat":"8.95396000","lon":"-79.12856000"},
{"state":"Panamá Province","name":"Chepo","lat":"9.17019000","lon":"-79.10083000"},
{"state":"Panamá Province","name":"Chilibre","lat":"9.15093000","lon":"-79.62098000"},
{"state":"Panamá Province","name":"Chimán","lat":"8.69125000","lon":"-78.63570000"},
{"state":"Panamá Province","name":"Contadora","lat":"8.62483000","lon":"-79.03748000"},
{"state":"Panamá Province","name":"Curundú","lat":"8.97092000","lon":"-79.54612000"},
{"state":"Panamá Province","name":"Distrito de Balboa","lat":"8.46667000","lon":"-79.00000000"},
{"state":"Panamá Province","name":"Distrito de Chepo","lat":"9.17391000","lon":"-78.70374000"},
{"state":"Panamá Province","name":"Distrito de Chimán","lat":"8.76043000","lon":"-78.56470000"},
{"state":"Panamá Province","name":"Distrito de Panamá","lat":"9.30612000","lon":"-79.45246000"},
{"state":"Panamá Province","name":"Distrito de Taboga","lat":"8.78333000","lon":"-79.55833000"},
{"state":"Panamá Province","name":"El Chorrillo","lat":"8.94964000","lon":"-79.54715000"},
{"state":"Panamá Province","name":"El Progreso","lat":"9.26667000","lon":"-79.11667000"},
{"state":"Panamá Province","name":"Gonzalillo","lat":"9.09183000","lon":"-79.51928000"},
{"state":"Panamá Province","name":"Howard","lat":"8.93942000","lon":"-79.59097000"},
{"state":"Panamá Province","name":"Juan Díaz","lat":"9.05000000","lon":"-79.45000000"},
{"state":"Panamá Province","name":"La Cabima","lat":"9.11865000","lon":"-79.53660000"},
{"state":"Panamá Province","name":"La Colorada","lat":"9.10224000","lon":"-79.41600000"},
{"state":"Panamá Province","name":"La Ensenada","lat":"8.36618000","lon":"-78.84606000"},
{"state":"Panamá Province","name":"La Esmeralda","lat":"8.26817000","lon":"-78.92460000"},
{"state":"Panamá Province","name":"La Guinea","lat":"8.34250000","lon":"-78.93430000"},
{"state":"Panamá Province","name":"La Mesa","lat":"9.17308000","lon":"-79.27401000"},
{"state":"Panamá Province","name":"Las Cumbres","lat":"9.08916000","lon":"-79.52809000"},
{"state":"Panamá Province","name":"Las Margaritas","lat":"9.18426000","lon":"-79.08730000"},
{"state":"Panamá Province","name":"Lídice","lat":"8.74869000","lon":"-79.90974000"},
{"state":"Panamá Province","name":"Los Lotes","lat":"9.12425000","lon":"-79.28929000"},
{"state":"Panamá Province","name":"Nueva Esperanza","lat":"9.10210000","lon":"-79.33414000"},
{"state":"Panamá Province","name":"Nuevo Belén","lat":"9.07939000","lon":"-79.39556000"},
{"state":"Panamá Province","name":"Pacora","lat":"9.07937000","lon":"-79.28997000"},
{"state":"Panamá Province","name":"Panamá","lat":"8.99360000","lon":"-79.51973000"},
{"state":"Panamá Province","name":"Parque Lefevre","lat":"9.01667000","lon":"-79.48333000"},
{"state":"Panamá Province","name":"Pásiga","lat":"8.93647000","lon":"-78.90917000"},
{"state":"Panamá Province","name":"Pedregal","lat":"9.06667000","lon":"-79.43333000"},
{"state":"Panamá Province","name":"Río Abajo","lat":"9.01667000","lon":"-79.50000000"},
{"state":"Panamá Province","name":"San Antonio","lat":"9.17290000","lon":"-79.54743000"},
{"state":"Panamá Province","name":"San Felipe","lat":"8.95118000","lon":"-79.53726000"},
{"state":"Panamá Province","name":"San Miguel","lat":"8.45685000","lon":"-78.93695000"},
{"state":"Panamá Province","name":"San Miguelito","lat":"9.05032000","lon":"-79.47068000"},
{"state":"Panamá Province","name":"San Vicente","lat":"9.11445000","lon":"-79.59755000"},
{"state":"Panamá Province","name":"Tocumen","lat":"9.08939000","lon":"-79.38310000"},
{"state":"Panamá Province","name":"Tortí","lat":"8.92132000","lon":"-78.40546000"},
{"state":"Panamá Province","name":"Unión de Azuero","lat":"9.15256000","lon":"-79.17005000"},
{"state":"Panamá Province","name":"Unión Santeña","lat":"8.83525000","lon":"-78.65104000"},
{"state":"Panamá Province","name":"Villa Unida","lat":"9.18908000","lon":"-79.62452000"},
{"state":"Panamá Province","name":"Vista Hermosa","lat":"9.11178000","lon":"-79.36113000"},
{"state":"Veraguas Province","name":"Alto de Jesús","lat":"8.26152000","lon":"-81.48412000"},
{"state":"Veraguas Province","name":"Arenas","lat":"7.36865000","lon":"-80.86268000"},
{"state":"Veraguas Province","name":"Atalaya","lat":"8.04213000","lon":"-80.92528000"},
{"state":"Veraguas Province","name":"Barnizal","lat":"8.40460000","lon":"-80.77765000"},
{"state":"Veraguas Province","name":"Bisvalles","lat":"8.18298000","lon":"-81.22092000"},
{"state":"Veraguas Province","name":"Boquerón","lat":"8.24414000","lon":"-80.85897000"},
{"state":"Veraguas Province","name":"Boró","lat":"8.16933000","lon":"-81.30071000"},
{"state":"Veraguas Province","name":"Calabacito","lat":"8.24817000","lon":"-81.08187000"},
{"state":"Veraguas Province","name":"Calidonia","lat":"7.95756000","lon":"-81.38633000"},
{"state":"Veraguas Province","name":"Calobre","lat":"8.31886000","lon":"-80.84067000"},
{"state":"Veraguas Province","name":"Calovébora","lat":"8.78703000","lon":"-81.21056000"},
{"state":"Veraguas Province","name":"Cañazas","lat":"8.32004000","lon":"-81.21152000"},
{"state":"Veraguas Province","name":"Canto del Llano","lat":"8.12472000","lon":"-80.96374000"},
{"state":"Veraguas Province","name":"Corozal","lat":"8.07712000","lon":"-81.43990000"},
{"state":"Veraguas Province","name":"Distrito de Atalaya","lat":"8.02899000","lon":"-80.91739000"},
{"state":"Veraguas Province","name":"Distrito de Calobre","lat":"8.39684000","lon":"-80.85124000"},
{"state":"Veraguas Province","name":"Distrito de Cañazas","lat":"8.35596000","lon":"-81.28633000"},
{"state":"Veraguas Province","name":"Distrito de La Mesa","lat":"8.10976000","lon":"-81.17767000"},
{"state":"Veraguas Province","name":"Distrito de Las Palmas","lat":"8.14532000","lon":"-81.42849000"},
{"state":"Veraguas Province","name":"Distrito de Montijo","lat":"7.95316000","lon":"-81.05301000"},
{"state":"Veraguas Province","name":"Distrito de Río de Jesús","lat":"7.91438000","lon":"-81.16133000"},
{"state":"Veraguas Province","name":"Distrito de San Francisco","lat":"8.26965000","lon":"-81.00108000"},
{"state":"Veraguas Province","name":"Distrito de Santa Fé","lat":"8.72063000","lon":"-80.95858000"},
{"state":"Veraguas Province","name":"Distrito de Santiago","lat":"8.12425000","lon":"-80.87827000"},
{"state":"Veraguas Province","name":"Distrito de Soná","lat":"7.84378000","lon":"-81.36612000"},
{"state":"Veraguas Province","name":"El Alto","lat":"8.51191000","lon":"-81.03646000"},
{"state":"Veraguas Province","name":"El Barrito","lat":"7.96059000","lon":"-80.94801000"},
{"state":"Veraguas Province","name":"El Coclá","lat":"8.32143000","lon":"-80.92069000"},
{"state":"Veraguas Province","name":"El Espino de Santa Rosa","lat":"8.09286000","lon":"-80.82380000"},
{"state":"Veraguas Province","name":"El Marañón","lat":"8.03582000","lon":"-81.21489000"},
{"state":"Veraguas Province","name":"El María","lat":"8.02905000","lon":"-81.44384000"},
{"state":"Veraguas Province","name":"El Pájaro","lat":"7.95342000","lon":"-81.12154000"},
{"state":"Veraguas Province","name":"El Pantano","lat":"8.53755000","lon":"-81.06941000"},
{"state":"Veraguas Province","name":"El Peñón","lat":"8.35000000","lon":"-80.97620000"},
{"state":"Veraguas Province","name":"El Picador","lat":"8.37803000","lon":"-81.25621000"},
{"state":"Veraguas Province","name":"El Potrero","lat":"8.37692000","lon":"-80.79434000"},
{"state":"Veraguas Province","name":"El Rincón","lat":"8.18422000","lon":"-81.43333000"},
{"state":"Veraguas Province","name":"El Uvito","lat":"8.11648000","lon":"-80.98461000"},
{"state":"Veraguas Province","name":"Guarumal","lat":"7.79404000","lon":"-81.25904000"},
{"state":"Veraguas Province","name":"La Colorada","lat":"8.01319000","lon":"-80.98590000"},
{"state":"Veraguas Province","name":"La Garceana","lat":"7.93708000","lon":"-81.01643000"},
{"state":"Veraguas Province","name":"La Laguna","lat":"8.33882000","lon":"-80.72949000"},
{"state":"Veraguas Province","name":"La Loma","lat":"7.43708000","lon":"-80.89118000"},
{"state":"Veraguas Province","name":"La Mesa","lat":"8.14707000","lon":"-81.18114000"},
{"state":"Veraguas Province","name":"La Montañuela","lat":"8.02487000","lon":"-80.86325000"},
{"state":"Veraguas Province","name":"La Peña","lat":"8.12784000","lon":"-81.02693000"},
{"state":"Veraguas Province","name":"La Raya de Calobre","lat":"8.21630000","lon":"-80.82729000"},
{"state":"Veraguas Province","name":"La Raya de Santa María","lat":"8.16429000","lon":"-80.82143000"},
{"state":"Veraguas Province","name":"La Yeguada","lat":"8.43060000","lon":"-80.85752000"},
{"state":"Veraguas Province","name":"Las Guías Abajo","lat":"8.19451000","lon":"-80.75494000"},
{"state":"Veraguas Province","name":"Las Huacas","lat":"7.90167000","lon":"-81.14056000"},
{"state":"Veraguas Province","name":"Las Palmas","lat":"8.13564000","lon":"-81.45674000"},
{"state":"Veraguas Province","name":"Leones Arriba","lat":"7.75415000","lon":"-81.11556000"},
{"state":"Veraguas Province","name":"Llano Grande","lat":"8.07473000","lon":"-81.13626000"},
{"state":"Veraguas Province","name":"Lolá","lat":"8.09326000","lon":"-81.47163000"},
{"state":"Veraguas Province","name":"Los Algarrobos","lat":"8.10898000","lon":"-81.01355000"},
{"state":"Veraguas Province","name":"Los Castillos","lat":"8.02326000","lon":"-81.11941000"},
{"state":"Veraguas Province","name":"Los Higos","lat":"8.20553000","lon":"-80.86022000"},
{"state":"Veraguas Province","name":"Mariato District","lat":"7.67810000","lon":"-81.00409000"},
{"state":"Veraguas Province","name":"Monjarás","lat":"8.36942000","lon":"-80.86667000"},
{"state":"Veraguas Province","name":"Montijo","lat":"7.98858000","lon":"-81.05643000"},
{"state":"Veraguas Province","name":"Piedras Gordas","lat":"8.52419000","lon":"-80.91152000"},
{"state":"Veraguas Province","name":"Ponuga","lat":"7.88245000","lon":"-80.97880000"},
{"state":"Veraguas Province","name":"Puerto Vidal","lat":"8.04834000","lon":"-81.60499000"},
{"state":"Veraguas Province","name":"Quebrada de Oro","lat":"8.03548000","lon":"-81.38692000"},
{"state":"Veraguas Province","name":"Río de Jesús","lat":"7.97882000","lon":"-81.16162000"},
{"state":"Veraguas Province","name":"Río Grande","lat":"7.71907000","lon":"-81.33423000"},
{"state":"Veraguas Province","name":"Rodeo Viejo","lat":"8.11205000","lon":"-81.31684000"},
{"state":"Veraguas Province","name":"San Bartolo","lat":"8.21063000","lon":"-81.27572000"},
{"state":"Veraguas Province","name":"San Francisco","lat":"8.06667000","lon":"-81.36667000"},
{"state":"Veraguas Province","name":"San José","lat":"8.46704000","lon":"-80.80514000"},
{"state":"Veraguas Province","name":"San Juan","lat":"8.30311000","lon":"-81.01575000"},
{"state":"Veraguas Province","name":"San Marcelo","lat":"8.27252000","lon":"-81.15988000"},
{"state":"Veraguas Province","name":"San Pedro del Espino","lat":"8.14011000","lon":"-81.08663000"},
{"state":"Veraguas Province","name":"Santa Fé","lat":"8.51063000","lon":"-81.07802000"},
{"state":"Veraguas Province","name":"Santiago de Veraguas","lat":"8.10000000","lon":"-80.98333000"},
{"state":"Veraguas Province","name":"Soná","lat":"8.01223000","lon":"-81.32163000"},
{"state":"Veraguas Province","name":"Tebario","lat":"7.71369000","lon":"-80.97825000"},
{"state":"Veraguas Province","name":"Utirá","lat":"7.97208000","lon":"-81.21777000"},
{"state":"Veraguas Province","name":"Viguí","lat":"8.33921000","lon":"-81.49823000"},
{"state":"Veraguas Province","name":"Zapotillo","lat":"8.00532000","lon":"-81.50653000"}]