[{"state":"Amazonas","name":"Bagua Grande","lat":"-5.75611000","lon":"-78.44111000"},
{"state":"Amazonas","name":"Cajaruro","lat":"-5.73639000","lon":"-78.42556000"},
{"state":"Amazonas","name":"Chachapoyas","lat":"-6.23169000","lon":"-77.86903000"},
{"state":"Amazonas","name":"Condorcanqui","lat":"-4.16515000","lon":"-78.03840000"},
{"state":"Amazonas","name":"La Peca","lat":"-5.61111000","lon":"-78.43500000"},
{"state":"Amazonas","name":"Provincia de Bagua","lat":"-5.09006000","lon":"-78.39972000"},
{"state":"Amazonas","name":"Provincia de Bongará","lat":"-5.68341000","lon":"-77.87308000"},
{"state":"Amazonas","name":"Provincia de Chachapoyas","lat":"-6.27480000","lon":"-77.81067000"},
{"state":"Amazonas","name":"Provincia de Luya","lat":"-6.41667000","lon":"-78.00000000"},
{"state":"Amazonas","name":"Provincia de Rodríguez de Mendoza","lat":"-6.33333000","lon":"-77.41667000"},
{"state":"Amazonas","name":"Utcubamba","lat":"-5.77031000","lon":"-78.32850000"},
{"state":"Áncash","name":"Asuncion","lat":"-9.18987000","lon":"-77.39878000"},
{"state":"Áncash","name":"Carás","lat":"-9.04692000","lon":"-77.80901000"},
{"state":"Áncash","name":"Carhuaz","lat":"-9.28194000","lon":"-77.64472000"},
{"state":"Áncash","name":"Carlos Fermin Fitzcarrald","lat":"-9.04415000","lon":"-77.24168000"},
{"state":"Áncash","name":"Chimbote","lat":"-9.08528000","lon":"-78.57833000"},
{"state":"Áncash","name":"Coishco","lat":"-9.02306000","lon":"-78.61556000"},
{"state":"Áncash","name":"Huaraz","lat":"-9.52779000","lon":"-77.52778000"},
{"state":"Áncash","name":"Huarmey","lat":"-10.06806000","lon":"-78.15222000"},
{"state":"Áncash","name":"Pomabamba","lat":"-8.83333000","lon":"-77.46667000"},
{"state":"Áncash","name":"Provincia de Aija","lat":"-9.83333000","lon":"-77.66667000"},
{"state":"Áncash","name":"Provincia de Antonio Raymondi","lat":"-9.08333000","lon":"-77.08333000"},
{"state":"Áncash","name":"Provincia de Bolognesi","lat":"-10.10723000","lon":"-77.14804000"},
{"state":"Áncash","name":"Provincia de Carhuaz","lat":"-9.31700000","lon":"-77.55100000"},
{"state":"Áncash","name":"Provincia de Casma","lat":"-9.47638000","lon":"-78.24738000"},
{"state":"Áncash","name":"Provincia de Corongo","lat":"-8.58333000","lon":"-77.91667000"},
{"state":"Áncash","name":"Provincia de Huaraz","lat":"-9.56109000","lon":"-77.64605000"},
{"state":"Áncash","name":"Provincia de Huari","lat":"-9.33333000","lon":"-77.16667000"},
{"state":"Áncash","name":"Provincia de Huarmey","lat":"-9.91667000","lon":"-78.00000000"},
{"state":"Áncash","name":"Provincia de Huaylas","lat":"-8.91667000","lon":"-77.83333000"},
{"state":"Áncash","name":"Provincia de Mariscal Luzuriaga","lat":"-8.83333000","lon":"-77.25000000"},
{"state":"Áncash","name":"Provincia de Pallasca","lat":"-8.33333000","lon":"-77.91667000"},
{"state":"Áncash","name":"Provincia de Pomabamba","lat":"-8.82311000","lon":"-77.47559000"},
{"state":"Áncash","name":"Provincia de Recuay","lat":"-10.00000000","lon":"-77.41667000"},
{"state":"Áncash","name":"Provincia de Santa","lat":"-9.00000000","lon":"-78.25000000"},
{"state":"Áncash","name":"Provincia de Sihuas","lat":"-8.50000000","lon":"-77.50000000"},
{"state":"Áncash","name":"Provincia de Yungay","lat":"-9.16667000","lon":"-77.75000000"},
{"state":"Áncash","name":"Puerto Santa","lat":"-8.98772000","lon":"-78.64727000"},
{"state":"Áncash","name":"Yauya","lat":"-8.98333000","lon":"-77.30000000"},
{"state":"Áncash","name":"Yungay","lat":"-9.13833000","lon":"-77.74361000"},
{"state":"Apurímac","name":"Abancay","lat":"-13.63389000","lon":"-72.88139000"},
{"state":"Apurímac","name":"Andahuaylas","lat":"-13.65556000","lon":"-73.38722000"},
{"state":"Apurímac","name":"Provincia de Abancay","lat":"-13.66667000","lon":"-72.91667000"},
{"state":"Apurímac","name":"Provincia de Andahuaylas","lat":"-13.66667000","lon":"-73.41667000"},
{"state":"Apurímac","name":"Provincia de Antabamba","lat":"-14.41667000","lon":"-72.75000000"},
{"state":"Apurímac","name":"Provincia de Aymaraes","lat":"-14.41667000","lon":"-73.25000000"},
{"state":"Apurímac","name":"Provincia de Cotabambas","lat":"-14.00000000","lon":"-72.20000000"},
{"state":"Apurímac","name":"Provincia de Grau","lat":"-14.00000000","lon":"-72.58333000"},
{"state":"Apurímac","name":"San Jerónimo","lat":"-13.65138000","lon":"-73.36388000"},
{"state":"Apurímac","name":"Talavera","lat":"-13.65306000","lon":"-73.42917000"},
{"state":"Arequipa","name":"Acarí","lat":"-15.42393000","lon":"-74.61361000"},
{"state":"Arequipa","name":"Arequipa","lat":"-16.39889000","lon":"-71.53500000"},
{"state":"Arequipa","name":"Camaná","lat":"-16.62375000","lon":"-72.71055000"},
{"state":"Arequipa","name":"Ccolo","lat":"-15.50611000","lon":"-71.49184000"},
{"state":"Arequipa","name":"Chivay","lat":"-15.63833000","lon":"-71.60111000"},
{"state":"Arequipa","name":"Cocachacra","lat":"-17.08833000","lon":"-71.75750000"},
{"state":"Arequipa","name":"Cotahuasi","lat":"-15.21306000","lon":"-72.88861000"},
{"state":"Arequipa","name":"Huarancante","lat":"-15.76803000","lon":"-71.45952000"},
{"state":"Arequipa","name":"Huarichancara","lat":"-15.63972000","lon":"-71.06111000"},
{"state":"Arequipa","name":"Jatun Orcochiri","lat":"-15.75003000","lon":"-71.34641000"},
{"state":"Arequipa","name":"Jayune","lat":"-15.56277000","lon":"-71.30312000"},
{"state":"Arequipa","name":"Llongasora","lat":"-15.63951000","lon":"-71.29921000"},
{"state":"Arequipa","name":"Lluta","lat":"-16.01472000","lon":"-72.01417000"},
{"state":"Arequipa","name":"Mollendo","lat":"-17.02306000","lon":"-72.01472000"},
{"state":"Arequipa","name":"Orcopampa","lat":"-15.26611000","lon":"-72.34167000"},
{"state":"Arequipa","name":"Provincia de Arequipa","lat":"-16.33333000","lon":"-71.50000000"},
{"state":"Arequipa","name":"Provincia de Camaná","lat":"-16.41667000","lon":"-72.83333000"},
{"state":"Arequipa","name":"Provincia de Caravelí","lat":"-15.58333000","lon":"-74.00000000"},
{"state":"Arequipa","name":"Provincia de Castilla","lat":"-15.58333000","lon":"-72.41667000"},
{"state":"Arequipa","name":"Provincia de Caylloma","lat":"-15.66667000","lon":"-71.58333000"},
{"state":"Arequipa","name":"Provincia de Condesuyos","lat":"-15.58333000","lon":"-72.83333000"},
{"state":"Arequipa","name":"Provincia de Islay","lat":"-17.00000000","lon":"-71.83333000"},
{"state":"Arequipa","name":"Provincia de La Unión","lat":"-15.00000000","lon":"-72.83333000"},
{"state":"Arequipa","name":"Pucara","lat":"-15.97993000","lon":"-71.45988000"},
{"state":"Arequipa","name":"Punta de Bombón","lat":"-17.17190000","lon":"-71.79240000"},
{"state":"Arequipa","name":"Vizcachane","lat":"-15.80861000","lon":"-71.20111000"},
{"state":"Arequipa","name":"Yura","lat":"-16.25223000","lon":"-71.67969000"},
{"state":"Ayacucho","name":"Ayacucho","lat":"-13.15878000","lon":"-74.22321000"},
{"state":"Ayacucho","name":"Ayna","lat":"-12.65000000","lon":"-73.91667000"},
{"state":"Ayacucho","name":"Coracora","lat":"-15.03333000","lon":"-73.78333000"},
{"state":"Ayacucho","name":"Huanta","lat":"-12.93333000","lon":"-74.25000000"},
{"state":"Ayacucho","name":"Paucar Del Sara Sara","lat":"-15.12275000","lon":"-73.26177000"},
{"state":"Ayacucho","name":"Provincia de Cangallo","lat":"-13.57300000","lon":"-74.38900000"},
{"state":"Ayacucho","name":"Provincia de Huamanga","lat":"-13.20000000","lon":"-74.25000000"},
{"state":"Ayacucho","name":"Provincia de Huanca Sancos","lat":"-14.07600000","lon":"-74.42800000"},
{"state":"Ayacucho","name":"Provincia de Huanta","lat":"-12.50000000","lon":"-74.16667000"},
{"state":"Ayacucho","name":"Provincia de La Mar","lat":"-12.91667000","lon":"-73.83333000"},
{"state":"Ayacucho","name":"Provincia de Lucanas","lat":"-14.50000000","lon":"-74.33333000"},
{"state":"Ayacucho","name":"Provincia de Parinacochas","lat":"-15.02965000","lon":"-73.63487000"},
{"state":"Ayacucho","name":"Provincia de Sucre","lat":"-14.10300000","lon":"-73.78600000"},
{"state":"Ayacucho","name":"Provincia de Víctor Fajardo","lat":"-13.75000000","lon":"-74.33333000"},
{"state":"Ayacucho","name":"Provincia de Vilcas Huamán","lat":"-13.63200000","lon":"-73.88800000"},
{"state":"Ayacucho","name":"Puquio","lat":"-14.70000000","lon":"-74.13333000"},
{"state":"Ayacucho","name":"San Miguel","lat":"-13.01250000","lon":"-73.98083000"},
{"state":"Ayacucho","name":"Tambo","lat":"-14.79847000","lon":"-73.92438000"},
{"state":"Cajamarca","name":"Bambamarca","lat":"-6.68333000","lon":"-78.53333000"},
{"state":"Cajamarca","name":"Bellavista","lat":"-5.66417000","lon":"-78.67722000"},
{"state":"Cajamarca","name":"Cajabamba","lat":"-7.61667000","lon":"-78.05000000"},
{"state":"Cajamarca","name":"Cajamarca","lat":"-7.16378000","lon":"-78.50027000"},
{"state":"Cajamarca","name":"Celendín","lat":"-6.86590000","lon":"-78.14585000"},
{"state":"Cajamarca","name":"Chota","lat":"-6.55000000","lon":"-78.65000000"},
{"state":"Cajamarca","name":"Jaén","lat":"-5.70729000","lon":"-78.80785000"},
{"state":"Cajamarca","name":"Provincia de Cajabamba","lat":"-7.50000000","lon":"-78.16667000"},
{"state":"Cajamarca","name":"Provincia de Cajamarca","lat":"-7.33333000","lon":"-78.41667000"},
{"state":"Cajamarca","name":"Provincia de Celendín","lat":"-6.83333000","lon":"-78.25000000"},
{"state":"Cajamarca","name":"Provincia de Chota","lat":"-6.38332000","lon":"-79.18055000"},
{"state":"Cajamarca","name":"Provincia de Contumazá","lat":"-7.33333000","lon":"-78.91667000"},
{"state":"Cajamarca","name":"Provincia de Cutervo","lat":"-6.36667000","lon":"-78.85000000"},
{"state":"Cajamarca","name":"Provincia de Hualgayoc","lat":"-6.68000000","lon":"-78.53000000"},
{"state":"Cajamarca","name":"Provincia de Jaén","lat":"-5.71074000","lon":"-79.00438000"},
{"state":"Cajamarca","name":"Provincia de San Ignacio","lat":"-5.08333000","lon":"-79.00000000"},
{"state":"Cajamarca","name":"Provincia de San Miguel","lat":"-7.00000000","lon":"-79.00000000"},
{"state":"Cajamarca","name":"Provincia de Santa Cruz","lat":"-6.83333000","lon":"-79.00000000"},
{"state":"Cajamarca","name":"San Ignacio","lat":"-5.14583000","lon":"-79.00139000"},
{"state":"Callao","name":"Callao","lat":"-12.05659000","lon":"-77.11814000"},
{"state":"Cusco","name":"Anta","lat":"-13.47056000","lon":"-72.14833000"},
{"state":"Cusco","name":"Cahuanuyo","lat":"-14.34147000","lon":"-71.46311000"},
{"state":"Cusco","name":"Calca","lat":"-13.33333000","lon":"-71.95000000"},
{"state":"Cusco","name":"Callanca","lat":"-14.18137000","lon":"-71.14070000"},
{"state":"Cusco","name":"Ccaquiracunca","lat":"-14.27683000","lon":"-71.45026000"},
{"state":"Cusco","name":"Ccuntuma","lat":"-14.12540000","lon":"-71.41216000"},
{"state":"Cusco","name":"Checacupe","lat":"-14.02694000","lon":"-71.45278000"},
{"state":"Cusco","name":"Checca","lat":"-14.47278000","lon":"-71.39389000"},
{"state":"Cusco","name":"Chignayhua","lat":"-14.24610000","lon":"-71.44442000"},
{"state":"Cusco","name":"Chinchero","lat":"-13.39222000","lon":"-72.04778000"},
{"state":"Cusco","name":"Combapata","lat":"-14.10111000","lon":"-71.42944000"},
{"state":"Cusco","name":"Conchopata","lat":"-14.46968000","lon":"-71.19843000"},
{"state":"Cusco","name":"Cullcuyre","lat":"-14.09272000","lon":"-71.33119000"},
{"state":"Cusco","name":"Cusco","lat":"-13.52264000","lon":"-71.96734000"},
{"state":"Cusco","name":"Huayna Alcalde","lat":"-14.26989000","lon":"-71.09599000"},
{"state":"Cusco","name":"Jayobamba","lat":"-14.09425000","lon":"-71.33922000"},
{"state":"Cusco","name":"Langui","lat":"-14.43194000","lon":"-71.27306000"},
{"state":"Cusco","name":"Layo","lat":"-14.49361000","lon":"-71.15500000"},
{"state":"Cusco","name":"Lima Pampa","lat":"-14.08976000","lon":"-71.33664000"},
{"state":"Cusco","name":"Maranganí","lat":"-14.35672000","lon":"-71.16924000"},
{"state":"Cusco","name":"Maras","lat":"-13.33500000","lon":"-72.15667000"},
{"state":"Cusco","name":"Mosoc Cancha","lat":"-14.28514000","lon":"-71.08773000"},
{"state":"Cusco","name":"Mosoc Llacta","lat":"-14.12000000","lon":"-71.47278000"},
{"state":"Cusco","name":"Ollantaytambo","lat":"-13.25722000","lon":"-72.26306000"},
{"state":"Cusco","name":"Oropesa","lat":"-13.59278000","lon":"-71.77194000"},
{"state":"Cusco","name":"Pampamarca","lat":"-14.14639000","lon":"-71.45944000"},
{"state":"Cusco","name":"Pangoa","lat":"-12.11667000","lon":"-73.00000000"},
{"state":"Cusco","name":"Paucartambo","lat":"-13.31522000","lon":"-71.59364000"},
{"state":"Cusco","name":"Pisac","lat":"-13.42250000","lon":"-71.84667000"},
{"state":"Cusco","name":"Provincia de Acomayo","lat":"-13.91667000","lon":"-71.66667000"},
{"state":"Cusco","name":"Provincia de Anta","lat":"-13.50000000","lon":"-72.33333000"},
{"state":"Cusco","name":"Provincia de Calca","lat":"-13.00000000","lon":"-72.16667000"},
{"state":"Cusco","name":"Provincia de Canas","lat":"-14.41083000","lon":"-71.33694000"},
{"state":"Cusco","name":"Provincia de Canchis","lat":"-14.08194000","lon":"-71.18556000"},
{"state":"Cusco","name":"Provincia de Chumbivilcas","lat":"-14.41667000","lon":"-72.00000000"},
{"state":"Cusco","name":"Provincia de Cusco","lat":"-13.50000000","lon":"-72.00000000"},
{"state":"Cusco","name":"Provincia de Espinar","lat":"-14.75000000","lon":"-71.41667000"},
{"state":"Cusco","name":"Provincia de La Convención","lat":"-12.00000000","lon":"-73.00000000"},
{"state":"Cusco","name":"Provincia de Paruro","lat":"-13.91667000","lon":"-71.91667000"},
{"state":"Cusco","name":"Provincia de Paucartambo","lat":"-13.16667000","lon":"-71.41667000"},
{"state":"Cusco","name":"Provincia de Quispicanchis","lat":"-13.41667000","lon":"-71.00000000"},
{"state":"Cusco","name":"Provincia de Urubamba","lat":"-13.25000000","lon":"-72.33333000"},
{"state":"Cusco","name":"Qquea","lat":"-14.05417000","lon":"-71.38583000"},
{"state":"Cusco","name":"Queromarca","lat":"-14.18391000","lon":"-71.38343000"},
{"state":"Cusco","name":"San Pablo","lat":"-14.20278000","lon":"-71.31556000"},
{"state":"Cusco","name":"Santa Ana","lat":"-12.86667000","lon":"-72.71667000"},
{"state":"Cusco","name":"Santo Tomas","lat":"-14.44556000","lon":"-72.08417000"},
{"state":"Cusco","name":"Sicuani","lat":"-14.26944000","lon":"-71.22611000"},
{"state":"Cusco","name":"Tinta","lat":"-14.14500000","lon":"-71.40694000"},
{"state":"Cusco","name":"Tungasuca","lat":"-14.16389000","lon":"-71.47667000"},
{"state":"Cusco","name":"Urcos","lat":"-13.68611000","lon":"-71.62278000"},
{"state":"Cusco","name":"Urubamba","lat":"-13.30472000","lon":"-72.11583000"},
{"state":"Cusco","name":"Yanaoca","lat":"-14.21806000","lon":"-71.43167000"},
{"state":"Huancavelica","name":"Huancavelica","lat":"-12.78261000","lon":"-74.97266000"},
{"state":"Huancavelica","name":"Huaytara","lat":"-13.65616000","lon":"-75.09234000"},
{"state":"Huancavelica","name":"Pampas","lat":"-12.39490000","lon":"-74.86687000"},
{"state":"Huancavelica","name":"Provincia de Acobamba","lat":"-12.75000000","lon":"-74.66667000"},
{"state":"Huancavelica","name":"Provincia de Angaraes","lat":"-13.00000000","lon":"-74.75000000"},
{"state":"Huancavelica","name":"Provincia de Castrovirreyna","lat":"-13.14535000","lon":"-75.40598000"},
{"state":"Huancavelica","name":"Provincia de Churcampa","lat":"-12.60000000","lon":"-74.52000000"},
{"state":"Huancavelica","name":"Provincia de Huancavelica","lat":"-12.66667000","lon":"-75.25000000"},
{"state":"Huancavelica","name":"Provincia de Tayacaja","lat":"-12.25000000","lon":"-74.75000000"},
{"state":"Huanuco","name":"Ambo","lat":"-10.13083000","lon":"-76.20472000"},
{"state":"Huanuco","name":"Huacaybamba","lat":"-8.99480000","lon":"-76.81027000"},
{"state":"Huanuco","name":"Huánuco","lat":"-9.93062000","lon":"-76.24223000"},
{"state":"Huanuco","name":"La Unión","lat":"-9.82702000","lon":"-76.80199000"},
{"state":"Huanuco","name":"Lauricocha","lat":"-10.20055000","lon":"-76.70359000"},
{"state":"Huanuco","name":"Llata","lat":"-9.41667000","lon":"-76.78333000"},
{"state":"Huanuco","name":"Provincia de Ambo","lat":"-10.16667000","lon":"-76.16667000"},
{"state":"Huanuco","name":"Provincia de Dos de Mayo","lat":"-9.91667000","lon":"-76.75000000"},
{"state":"Huanuco","name":"Provincia de Huamalíes","lat":"-9.25000000","lon":"-76.50000000"},
{"state":"Huanuco","name":"Provincia de Huánuco","lat":"-9.66667000","lon":"-76.08333000"},
{"state":"Huanuco","name":"Provincia de Leoncio Prado","lat":"-9.16667000","lon":"-76.00000000"},
{"state":"Huanuco","name":"Provincia de Marañón","lat":"-8.75000000","lon":"-76.66667000"},
{"state":"Huanuco","name":"Provincia de Pachitea","lat":"-9.95262000","lon":"-75.81390000"},
{"state":"Huanuco","name":"Puerto Inca","lat":"-9.36696000","lon":"-75.08958000"},
{"state":"Huanuco","name":"San Miguel de Cauri","lat":"-10.13818000","lon":"-76.62288000"},
{"state":"Huanuco","name":"Tingo María","lat":"-9.29532000","lon":"-75.99574000"},
{"state":"Huanuco","name":"Yanacancha","lat":"-10.24111000","lon":"-76.64556000"},
{"state":"Huanuco","name":"Yarowilca","lat":"-9.80263000","lon":"-76.59516000"},
{"state":"Ica","name":"Chincha Alta","lat":"-13.40985000","lon":"-76.13235000"},
{"state":"Ica","name":"Ica","lat":"-14.06777000","lon":"-75.72861000"},
{"state":"Ica","name":"Los Aquijes","lat":"-14.09667000","lon":"-75.69083000"},
{"state":"Ica","name":"Minas de Marcona","lat":"-15.21194000","lon":"-75.11028000"},
{"state":"Ica","name":"Nazca","lat":"-14.83098000","lon":"-74.93895000"},
{"state":"Ica","name":"Palpa","lat":"-14.53361000","lon":"-75.18556000"},
{"state":"Ica","name":"Paracas","lat":"-13.86667000","lon":"-76.26667000"},
{"state":"Ica","name":"Pisco","lat":"-13.71029000","lon":"-76.20538000"},
{"state":"Ica","name":"Provincia de Chincha","lat":"-13.31791000","lon":"-75.93930000"},
{"state":"Ica","name":"Provincia de Ica","lat":"-14.33861000","lon":"-75.64833000"},
{"state":"Ica","name":"Provincia de Nazca","lat":"-15.00000000","lon":"-75.08333000"},
{"state":"Ica","name":"Provincia de Palpa","lat":"-14.41667000","lon":"-75.16667000"},
{"state":"Ica","name":"Provincia de Pisco","lat":"-13.80377000","lon":"-75.94264000"},
{"state":"Ica","name":"Río Grande","lat":"-14.51600000","lon":"-75.19933000"},
{"state":"Ica","name":"San Clemente","lat":"-13.66667000","lon":"-76.15000000"},
{"state":"Ica","name":"San Juan Bautista","lat":"-14.01083000","lon":"-75.73583000"},
{"state":"Ica","name":"Santiago","lat":"-14.18469000","lon":"-75.71124000"},
{"state":"Ica","name":"Subtanjalla","lat":"-14.01889000","lon":"-75.75806000"},
{"state":"Ica","name":"Villa Tupac Amaru","lat":"-13.71135000","lon":"-76.14980000"},
{"state":"Junín","name":"Acolla","lat":"-11.73193000","lon":"-75.54634000"},
{"state":"Junín","name":"Carhuamayo","lat":"-10.91667000","lon":"-76.03333000"},
{"state":"Junín","name":"Chanchamayo","lat":"-11.05000000","lon":"-75.31667000"},
{"state":"Junín","name":"Chupaca","lat":"-12.06667000","lon":"-75.28333000"},
{"state":"Junín","name":"Concepción","lat":"-11.91762000","lon":"-75.31401000"},
{"state":"Junín","name":"Huancayo","lat":"-12.06513000","lon":"-75.20486000"},
{"state":"Junín","name":"Huasahuasi","lat":"-11.26527000","lon":"-75.64722000"},
{"state":"Junín","name":"Huayucachi","lat":"-12.13333000","lon":"-75.23333000"},
{"state":"Junín","name":"Jauja","lat":"-11.77584000","lon":"-75.49656000"},
{"state":"Junín","name":"Junín","lat":"-11.15895000","lon":"-75.99304000"},
{"state":"Junín","name":"La Oroya","lat":"-11.51893000","lon":"-75.89935000"},
{"state":"Junín","name":"Mazamari","lat":"-11.32583000","lon":"-74.53083000"},
{"state":"Junín","name":"Morococha","lat":"-11.59972000","lon":"-76.14111000"},
{"state":"Junín","name":"Orcotuna","lat":"-11.96886000","lon":"-75.30780000"},
{"state":"Junín","name":"Perené","lat":"-10.94510000","lon":"-75.22394000"},
{"state":"Junín","name":"Pilcomay","lat":"-12.04722000","lon":"-75.24931000"},
{"state":"Junín","name":"Provincia de Chupaca","lat":"-12.30000000","lon":"-75.43300000"},
{"state":"Junín","name":"Provincia de Concepción","lat":"-11.75000000","lon":"-75.00000000"},
{"state":"Junín","name":"Provincia de Huancayo","lat":"-12.17319000","lon":"-75.16169000"},
{"state":"Junín","name":"Provincia de Jauja","lat":"-11.72600000","lon":"-75.54700000"},
{"state":"Junín","name":"Provincia de Junín","lat":"-11.08333000","lon":"-76.00000000"},
{"state":"Junín","name":"Provincia de Satipo","lat":"-11.50000000","lon":"-74.25000000"},
{"state":"Junín","name":"Provincia de Tarma","lat":"-11.40562000","lon":"-75.69129000"},
{"state":"Junín","name":"Provincia de Yauli","lat":"-11.66667000","lon":"-76.16667000"},
{"state":"Junín","name":"San Agustin","lat":"-11.97195000","lon":"-75.25562000"},
{"state":"Junín","name":"San Jerónimo","lat":"-11.95591000","lon":"-75.28411000"},
{"state":"Junín","name":"San Pedro de Cajas","lat":"-11.25061000","lon":"-75.86116000"},
{"state":"Junín","name":"San Ramón","lat":"-11.12417000","lon":"-75.35733000"},
{"state":"Junín","name":"Satipo","lat":"-11.25222000","lon":"-74.63861000"},
{"state":"Junín","name":"Sicaya","lat":"-12.03333000","lon":"-75.28333000"},
{"state":"Junín","name":"Tarma","lat":"-11.41899000","lon":"-75.68992000"},
{"state":"La Libertad","name":"Ascope","lat":"-7.71444000","lon":"-79.10778000"},
{"state":"La Libertad","name":"Cascas","lat":"-7.48333000","lon":"-78.81667000"},
{"state":"La Libertad","name":"Chepen","lat":"-7.14367000","lon":"-79.45674000"},
{"state":"La Libertad","name":"Chicama","lat":"-7.84472000","lon":"-79.14694000"},
{"state":"La Libertad","name":"Chocope","lat":"-7.79139000","lon":"-79.22167000"},
{"state":"La Libertad","name":"Gran Chimu","lat":"-7.57976000","lon":"-78.64718000"},
{"state":"La Libertad","name":"Guadalupe","lat":"-7.25000000","lon":"-79.48333000"},
{"state":"La Libertad","name":"Huamachuco","lat":"-7.80000000","lon":"-78.06667000"},
{"state":"La Libertad","name":"Julcan","lat":"-8.17238000","lon":"-78.46356000"},
{"state":"La Libertad","name":"Laredo","lat":"-8.08965000","lon":"-78.96020000"},
{"state":"La Libertad","name":"Moche","lat":"-8.17111000","lon":"-79.00917000"},
{"state":"La Libertad","name":"Otuzco","lat":"-7.90000000","lon":"-78.58333000"},
{"state":"La Libertad","name":"Pacanga","lat":"-7.16667000","lon":"-79.50000000"},
{"state":"La Libertad","name":"Pacasmayo","lat":"-7.40056000","lon":"-79.57139000"},
{"state":"La Libertad","name":"Paiján","lat":"-7.73291000","lon":"-79.30150000"},
{"state":"La Libertad","name":"Provincia de Bolívar","lat":"-7.33333000","lon":"-77.75000000"},
{"state":"La Libertad","name":"Provincia de Otuzco","lat":"-7.90457000","lon":"-78.56362000"},
{"state":"La Libertad","name":"Provincia de Pacasmayo","lat":"-7.25000000","lon":"-79.50000000"},
{"state":"La Libertad","name":"Provincia de Pataz","lat":"-8.25000000","lon":"-77.33333000"},
{"state":"La Libertad","name":"Provincia de Santiago de Chuco","lat":"-8.33333000","lon":"-78.25000000"},
{"state":"La Libertad","name":"Provincia de Trujillo","lat":"-8.08333000","lon":"-78.91667000"},
{"state":"La Libertad","name":"Pueblo Nuevo","lat":"-7.18806000","lon":"-79.51528000"},
{"state":"La Libertad","name":"Quiruvilca","lat":"-7.96667000","lon":"-78.20000000"},
{"state":"La Libertad","name":"Salaverry","lat":"-8.22100000","lon":"-78.97698000"},
{"state":"La Libertad","name":"San Pedro de Lloc","lat":"-7.42890000","lon":"-79.50416000"},
{"state":"La Libertad","name":"Sanchez Carrion","lat":"-7.78538000","lon":"-77.92586000"},
{"state":"La Libertad","name":"Santiago de Cao","lat":"-7.95889000","lon":"-79.23917000"},
{"state":"La Libertad","name":"Santiago de Chuco","lat":"-8.14099000","lon":"-78.17329000"},
{"state":"La Libertad","name":"Trujillo","lat":"-8.11599000","lon":"-79.02998000"},
{"state":"La Libertad","name":"Viru","lat":"-8.52199000","lon":"-78.60355000"},
{"state":"Lambayeque","name":"Chiclayo","lat":"-6.77137000","lon":"-79.84088000"},
{"state":"Lambayeque","name":"Chongoyape","lat":"-6.64056000","lon":"-79.38917000"},
{"state":"Lambayeque","name":"Eten","lat":"-6.90806000","lon":"-79.86417000"},
{"state":"Lambayeque","name":"Ferreñafe","lat":"-6.63889000","lon":"-79.78889000"},
{"state":"Lambayeque","name":"Jayanca","lat":"-6.39083000","lon":"-79.82194000"},
{"state":"Lambayeque","name":"Lambayeque","lat":"-6.70111000","lon":"-79.90611000"},
{"state":"Lambayeque","name":"Mochumí","lat":"-6.54364000","lon":"-79.86217000"},
{"state":"Lambayeque","name":"Monsefú","lat":"-6.87431000","lon":"-79.86871000"},
{"state":"Lambayeque","name":"Mórrope","lat":"-6.53536000","lon":"-80.01104000"},
{"state":"Lambayeque","name":"Motupe","lat":"-6.15194000","lon":"-79.71417000"},
{"state":"Lambayeque","name":"Olmos","lat":"-5.98472000","lon":"-79.74528000"},
{"state":"Lambayeque","name":"Oyotún","lat":"-6.84438000","lon":"-79.30093000"},
{"state":"Lambayeque","name":"Picsi","lat":"-6.71778000","lon":"-79.76972000"},
{"state":"Lambayeque","name":"Pimentel","lat":"-6.83667000","lon":"-79.93417000"},
{"state":"Lambayeque","name":"Provincia de Chiclayo","lat":"-6.76667000","lon":"-79.85000000"},
{"state":"Lambayeque","name":"Provincia de Ferreñafe","lat":"-6.33333000","lon":"-79.50000000"},
{"state":"Lambayeque","name":"Provincia de Lambayeque","lat":"-6.08333000","lon":"-80.08333000"},
{"state":"Lambayeque","name":"Pueblo Nuevo","lat":"-5.71667000","lon":"-79.88333000"},
{"state":"Lambayeque","name":"Reque","lat":"-6.86556000","lon":"-79.81778000"},
{"state":"Lambayeque","name":"San José","lat":"-6.73813000","lon":"-79.82750000"},
{"state":"Lambayeque","name":"Saña","lat":"-6.91888000","lon":"-79.58200000"},
{"state":"Lambayeque","name":"Santa Rosa","lat":"-6.75772000","lon":"-79.82747000"},
{"state":"Lambayeque","name":"Túcume","lat":"-6.50637000","lon":"-79.85725000"},
{"state":"Lima","name":"Asentamiento Humano Nicolas de Pierola","lat":"-11.93573000","lon":"-76.70611000"},
{"state":"Lima","name":"Barranca","lat":"-10.75000000","lon":"-77.76667000"},
{"state":"Lima","name":"Caleta de Carquín","lat":"-11.09250000","lon":"-77.62667000"},
{"state":"Lima","name":"Chancay","lat":"-11.57139000","lon":"-77.26722000"},
{"state":"Lima","name":"Chilca","lat":"-12.52111000","lon":"-76.73722000"},
{"state":"Lima","name":"Chosica","lat":"-11.94306000","lon":"-76.70944000"},
{"state":"Lima","name":"Huacho","lat":"-11.10667000","lon":"-77.60500000"},
{"state":"Lima","name":"Hualmay","lat":"-11.09639000","lon":"-77.61389000"},
{"state":"Lima","name":"Huaral","lat":"-11.49500000","lon":"-77.20778000"},
{"state":"Lima","name":"Huaura","lat":"-11.07000000","lon":"-77.59944000"},
{"state":"Lima","name":"Imperial","lat":"-13.05927000","lon":"-76.35269000"},
{"state":"Lima","name":"Independencia","lat":"-11.99000000","lon":"-77.04583000"},
{"state":"Lima","name":"Lima","lat":"-12.04318000","lon":"-77.02824000"},
{"state":"Lima","name":"Mala","lat":"-12.65806000","lon":"-76.63083000"},
{"state":"Lima","name":"Matucana","lat":"-11.85000000","lon":"-76.40000000"},
{"state":"Lima","name":"Nuevo Imperial","lat":"-13.07541000","lon":"-76.31719000"},
{"state":"Lima","name":"Oyon","lat":"-10.75869000","lon":"-76.87634000"},
{"state":"Lima","name":"Paramonga","lat":"-10.66667000","lon":"-77.83333000"},
{"state":"Lima","name":"Pativilca","lat":"-10.70000000","lon":"-77.78333000"},
{"state":"Lima","name":"Provincia de Cajatambo","lat":"-10.66667000","lon":"-77.00000000"},
{"state":"Lima","name":"Provincia de Cañete","lat":"-12.75000000","lon":"-76.33333000"},
{"state":"Lima","name":"Provincia de Canta","lat":"-11.46667000","lon":"-76.61667000"},
{"state":"Lima","name":"Provincia de Huaral","lat":"-11.25000000","lon":"-76.91667000"},
{"state":"Lima","name":"Provincia de Huarochirí","lat":"-11.91667000","lon":"-76.41667000"},
{"state":"Lima","name":"Provincia de Yauyos","lat":"-12.41667000","lon":"-76.00000000"},
{"state":"Lima","name":"Puerto Supe","lat":"-10.80135000","lon":"-77.74333000"},
{"state":"Lima","name":"Quilmaná","lat":"-12.94860000","lon":"-76.38112000"},
{"state":"Lima","name":"Ricardo Palma","lat":"-11.91978000","lon":"-76.65610000"},
{"state":"Lima","name":"San Bartolo","lat":"-12.38333000","lon":"-76.78333000"},
{"state":"Lima","name":"San Isidro","lat":"-12.11667000","lon":"-77.05000000"},
{"state":"Lima","name":"San Luis","lat":"-12.07674000","lon":"-76.99435000"},
{"state":"Lima","name":"San Vicente de Cañete","lat":"-13.07556000","lon":"-76.38528000"},
{"state":"Lima","name":"Santa María","lat":"-12.00538000","lon":"-76.89329000"},
{"state":"Lima","name":"Santiago de Surco","lat":"-12.13588000","lon":"-77.00742000"},
{"state":"Lima","name":"Sayán","lat":"-11.13333000","lon":"-77.19460000"},
{"state":"Lima","name":"Supe","lat":"-10.79750000","lon":"-77.71306000"},
{"state":"Lima","name":"Urb. Santo Domingo","lat":"-11.87655000","lon":"-77.03345000"},
{"state":"Lima","name":"Végueta","lat":"-11.02253000","lon":"-77.64378000"},
{"state":"Loreto","name":"Andoas","lat":"-2.90250000","lon":"-76.40250000"},
{"state":"Loreto","name":"Borja","lat":"-4.43333333","lon":"-77.55000000"},
{"state":"Loreto","name":"Caballococha","lat":"-3.90583333","lon":"-70.51638889"},
{"state":"Loreto","name":"Cape Pantoja","lat":"-0.96435000","lon":"-75.18144000"},
{"state":"Loreto","name":"Indiana","lat":"-3.50142700","lon":"-73.04809600"},
{"state":"Loreto","name":"Iquitos","lat":"-3.73333333","lon":"-73.25000000"},
{"state":"Loreto","name":"Jeberos","lat":"-5.28333000","lon":"-76.28333000"},
{"state":"Loreto","name":"Jenaro Herrera","lat":"-4.90741000","lon":"-73.66779000"},
{"state":"Loreto","name":"Lagunas","lat":"-5.22694000","lon":"-75.67528000"},
{"state":"Loreto","name":"Nauta","lat":"-4.50833333","lon":"-73.58333333"},
{"state":"Loreto","name":"Punchana","lat":"-3.71666667","lon":"-73.23333333"},
{"state":"Loreto","name":"Requena","lat":"-6.74797000","lon":"-75.05491000"},
{"state":"Loreto","name":"San Antonio del Estrecho","lat":"-2.45012000","lon":"-72.66896000"},
{"state":"Loreto","name":"San Lorenzo","lat":"-4.81667000","lon":"-76.60000000"},
{"state":"Loreto","name":"San Pablo","lat":"-4.01922000","lon":"-71.10281000"},
{"state":"Loreto","name":"Tamshiyacu","lat":"-4.00320000","lon":"-73.15850000"},
{"state":"Loreto","name":"Yurimaguas","lat":"-5.90000000","lon":"-76.08333333"},
{"state":"Madre de Dios","name":"Iberia","lat":"-11.35000000","lon":"-69.58333000"},
{"state":"Madre de Dios","name":"Provincia de Manú","lat":"-12.25000000","lon":"-71.00000000"},
{"state":"Madre de Dios","name":"Provincia de Tahuamanú","lat":"-11.25000000","lon":"-70.50000000"},
{"state":"Madre de Dios","name":"Provincia de Tambopata","lat":"-12.19948000","lon":"-70.05006000"},
{"state":"Madre de Dios","name":"Puerto Maldonado","lat":"-12.59331000","lon":"-69.18913000"},
{"state":"Madre de Dios","name":"Salvación","lat":"-12.83605000","lon":"-71.36490000"},
{"state":"Madre de Dios","name":"Tambopata","lat":"-12.67191000","lon":"-69.35547000"},
{"state":"Moquegua","name":"Ilo","lat":"-17.63185000","lon":"-71.34108000"},
{"state":"Moquegua","name":"Moquegua","lat":"-17.19832000","lon":"-70.93567000"},
{"state":"Moquegua","name":"Pacocha","lat":"-17.64604000","lon":"-71.34481000"},
{"state":"Moquegua","name":"Provincia de General Sánchez Cerro","lat":"-16.50000000","lon":"-70.66667000"},
{"state":"Moquegua","name":"Provincia de Ilo","lat":"-17.49694000","lon":"-71.16722000"},
{"state":"Moquegua","name":"Provincia de Mariscal Nieto","lat":"-17.08361000","lon":"-71.00333000"},
{"state":"Moquegua","name":"Torata","lat":"-17.07694000","lon":"-70.84333000"},
{"state":"Pasco","name":"Cerro de Pasco","lat":"-10.66748000","lon":"-76.25668000"},
{"state":"Pasco","name":"Chaupimarca","lat":"-10.40696000","lon":"-76.46168000"},
{"state":"Pasco","name":"Oxapampa","lat":"-10.57750000","lon":"-75.40167000"},
{"state":"Pasco","name":"Paucartambo","lat":"-10.77326000","lon":"-75.81109000"},
{"state":"Pasco","name":"Provincia de Daniel Carrión","lat":"-10.50000000","lon":"-76.50000000"},
{"state":"Pasco","name":"Provincia de Oxapampa","lat":"-10.33333000","lon":"-75.08333000"},
{"state":"Pasco","name":"Provincia de Pasco","lat":"-10.66667000","lon":"-76.08333000"},
{"state":"Pasco","name":"Tinyahuarco","lat":"-10.76771000","lon":"-76.27523000"},
{"state":"Pasco","name":"Villa Rica","lat":"-10.73944000","lon":"-75.26972000"},
{"state":"Piura","name":"Ayabaca","lat":"-4.63983000","lon":"-79.71491000"},
{"state":"Piura","name":"Bernal","lat":"-5.45000000","lon":"-80.75000000"},
{"state":"Piura","name":"Buenos Aires","lat":"-5.26083000","lon":"-79.96417000"},
{"state":"Piura","name":"Catacaos","lat":"-5.26667000","lon":"-80.68333000"},
{"state":"Piura","name":"Chulucanas","lat":"-5.09250000","lon":"-80.16250000"},
{"state":"Piura","name":"El Alto","lat":"-4.26851000","lon":"-81.21719000"},
{"state":"Piura","name":"Huancabamba","lat":"-5.23861000","lon":"-79.45056000"},
{"state":"Piura","name":"La Breita","lat":"-4.25691000","lon":"-80.88599000"},
{"state":"Piura","name":"La Huaca","lat":"-4.91167000","lon":"-80.96000000"},
{"state":"Piura","name":"La Unión","lat":"-5.40232000","lon":"-80.74224000"},
{"state":"Piura","name":"Las Lomas","lat":"-4.65333000","lon":"-80.24667000"},
{"state":"Piura","name":"Máncora","lat":"-4.10778000","lon":"-81.04750000"},
{"state":"Piura","name":"Marcavelica","lat":"-4.87778000","lon":"-80.70528000"},
{"state":"Piura","name":"Morropon","lat":"-5.25000000","lon":"-80.00000000"},
{"state":"Piura","name":"Paita","lat":"-5.08917000","lon":"-81.11444000"},
{"state":"Piura","name":"Piura","lat":"-5.19449000","lon":"-80.63282000"},
{"state":"Piura","name":"Provincia de Ayabaca","lat":"-4.75000000","lon":"-79.83333000"},
{"state":"Piura","name":"Provincia de Huancabamba","lat":"-5.50000000","lon":"-79.58333000"},
{"state":"Piura","name":"Provincia de Paita","lat":"-5.10189000","lon":"-81.09695000"},
{"state":"Piura","name":"Provincia de Piura","lat":"-5.21416000","lon":"-80.40617000"},
{"state":"Piura","name":"Provincia de Sullana","lat":"-4.50000000","lon":"-80.66667000"},
{"state":"Piura","name":"Provincia de Talara","lat":"-4.41667000","lon":"-81.08333000"},
{"state":"Piura","name":"Querecotillo","lat":"-4.83778000","lon":"-80.64556000"},
{"state":"Piura","name":"Salinera Colán","lat":"-5.03333000","lon":"-81.06667000"},
{"state":"Piura","name":"Salitral","lat":"-4.85722000","lon":"-80.68111000"},
{"state":"Piura","name":"Sechura","lat":"-5.55694000","lon":"-80.82222000"},
{"state":"Piura","name":"Sullana","lat":"-4.90389000","lon":"-80.68528000"},
{"state":"Piura","name":"Talara","lat":"-4.57722000","lon":"-81.27194000"},
{"state":"Piura","name":"Tambo Grande","lat":"-4.92694000","lon":"-80.34472000"},
{"state":"Piura","name":"Vice","lat":"-5.41667000","lon":"-80.78333000"},
{"state":"Puno","name":"Atuncolla","lat":"-15.68333000","lon":"-70.15000000"},
{"state":"Puno","name":"Ayaviri","lat":"-14.88639000","lon":"-70.58889000"},
{"state":"Puno","name":"Azángaro","lat":"-14.90843000","lon":"-70.19616000"},
{"state":"Puno","name":"Desaguadero","lat":"-16.56556000","lon":"-69.04167000"},
{"state":"Puno","name":"El Collao","lat":"-16.72641000","lon":"-69.75515000"},
{"state":"Puno","name":"Hacienda Huancane","lat":"-15.82327000","lon":"-70.88540000"},
{"state":"Puno","name":"Ilave","lat":"-16.08333000","lon":"-69.66667000"},
{"state":"Puno","name":"Juli","lat":"-16.21667000","lon":"-69.45000000"},
{"state":"Puno","name":"Juliaca","lat":"-15.50000000","lon":"-70.13333000"},
{"state":"Puno","name":"La Rinconada","lat":"-14.63126000","lon":"-69.44638000"},
{"state":"Puno","name":"Lampa","lat":"-15.35000000","lon":"-70.36667000"},
{"state":"Puno","name":"Macusani","lat":"-14.08333000","lon":"-70.43333000"},
{"state":"Puno","name":"Ñuñoa","lat":"-14.47788000","lon":"-70.63583000"},
{"state":"Puno","name":"Provincia de Azángaro","lat":"-14.83333000","lon":"-70.16667000"},
{"state":"Puno","name":"Provincia de Carabaya","lat":"-13.83333000","lon":"-70.25000000"},
{"state":"Puno","name":"Provincia de Chucuito","lat":"-16.60545000","lon":"-69.35761000"},
{"state":"Puno","name":"Provincia de Huancané","lat":"-15.16667000","lon":"-69.58333000"},
{"state":"Puno","name":"Provincia de Lampa","lat":"-15.41667000","lon":"-70.58333000"},
{"state":"Puno","name":"Provincia de Melgar","lat":"-14.75000000","lon":"-70.75000000"},
{"state":"Puno","name":"Provincia de Puno","lat":"-16.00000000","lon":"-70.00000000"},
{"state":"Puno","name":"Provincia de Sandia","lat":"-13.83333000","lon":"-69.33333000"},
{"state":"Puno","name":"Puno","lat":"-15.84220000","lon":"-70.01990000"},
{"state":"Puno","name":"San Antonio De Putina","lat":"-14.71175000","lon":"-69.61559000"},
{"state":"Puno","name":"San Roman","lat":"-15.83333000","lon":"-70.50000000"},
{"state":"Puno","name":"Santa Lucía","lat":"-15.69788000","lon":"-70.60610000"},
{"state":"Puno","name":"Taquile","lat":"-15.76667000","lon":"-69.68333000"},
{"state":"Puno","name":"Yunguyo","lat":"-16.25000000","lon":"-69.08333000"},
{"state":"San Martín","name":"Bellavista","lat":"-7.05614000","lon":"-76.59110000"},
{"state":"San Martín","name":"Chazuta","lat":"-6.57087000","lon":"-76.13753000"},
{"state":"San Martín","name":"El Dorado","lat":"-6.56298000","lon":"-76.74130000"},
{"state":"San Martín","name":"Huicungo","lat":"-7.31860000","lon":"-76.77556000"},
{"state":"San Martín","name":"Jepelacio","lat":"-6.11667000","lon":"-76.95000000"},
{"state":"San Martín","name":"Juanjuí","lat":"-7.17697000","lon":"-76.72774000"},
{"state":"San Martín","name":"Lamas","lat":"-6.41667000","lon":"-76.53333000"},
{"state":"San Martín","name":"Moyobamba","lat":"-6.03416000","lon":"-76.97168000"},
{"state":"San Martín","name":"Picota","lat":"-6.92033000","lon":"-76.33142000"},
{"state":"San Martín","name":"Provincia de Huallaga","lat":"-6.75664000","lon":"-76.90143000"},
{"state":"San Martín","name":"Provincia de Lamas","lat":"-6.33333000","lon":"-76.66667000"},
{"state":"San Martín","name":"Provincia de Mariscal Cáceres","lat":"-7.27390000","lon":"-77.18216000"},
{"state":"San Martín","name":"Provincia de Moyobamba","lat":"-5.75000000","lon":"-77.25000000"},
{"state":"San Martín","name":"Provincia de Rioja","lat":"-6.00000000","lon":"-77.41667000"},
{"state":"San Martín","name":"Provincia de San Martín","lat":"-6.58333000","lon":"-76.16667000"},
{"state":"San Martín","name":"Rioja","lat":"-6.05675000","lon":"-77.16651000"},
{"state":"San Martín","name":"Saposoa","lat":"-6.93395000","lon":"-76.77158000"},
{"state":"San Martín","name":"Sisa","lat":"-6.61085000","lon":"-76.69302000"},
{"state":"San Martín","name":"Soritor","lat":"-6.13917000","lon":"-77.10389000"},
{"state":"San Martín","name":"Tabalosos","lat":"-6.35000000","lon":"-76.68333000"},
{"state":"San Martín","name":"Tarapoto","lat":"-6.50139000","lon":"-76.36556000"},
{"state":"San Martín","name":"Tocache","lat":"-8.18770000","lon":"-76.52046000"},
{"state":"San Martín","name":"Uchiza","lat":"-8.45917000","lon":"-76.46333000"},
{"state":"Tacna","name":"Calana","lat":"-17.94167000","lon":"-70.18694000"},
{"state":"Tacna","name":"Candarave","lat":"-17.26778000","lon":"-70.24944000"},
{"state":"Tacna","name":"Chipispaya","lat":"-17.49790000","lon":"-70.21714000"},
{"state":"Tacna","name":"Chuquitira","lat":"-17.28891000","lon":"-70.04363000"},
{"state":"Tacna","name":"Ilabaya","lat":"-17.42083000","lon":"-70.51333000"},
{"state":"Tacna","name":"Jorge Basadre","lat":"-17.57919000","lon":"-70.73083000"},
{"state":"Tacna","name":"Provincia de Tacna","lat":"-17.83333000","lon":"-70.50000000"},
{"state":"Tacna","name":"Provincia de Tarata","lat":"-17.41667000","lon":"-70.08333000"},
{"state":"Tacna","name":"Pujocucho","lat":"-17.15778000","lon":"-70.35222000"},
{"state":"Tacna","name":"Quilahuani","lat":"-17.31778000","lon":"-70.25806000"},
{"state":"Tacna","name":"Tacna","lat":"-18.01465000","lon":"-70.25362000"},
{"state":"Tacna","name":"Tarata","lat":"-17.47444000","lon":"-70.03278000"},
{"state":"Tacna","name":"Totoral","lat":"-17.40620000","lon":"-70.36464000"},
{"state":"Tumbes","name":"Aguas Verdes","lat":"-3.48139000","lon":"-80.24500000"},
{"state":"Tumbes","name":"Papayal","lat":"-4.07771000","lon":"-80.73690000"},
{"state":"Tumbes","name":"Provincia de Contralmirante Villar","lat":"-4.00000000","lon":"-80.75000000"},
{"state":"Tumbes","name":"Provincia de Tumbes","lat":"-3.75000000","lon":"-80.41667000"},
{"state":"Tumbes","name":"Provincia de Zarumilla","lat":"-3.66667000","lon":"-80.25000000"},
{"state":"Tumbes","name":"Tumbes","lat":"-3.56694000","lon":"-80.45153000"},
{"state":"Tumbes","name":"Zarumilla","lat":"-3.50306000","lon":"-80.27306000"},
{"state":"Tumbes","name":"Zorritos","lat":"-3.68046000","lon":"-80.67819000"},
{"state":"Ucayali","name":"Atalaya","lat":"-10.38980000","lon":"-73.21977000"},
{"state":"Ucayali","name":"Campoverde","lat":"-8.47533000","lon":"-74.80709000"},
{"state":"Ucayali","name":"Padre Abad","lat":"-8.79680000","lon":"-75.42850000"},
{"state":"Ucayali","name":"Provincia de Coronel Portillo","lat":"-9.50000000","lon":"-73.33333000"},
{"state":"Ucayali","name":"Pucallpa","lat":"-8.37915000","lon":"-74.55387000"},
{"state":"Ucayali","name":"Purus","lat":"-10.37331000","lon":"-71.58231000"}]