[{"state":"Bougainville","name":"Arawa","lat":"-6.22977000","lon":"155.56598000"},
{"state":"Bougainville","name":"Central Bougainville","lat":"-6.22806000","lon":"155.56583000"},
{"state":"Bougainville","name":"Kieta","lat":"-6.21462000","lon":"155.63251000"},
{"state":"Bougainville","name":"North Bougainville","lat":"-5.42194000","lon":"154.67278000"},
{"state":"Bougainville","name":"Panguna","lat":"-6.31639000","lon":"155.48483000"},
{"state":"Bougainville","name":"South Bougainville","lat":"-6.74593000","lon":"155.69640000"},
{"state":"Central Province","name":"Abau","lat":"-10.08333000","lon":"148.91667000"},
{"state":"Central Province","name":"Goilala","lat":"-8.33333000","lon":"147.00000000"},
{"state":"Central Province","name":"Kairuku-Hiri","lat":"-9.13648000","lon":"147.27905000"},
{"state":"Central Province","name":"Rigo","lat":"-9.75000000","lon":"147.83333000"},
{"state":"Chimbu Province","name":"Chuave","lat":"-6.16667000","lon":"145.08333000"},
{"state":"Chimbu Province","name":"Gumine","lat":"-6.25000000","lon":"144.88333000"},
{"state":"Chimbu Province","name":"Karimui Nomane","lat":"-6.58333000","lon":"144.83333000"},
{"state":"Chimbu Province","name":"Kerowagi","lat":"-5.93333000","lon":"144.88333000"},
{"state":"Chimbu Province","name":"Kundiawa","lat":"-5.91667000","lon":"145.05000000"},
{"state":"Chimbu Province","name":"Sinasina Yonggamugl","lat":"-6.08333000","lon":"145.01667000"},
{"state":"East New Britain","name":"Gazelle","lat":"-4.48333000","lon":"151.86667000"},
{"state":"East New Britain","name":"Kokopo","lat":"-4.40000000","lon":"152.28333000"},
{"state":"East New Britain","name":"Pomio","lat":"-5.50000000","lon":"151.33333000"},
{"state":"East New Britain","name":"Rabaul","lat":"-4.18333000","lon":"152.16667000"},
{"state":"Eastern Highlands Province","name":"Daulo","lat":"-5.98333000","lon":"145.23333000"},
{"state":"Eastern Highlands Province","name":"Goroka","lat":"-6.05000000","lon":"145.38333000"},
{"state":"Eastern Highlands Province","name":"Henganofi","lat":"-6.21667000","lon":"145.66667000"},
{"state":"Eastern Highlands Province","name":"Kainantu","lat":"-6.41667000","lon":"145.91667000"},
{"state":"Eastern Highlands Province","name":"Lufa","lat":"-6.45000000","lon":"145.25000000"},
{"state":"Eastern Highlands Province","name":"Obura Wonenara","lat":"-6.55434000","lon":"145.97328000"},
{"state":"Eastern Highlands Province","name":"Okapa","lat":"-6.63333000","lon":"145.50000000"},
{"state":"Eastern Highlands Province","name":"Unggai Bena","lat":"-6.11667000","lon":"145.51667000"},
{"state":"Enga Province","name":"Kandep","lat":"-5.83333000","lon":"143.55000000"},
{"state":"Enga Province","name":"Kompiam Ambum","lat":"-5.25000000","lon":"144.00000000"},
{"state":"Enga Province","name":"Lagaip Porgera","lat":"-5.38333000","lon":"143.16667000"},
{"state":"Enga Province","name":"Porgera","lat":"-5.46300000","lon":"143.14800000"},
{"state":"Enga Province","name":"Wabag","lat":"-5.33333000","lon":"143.65000000"},
{"state":"Enga Province","name":"Wapenamanda","lat":"-5.66667000","lon":"143.91667000"},
{"state":"Gulf","name":"Kerema","lat":"-7.79600000","lon":"146.09300000"},
{"state":"Gulf","name":"Kikori","lat":"-7.25000000","lon":"144.33333000"},
{"state":"Hela","name":"Komo Margarima","lat":"-6.11667000","lon":"143.00000000"},
{"state":"Hela","name":"Koroba-Lake Kopiago","lat":"-5.41667000","lon":"142.50000000"},
{"state":"Hela","name":"Tari","lat":"-5.84500000","lon":"142.94667000"},
{"state":"Hela","name":"Tari Pori","lat":"-6.28333000","lon":"142.83333000"},
{"state":"Jiwaka Province","name":"Angalimp South Wahgi","lat":"-6.05000000","lon":"144.56667000"},
{"state":"Jiwaka Province","name":"Jimi","lat":"-5.53333000","lon":"144.56667000"},
{"state":"Jiwaka Province","name":"North Wahgi","lat":"-5.80000000","lon":"144.68333000"},
{"state":"Madang Province","name":"Bogia","lat":"-4.50000000","lon":"145.00000000"},
{"state":"Madang Province","name":"Madang","lat":"-5.22152000","lon":"145.78695000"},
{"state":"Madang Province","name":"Middle Ramu","lat":"-4.91667000","lon":"144.75000000"},
{"state":"Madang Province","name":"Rai Coast","lat":"-5.72303000","lon":"146.46149000"},
{"state":"Madang Province","name":"Sumkar","lat":"-4.80000000","lon":"145.55000000"},
{"state":"Madang Province","name":"Usino Bundi","lat":"-5.53333000","lon":"145.16667000"},
{"state":"Manus Province","name":"Lorengau","lat":"-2.03410000","lon":"147.27173000"},
{"state":"Manus Province","name":"Manus","lat":"-2.09626000","lon":"146.96612000"},
{"state":"Milne Bay Province","name":"Alotau","lat":"-10.25000000","lon":"150.08333000"},
{"state":"Milne Bay Province","name":"Esaâ€™ala","lat":"-9.58333000","lon":"150.75000000"},
{"state":"Milne Bay Province","name":"Kiriwina Goodenough","lat":"-8.48333000","lon":"151.06667000"},
{"state":"Milne Bay Province","name":"Samarai","lat":"-10.61038000","lon":"150.66207000"},
{"state":"Milne Bay Province","name":"Samarai Murua","lat":"-10.49636000","lon":"150.54703000"},
{"state":"Morobe Province","name":"Bulolo","lat":"-7.41667000","lon":"146.75000000"},
{"state":"Morobe Province","name":"Finschhafen","lat":"-6.41667000","lon":"147.50000000"},
{"state":"Morobe Province","name":"Huon Gulf","lat":"-7.18333000","lon":"146.95000000"},
{"state":"Morobe Province","name":"Kabwum","lat":"-6.08333000","lon":"147.00000000"},
{"state":"Morobe Province","name":"Lae","lat":"-6.50000000","lon":"146.83333000"},
{"state":"Morobe Province","name":"Markham","lat":"-6.64153000","lon":"146.86043000"},
{"state":"Morobe Province","name":"Menyamya","lat":"-7.25000000","lon":"146.16667000"},
{"state":"Morobe Province","name":"Nawae","lat":"-6.46667000","lon":"146.96667000"},
{"state":"Morobe Province","name":"Tewai Siassi","lat":"-6.15000000","lon":"147.53333000"},
{"state":"Morobe Province","name":"Wau","lat":"-7.33778000","lon":"146.71649000"},
{"state":"New Ireland Province","name":"Kavieng","lat":"-3.00000000","lon":"151.41667000"},
{"state":"New Ireland Province","name":"Namatanai","lat":"-4.33333000","lon":"152.83333000"},
{"state":"Oro Province","name":"Ijivitari","lat":"-9.33333000","lon":"148.58333000"},
{"state":"Oro Province","name":"Kokoda","lat":"-8.87778000","lon":"147.73642000"},
{"state":"Oro Province","name":"Popondetta","lat":"-8.76536000","lon":"148.23252000"},
{"state":"Oro Province","name":"Sohe","lat":"-9.00000000","lon":"147.91667000"},
{"state":"Port Moresby","name":"National Capital District","lat":"-9.42257000","lon":"147.16641000"},
{"state":"Port Moresby","name":"Port Moresby","lat":"-9.47723000","lon":"147.15089000"},
{"state":"Sandaun Province","name":"Aitape","lat":"-3.13697000","lon":"142.34913000"},
{"state":"Sandaun Province","name":"Aitape Lumi","lat":"-3.25000000","lon":"142.08333000"},
{"state":"Sandaun Province","name":"Nuku","lat":"-3.66667000","lon":"142.41667000"},
{"state":"Sandaun Province","name":"Telefomin","lat":"-4.91667000","lon":"141.66667000"},
{"state":"Sandaun Province","name":"Vanimo","lat":"-2.68372000","lon":"141.30195000"},
{"state":"Sandaun Province","name":"Vanimo Green","lat":"-3.36667000","lon":"141.35000000"},
{"state":"Southern Highlands Province","name":"Ialibu","lat":"-6.28208000","lon":"143.99354000"},
{"state":"Southern Highlands Province","name":"Ialibu Pangia","lat":"-6.16667000","lon":"144.00000000"},
{"state":"Southern Highlands Province","name":"Imbonggu","lat":"-6.16667000","lon":"144.00000000"},
{"state":"Southern Highlands Province","name":"Kagua Erave","lat":"-6.66667000","lon":"144.00000000"},
{"state":"Southern Highlands Province","name":"Mendi","lat":"-6.14755000","lon":"143.65633000"},
{"state":"Southern Highlands Province","name":"Nipa Kutubu","lat":"-6.33333000","lon":"143.33333000"},
{"state":"West New Britain Province","name":"Kandrian","lat":"-6.20655000","lon":"149.54744000"},
{"state":"West New Britain Province","name":"Kandrian Gloucester","lat":"-6.08333000","lon":"149.91667000"},
{"state":"West New Britain Province","name":"Kimbe","lat":"-5.55085000","lon":"150.13766000"},
{"state":"West New Britain Province","name":"Talasea","lat":"-5.66667000","lon":"149.58333000"},
{"state":"Western Highlands Province","name":"Baiyer Mul","lat":"-5.53333000","lon":"144.15000000"},
{"state":"Western Highlands Province","name":"Dei","lat":"-5.68333000","lon":"144.36667000"},
{"state":"Western Highlands Province","name":"Hagen","lat":"-5.83333000","lon":"144.28333000"},
{"state":"Western Highlands Province","name":"Mount Hagen","lat":"-5.85746000","lon":"144.23058000"},
{"state":"Western Highlands Province","name":"Tambul Nebilyer","lat":"-5.98333000","lon":"144.15000000"},
{"state":"Western Province","name":"Daru","lat":"-9.07786000","lon":"143.20893000"},
{"state":"Western Province","name":"Kiunga","lat":"-6.12193000","lon":"141.29061000"},
{"state":"Western Province","name":"Middle Fly","lat":"-7.16667000","lon":"142.03333000"},
{"state":"Western Province","name":"Morehead","lat":"-8.71065000","lon":"141.63668000"},
{"state":"Western Province","name":"North Fly","lat":"-5.72896000","lon":"141.37482000"},
{"state":"Western Province","name":"South Fly","lat":"-8.61667000","lon":"142.11667000"}]