[{"name":"Abra","native":null,"cities":[{"name":"Adams","native":null,"lat":"18.46141944","lon":"120.90210278"},{"name":"Agno","native":null,"lat":"16.11608611","lon":"119.80268333"},{"name":"Agoo","native":null,"lat":"16.32196111","lon":"120.36467500"},{"name":"Aguilar","native":null,"lat":"15.88988611","lon":"120.23785278"},{"name":"Alac","native":null,"lat":"15.98777778","lon":"120.80638889"},{"name":"Alaminos","native":null,"lat":"16.15531389","lon":"119.98076944"},{"name":"Alcala","native":null,"lat":"15.84679444","lon":"120.52182222"},{"name":"Alilem","native":null,"lat":"16.88688333","lon":"120.53100833"},{"name":"Allangigan Primero","native":null,"lat":"17.17388889","lon":"120.49194444"},{"name":"Aloleng","native":null,"lat":"16.13083333","lon":"119.78250000"},{"name":"Amagbagan","native":null,"lat":"16.09138889","lon":"120.52333333"},{"name":"Anambongan","native":null,"lat":"15.86638889","lon":"120.38861111"},{"name":"Anda","native":null,"lat":"16.28961389","lon":"119.94910000"},{"name":"Angatel","native":null,"lat":"15.80583333","lon":"120.34333333"},{"name":"Anulid","native":null,"lat":"15.82555556","lon":"120.48833333"},{"name":"Aringay","native":null,"lat":"16.40000000","lon":"120.40000000"},{"name":"Asingan","native":null,"lat":"16.00510000","lon":"120.66950000"},{"name":"Baay","native":null,"lat":"18.11888889","lon":"120.57527778"},{"name":"Bacag","native":null,"lat":"15.93000000","lon":"120.58222222"},{"name":"Bacarra","native":null,"lat":"18.25290000","lon":"120.61250000"},{"name":"Bacnar","native":null,"lat":"15.88638889","lon":"120.34416667"},{"name":"Bacnotan","native":null,"lat":"16.73333000","lon":"120.38333000"},{"name":"Bactad Proper","native":null,"lat":"15.97833333","lon":"120.61027778"},{"name":"Bacundao Weste","native":null,"lat":"15.91527778","lon":"120.47666667"},{"name":"Badoc","native":null,"lat":"17.92650000","lon":"120.47640000"},{"name":"Bagulin","native":null,"lat":"16.61667000","lon":"120.48333000"},{"name":"Bail","native":null,"lat":"16.28666667","lon":"120.40027778"},{"name":"Balaoan","native":null,"lat":"16.81666667","lon":"120.40000000"},{"name":"Balingasay","native":null,"lat":"16.35722222","lon":"119.85638889"},{"name":"Balingueo","native":null,"lat":"15.95833333","lon":"120.40972222"},{"name":"Balogo","native":null,"lat":"15.99027778","lon":"120.28305556"},{"name":"Balungao","native":null,"lat":"15.90000000","lon":"120.70000000"},{"name":"Baluyot","native":null,"lat":"15.79583333","lon":"120.46083333"},{"name":"Banayoyo","native":null,"lat":"17.23333333","lon":"120.48333333"},{"name":"Bangan-Oda","native":null,"lat":"16.10861111","lon":"119.83083333"},{"name":"Bangar","native":null,"lat":"16.88333000","lon":"120.43333000"},{"name":"Bangui","native":null,"lat":"18.53333333","lon":"120.76666667"},{"name":"Bani","native":null,"lat":"16.18694400","lon":"119.85916700"},{"name":"Banna","native":null,"lat":"17.98333333","lon":"120.65000000"},{"name":"Banog Sur","native":null,"lat":"16.16555556","lon":"119.89805556"},{"name":"Bantay","native":null,"lat":"17.58333333","lon":"120.38333333"},{"name":"Bantog","native":null,"lat":"16.00916667","lon":"120.69277778"},{"name":"Barangobong","native":null,"lat":"15.87777778","lon":"120.54833333"},{"name":"Baro","native":null,"lat":"15.99888889","lon":"120.67361111"},{"name":"Barong","native":null,"lat":"18.05750000","lon":"120.73388889"},{"name":"Basing","native":null,"lat":"15.98500000","lon":"120.26833333"},{"name":"Basista","native":null,"lat":"15.85240000","lon":"120.39760000"},{"name":"Batac","native":null,"lat":"18.05540000","lon":"120.56489000"},{"name":"Bataquil","native":null,"lat":"16.15527778","lon":"120.52750000"},{"name":"Bauang","native":null,"lat":"16.53333333","lon":"120.33333333"},{"name":"Bautista","native":null,"lat":"15.78333333","lon":"120.50000000"},{"name":"Bayambang","native":null,"lat":"15.71666700","lon":"120.35000000"},{"name":"Bayaoas","native":null,"lat":"15.83416667","lon":"120.26472222"},{"name":"Bical Norte","native":null,"lat":"15.81472222","lon":"120.43500000"},{"name":"Bil-Loca","native":null,"lat":"18.08750000","lon":"120.56861111"},{"name":"Binabalian","native":null,"lat":"16.42027778","lon":"119.92777778"},{"name":"Binalonan","native":null,"lat":"16.05000000","lon":"120.60000000"},{"name":"Binday","native":null,"lat":"16.12805556","lon":"120.45250000"},{"name":"Binmaley","native":null,"lat":"16.03232000","lon":"120.26904000"},{"name":"Bobonan","native":null,"lat":"16.13472222","lon":"120.52722222"},{"name":"Bogtong","native":null,"lat":"15.75527778","lon":"120.32888889"},{"name":"Bolaoit","native":null,"lat":"15.93222222","lon":"120.43083333"},{"name":"Bolinao","native":null,"lat":"16.33333333","lon":"119.88333333"},{"name":"Bolingit","native":null,"lat":"15.95861111","lon":"120.34972222"},{"name":"Bolo","native":null,"lat":"15.99472222","lon":"120.16472222"},{"name":"Boñgalon","native":null,"lat":"16.00027778","lon":"120.15916667"},{"name":"Botao","native":null,"lat":"15.91666667","lon":"120.41666667"},{"name":"Bued","native":null,"lat":"16.16083333","lon":"119.99888889"},{"name":"Buenlag","native":null,"lat":"15.82972222","lon":"120.51138889"},{"name":"Bugallon","native":null,"lat":"15.91666667","lon":"120.18333333"},{"name":"Bulog","native":null,"lat":"15.96027778","lon":"120.40166667"},{"name":"Burgos","native":null,"lat":"16.04647200","lon":"119.85677800"},{"name":"Butubut Norte","native":null,"lat":"16.80333333","lon":"120.43444444"},{"name":"Caabiangan","native":null,"lat":"16.08750000","lon":"119.92444444"},{"name":"Caba","native":null,"lat":"16.43160000","lon":"120.34460000"},{"name":"Cabalaoangan","native":null,"lat":"15.98333333","lon":"120.78333333"},{"name":"Cabalitian","native":null,"lat":"16.08833333","lon":"120.79222222"},{"name":"Cabittaogan","native":null,"lat":"17.57777778","lon":"120.35916667"},{"name":"Cabugao","native":null,"lat":"17.80000000","lon":"120.45000000"},{"name":"Cabungan","native":null,"lat":"16.34000000","lon":"119.99500000"},{"name":"Calasiao","native":null,"lat":"16.01666667","lon":"120.36666667"},{"name":"Calepaan","native":null,"lat":"16.01944444","lon":"120.61888889"},{"name":"Callaguip","native":null,"lat":"18.07138889","lon":"120.48666667"},{"name":"Calomboyan","native":null,"lat":"15.94638889","lon":"120.30361111"},{"name":"Calongbuyan","native":null,"lat":"17.16472222","lon":"120.42722222"},{"name":"Calsib","native":null,"lat":"15.84722222","lon":"120.26416667"},{"name":"Camaley","native":null,"lat":"15.99722222","lon":"120.30111111"},{"name":"Canan Norte","native":null,"lat":"15.90972222","lon":"120.47750000"},{"name":"Canaoalan","native":null,"lat":"16.02888889","lon":"120.29638889"},{"name":"Candon","native":null,"lat":"17.20000000","lon":"120.45000000"},{"name":"Cantoria","native":null,"lat":"16.84416667","lon":"120.40444444"},{"name":"Caoayan","native":null,"lat":"17.53333333","lon":"120.40000000"},{"name":"Capandanan","native":null,"lat":"15.95944444","lon":"120.69527778"},{"name":"Capulaan","native":null,"lat":"15.90500000","lon":"120.53722222"},{"name":"Caramutan","native":null,"lat":"15.92083333","lon":"120.61000000"},{"name":"Carasi","native":null,"lat":"18.20000000","lon":"120.86666667"},{"name":"Carmen","native":null,"lat":"15.88638889","lon":"120.59972222"},{"name":"Caronoan West","native":null,"lat":"16.26333333","lon":"120.44638889"},{"name":"Carot","native":null,"lat":"16.34472222","lon":"119.98000000"},{"name":"Carriedo","native":null,"lat":"16.03111111","lon":"120.75500000"},{"name":"Carusucan","native":null,"lat":"15.96583333","lon":"120.63611111"},{"name":"Caterman","native":null,"lat":"17.21750000","lon":"120.42444444"},{"name":"Cato","native":null,"lat":"15.83611111","lon":"119.91500000"},{"name":"Catuday","native":null,"lat":"16.29222222","lon":"119.80611111"},{"name":"Cayanga","native":null,"lat":"16.11500000","lon":"120.39888889"},{"name":"Cayungnan","native":null,"lat":"16.13333333","lon":"119.83750000"},{"name":"Cervantes","native":null,"lat":"16.99166667","lon":"120.73333333"},{"name":"City of Batac","native":null,"lat":"18.03730000","lon":"120.58175000"},{"name":"City of Candon","native":null,"lat":"17.20000000","lon":"120.45000000"},{"name":"City of Urdaneta","native":null,"lat":"15.97944000","lon":"120.59101000"},{"name":"City of Vigan","native":null,"lat":"17.56275000","lon":"120.39071000"},{"name":"Comillas Norte","native":null,"lat":"16.95888889","lon":"120.74694444"},{"name":"Corrooy","native":null,"lat":"16.79611111","lon":"120.44527778"},{"name":"Currimao","native":null,"lat":"18.01666667","lon":"120.48333333"},{"name":"Dagup","native":null,"lat":"16.63722222","lon":"120.44555556"},{"name":"Dagupan","native":null,"lat":"16.04313000","lon":"120.33325000"},{"name":"Damortis","native":null,"lat":"16.24055556","lon":"120.40555556"},{"name":"Darapidap","native":null,"lat":"17.20000000","lon":"120.41805556"},{"name":"Dasol","native":null,"lat":"15.98963900","lon":"119.88052800"},{"name":"Davila","native":null,"lat":"18.47250000","lon":"120.57638889"},{"name":"Diaz","native":null,"lat":"15.84638889","lon":"120.83472222"},{"name":"Dilan","native":null,"lat":"16.08777778","lon":"120.52083333"},{"name":"Dingras","native":null,"lat":"18.10320000","lon":"120.69670000"},{"name":"Domalanoan","native":null,"lat":"16.00305556","lon":"120.21166667"},{"name":"Domampot","native":null,"lat":"16.00000000","lon":"120.65000000"},{"name":"Don Pedro","native":null,"lat":"15.88527778","lon":"120.43027778"},{"name":"Dorongan Punta","native":null,"lat":"15.81472222","lon":"120.32277778"},{"name":"Doyong","native":null,"lat":"15.97222222","lon":"120.35388889"},{"name":"Dulig","native":null,"lat":"16.00222222","lon":"120.16861111"},{"name":"Dumalneg","native":null,"lat":"18.50000000","lon":"120.81666667"},{"name":"Dumpay","native":null,"lat":"15.88305556","lon":"120.38888889"},{"name":"Eguia","native":null,"lat":"15.90638889","lon":"119.88583333"},{"name":"Esmeralda","native":null,"lat":"15.86722222","lon":"120.71500000"},{"name":"Fuerte","native":null,"lat":"17.53416667","lon":"120.36944444"},{"name":"Galimuyod","native":null,"lat":"17.18333333","lon":"120.46666667"},{"name":"Gayaman","native":null,"lat":"16.01388889","lon":"120.30750000"},{"name":"Gregorio del Pilar","native":null,"lat":"17.13333333","lon":"120.61666667"},{"name":"Guiling","native":null,"lat":"15.84305556","lon":"120.61500000"},{"name":"Guiset East","native":null,"lat":"16.06666667","lon":"120.68333333"},{"name":"Hacienda","native":null,"lat":"15.93611111","lon":"120.17861111"},{"name":"Halog West","native":null,"lat":"16.36666667","lon":"120.41472222"},{"name":"Ilioilio","native":null,"lat":"15.96166667","lon":"119.76583333"},{"name":"Inabaan Sur","native":null,"lat":"16.26305556","lon":"120.47805556"},{"name":"Infanta","native":null,"lat":"15.82638889","lon":"119.90777778"},{"name":"Isla","native":null,"lat":"15.89500000","lon":"120.30138889"},{"name":"Labayug","native":null,"lat":"16.15277778","lon":"120.56611111"},{"name":"Labney","native":null,"lat":"16.10277778","lon":"120.46555556"},{"name":"Labrador","native":null,"lat":"16.03388900","lon":"120.13916700"},{"name":"Lagasit","native":null,"lat":"15.99333333","lon":"120.79388889"},{"name":"Laguit Centro","native":null,"lat":"15.94722222","lon":"120.19027778"},{"name":"Laoac","native":null,"lat":"16.03333300","lon":"120.55000000"},{"name":"Laoag","native":null,"lat":"18.20000000","lon":"120.60000000"},{"name":"Leones East","native":null,"lat":"16.36333333","lon":"120.39194444"},{"name":"Lepa","native":null,"lat":"15.88444444","lon":"120.45083333"},{"name":"Libas","native":null,"lat":"15.87777778","lon":"120.31638889"},{"name":"Lidlidda","native":null,"lat":"17.26666667","lon":"120.51666667"},{"name":"Lingayen","native":null,"lat":"16.01666700","lon":"120.23333300"},{"name":"Linmansangan","native":null,"lat":"15.82972222","lon":"120.29583333"},{"name":"Lloren","native":null,"lat":"16.33305556","lon":"120.43277778"},{"name":"Lobong","native":null,"lat":"16.08138889","lon":"120.47027778"},{"name":"Longos","native":null,"lat":"16.10722222","lon":"120.39666667"},{"name":"Loqueb Este","native":null,"lat":"15.94472222","lon":"120.44611111"},{"name":"Lucap","native":null,"lat":"16.19027778","lon":"120.00222222"},{"name":"Lucero","native":null,"lat":"16.40500000","lon":"119.91250000"},{"name":"Luna","native":null,"lat":"16.85000000","lon":"120.38333333"},{"name":"Lunec","native":null,"lat":"15.95388889","lon":"120.48944444"},{"name":"Lungog","native":null,"lat":"17.46444444","lon":"120.47833333"},{"name":"Lusong","native":null,"lat":"16.86694444","lon":"120.44194444"},{"name":"Mabilao","native":null,"lat":"16.15361111","lon":"120.42500000"},{"name":"Mabilbila Sur","native":null,"lat":"17.50722222","lon":"120.44111111"},{"name":"Mabini","native":null,"lat":"16.06972200","lon":"119.94000000"},{"name":"Mabusag","native":null,"lat":"17.92611111","lon":"120.49750000"},{"name":"Macabuboni","native":null,"lat":"16.19083333","lon":"119.78027778"},{"name":"Macalong","native":null,"lat":"16.01361111","lon":"120.65861111"},{"name":"Macalva Norte","native":null,"lat":"16.34861111","lon":"120.38666667"},{"name":"Macayug","native":null,"lat":"16.09388889","lon":"120.43194444"},{"name":"Magallanes","native":null,"lat":"16.01972222","lon":"120.73888889"},{"name":"Magsingal","native":null,"lat":"17.68500000","lon":"120.42444000"},{"name":"Magtaking","native":null,"lat":"15.98527778","lon":"120.18333333"},{"name":"Malabago","native":null,"lat":"15.98166667","lon":"120.35916667"},{"name":"Malanay","native":null,"lat":"16.00861111","lon":"120.40944444"},{"name":"Malasiqui","native":null,"lat":"15.91666667","lon":"120.41666667"},{"name":"Malawa","native":null,"lat":"15.95805556","lon":"120.27777778"},{"name":"Malibong East","native":null,"lat":"15.84666667","lon":"120.32694444"},{"name":"Manaoag","native":null,"lat":"16.04388900","lon":"120.48555600"},{"name":"Mangaldan","native":null,"lat":"16.07000000","lon":"120.40250000"},{"name":"Mangatarem","native":null,"lat":"15.73333000","lon":"120.26667000"},{"name":"Mapandan","native":null,"lat":"16.01666700","lon":"120.45000000"},{"name":"Mapolopolo","native":null,"lat":"15.88083333","lon":"120.37416667"},{"name":"Marcos","native":null,"lat":"18.05000000","lon":"120.68333333"},{"name":"Maticmatic","native":null,"lat":"15.98638889","lon":"120.45194444"},{"name":"Minien East","native":null,"lat":"15.97722222","lon":"120.48138889"},{"name":"Nagbacalan","native":null,"lat":"18.11583333","lon":"120.52361111"},{"name":"Nagbukel","native":null,"lat":"17.45000000","lon":"120.55000000"},{"name":"Nagsaing","native":null,"lat":"15.98055556","lon":"120.33777778"},{"name":"Naguelguel","native":null,"lat":"16.00583333","lon":"120.26361111"},{"name":"Naguilayan","native":null,"lat":"16.00305556","lon":"120.29111111"},{"name":"Naguilian","native":null,"lat":"16.53333333","lon":"120.40000000"},{"name":"Nalsian Norte","native":null,"lat":"15.84472222","lon":"120.45083333"},{"name":"Nama","native":null,"lat":"16.14111111","lon":"120.54250000"},{"name":"Namboongan","native":null,"lat":"16.30333333","lon":"120.37583333"},{"name":"Nancalobasaan","native":null,"lat":"15.93416667","lon":"120.84250000"},{"name":"Narvacan","native":null,"lat":"17.41750000","lon":"120.47530000"},{"name":"Natividad","native":null,"lat":"16.05000000","lon":"120.81666667"},{"name":"Navatat","native":null,"lat":"15.84972222","lon":"120.39055556"},{"name":"Nibaliw Central","native":null,"lat":"16.12750000","lon":"120.40277778"},{"name":"Nilombot","native":null,"lat":"16.03055556","lon":"120.43694444"},{"name":"Ninoy","native":null,"lat":"15.85972222","lon":"120.24777778"},{"name":"Nueva Era","native":null,"lat":"17.91666667","lon":"120.66666667"},{"name":"Oaqui","native":null,"lat":"16.85833333","lon":"120.41250000"},{"name":"Olea","native":null,"lat":"15.86250000","lon":"120.49361111"},{"name":"Padong","native":null,"lat":"18.05444444","lon":"120.75416667"},{"name":"Pagsanahan Norte","native":null,"lat":"17.91916667","lon":"120.44583333"},{"name":"Pagudpud","native":null,"lat":"18.55833300","lon":"120.78472200"},{"name":"Paitan Este","native":null,"lat":"16.08527778","lon":"120.03166667"},{"name":"Palacpalac","native":null,"lat":"16.13111111","lon":"120.53055556"},{"name":"Palguyod","native":null,"lat":"16.12277778","lon":"120.52000000"},{"name":"Panganiban","native":null,"lat":"16.00750000","lon":"120.77527778"},{"name":"Pangapisan","native":null,"lat":"16.21611111","lon":"119.95694444"},{"name":"Pangascasan","native":null,"lat":"16.11694444","lon":"120.08666667"},{"name":"Pangpang","native":null,"lat":"15.93888889","lon":"120.30944444"},{"name":"Paoay","native":null,"lat":"18.05527800","lon":"120.51611100"},{"name":"Paringao","native":null,"lat":"16.57166667","lon":"120.32416667"},{"name":"Parioc Segundo","native":null,"lat":"17.17500000","lon":"120.46583333"},{"name":"Pasibi West","native":null,"lat":"15.85861111","lon":"120.37944444"},{"name":"Pasuquin","native":null,"lat":"18.33333333","lon":"120.61666667"},{"name":"Patayac","native":null,"lat":"15.96305556","lon":"120.42250000"},{"name":"Patpata Segundo","native":null,"lat":"17.18333333","lon":"120.43333333"},{"name":"Payocpoc Sur","native":null,"lat":"16.49444444","lon":"120.32805556"},{"name":"Piddig","native":null,"lat":"18.16666667","lon":"120.73333333"},{"name":"Pindangan Centro","native":null,"lat":"15.86055556","lon":"120.55138889"},{"name":"Pinili","native":null,"lat":"17.95400000","lon":"120.52700000"},{"name":"Pogonsili","native":null,"lat":"15.82055556","lon":"120.26027778"},{"name":"Polo","native":null,"lat":"16.19638889","lon":"119.94916667"},{"name":"Polong","native":null,"lat":"15.97722222","lon":"120.20083333"},{"name":"Polong Norte","native":null,"lat":"15.90305556","lon":"120.42138889"},{"name":"Pozorrubio","native":null,"lat":"16.11666667","lon":"120.55000000"},{"name":"Pudoc","native":null,"lat":"16.92138889","lon":"120.42361111"},{"name":"Pudoc North","native":null,"lat":"17.60972222","lon":"120.36861111"},{"name":"Puelay","native":null,"lat":"15.88694444","lon":"120.57361111"},{"name":"Pugo","native":null,"lat":"16.28333333","lon":"120.48333333"},{"name":"Puro Pinget","native":null,"lat":"17.67972222","lon":"120.35888889"},{"name":"Quiling","native":null,"lat":"18.06833333","lon":"120.54388889"},{"name":"Quinarayan","native":null,"lat":"17.44416667","lon":"120.47222222"},{"name":"Quintong","native":null,"lat":"15.95583333","lon":"120.32166667"},{"name":"Quirino","native":null,"lat":"17.15000000","lon":"120.66666667"},{"name":"Ranao","native":null,"lat":"16.20750000","lon":"119.81555556"},{"name":"Real","native":null,"lat":"15.80888889","lon":"120.34555556"},{"name":"Rimus","native":null,"lat":"16.87638889","lon":"120.39666667"},{"name":"Rissing","native":null,"lat":"16.87527778","lon":"120.43444444"},{"name":"Rosales","native":null,"lat":"15.89444400","lon":"120.63277800"},{"name":"Rosario","native":null,"lat":"16.23040000","lon":"120.48630000"},{"name":"Sablig","native":null,"lat":"16.26888889","lon":"119.98777778"},{"name":"Sagud-Bahley","native":null,"lat":"16.11694444","lon":"120.39111111"},{"name":"Sagunto","native":null,"lat":"16.20083333","lon":"120.51500000"},{"name":"Salcedo","native":null,"lat":"17.15000000","lon":"120.53333333"},{"name":"Samon","native":null,"lat":"15.93500000","lon":"120.65083333"},{"name":"San Carlos","native":null,"lat":"15.92805600","lon":"120.34888900"},{"name":"San Emilio","native":null,"lat":"17.23333333","lon":"120.61666667"},{"name":"San Esteban","native":null,"lat":"17.33333333","lon":"120.45000000"},{"name":"San Eugenio","native":null,"lat":"16.35972222","lon":"120.35694444"},{"name":"San Fabian","native":null,"lat":"16.15000000","lon":"120.45000000"},{"name":"San Fernando","native":null,"lat":"16.61666667","lon":"120.31666667"},{"name":"San Fernando Poblacion","native":null,"lat":"16.61591000","lon":"120.31663000"},{"name":"San Gabriel","native":null,"lat":"16.67556000","lon":"120.40306000"},{"name":"San Gabriel First","native":null,"lat":"15.76638889","lon":"120.45666667"},{"name":"San Ildefonso","native":null,"lat":"17.61666667","lon":"120.40000000"},{"name":"San Jacinto","native":null,"lat":"16.07250000","lon":"120.44111100"},{"name":"San Juan","native":null,"lat":"16.66861000","lon":"120.34139000"},{"name":"San Lorenzo","native":null,"lat":"18.13222222","lon":"120.63055556"},{"name":"San Manuel","native":null,"lat":"16.06555600","lon":"120.66666700"},{"name":"San Nicolas","native":null,"lat":"18.17250000","lon":"120.59583300"},{"name":"San Pedro Apartado","native":null,"lat":"15.83694444","lon":"120.56527778"},{"name":"San Quintin","native":null,"lat":"15.98444400","lon":"120.81500000"},{"name":"San Sebastian","native":null,"lat":"17.62333333","lon":"120.36361111"},{"name":"San Vicente","native":null,"lat":"17.59166667","lon":"120.37500000"},{"name":"Sanlibo","native":null,"lat":"15.91666667","lon":"120.55000000"},{"name":"Santa","native":null,"lat":"17.49166667","lon":"120.43333333"},{"name":"Santa Barbara","native":null,"lat":"16.00305600","lon":"120.40083300"},{"name":"Santa Catalina","native":null,"lat":"17.58333333","lon":"120.35833333"},{"name":"Santa Cruz","native":null,"lat":"17.08333333","lon":"120.45000000"},{"name":"Santa Lucia","native":null,"lat":"17.11666667","lon":"120.45000000"},{"name":"Santa Maria","native":null,"lat":"15.98083300","lon":"120.70027800"},{"name":"Santiago","native":null,"lat":"17.30000000","lon":"120.45000000"},{"name":"Santo Domingo","native":null,"lat":"17.63333333","lon":"120.40833333"},{"name":"Santo Tomas","native":null,"lat":"16.27980000","lon":"120.37920000"},{"name":"Santol","native":null,"lat":"16.76666667","lon":"120.45000000"},{"name":"Sarrat","native":null,"lat":"18.16222200","lon":"120.64777800"},{"name":"Sigay","native":null,"lat":"17.03333333","lon":"120.58333333"},{"name":"Sinait","native":null,"lat":"17.86666667","lon":"120.45833333"},{"name":"Sison","native":null,"lat":"16.17389000","lon":"120.51528000"},{"name":"Solsona","native":null,"lat":"18.10000000","lon":"120.76666667"},{"name":"Sonquil","native":null,"lat":"15.98805556","lon":"120.39055556"},{"name":"Sual","native":null,"lat":"16.06666667","lon":"120.10000000"},{"name":"Subusub","native":null,"lat":"16.22694444","lon":"120.49500000"},{"name":"Sudipen","native":null,"lat":"16.90000000","lon":"120.46666667"},{"name":"Sugpon","native":null,"lat":"16.85000000","lon":"120.51666667"},{"name":"Sumabnit","native":null,"lat":"16.03027778","lon":"120.58333333"},{"name":"Suso","native":null,"lat":"17.35944444","lon":"120.46111111"},{"name":"Suyo","native":null,"lat":"16.96666667","lon":"120.55000000"},{"name":"Tablac","native":null,"lat":"17.21555556","lon":"120.45416667"},{"name":"Tabug","native":null,"lat":"18.03416667","lon":"120.54888889"},{"name":"Tagudin","native":null,"lat":"16.93333333","lon":"120.45000000"},{"name":"Talospatang","native":null,"lat":"15.91694444","lon":"120.44138889"},{"name":"Taloy","native":null,"lat":"15.92416667","lon":"120.39638889"},{"name":"Tamayo","native":null,"lat":"15.87750000","lon":"120.28444444"},{"name":"Tamorong","native":null,"lat":"17.33333333","lon":"120.43333333"},{"name":"Tandoc","native":null,"lat":"15.95916667","lon":"120.32916667"},{"name":"Tanolong","native":null,"lat":"15.80416667","lon":"120.41416667"},{"name":"Tayug","native":null,"lat":"16.02666700","lon":"120.74777800"},{"name":"Tebag East","native":null,"lat":"15.98111111","lon":"120.46750000"},{"name":"Telbang","native":null,"lat":"16.17250000","lon":"120.06083333"},{"name":"Tiep","native":null,"lat":"16.23833333","lon":"119.86083333"},{"name":"Toboy","native":null,"lat":"16.02722222","lon":"120.63694444"},{"name":"Tobuan","native":null,"lat":"16.05555556","lon":"120.11027778"},{"name":"Tococ East","native":null,"lat":"15.82500000","lon":"120.42611111"},{"name":"Tocok","native":null,"lat":"15.75000000","lon":"120.30000000"},{"name":"Tombod","native":null,"lat":"15.93166667","lon":"120.56722222"},{"name":"Tondol","native":null,"lat":"16.31027778","lon":"120.01305556"},{"name":"Toritori","native":null,"lat":"16.23833333","lon":"119.99555556"},{"name":"Tubao","native":null,"lat":"16.35000000","lon":"120.41666667"},{"name":"Umanday Centro","native":null,"lat":"15.93805556","lon":"120.21527778"},{"name":"Umingan","native":null,"lat":"15.90000000","lon":"120.80000000"},{"name":"Unzad","native":null,"lat":"15.91888889","lon":"120.53916667"},{"name":"Urbiztondo","native":null,"lat":"15.82270000","lon":"120.32950000"},{"name":"Urdaneta","native":null,"lat":"15.97611111","lon":"120.57111111"},{"name":"Uyong","native":null,"lat":"16.05000000","lon":"120.12083333"},{"name":"Vigan","native":null,"lat":"17.57472000","lon":"120.38694000"},{"name":"Villasis","native":null,"lat":"15.90000000","lon":"120.58333333"},{"name":"Vintar","native":null,"lat":"18.22500000","lon":"120.65000000"},{"name":"Zaragoza","native":null,"lat":"16.38722222","lon":"119.94416667"}]},{"name":"Agusan del Norte","native":null,"cities":[{"name":"Abut","native":null,"lat":"17.35416667","lon":"121.60138889"},{"name":"Accusilian","native":null,"lat":"17.74777778","lon":"121.46250000"},{"name":"Afusing Centro","native":null,"lat":"17.85250000","lon":"121.62694444"},{"name":"Aglipay","native":null,"lat":"16.48887500","lon":"121.58735000"},{"name":"Alabug","native":null,"lat":"17.73250000","lon":"121.46777778"},{"name":"Alannay","native":null,"lat":"18.06111111","lon":"121.58611111"},{"name":"Alcala","native":null,"lat":"17.90314167","lon":"121.65896111"},{"name":"Alfonso Castañeda","native":null,"lat":"15.79401389","lon":"121.29996389"},{"name":"Alicia","native":null,"lat":"16.77868611","lon":"121.69718056"},{"name":"Allacapan","native":null,"lat":"18.22696667","lon":"121.55558333"},{"name":"Almaguer North","native":null,"lat":"16.34972222","lon":"121.09250000"},{"name":"Ambaguio","native":null,"lat":"16.53160833","lon":"121.02816944"},{"name":"Amulung","native":null,"lat":"17.83865556","lon":"121.72348333"},{"name":"Angadanan","native":null,"lat":"16.75715000","lon":"121.74792778"},{"name":"Antagan Segunda","native":null,"lat":"17.28277778","lon":"121.87138889"},{"name":"Aparri","native":null,"lat":"18.35497500","lon":"121.64185000"},{"name":"Aritao","native":null,"lat":"16.29725833","lon":"121.03381944"},{"name":"Atulayan","native":null,"lat":"17.66472222","lon":"121.69361111"},{"name":"Aurora","native":null,"lat":"16.99184722","lon":"121.63568889"},{"name":"Awallan","native":null,"lat":"17.92444444","lon":"121.91305556"},{"name":"Bacnor East","native":null,"lat":"17.03444444","lon":"121.70361111"},{"name":"Bagabag","native":null,"lat":"16.60443056","lon":"121.25209444"},{"name":"Baggabag B","native":null,"lat":"16.50583333","lon":"121.19027778"},{"name":"Baggao","native":null,"lat":"17.88935278","lon":"121.87092222"},{"name":"Bagong Tanza","native":null,"lat":"16.98277778","lon":"121.61111111"},{"name":"Bagu","native":null,"lat":"18.42444444","lon":"121.35583333"},{"name":"Bagumbayan","native":null,"lat":"17.72277778","lon":"121.44694444"},{"name":"Ballesteros","native":null,"lat":"18.40000000","lon":"121.51666667"},{"name":"Bambang","native":null,"lat":"16.38250000","lon":"121.11000000"},{"name":"Bangad","native":null,"lat":"17.49555556","lon":"121.77722222"},{"name":"Banganan","native":null,"lat":"16.31444444","lon":"121.05444444"},{"name":"Banquero","native":null,"lat":"17.02305556","lon":"121.77833333"},{"name":"Barucboc Norte","native":null,"lat":"17.25861111","lon":"121.60555556"},{"name":"Basco","native":null,"lat":"20.45000000","lon":"121.96666667"},{"name":"Batal","native":null,"lat":"16.68750000","lon":"121.60083000"},{"name":"Battung","native":null,"lat":"17.72250000","lon":"121.45916667"},{"name":"Bauan","native":null,"lat":"17.72250000","lon":"121.68027778"},{"name":"Bayombong","native":null,"lat":"16.48333333","lon":"121.15000000"},{"name":"Belance","native":null,"lat":"16.18333333","lon":"121.25000000"},{"name":"Benito Soliven","native":null,"lat":"16.98333333","lon":"121.95000000"},{"name":"Binalan","native":null,"lat":"18.32750000","lon":"121.54500000"},{"name":"Binguang","native":null,"lat":"17.45888889","lon":"121.79527778"},{"name":"Bintawan","native":null,"lat":"16.57583333","lon":"121.18777778"},{"name":"Bitag Grande","native":null,"lat":"17.90250000","lon":"121.85000000"},{"name":"Bone South","native":null,"lat":"16.24472222","lon":"120.99583333"},{"name":"Buguey","native":null,"lat":"18.28823000","lon":"121.83310000"},{"name":"Buliwao","native":null,"lat":"16.48333333","lon":"121.23333333"},{"name":"Bulu","native":null,"lat":"17.33333333","lon":"121.76666667"},{"name":"Burgos","native":null,"lat":"17.06666667","lon":"121.70000000"},{"name":"Busilak","native":null,"lat":"16.47750000","lon":"121.12416667"},{"name":"Cabagan","native":null,"lat":"17.43333333","lon":"121.76666667"},{"name":"Cabannungan Second","native":null,"lat":"17.12500000","lon":"121.85055556"},{"name":"Cabaritan East","native":null,"lat":"18.41777778","lon":"121.48861111"},{"name":"Cabarroguis","native":null,"lat":"16.58333300","lon":"121.50000000"},{"name":"Cabatuan","native":null,"lat":"16.95888889","lon":"121.66916667"},{"name":"Cabiraoan","native":null,"lat":"18.32388889","lon":"122.08583333"},{"name":"Calamagui East","native":null,"lat":"17.48805556","lon":"121.76833333"},{"name":"Calantac","native":null,"lat":"17.90916667","lon":"121.72277778"},{"name":"Calaoagan","native":null,"lat":"18.04277778","lon":"121.72333333"},{"name":"Calayan","native":null,"lat":"19.26666667","lon":"121.48333333"},{"name":"Calinaoan Malasin","native":null,"lat":"17.35194444","lon":"121.74083333"},{"name":"Calog Norte","native":null,"lat":"18.36361111","lon":"121.38527778"},{"name":"Camalaniugan","native":null,"lat":"18.26666667","lon":"121.68333333"},{"name":"Capissayan Sur","native":null,"lat":"18.05083333","lon":"121.81777778"},{"name":"Carig","native":null,"lat":"17.65916667","lon":"121.74361111"},{"name":"Casambalangan","native":null,"lat":"18.37638889","lon":"122.12750000"},{"name":"Catayauan","native":null,"lat":"18.16083333","lon":"121.65277778"},{"name":"Cauayan","native":null,"lat":"16.76666667","lon":"121.78333333"},{"name":"Claveria","native":null,"lat":"18.60000000","lon":"121.08333333"},{"name":"Cordon","native":null,"lat":"16.66666667","lon":"121.45000000"},{"name":"Cullalabo del Sur","native":null,"lat":"17.10277778","lon":"121.70388889"},{"name":"Dagupan","native":null,"lat":"17.70027778","lon":"121.50444444"},{"name":"Dalaoig","native":null,"lat":"17.94916667","lon":"121.71472222"},{"name":"Daragutan","native":null,"lat":"17.00000000","lon":"122.03333333"},{"name":"Dassun","native":null,"lat":"17.74527778","lon":"121.71138889"},{"name":"Delfin Albano","native":null,"lat":"17.31666667","lon":"121.78333333"},{"name":"Diadi","native":null,"lat":"16.63333333","lon":"121.35000000"},{"name":"Diamantina","native":null,"lat":"16.91805556","lon":"121.62666667"},{"name":"Dibuluan","native":null,"lat":"16.51916667","lon":"121.76472222"},{"name":"Dicabisagan","native":null,"lat":"17.08194444","lon":"122.41583333"},{"name":"Dicamay","native":null,"lat":"16.75611111","lon":"122.00361111"},{"name":"Diffun","native":null,"lat":"16.60000000","lon":"121.46666667"},{"name":"Dinapigui","native":null,"lat":"16.66667000","lon":"122.23333000"},{"name":"Divilican","native":null,"lat":"17.24194000","lon":"122.31548000"},{"name":"Divisoria","native":null,"lat":"17.52277778","lon":"121.77416667"},{"name":"Dodan","native":null,"lat":"17.64111111","lon":"121.79444444"},{"name":"Dumabato","native":null,"lat":"16.31666667","lon":"121.70000000"},{"name":"Dupax del Norte","native":null,"lat":"16.28638889","lon":"121.09416667"},{"name":"Dupax del Sur","native":null,"lat":"16.28333333","lon":"121.10000000"},{"name":"Echague (town)","native":null,"lat":"16.70500000","lon":"121.67638889"},{"name":"Eden","native":null,"lat":"17.03805556","lon":"121.59805556"},{"name":"Enrile","native":null,"lat":"17.55000000","lon":"121.70000000"},{"name":"Esperanza East","native":null,"lat":"17.02333333","lon":"121.68388889"},{"name":"Estefania","native":null,"lat":"17.79944444","lon":"121.72305556"},{"name":"Furao","native":null,"lat":"17.03472222","lon":"121.79694444"},{"name":"Gadu","native":null,"lat":"17.62916667","lon":"121.61055556"},{"name":"Gammad","native":null,"lat":"17.71027778","lon":"121.74361111"},{"name":"Gamu","native":null,"lat":"17.05000000","lon":"121.83333333"},{"name":"Ganapi","native":null,"lat":"17.20166667","lon":"121.86527778"},{"name":"Gappal","native":null,"lat":"16.83638889","lon":"121.82194444"},{"name":"Gattaran","native":null,"lat":"18.06166667","lon":"121.64416667"},{"name":"Gonzaga","native":null,"lat":"18.26666667","lon":"122.00000000"},{"name":"Guiddam","native":null,"lat":"18.33500000","lon":"121.46611111"},{"name":"Ibung","native":null,"lat":"16.60938000","lon":"121.18614000"},{"name":"Iguig","native":null,"lat":"17.75000000","lon":"121.73333333"},{"name":"Ilagan","native":null,"lat":"17.13333333","lon":"121.88333333"},{"name":"Ineangan","native":null,"lat":"16.31805556","lon":"121.09305556"},{"name":"Itbayat","native":null,"lat":"20.76667000","lon":"121.83333000"},{"name":"Ivana","native":null,"lat":"20.36666667","lon":"121.91666667"},{"name":"Jones","native":null,"lat":"16.55833333","lon":"121.70000000"},{"name":"Kasibu","native":null,"lat":"16.31666667","lon":"121.28333333"},{"name":"Kayapa","native":null,"lat":"16.41666667","lon":"120.91666667"},{"name":"La Paz","native":null,"lat":"16.91083333","lon":"121.66833333"},{"name":"Lal-lo","native":null,"lat":"18.20000000","lon":"121.66666667"},{"name":"Lallayug","native":null,"lat":"17.70694444","lon":"121.44166667"},{"name":"Lanna","native":null,"lat":"17.69611111","lon":"121.70027778"},{"name":"Lapi","native":null,"lat":"17.71611111","lon":"121.89777778"},{"name":"Larion Alto","native":null,"lat":"17.63083333","lon":"121.76055556"},{"name":"Lasam","native":null,"lat":"18.06666667","lon":"121.60000000"},{"name":"Lucban","native":null,"lat":"18.33638889","lon":"121.43083333"},{"name":"Luna","native":null,"lat":"16.96666667","lon":"121.73333333"},{"name":"Mabasa","native":null,"lat":"16.32111111","lon":"121.12611111"},{"name":"Mabini","native":null,"lat":"17.09944444","lon":"121.73444444"},{"name":"Mabuttal East","native":null,"lat":"18.37611111","lon":"121.51472222"},{"name":"Maconacon","native":null,"lat":"17.38712500","lon":"122.23791667"},{"name":"Maddarulug Norte","native":null,"lat":"17.60722222","lon":"121.67666667"},{"name":"Maddela","native":null,"lat":"16.34138889","lon":"121.68500000"},{"name":"Magalalag","native":null,"lat":"17.57722222","lon":"121.73500000"},{"name":"Magdalena","native":null,"lat":"16.95222222","lon":"121.66555556"},{"name":"Maguilling","native":null,"lat":"17.76972222","lon":"121.49777778"},{"name":"Mahatao","native":null,"lat":"20.41666667","lon":"121.95000000"},{"name":"Malasin","native":null,"lat":"16.30444444","lon":"121.10611111"},{"name":"Mallig","native":null,"lat":"17.20000000","lon":"121.61666667"},{"name":"Maluno Sur","native":null,"lat":"16.99888889","lon":"121.96444444"},{"name":"Manaring","native":null,"lat":"17.17305556","lon":"121.90250000"},{"name":"Manga","native":null,"lat":"17.70111111","lon":"121.86055556"},{"name":"Masaya Sur","native":null,"lat":"16.50027778","lon":"121.74750000"},{"name":"Masipi West","native":null,"lat":"17.37944444","lon":"121.83861111"},{"name":"Maxingal","native":null,"lat":"18.21500000","lon":"121.66805556"},{"name":"Minallo","native":null,"lat":"16.98694444","lon":"121.85388889"},{"name":"Minanga Norte","native":null,"lat":"17.45222222","lon":"121.78527778"},{"name":"Minante Segundo","native":null,"lat":"16.90222222","lon":"121.76194444"},{"name":"Minuri","native":null,"lat":"16.53222222","lon":"121.85527778"},{"name":"Mozzozzin Sur","native":null,"lat":"17.45694444","lon":"121.74611111"},{"name":"Mungo","native":null,"lat":"17.72416667","lon":"121.47083333"},{"name":"Municipality of Delfin Albano","native":null,"lat":"17.26667000","lon":"121.73333000"},{"name":"Muñoz East","native":null,"lat":"17.15750000","lon":"121.61361111"},{"name":"Nabannagan West","native":null,"lat":"18.07166667","lon":"121.53638889"},{"name":"Nagrumbuan","native":null,"lat":"16.89944444","lon":"121.70972222"},{"name":"Nagtipunan","native":null,"lat":"16.21666667","lon":"121.60000000"},{"name":"Naguilian","native":null,"lat":"17.01667000","lon":"121.86667000"},{"name":"Namuac","native":null,"lat":"18.61083333","lon":"121.16583333"},{"name":"Nattapian","native":null,"lat":"17.67527778","lon":"121.70305556"},{"name":"Paddaya","native":null,"lat":"18.32361111","lon":"121.73861111"},{"name":"Palagao Norte","native":null,"lat":"18.04416667","lon":"121.71861111"},{"name":"Palanan","native":null,"lat":"17.05888889","lon":"122.43000000"},{"name":"Pamplona","native":null,"lat":"18.45000000","lon":"121.34166667"},{"name":"Pangal Sur","native":null,"lat":"16.60027778","lon":"121.66972222"},{"name":"Pata","native":null,"lat":"17.71527778","lon":"121.50166667"},{"name":"Pattao","native":null,"lat":"18.24694444","lon":"121.81472222"},{"name":"Peñablanca","native":null,"lat":"17.63333333","lon":"121.78333333"},{"name":"Piat","native":null,"lat":"17.79166667","lon":"121.47500000"},{"name":"Pinoma","native":null,"lat":"16.87416667","lon":"121.70666667"},{"name":"Quezon","native":null,"lat":"17.31666667","lon":"121.61666667"},{"name":"Quibal","native":null,"lat":"17.71583333","lon":"121.81138889"},{"name":"Quirino","native":null,"lat":"17.13333333","lon":"121.70000000"},{"name":"Ragan Norte","native":null,"lat":"17.32305556","lon":"121.77416667"},{"name":"Ramon (municipal capital)","native":null,"lat":"16.78416000","lon":"121.53504000"},{"name":"Ramos West","native":null,"lat":"16.69833333","lon":"121.61361111"},{"name":"Reina Mercedes","native":null,"lat":"16.98333333","lon":"121.78333333"},{"name":"Rizal","native":null,"lat":"17.85000000","lon":"121.35000000"},{"name":"Roxas","native":null,"lat":"17.11666667","lon":"121.61666667"},{"name":"Sabtang","native":null,"lat":"20.33333333","lon":"121.86666667"},{"name":"Saguday","native":null,"lat":"16.51666667","lon":"121.60000000"},{"name":"Salinas","native":null,"lat":"16.36944444","lon":"121.01888889"},{"name":"Salinungan Proper","native":null,"lat":"16.86916667","lon":"121.61444444"},{"name":"San Agustin","native":null,"lat":"16.51666667","lon":"121.75000000"},{"name":"San Antonio","native":null,"lat":"16.35027778","lon":"121.10916667"},{"name":"San Bernardo","native":null,"lat":"17.40472222","lon":"121.75166667"},{"name":"San Fernando","native":null,"lat":"16.38916667","lon":"121.13250000"},{"name":"San Guillermo","native":null,"lat":"16.73333000","lon":"121.86667000"},{"name":"San Isidro","native":null,"lat":"16.73333000","lon":"121.61667000"},{"name":"San Jose","native":null,"lat":"17.15000000","lon":"121.60000000"},{"name":"San Luis","native":null,"lat":"16.96444444","lon":"121.82777778"},{"name":"San Manuel","native":null,"lat":"17.01666667","lon":"121.63333333"},{"name":"San Mariano","native":null,"lat":"16.98277778","lon":"122.01416667"},{"name":"San Mateo","native":null,"lat":"16.88333333","lon":"121.58333333"},{"name":"San Pablo","native":null,"lat":"17.48305556","lon":"121.98777778"},{"name":"San Pedro","native":null,"lat":"17.20000000","lon":"121.88333333"},{"name":"San Vicente","native":null,"lat":"18.50750000","lon":"122.15027778"},{"name":"Sanchez Mira","native":null,"lat":"18.56666667","lon":"121.23333333"},{"name":"Sandiat Centro","native":null,"lat":"17.07305556","lon":"121.63750000"},{"name":"Santa Ana","native":null,"lat":"18.46666667","lon":"122.15000000"},{"name":"Santa Cruz","native":null,"lat":"18.51638889","lon":"121.31055556"},{"name":"Santa Fe","native":null,"lat":"16.16194444","lon":"120.93888889"},{"name":"Santa Maria","native":null,"lat":"17.46666667","lon":"121.75000000"},{"name":"Santa Praxedes","native":null,"lat":"18.56666667","lon":"121.00000000"},{"name":"Santa Teresita","native":null,"lat":"18.25000000","lon":"121.88333333"},{"name":"Santiago","native":null,"lat":"16.68333333","lon":"121.55000000"},{"name":"Santo Domingo","native":null,"lat":"17.16000000","lon":"121.75194444"},{"name":"Santo Niño","native":null,"lat":"17.88610000","lon":"121.56910000"},{"name":"Santo Tomas","native":null,"lat":"17.40000000","lon":"121.76666667"},{"name":"Siempre Viva","native":null,"lat":"17.22861111","lon":"121.63305556"},{"name":"Sillawit","native":null,"lat":"16.87305556","lon":"121.75916667"},{"name":"Simanu Sur","native":null,"lat":"17.48527778","lon":"121.83416667"},{"name":"Simimbaan","native":null,"lat":"17.11861111","lon":"121.58138889"},{"name":"Sinamar","native":null,"lat":"16.90000000","lon":"121.56666667"},{"name":"Sindon","native":null,"lat":"17.06027778","lon":"122.01527778"},{"name":"Solana","native":null,"lat":"17.65000000","lon":"121.68333333"},{"name":"Solano","native":null,"lat":"16.52388889","lon":"121.19194444"},{"name":"Soyung","native":null,"lat":"16.70000000","lon":"121.66555556"},{"name":"Taguing","native":null,"lat":"17.94638889","lon":"121.75527778"},{"name":"Tapel","native":null,"lat":"18.28916667","lon":"122.02916667"},{"name":"Tuao","native":null,"lat":"17.73333333","lon":"121.45000000"},{"name":"Tuguegarao","native":null,"lat":"17.61577000","lon":"121.72285000"},{"name":"Tuguegarao City","native":null,"lat":"17.61667000","lon":"121.75000000"},{"name":"Tumauini","native":null,"lat":"17.26666667","lon":"121.80000000"},{"name":"Tupang","native":null,"lat":"17.90472222","lon":"121.64111111"},{"name":"Uddiawan","native":null,"lat":"16.55888889","lon":"121.15111111"},{"name":"Ugac Sur","native":null,"lat":"17.61333333","lon":"121.71583333"},{"name":"Ugad","native":null,"lat":"17.30750000","lon":"121.80027778"},{"name":"Upi","native":null,"lat":"17.08250000","lon":"121.83444444"},{"name":"Uyugan","native":null,"lat":"20.35000000","lon":"121.93333333"},{"name":"Villaverde","native":null,"lat":"16.58333333","lon":"121.20000000"},{"name":"Yeban Norte","native":null,"lat":"17.02194444","lon":"121.94194444"}]},{"name":"Agusan del Sur","native":null,"cities":[{"name":"Acli","native":null,"lat":"15.12277778","lon":"120.64472222"},{"name":"Agbannawag","native":null,"lat":"15.67916667","lon":"121.08333333"},{"name":"Akle","native":null,"lat":"15.04833333","lon":"121.07333333"},{"name":"Aliaga","native":null,"lat":"15.49879722","lon":"120.84103611"},{"name":"Alua","native":null,"lat":"15.31166667","lon":"120.89444444"},{"name":"Amacalan","native":null,"lat":"15.58138889","lon":"120.61111111"},{"name":"Amucao","native":null,"lat":"15.46416667","lon":"120.68638889"},{"name":"Amuñgan","native":null,"lat":"15.36527778","lon":"119.95833333"},{"name":"Anao","native":null,"lat":"15.73038611","lon":"120.62641389"},{"name":"Angat","native":null,"lat":"14.92814722","lon":"121.02931944"},{"name":"Angeles","native":null,"lat":"15.14718056","lon":"120.58473333"},{"name":"Antipolo","native":null,"lat":"15.61805556","lon":"121.19000000"},{"name":"Apalit","native":null,"lat":"14.94956111","lon":"120.75869167"},{"name":"Arayat","native":null,"lat":"15.14926111","lon":"120.76915833"},{"name":"Arenas","native":null,"lat":"15.17055556","lon":"120.68583333"},{"name":"Arminia","native":null,"lat":"15.43555556","lon":"120.56388889"},{"name":"Bacabac","native":null,"lat":"15.72472222","lon":"120.42805556"},{"name":"Bacolor","native":null,"lat":"14.99842778","lon":"120.65265000"},{"name":"Bacsay","native":null,"lat":"15.62055556","lon":"120.34333333"},{"name":"Bagac","native":null,"lat":"14.58333000","lon":"120.41667000"},{"name":"Bagong Barrio","native":null,"lat":"14.89000000","lon":"120.94083333"},{"name":"Bagong-Sikat","native":null,"lat":"15.48000000","lon":"121.30722222"},{"name":"Bahay Pare","native":null,"lat":"15.03250000","lon":"120.88083333"},{"name":"Bakulong","native":null,"lat":"15.53777778","lon":"120.63861111"},{"name":"Balagtas","native":null,"lat":"14.81446700","lon":"120.90846700"},{"name":"Balanga","native":null,"lat":"14.68333333","lon":"120.53333333"},{"name":"Balaoang","native":null,"lat":"15.66333333","lon":"120.51472222"},{"name":"Balas","native":null,"lat":"15.05000000","lon":"120.58611111"},{"name":"Balasing","native":null,"lat":"14.85444444","lon":"121.01277778"},{"name":"Balayang","native":null,"lat":"15.54944444","lon":"120.69416667"},{"name":"Baler","native":null,"lat":"15.75833300","lon":"121.56250000"},{"name":"Balingcanaway","native":null,"lat":"15.48222222","lon":"120.68555556"},{"name":"Balite","native":null,"lat":"15.64444444","lon":"120.64194444"},{"name":"Baliuag","native":null,"lat":"14.95000000","lon":"120.90000000"},{"name":"Baloc","native":null,"lat":"15.64361111","lon":"120.88527778"},{"name":"Baloy","native":null,"lat":"15.80527778","lon":"120.77416667"},{"name":"Balsic","native":null,"lat":"14.85916667","lon":"120.48250000"},{"name":"Balucuc","native":null,"lat":"14.95277778","lon":"120.81444444"},{"name":"Balut","native":null,"lat":"14.68333333","lon":"120.55000000"},{"name":"Balutu","native":null,"lat":"15.29861111","lon":"120.69222222"},{"name":"Bamban","native":null,"lat":"15.65000000","lon":"120.25000000"},{"name":"Banawang","native":null,"lat":"14.61222222","lon":"120.39000000"},{"name":"Bani","native":null,"lat":"15.58222222","lon":"119.93361111"},{"name":"Baquero Norte","native":null,"lat":"15.71611111","lon":"120.55416667"},{"name":"Batasan Bata","native":null,"lat":"15.14444444","lon":"120.94083333"},{"name":"Batitang","native":null,"lat":"15.40027778","lon":"120.80277778"},{"name":"Bayanan","native":null,"lat":"13.35916667","lon":"121.17000000"},{"name":"Beddeng","native":null,"lat":"14.97722222","lon":"120.08500000"},{"name":"Biay","native":null,"lat":"15.74027778","lon":"119.90666667"},{"name":"Bibiclat","native":null,"lat":"15.52194444","lon":"120.86222222"},{"name":"Bicos","native":null,"lat":"15.66027778","lon":"121.04138889"},{"name":"Biga","native":null,"lat":"13.31055556","lon":"121.16111111"},{"name":"Bilad","native":null,"lat":"15.73666667","lon":"120.43333333"},{"name":"Bobon Second","native":null,"lat":"15.65666667","lon":"120.38111111"},{"name":"Bocaue","native":null,"lat":"14.80000000","lon":"120.93333333"},{"name":"Bodega","native":null,"lat":"14.92277778","lon":"120.47972222"},{"name":"Bolitoc","native":null,"lat":"15.73944444","lon":"119.87694444"},{"name":"Bongabon","native":null,"lat":"15.63210000","lon":"121.14480000"},{"name":"Botolan","native":null,"lat":"15.28960000","lon":"120.02450000"},{"name":"Buenlag","native":null,"lat":"15.62750000","lon":"120.58194444"},{"name":"Buensuseso","native":null,"lat":"15.19333333","lon":"120.67305556"},{"name":"Bulakan","native":null,"lat":"14.79278000","lon":"120.87889000"},{"name":"Bulaon","native":null,"lat":"15.08250000","lon":"120.66277778"},{"name":"Bularit","native":null,"lat":"15.56833333","lon":"120.62166667"},{"name":"Bulawin","native":null,"lat":"15.41722222","lon":"119.95638889"},{"name":"Bulihan","native":null,"lat":"14.87583333","lon":"120.89555556"},{"name":"Buliran","native":null,"lat":"15.54611111","lon":"120.95972222"},{"name":"Buliran Segundo","native":null,"lat":"15.26666667","lon":"120.86666667"},{"name":"Bulualto","native":null,"lat":"15.22138889","lon":"120.95333333"},{"name":"Bundoc","native":null,"lat":"15.48583333","lon":"120.71750000"},{"name":"Bunol","native":null,"lat":"15.66722222","lon":"120.83444444"},{"name":"Burgos","native":null,"lat":"15.72888889","lon":"120.57222222"},{"name":"Bustos","native":null,"lat":"14.95806000","lon":"120.91778000"},{"name":"Cabanatuan","native":null,"lat":"15.48333333","lon":"120.96666667"},{"name":"Cabangan","native":null,"lat":"15.13333333","lon":"120.15000000"},{"name":"Cabayaoasan","native":null,"lat":"15.66333333","lon":"120.55138889"},{"name":"Cabcaben","native":null,"lat":"14.45388889","lon":"120.59138889"},{"name":"Cabiao","native":null,"lat":"15.25000000","lon":"120.85000000"},{"name":"Cabog","native":null,"lat":"15.31527778","lon":"121.37027778"},{"name":"Cafe","native":null,"lat":"15.33694444","lon":"120.70611111"},{"name":"Calaba","native":null,"lat":"15.30055556","lon":"120.87416667"},{"name":"Calancuasan Norte","native":null,"lat":"15.80138889","lon":"120.64111111"},{"name":"Calangain","native":null,"lat":"14.89805556","lon":"120.55888889"},{"name":"Calantas","native":null,"lat":"15.01944444","lon":"120.51805556"},{"name":"Calayaan","native":null,"lat":"15.56750000","lon":"120.51444444"},{"name":"Calibungan","native":null,"lat":"15.59833333","lon":"120.72388889"},{"name":"Calibutbut","native":null,"lat":"15.11500000","lon":"120.59805556"},{"name":"Calingcuan","native":null,"lat":"15.33333333","lon":"120.58333333"},{"name":"Calumpang","native":null,"lat":"15.17388889","lon":"121.02500000"},{"name":"Calumpit","native":null,"lat":"14.91666667","lon":"120.76666667"},{"name":"Cama Juan","native":null,"lat":"15.39222222","lon":"120.76861111"},{"name":"Camachile","native":null,"lat":"14.64361111","lon":"120.58083333"},{"name":"Camias","native":null,"lat":"15.16666667","lon":"120.97416667"},{"name":"Camiling","native":null,"lat":"15.70000000","lon":"120.41666667"},{"name":"Candaba","native":null,"lat":"15.09333300","lon":"120.82833300"},{"name":"Candating","native":null,"lat":"15.15055556","lon":"120.81861111"},{"name":"Candelaria","native":null,"lat":"15.63333333","lon":"119.93333333"},{"name":"Capas","native":null,"lat":"15.35000000","lon":"120.46667000"},{"name":"Cardona","native":null,"lat":"15.57222222","lon":"120.58972222"},{"name":"Carmen","native":null,"lat":"15.44694444","lon":"120.82666667"},{"name":"Carranglan","native":null,"lat":"15.96138889","lon":"121.06416667"},{"name":"Casiguran","native":null,"lat":"16.28333333","lon":"122.11666667"},{"name":"Castillejos","native":null,"lat":"14.93333333","lon":"120.20000000"},{"name":"Cauayan","native":null,"lat":"15.15138889","lon":"120.67166667"},{"name":"Cavite","native":null,"lat":"15.67777778","lon":"120.76972222"},{"name":"Cawayan Bugtong","native":null,"lat":"15.63361111","lon":"120.77694444"},{"name":"City of Balanga","native":null,"lat":"14.66695000","lon":"120.49430000"},{"name":"City of Gapan","native":null,"lat":"15.28333000","lon":"120.98333000"},{"name":"City of Malolos","native":null,"lat":"14.82978000","lon":"120.83713000"},{"name":"City of Meycauayan","native":null,"lat":"14.75238000","lon":"120.96794000"},{"name":"City of San Fernando","native":null,"lat":"15.04574000","lon":"120.70373000"},{"name":"City of San Jose del Monte","native":null,"lat":"14.81667000","lon":"121.11667000"},{"name":"Comillas","native":null,"lat":"15.39833333","lon":"120.70055556"},{"name":"Communal","native":null,"lat":"13.25472222","lon":"121.13666667"},{"name":"Concepcion","native":null,"lat":"14.80000000","lon":"120.93333333"},{"name":"Conversion","native":null,"lat":"15.89833333","lon":"121.12777778"},{"name":"Culianin","native":null,"lat":"14.91500000","lon":"120.89861111"},{"name":"Culubasa","native":null,"lat":"15.14444444","lon":"120.65222222"},{"name":"Cut-cut Primero","native":null,"lat":"15.48277778","lon":"120.58611111"},{"name":"Cuyapo","native":null,"lat":"15.78333333","lon":"120.66666667"},{"name":"Dampol","native":null,"lat":"14.90138889","lon":"120.82194444"},{"name":"Del Carmen","native":null,"lat":"15.00555556","lon":"120.53416667"},{"name":"Del Pilar","native":null,"lat":"15.03611111","lon":"120.69944444"},{"name":"Digdig","native":null,"lat":"15.94888889","lon":"120.97777778"},{"name":"Dilasag","native":null,"lat":"16.40000000","lon":"122.21666667"},{"name":"Diliman Primero","native":null,"lat":"15.02472222","lon":"120.95194444"},{"name":"Dinalongan","native":null,"lat":"16.18333000","lon":"121.88333000"},{"name":"Dinalupihan","native":null,"lat":"14.88333333","lon":"120.46666667"},{"name":"Dingalan","native":null,"lat":"15.38972222","lon":"121.39277778"},{"name":"Dipaculao","native":null,"lat":"15.98333333","lon":"121.63333333"},{"name":"Dolores","native":null,"lat":"15.09500000","lon":"120.52888889"},{"name":"Doña Remedios Trinidad","native":null,"lat":"15.00000000","lon":"121.08333333"},{"name":"Entablado","native":null,"lat":"15.28666667","lon":"120.86305556"},{"name":"Estipona","native":null,"lat":"15.59027778","lon":"120.63777778"},{"name":"Estrella","native":null,"lat":"15.75000000","lon":"121.03333333"},{"name":"Floridablanca","native":null,"lat":"14.93333333","lon":"120.50000000"},{"name":"Gabaldon","native":null,"lat":"15.54777778","lon":"120.67722222"},{"name":"Gapan","native":null,"lat":"15.30750000","lon":"120.94527800"},{"name":"General Luna","native":null,"lat":"15.73055556","lon":"121.17916667"},{"name":"General Mamerto Natividad","native":null,"lat":"15.60250000","lon":"121.05150000"},{"name":"General Tinio","native":null,"lat":"15.35075000","lon":"121.04773000"},{"name":"Gerona","native":null,"lat":"15.60000000","lon":"120.60000000"},{"name":"Guagua","native":null,"lat":"14.96666667","lon":"120.63333333"},{"name":"Gueset","native":null,"lat":"15.95000000","lon":"120.63333333"},{"name":"Guiguinto","native":null,"lat":"14.83333333","lon":"120.88333333"},{"name":"Guimba","native":null,"lat":"15.65805556","lon":"120.76888889"},{"name":"Guisguis","native":null,"lat":"15.79277778","lon":"119.97666667"},{"name":"Guyong","native":null,"lat":"14.83611111","lon":"120.97833333"},{"name":"Hagonoy","native":null,"lat":"14.83416667","lon":"120.73277778"},{"name":"Hermosa","native":null,"lat":"14.83333333","lon":"120.50000000"},{"name":"Iba","native":null,"lat":"15.33333333","lon":"119.98333333"},{"name":"Jaen","native":null,"lat":"15.33333333","lon":"120.90000000"},{"name":"La Paz","native":null,"lat":"15.44305556","lon":"120.72888889"},{"name":"Lambakin","native":null,"lat":"14.75000000","lon":"120.86666667"},{"name":"Lanat","native":null,"lat":"15.79194444","lon":"120.60472222"},{"name":"Laug","native":null,"lat":"15.04666667","lon":"120.75138889"},{"name":"Laur","native":null,"lat":"15.58333333","lon":"121.18333333"},{"name":"Lawang Kupang","native":null,"lat":"15.34805556","lon":"120.85750000"},{"name":"Lennec","native":null,"lat":"15.68361111","lon":"120.73388889"},{"name":"Licab","native":null,"lat":"15.54390000","lon":"120.76340000"},{"name":"Ligaya","native":null,"lat":"15.50916667","lon":"121.28722222"},{"name":"Limay","native":null,"lat":"14.56194000","lon":"120.59833000"},{"name":"Liozon","native":null,"lat":"15.39916667","lon":"119.93305556"},{"name":"Lipay","native":null,"lat":"15.45611111","lon":"119.92083333"},{"name":"Llanera","native":null,"lat":"15.66666667","lon":"121.01666667"},{"name":"Lomboy","native":null,"lat":"15.49250000","lon":"120.71722222"},{"name":"Lourdes","native":null,"lat":"14.96666667","lon":"120.68333333"},{"name":"Lubao","native":null,"lat":"14.93333333","lon":"120.60000000"},{"name":"Lucapon","native":null,"lat":"15.69972222","lon":"119.93194444"},{"name":"Lupao","native":null,"lat":"15.87930000","lon":"120.89830000"},{"name":"Maasim","native":null,"lat":"14.99555556","lon":"121.03083333"},{"name":"Mabalacat","native":null,"lat":"15.21666667","lon":"120.58333333"},{"name":"Mabayo","native":null,"lat":"14.73166667","lon":"120.27805556"},{"name":"Mabilang","native":null,"lat":"15.67500000","lon":"120.48833333"},{"name":"Mabilog","native":null,"lat":"15.39472222","lon":"120.66583333"},{"name":"Mabini","native":null,"lat":"15.60000000","lon":"120.98333333"},{"name":"Macabebe","native":null,"lat":"14.90805556","lon":"120.71555556"},{"name":"Macapsing","native":null,"lat":"15.67833333","lon":"121.13194444"},{"name":"Macarse","native":null,"lat":"15.42500000","lon":"120.77472222"},{"name":"Macatbong","native":null,"lat":"15.50472222","lon":"121.07916667"},{"name":"Magalang","native":null,"lat":"15.21666667","lon":"120.66666667"},{"name":"Magliman","native":null,"lat":"15.03555556","lon":"120.66416667"},{"name":"Magtangol","native":null,"lat":"15.75805556","lon":"120.91555556"},{"name":"Maguinao","native":null,"lat":"15.02222222","lon":"120.93416667"},{"name":"Malabon","native":null,"lat":"15.63611111","lon":"119.93777778"},{"name":"Malacampa","native":null,"lat":"15.64333333","lon":"120.41111111"},{"name":"Maligaya","native":null,"lat":"15.67472222","lon":"120.88861111"},{"name":"Malino","native":null,"lat":"15.12694444","lon":"120.67444444"},{"name":"Malolos","native":null,"lat":"14.84333333","lon":"120.81138889"},{"name":"Maloma","native":null,"lat":"15.11361111","lon":"120.06388889"},{"name":"Maluid","native":null,"lat":"15.54916667","lon":"120.65277778"},{"name":"Malusac","native":null,"lat":"14.85833333","lon":"120.62111111"},{"name":"Mambog","native":null,"lat":"15.31361111","lon":"120.03027778"},{"name":"Mamonit","native":null,"lat":"15.58722222","lon":"120.39638889"},{"name":"Manacsac","native":null,"lat":"15.59527778","lon":"120.79111111"},{"name":"Manatal","native":null,"lat":"14.87694444","lon":"120.91638889"},{"name":"Mandili","native":null,"lat":"15.17916667","lon":"120.87722222"},{"name":"Mangga","native":null,"lat":"15.25027778","lon":"120.90888889"},{"name":"Manibaug Pasig","native":null,"lat":"15.09611111","lon":"120.56444444"},{"name":"Manogpi","native":null,"lat":"13.31083333","lon":"121.20388889"},{"name":"Mapalacsiao","native":null,"lat":"15.42833333","lon":"120.65250000"},{"name":"Mapalad","native":null,"lat":"15.45138889","lon":"121.08388889"},{"name":"Mapaniqui","native":null,"lat":"15.10694444","lon":"120.92277778"},{"name":"Maquiapo","native":null,"lat":"14.98555556","lon":"120.55861111"},{"name":"Marawa","native":null,"lat":"15.41722222","lon":"120.83805556"},{"name":"Maria Aurora","native":null,"lat":"15.79670000","lon":"121.47370000"},{"name":"Marilao","native":null,"lat":"14.75805556","lon":"120.94805556"},{"name":"Mariveles","native":null,"lat":"14.43333333","lon":"120.48333333"},{"name":"Masalipit","native":null,"lat":"15.14805556","lon":"121.03722222"},{"name":"Masantol","native":null,"lat":"14.90000000","lon":"120.71666667"},{"name":"Masinloc","native":null,"lat":"15.53333333","lon":"119.95000000"},{"name":"Matayumtayum","native":null,"lat":"15.51666667","lon":"120.70972222"},{"name":"Maturanoc","native":null,"lat":"15.65722222","lon":"120.79222222"},{"name":"Mayantoc","native":null,"lat":"15.61666667","lon":"120.38333333"},{"name":"Mexico","native":null,"lat":"15.06666667","lon":"120.71666667"},{"name":"Meycauayan","native":null,"lat":"14.73333333","lon":"120.95000000"},{"name":"Minalin","native":null,"lat":"14.96666667","lon":"120.68333333"},{"name":"Moncada","native":null,"lat":"15.73333333","lon":"120.56666667"},{"name":"Moriones","native":null,"lat":"15.46111111","lon":"120.46583333"},{"name":"Morong","native":null,"lat":"14.68000000","lon":"120.26833333"},{"name":"Motrico","native":null,"lat":"15.41361111","lon":"120.67666667"},{"name":"Muñoz","native":null,"lat":"15.71666667","lon":"120.90000000"},{"name":"Murcia","native":null,"lat":"15.40416667","lon":"120.60916667"},{"name":"Nagpandayan","native":null,"lat":"15.60138889","lon":"120.76888889"},{"name":"Nambalan","native":null,"lat":"15.59916667","lon":"120.46027778"},{"name":"Nampicuan","native":null,"lat":"15.73333333","lon":"120.63333333"},{"name":"Nancamarinan","native":null,"lat":"15.67527778","lon":"120.53638889"},{"name":"Nieves","native":null,"lat":"15.32833333","lon":"120.94888889"},{"name":"Niugan","native":null,"lat":"14.94611111","lon":"120.96722222"},{"name":"Norzagaray","native":null,"lat":"14.91083333","lon":"121.04916667"},{"name":"Obando","native":null,"lat":"14.70000000","lon":"120.91666667"},{"name":"Olongapo","native":null,"lat":"14.83333333","lon":"120.28333333"},{"name":"Orani","native":null,"lat":"14.80000000","lon":"120.53333333"},{"name":"Orion","native":null,"lat":"14.62056000","lon":"120.58167000"},{"name":"Paco Roman","native":null,"lat":"15.65972222","lon":"121.08777778"},{"name":"Padapada","native":null,"lat":"15.55166667","lon":"120.51638889"},{"name":"Paitan Norte","native":null,"lat":"15.83333333","lon":"120.74083333"},{"name":"Palauig","native":null,"lat":"15.43333333","lon":"120.05000000"},{"name":"Palayan","native":null,"lat":"15.53333333","lon":"121.08333333"},{"name":"Palusapis","native":null,"lat":"15.68333333","lon":"120.86277778"},{"name":"Pamatawan","native":null,"lat":"14.92777778","lon":"120.21361111"},{"name":"Panabingan","native":null,"lat":"15.37722222","lon":"120.76500000"},{"name":"Panan","native":null,"lat":"15.21333333","lon":"120.02722222"},{"name":"Pance","native":null,"lat":"15.68861111","lon":"120.62000000"},{"name":"Pandacaqui","native":null,"lat":"15.17194444","lon":"120.65444444"},{"name":"Pandi","native":null,"lat":"14.86666667","lon":"120.95000000"},{"name":"Pando","native":null,"lat":"15.39388889","lon":"120.68472222"},{"name":"Paniqui","native":null,"lat":"15.66666667","lon":"120.58333333"},{"name":"Pantabangan","native":null,"lat":"15.81666667","lon":"121.15000000"},{"name":"Pantubig","native":null,"lat":"14.96805556","lon":"120.95472222"},{"name":"Paombong","native":null,"lat":"14.83111100","lon":"120.78916700"},{"name":"Papaya","native":null,"lat":"15.32027778","lon":"120.83583333"},{"name":"Parang","native":null,"lat":"14.63305556","lon":"120.44916667"},{"name":"Parista","native":null,"lat":"15.85361111","lon":"120.92833333"},{"name":"Pau","native":null,"lat":"15.02777778","lon":"120.72416667"},{"name":"Peñaranda","native":null,"lat":"15.35000000","lon":"121.00000000"},{"name":"Pias","native":null,"lat":"15.34527778","lon":"121.07472222"},{"name":"Pilar","native":null,"lat":"14.66666667","lon":"120.56666667"},{"name":"Piñahan","native":null,"lat":"15.62666667","lon":"121.06222222"},{"name":"Pinambaran","native":null,"lat":"15.20222222","lon":"120.97805556"},{"name":"Pio","native":null,"lat":"15.04750000","lon":"120.51888889"},{"name":"Plaridel","native":null,"lat":"14.88694444","lon":"120.85694444"},{"name":"Porac","native":null,"lat":"15.07194444","lon":"120.54194444"},{"name":"Porais","native":null,"lat":"15.75500000","lon":"121.04277778"},{"name":"Prado Siongco","native":null,"lat":"14.87888889","lon":"120.51305556"},{"name":"Pulilan","native":null,"lat":"14.90000000","lon":"120.85000000"},{"name":"Pulo","native":null,"lat":"14.96222222","lon":"121.01472222"},{"name":"Pulong Gubat","native":null,"lat":"14.85944444","lon":"120.90611111"},{"name":"Pulong Sampalok","native":null,"lat":"14.96111111","lon":"121.06083333"},{"name":"Pulung Santol","native":null,"lat":"15.04583333","lon":"120.56194444"},{"name":"Pulungmasle","native":null,"lat":"15.00027778","lon":"120.55777778"},{"name":"Puncan","native":null,"lat":"15.90722222","lon":"120.99083333"},{"name":"Pura","native":null,"lat":"15.62480000","lon":"120.64800000"},{"name":"Purac","native":null,"lat":"15.25194444","lon":"120.01694444"},{"name":"Putlod","native":null,"lat":"15.37055556","lon":"120.86750000"},{"name":"Quezon","native":null,"lat":"15.55000000","lon":"120.81666667"},{"name":"Rajal Norte","native":null,"lat":"15.44472222","lon":"120.86250000"},{"name":"Ramos","native":null,"lat":"15.66666667","lon":"120.64166667"},{"name":"Rizal","native":null,"lat":"15.68333333","lon":"121.16666667"},{"name":"Sabang","native":null,"lat":"14.69500000","lon":"120.25083333"},{"name":"Sagana","native":null,"lat":"15.56888889","lon":"121.15222222"},{"name":"Salapungan","native":null,"lat":"15.13388889","lon":"120.92805556"},{"name":"Salaza","native":null,"lat":"15.45416667","lon":"119.95527778"},{"name":"Salcedo","native":null,"lat":"15.85722222","lon":"120.60000000"},{"name":"Salvacion I","native":null,"lat":"15.83972222","lon":"120.91583333"},{"name":"Samal","native":null,"lat":"14.76778000","lon":"120.54306000"},{"name":"Sampaloc","native":null,"lat":"15.81666667","lon":"120.86666667"},{"name":"San Agustin","native":null,"lat":"14.93333333","lon":"120.15000000"},{"name":"San Alejandro","native":null,"lat":"15.56111111","lon":"120.84888889"},{"name":"San Andres","native":null,"lat":"15.71916667","lon":"120.77750000"},{"name":"San Anton","native":null,"lat":"15.34777778","lon":"120.92000000"},{"name":"San Antonio","native":null,"lat":"15.38333333","lon":"120.80000000"},{"name":"San Basilio","native":null,"lat":"15.03333333","lon":"120.58416667"},{"name":"San Benito","native":null,"lat":"14.85166667","lon":"120.42694444"},{"name":"San Carlos","native":null,"lat":"15.03972222","lon":"120.76277778"},{"name":"San Casimiro","native":null,"lat":"15.55305556","lon":"120.78083333"},{"name":"San Clemente","native":null,"lat":"15.71666667","lon":"120.36666667"},{"name":"San Cristobal","native":null,"lat":"15.55388889","lon":"120.76694444"},{"name":"San Fabian","native":null,"lat":"15.59638889","lon":"120.90666667"},{"name":"San Felipe","native":null,"lat":"15.06194444","lon":"120.07000000"},{"name":"San Felipe Old","native":null,"lat":"15.50138889","lon":"120.90777778"},{"name":"San Fernando","native":null,"lat":"15.03333333","lon":"120.68333333"},{"name":"San Francisco","native":null,"lat":"15.35555556","lon":"120.84000000"},{"name":"San Ildefonso","native":null,"lat":"15.07888900","lon":"120.94194400"},{"name":"San Isidro","native":null,"lat":"15.26666667","lon":"120.90000000"},{"name":"San Jacinto","native":null,"lat":"15.54500000","lon":"120.66972222"},{"name":"San Jose","native":null,"lat":"15.78333333","lon":"121.00000000"},{"name":"San Jose del Monte","native":null,"lat":"14.81388889","lon":"121.04527778"},{"name":"San Juan","native":null,"lat":"15.28972222","lon":"120.06472222"},{"name":"San Juan de Mata","native":null,"lat":"15.53527778","lon":"120.53027778"},{"name":"San Leonardo","native":null,"lat":"15.36666667","lon":"120.96666667"},{"name":"San Lorenzo","native":null,"lat":"15.48611111","lon":"119.96222222"},{"name":"San Luis","native":null,"lat":"15.04000000","lon":"120.79194444"},{"name":"San Manuel","native":null,"lat":"15.83333333","lon":"120.58333333"},{"name":"San Marcelino","native":null,"lat":"14.97418000","lon":"120.15733000"},{"name":"San Mariano","native":null,"lat":"15.32083333","lon":"120.87611111"},{"name":"San Mateo","native":null,"lat":"15.20000000","lon":"120.79472222"},{"name":"San Miguel","native":null,"lat":"15.14222222","lon":"120.97555556"},{"name":"San Narciso","native":null,"lat":"15.01666667","lon":"120.08333333"},{"name":"San Nicolas","native":null,"lat":"15.58416667","lon":"120.67638889"},{"name":"San Pascual","native":null,"lat":"15.50138889","lon":"120.66722222"},{"name":"San Patricio","native":null,"lat":"15.09777778","lon":"120.72888889"},{"name":"San Rafael","native":null,"lat":"14.95000000","lon":"120.96666667"},{"name":"San Ricardo","native":null,"lat":"15.59583333","lon":"120.97277778"},{"name":"San Roque","native":null,"lat":"15.00944444","lon":"120.93833333"},{"name":"San Roque Dau First","native":null,"lat":"14.97722222","lon":"120.57694444"},{"name":"San Simon","native":null,"lat":"14.99960000","lon":"120.78080000"},{"name":"San Vicente","native":null,"lat":"15.29222222","lon":"120.65500000"},{"name":"San Vincente","native":null,"lat":"13.40666667","lon":"121.17500000"},{"name":"Santa Ana","native":null,"lat":"15.09388889","lon":"120.76805556"},{"name":"Santa Barbara","native":null,"lat":"15.38500000","lon":"120.79611111"},{"name":"Santa Cruz","native":null,"lat":"15.76527778","lon":"119.90916667"},{"name":"Santa Fe","native":null,"lat":"15.01027778","lon":"120.21027778"},{"name":"Santa Ignacia","native":null,"lat":"15.61666667","lon":"120.43333333"},{"name":"Santa Ines West","native":null,"lat":"15.55694444","lon":"120.46444444"},{"name":"Santa Juliana","native":null,"lat":"15.32833333","lon":"120.42861111"},{"name":"Santa Lucia","native":null,"lat":"15.36805556","lon":"120.48638889"},{"name":"Santa Maria","native":null,"lat":"14.81833333","lon":"120.95633333"},{"name":"Santa Monica","native":null,"lat":"15.35777778","lon":"120.72000000"},{"name":"Santa Rita","native":null,"lat":"14.99527800","lon":"120.61527800"},{"name":"Santa Rosa","native":null,"lat":"15.42388889","lon":"120.93888889"},{"name":"Santa Teresa First","native":null,"lat":"14.92638889","lon":"120.55777778"},{"name":"Santiago","native":null,"lat":"14.90361111","lon":"120.51138889"},{"name":"Santo Cristo","native":null,"lat":"15.29694444","lon":"120.89027778"},{"name":"Santo Domingo","native":null,"lat":"15.58333333","lon":"120.86666667"},{"name":"Santo Niño","native":null,"lat":"15.33444444","lon":"120.62611111"},{"name":"Santo Rosario","native":null,"lat":"15.43416667","lon":"120.88972222"},{"name":"Santo Tomas","native":null,"lat":"14.96666667","lon":"120.71666667"},{"name":"Santol","native":null,"lat":"15.16222000","lon":"120.56750000"},{"name":"Sapang","native":null,"lat":"15.70333333","lon":"120.52444444"},{"name":"Sapang Buho","native":null,"lat":"15.59027778","lon":"121.12444444"},{"name":"Sapol","native":null,"lat":"13.36500000","lon":"121.18916667"},{"name":"Sasmuan","native":null,"lat":"14.93333333","lon":"120.61666667"},{"name":"Saysain","native":null,"lat":"14.56111111","lon":"120.39250000"},{"name":"Sibul","native":null,"lat":"15.16888889","lon":"121.06166667"},{"name":"Siclong","native":null,"lat":"15.58083333","lon":"121.22388889"},{"name":"Sinait","native":null,"lat":"15.53666667","lon":"120.58500000"},{"name":"Sinilian First","native":null,"lat":"15.69333333","lon":"120.45944444"},{"name":"Soledad","native":null,"lat":"15.42833333","lon":"120.98361111"},{"name":"Subic","native":null,"lat":"14.90000000","lon":"120.23333333"},{"name":"Suklayin","native":null,"lat":"15.75750000","lon":"121.55027778"},{"name":"Sula","native":null,"lat":"15.45722222","lon":"120.39555556"},{"name":"Sulucan","native":null,"lat":"14.79444444","lon":"120.92583333"},{"name":"Tabacao","native":null,"lat":"15.64972222","lon":"120.94055556"},{"name":"Tabon","native":null,"lat":"15.27111111","lon":"120.91277778"},{"name":"Tabuating","native":null,"lat":"15.39222222","lon":"120.94083333"},{"name":"Tal I Mun Doc","native":null,"lat":"15.21222222","lon":"120.68500000"},{"name":"Talaga","native":null,"lat":"15.38388889","lon":"120.58944444"},{"name":"Talang","native":null,"lat":"15.02500000","lon":"120.83777778"},{"name":"Talavera","native":null,"lat":"15.58388889","lon":"120.91888889"},{"name":"Taltal","native":null,"lat":"15.58777778","lon":"119.94555556"},{"name":"Talugtug","native":null,"lat":"15.77888889","lon":"120.81111111"},{"name":"Tariji","native":null,"lat":"15.52111111","lon":"120.61444444"},{"name":"Tarlac City","native":null,"lat":"15.48562000","lon":"120.61616000"},{"name":"Tayabo","native":null,"lat":"15.83444444","lon":"121.03083333"},{"name":"Telabastagan","native":null,"lat":"15.11861111","lon":"120.60777778"},{"name":"Tikiw","native":null,"lat":"15.31194444","lon":"120.86111111"},{"name":"Tinang","native":null,"lat":"15.37638889","lon":"120.65333333"},{"name":"Tondod","native":null,"lat":"15.71833333","lon":"120.96805556"},{"name":"Uacon","native":null,"lat":"15.67861111","lon":"119.94027778"},{"name":"Umiray","native":null,"lat":"15.22055556","lon":"121.41111111"},{"name":"Upig","native":null,"lat":"15.02555556","lon":"120.99194444"},{"name":"Vargas","native":null,"lat":"15.59333333","lon":"120.48722222"},{"name":"Victoria","native":null,"lat":"15.57805556","lon":"120.68194444"},{"name":"Villa Aglipay","native":null,"lat":"15.46611111","lon":"120.45277778"},{"name":"Villa Isla","native":null,"lat":"15.77027778","lon":"120.86666667"},{"name":"Vizal San Pablo","native":null,"lat":"15.06250000","lon":"120.90027778"},{"name":"Vizal Santo Niño","native":null,"lat":"15.02916667","lon":"120.90500000"},{"name":"Zaragoza","native":null,"lat":"15.45305556","lon":"120.79111111"}]},{"name":"Aklan","native":null,"cities":[]},{"name":"Albay","native":null,"cities":[{"name":"Aanislag","native":null,"lat":"13.07480000","lon":"123.70300000"},{"name":"Abucay","native":null,"lat":"12.98200000","lon":"123.64920000"},{"name":"Abuyog","native":null,"lat":"12.94610000","lon":"124.05190000"},{"name":"Agos","native":null,"lat":"13.34340000","lon":"123.39830000"},{"name":"Aguada","native":null,"lat":"12.81667000","lon":"123.83333000"},{"name":"Agupit","native":null,"lat":"13.42250000","lon":"123.32472000"},{"name":"Alayao","native":null,"lat":"14.28180000","lon":"122.55240000"},{"name":"Antipolo","native":null,"lat":"13.52860000","lon":"123.16220000"},{"name":"Anuling","native":null,"lat":"13.20930000","lon":"123.67610000"},{"name":"Apad","native":null,"lat":"13.81500000","lon":"122.76640000"},{"name":"Apud","native":null,"lat":"13.13928000","lon":"123.29164000"},{"name":"Armenia","native":null,"lat":"12.25324000","lon":"123.74361000"},{"name":"Aroroy","native":null,"lat":"12.51110000","lon":"123.39770000"},{"name":"Ayugan","native":null,"lat":"13.54690000","lon":"123.32170000"},{"name":"Baao","native":null,"lat":"13.45490000","lon":"123.36530000"},{"name":"Bacacay","native":null,"lat":"13.29340000","lon":"123.79190000"},{"name":"Bacolod","native":null,"lat":"12.22854000","lon":"123.50851000"},{"name":"Bacon","native":null,"lat":"13.03778000","lon":"124.04111000"},{"name":"Badian","native":null,"lat":"13.03167000","lon":"123.30778000"},{"name":"Bagacay","native":null,"lat":"12.98210000","lon":"124.14150000"},{"name":"Bagahanlad","native":null,"lat":"12.57970000","lon":"123.66880000"},{"name":"Bagamanoc","native":null,"lat":"13.94040000","lon":"124.28962000"},{"name":"Bagumbayan","native":null,"lat":"13.45000000","lon":"123.66667000"},{"name":"Bahay","native":null,"lat":"13.54370000","lon":"123.04070000"},{"name":"Balading","native":null,"lat":"13.39060000","lon":"123.71210000"},{"name":"Balaogan","native":null,"lat":"13.43280000","lon":"123.28180000"},{"name":"Balatan","native":null,"lat":"13.32111000","lon":"123.23333000"},{"name":"Baleno","native":null,"lat":"12.47390000","lon":"123.49820000"},{"name":"Balete","native":null,"lat":"13.01917000","lon":"124.03194000"},{"name":"Baligang","native":null,"lat":"13.15370000","lon":"123.64320000"},{"name":"Balinad","native":null,"lat":"13.29260000","lon":"123.54540000"},{"name":"Baliuag Nuevo","native":null,"lat":"13.52140000","lon":"123.20160000"},{"name":"Balogo","native":null,"lat":"13.28710000","lon":"123.54960000"},{"name":"Balucawi","native":null,"lat":"12.20130000","lon":"123.84260000"},{"name":"Balud","native":null,"lat":"12.03686000","lon":"123.19351000"},{"name":"Banag","native":null,"lat":"13.37889000","lon":"123.70333000"},{"name":"Bangad","native":null,"lat":"12.16125000","lon":"123.40131000"},{"name":"Bangkirohan","native":null,"lat":"13.05530000","lon":"123.74680000"},{"name":"Banocboc","native":null,"lat":"14.30000000","lon":"122.58333000"},{"name":"Bao","native":null,"lat":"13.64140000","lon":"122.83140000"},{"name":"Baras","native":null,"lat":"13.65880000","lon":"124.37000000"},{"name":"Barayong","native":null,"lat":"13.10000000","lon":"123.71667000"},{"name":"Barcelona","native":null,"lat":"12.86830000","lon":"124.14190000"},{"name":"Bariw","native":null,"lat":"13.13333000","lon":"123.73333000"},{"name":"Barra","native":null,"lat":"12.07170000","lon":"123.63950000"},{"name":"Bascaron","native":null,"lat":"13.10290000","lon":"123.69990000"},{"name":"Basiad","native":null,"lat":"14.15617000","lon":"122.33749000"},{"name":"Basicao Coastal","native":null,"lat":"13.04589000","lon":"123.40423000"},{"name":"Basud","native":null,"lat":"14.06500000","lon":"122.96420000"},{"name":"Batana","native":null,"lat":"13.24980000","lon":"123.56410000"},{"name":"Bato","native":null,"lat":"13.35280000","lon":"123.36770000"},{"name":"Batobalane","native":null,"lat":"14.23333000","lon":"122.75000000"},{"name":"Batuan","native":null,"lat":"12.39760000","lon":"123.76279000"},{"name":"Baybay","native":null,"lat":"13.40830000","lon":"123.71350000"},{"name":"Beberon","native":null,"lat":"13.54440000","lon":"123.14050000"},{"name":"Bigaa","native":null,"lat":"13.19930000","lon":"123.75660000"},{"name":"Binanwanaan","native":null,"lat":"13.70000000","lon":"123.30000000"},{"name":"Binitayan","native":null,"lat":"13.29450000","lon":"123.75790000"},{"name":"Binodegahan","native":null,"lat":"13.06140000","lon":"123.45790000"},{"name":"Bolo","native":null,"lat":"13.75300000","lon":"122.96580000"},{"name":"Bombon","native":null,"lat":"13.68870000","lon":"123.20770000"},{"name":"Bonga","native":null,"lat":"13.27990000","lon":"123.75870000"},{"name":"Boton","native":null,"lat":"12.92870000","lon":"124.04790000"},{"name":"Buang","native":null,"lat":"13.31150000","lon":"123.64210000"},{"name":"Buenavista","native":null,"lat":"12.17639000","lon":"123.79056000"},{"name":"Buga","native":null,"lat":"13.29660000","lon":"123.35960000"},{"name":"Buhatan","native":null,"lat":"12.97550000","lon":"124.04780000"},{"name":"Buhi","native":null,"lat":"13.43220000","lon":"123.51700000"},{"name":"Bula","native":null,"lat":"13.47010000","lon":"123.27800000"},{"name":"Bulan","native":null,"lat":"12.67139000","lon":"123.87500000"},{"name":"Bulo","native":null,"lat":"12.41090000","lon":"123.56720000"},{"name":"Buluang","native":null,"lat":"13.30680000","lon":"123.34250000"},{"name":"Bulusan","native":null,"lat":"12.74936000","lon":"124.12087000"},{"name":"Burabod","native":null,"lat":"13.26860000","lon":"123.41620000"},{"name":"Buracan","native":null,"lat":"13.60000000","lon":"123.50000000"},{"name":"Busing","native":null,"lat":"13.15139000","lon":"122.97139000"},{"name":"Butag","native":null,"lat":"12.62920000","lon":"123.93350000"},{"name":"Buyo","native":null,"lat":"13.11440000","lon":"123.86660000"},{"name":"Cabcab","native":null,"lat":"13.62680000","lon":"124.05150000"},{"name":"Cabiguan","native":null,"lat":"12.90583000","lon":"123.73139000"},{"name":"Cabitan","native":null,"lat":"12.29434000","lon":"123.34121000"},{"name":"Cabognon","native":null,"lat":"13.18290000","lon":"123.67770000"},{"name":"Cabugao","native":null,"lat":"13.59620000","lon":"124.28040000"},{"name":"Cabusao","native":null,"lat":"13.72270000","lon":"123.11690000"},{"name":"Caditaan","native":null,"lat":"12.80528000","lon":"123.84917000"},{"name":"Cadlan","native":null,"lat":"13.59710000","lon":"123.25700000"},{"name":"Cagmanaba","native":null,"lat":"13.05501000","lon":"123.29706000"},{"name":"Calabaca","native":null,"lat":"14.30010000","lon":"122.43364000"},{"name":"Calabanga","native":null,"lat":"13.70680000","lon":"123.20870000"},{"name":"Calachuchi","native":null,"lat":"12.21775000","lon":"123.53061000"},{"name":"Calasgasan","native":null,"lat":"14.08333000","lon":"122.93333000"},{"name":"Calatagan","native":null,"lat":"13.58850000","lon":"124.20650000"},{"name":"Calolbon","native":null,"lat":"13.59600000","lon":"124.09910000"},{"name":"Camalig","native":null,"lat":"13.18210000","lon":"123.65430000"},{"name":"Camaligan","native":null,"lat":"13.62240000","lon":"123.16670000"},{"name":"Canaman","native":null,"lat":"13.64800000","lon":"123.16990000"},{"name":"Canomoy","native":null,"lat":"12.15735000","lon":"123.27011000"},{"name":"Capalonga","native":null,"lat":"14.33060000","lon":"122.49370000"},{"name":"Capucnasan","native":null,"lat":"13.60000000","lon":"123.21667000"},{"name":"Capuy","native":null,"lat":"12.98333000","lon":"123.93333000"},{"name":"Caramoan","native":null,"lat":"13.77070000","lon":"123.86310000"},{"name":"Caramoran","native":null,"lat":"13.98490000","lon":"124.13470000"},{"name":"Caranan","native":null,"lat":"13.51670000","lon":"123.01560000"},{"name":"Caraycayon","native":null,"lat":"13.61667000","lon":"123.48333000"},{"name":"Carriedo","native":null,"lat":"12.93440000","lon":"124.10500000"},{"name":"Casiguran","native":null,"lat":"12.87361000","lon":"124.00972000"},{"name":"Castilla","native":null,"lat":"12.94861000","lon":"123.88222000"},{"name":"Castillo","native":null,"lat":"13.73130000","lon":"123.11660000"},{"name":"Catabangan","native":null,"lat":"13.87770000","lon":"122.66150000"},{"name":"Cataingan","native":null,"lat":"12.00300000","lon":"123.99200000"},{"name":"Causip","native":null,"lat":"13.51590000","lon":"123.28340000"},{"name":"Claveria","native":null,"lat":"12.90350000","lon":"123.24570000"},{"name":"Cotmon","native":null,"lat":"13.11750000","lon":"123.66370000"},{"name":"Culacling","native":null,"lat":"13.78150000","lon":"122.87670000"},{"name":"Cumadcad","native":null,"lat":"12.98056000","lon":"123.78917000"},{"name":"Curry","native":null,"lat":"13.60000000","lon":"123.30000000"},{"name":"Daet","native":null,"lat":"14.11220000","lon":"122.95530000"},{"name":"Daguit","native":null,"lat":"14.18950000","lon":"122.72660000"},{"name":"Dalupaon","native":null,"lat":"13.55170000","lon":"122.94570000"},{"name":"Dangcalan","native":null,"lat":"12.91680000","lon":"123.58380000"},{"name":"Dapdap","native":null,"lat":"12.21550000","lon":"123.76620000"},{"name":"Daraga","native":null,"lat":"13.14830000","lon":"123.71240000"},{"name":"Del Gallego","native":null,"lat":"13.92230000","lon":"122.59540000"},{"name":"Del Rosario","native":null,"lat":"13.30570000","lon":"123.31330000"},{"name":"Dimasalang","native":null,"lat":"12.19230000","lon":"123.85920000"},{"name":"Donsol","native":null,"lat":"12.90550000","lon":"123.59490000"},{"name":"Dugcal","native":null,"lat":"13.62410000","lon":"123.16120000"},{"name":"Dugongan","native":null,"lat":"14.10250000","lon":"122.90660000"},{"name":"Esperanza","native":null,"lat":"11.73650000","lon":"124.04200000"},{"name":"Estancia","native":null,"lat":"13.35890000","lon":"123.67960000"},{"name":"Fabrica","native":null,"lat":"13.49000000","lon":"123.29400000"},{"name":"Gabao","native":null,"lat":"12.99240000","lon":"124.01690000"},{"name":"Gainza","native":null,"lat":"13.61650000","lon":"123.14190000"},{"name":"Gambalidio","native":null,"lat":"13.62050000","lon":"122.89130000"},{"name":"Garchitorena","native":null,"lat":"13.88040000","lon":"123.69460000"},{"name":"Gatbo","native":null,"lat":"13.58333000","lon":"123.38333000"},{"name":"Gibgos","native":null,"lat":"13.85900000","lon":"123.76750000"},{"name":"Gigmoto","native":null,"lat":"13.77960000","lon":"124.39000000"},{"name":"Goa","native":null,"lat":"13.69780000","lon":"123.48920000"},{"name":"Gubat","native":null,"lat":"12.92056000","lon":"124.12306000"},{"name":"Guijalo","native":null,"lat":"13.73730000","lon":"123.86800000"},{"name":"Guinacotan","native":null,"lat":"14.15690000","lon":"122.86800000"},{"name":"Guinobatan","native":null,"lat":"13.19130000","lon":"123.59870000"},{"name":"Gumaus","native":null,"lat":"14.31030000","lon":"122.72290000"},{"name":"Guruyan","native":null,"lat":"12.73889000","lon":"123.93917000"},{"name":"Hamoraon","native":null,"lat":"12.22564000","lon":"123.55151000"},{"name":"Herrera","native":null,"lat":"13.26930000","lon":"123.57690000"},{"name":"Himaao","native":null,"lat":"13.54480000","lon":"123.30050000"},{"name":"Hobo","native":null,"lat":"13.51010000","lon":"123.17920000"},{"name":"Imelda","native":null,"lat":"14.03333000","lon":"122.88333000"},{"name":"Inapatan","native":null,"lat":"13.39640000","lon":"123.32270000"},{"name":"Iraya","native":null,"lat":"13.25000000","lon":"123.51667000"},{"name":"Iriga City","native":null,"lat":"13.43240000","lon":"123.41150000"},{"name":"Irosin","native":null,"lat":"12.70013000","lon":"124.03221000"},{"name":"Joroan","native":null,"lat":"13.48850000","lon":"123.61890000"},{"name":"Jose Pañganiban","native":null,"lat":"14.29060000","lon":"122.69170000"},{"name":"Jovellar","native":null,"lat":"13.06950000","lon":"123.59990000"},{"name":"Juban","native":null,"lat":"12.84778000","lon":"123.98778000"},{"name":"Kaliliog","native":null,"lat":"13.90390000","lon":"123.29250000"},{"name":"Kinalansan","native":null,"lat":"13.70360000","lon":"123.55310000"},{"name":"Labnig","native":null,"lat":"13.37690000","lon":"123.67880000"},{"name":"Labo","native":null,"lat":"14.15320000","lon":"122.83030000"},{"name":"Lacag","native":null,"lat":"13.15530000","lon":"123.68120000"},{"name":"Lagonoy","native":null,"lat":"13.73420000","lon":"123.52070000"},{"name":"Lajong","native":null,"lat":"12.83333000","lon":"123.96667000"},{"name":"Lanigay","native":null,"lat":"13.31667000","lon":"123.50000000"},{"name":"Lantangan","native":null,"lat":"12.19815000","lon":"123.27101000"},{"name":"Larap","native":null,"lat":"14.29900000","lon":"122.65040000"},{"name":"Legaspi","native":null,"lat":"13.14125000","lon":"123.74073000"},{"name":"Libmanan","native":null,"lat":"13.69280000","lon":"123.05960000"},{"name":"Libog","native":null,"lat":"13.23490000","lon":"123.77780000"},{"name":"Libon","native":null,"lat":"13.29970000","lon":"123.43860000"},{"name":"Liboro","native":null,"lat":"13.82450000","lon":"122.72950000"},{"name":"Ligao","native":null,"lat":"13.21697000","lon":"123.51924000"},{"name":"Limbuhan","native":null,"lat":"11.88377000","lon":"124.05011000"},{"name":"Lourdes","native":null,"lat":"13.38990000","lon":"123.37350000"},{"name":"Lubigan","native":null,"lat":"13.74200000","lon":"122.93730000"},{"name":"Lugui","native":null,"lat":"14.11310000","lon":"122.79350000"},{"name":"Luklukan","native":null,"lat":"14.32540000","lon":"122.71240000"},{"name":"Luna","native":null,"lat":"12.54920000","lon":"123.73360000"},{"name":"Lupi","native":null,"lat":"13.53333000","lon":"123.15000000"},{"name":"Lupi Viejo","native":null,"lat":"13.78970000","lon":"122.90980000"},{"name":"Maagnas","native":null,"lat":"13.71920000","lon":"123.66750000"},{"name":"Mabiton","native":null,"lat":"12.83340000","lon":"123.26120000"},{"name":"Macabugos","native":null,"lat":"13.23620000","lon":"123.30530000"},{"name":"Macalaya","native":null,"lat":"12.88944000","lon":"123.77111000"},{"name":"Magallanes","native":null,"lat":"12.82917000","lon":"123.83639000"},{"name":"Magarao","native":null,"lat":"13.66040000","lon":"123.18690000"},{"name":"Magsalangi","native":null,"lat":"12.18275000","lon":"123.56661000"},{"name":"Mahaba","native":null,"lat":"13.26760000","lon":"123.55140000"},{"name":"Malabog","native":null,"lat":"13.17380000","lon":"123.68650000"},{"name":"Malasugui","native":null,"lat":"14.14390000","lon":"122.84710000"},{"name":"Malatap","native":null,"lat":"14.18710000","lon":"122.51190000"},{"name":"Malawag","native":null,"lat":"13.38333000","lon":"123.28333000"},{"name":"Malbug","native":null,"lat":"12.05630000","lon":"123.64610000"},{"name":"Malidong","native":null,"lat":"13.01333000","lon":"123.45962000"},{"name":"Malilipot","native":null,"lat":"13.31880000","lon":"123.73850000"},{"name":"Malinao","native":null,"lat":"13.39920000","lon":"123.70690000"},{"name":"Malinta","native":null,"lat":"12.30144000","lon":"123.55811000"},{"name":"Mambulo","native":null,"lat":"13.71667000","lon":"123.05000000"},{"name":"Mampurog","native":null,"lat":"14.04580000","lon":"122.88360000"},{"name":"Manamrag","native":null,"lat":"13.73510000","lon":"124.10640000"},{"name":"Mandaon","native":null,"lat":"12.22594000","lon":"123.28421000"},{"name":"Manga","native":null,"lat":"13.27190000","lon":"123.46230000"},{"name":"Manito","native":null,"lat":"13.12350000","lon":"123.86930000"},{"name":"Manquiring","native":null,"lat":"13.73410000","lon":"123.26900000"},{"name":"Maonon","native":null,"lat":"13.03643000","lon":"123.37074000"},{"name":"Marintoc","native":null,"lat":"12.28554000","lon":"123.72281000"},{"name":"Marupit","native":null,"lat":"13.62690000","lon":"123.16630000"},{"name":"Masaraway","native":null,"lat":"13.22680000","lon":"123.61480000"},{"name":"Masbate","native":null,"lat":"12.37169000","lon":"123.62494000"},{"name":"Maslog","native":null,"lat":"13.10460000","lon":"123.77130000"},{"name":"Masoli","native":null,"lat":"13.35930000","lon":"123.38980000"},{"name":"Matacon","native":null,"lat":"13.32840000","lon":"123.43560000"},{"name":"Matnog","native":null,"lat":"12.58780000","lon":"124.08750000"},{"name":"Mauraro","native":null,"lat":"13.14940000","lon":"123.59530000"},{"name":"Mayngaran","native":null,"lat":"12.34920000","lon":"123.59960000"},{"name":"Mercedes","native":null,"lat":"14.10930000","lon":"123.01090000"},{"name":"Miaga","native":null,"lat":"12.23760000","lon":"123.81670000"},{"name":"Milagros","native":null,"lat":"12.21814000","lon":"123.50951000"},{"name":"Milaor","native":null,"lat":"13.59610000","lon":"123.17720000"},{"name":"Miliroc","native":null,"lat":"13.34490000","lon":"123.70200000"},{"name":"Minalabac","native":null,"lat":"13.56870000","lon":"123.18380000"},{"name":"Mobo","native":null,"lat":"12.33630000","lon":"123.65740000"},{"name":"Monbon","native":null,"lat":"12.73070000","lon":"124.01890000"},{"name":"Monreal","native":null,"lat":"12.64400000","lon":"123.66480000"},{"name":"Muladbucad","native":null,"lat":"13.23890000","lon":"123.60570000"},{"name":"Naagas","native":null,"lat":"13.43570000","lon":"123.67810000"},{"name":"Nabangig","native":null,"lat":"12.09890000","lon":"123.95030000"},{"name":"Nabua","native":null,"lat":"13.40750000","lon":"123.37240000"},{"name":"Naga","native":null,"lat":"13.61917000","lon":"123.18139000"},{"name":"Naro","native":null,"lat":"11.89697000","lon":"123.67392000"},{"name":"Nato","native":null,"lat":"13.61050000","lon":"123.53560000"},{"name":"Ocampo","native":null,"lat":"13.55940000","lon":"123.37610000"},{"name":"Odicon","native":null,"lat":"13.53000000","lon":"123.05880000"},{"name":"Ogod","native":null,"lat":"12.90090000","lon":"123.61700000"},{"name":"Osiao","native":null,"lat":"13.09140000","lon":"123.98110000"},{"name":"Osmeña","native":null,"lat":"12.73150000","lon":"123.33180000"},{"name":"Padang","native":null,"lat":"13.21960000","lon":"123.76550000"},{"name":"Palali","native":null,"lat":"14.30622000","lon":"122.48571000"},{"name":"Palanas","native":null,"lat":"12.14580000","lon":"123.92160000"},{"name":"Palestina","native":null,"lat":"13.61170000","lon":"123.24900000"},{"name":"Palsong","native":null,"lat":"13.42480000","lon":"123.29630000"},{"name":"Pambuhan","native":null,"lat":"13.97360000","lon":"123.08370000"},{"name":"Pamplona","native":null,"lat":"13.59160000","lon":"123.08160000"},{"name":"Pandan","native":null,"lat":"14.04530000","lon":"124.16940000"},{"name":"Panganiban","native":null,"lat":"13.90033000","lon":"124.29816000"},{"name":"Panguiranan","native":null,"lat":"12.06986000","lon":"123.31851000"},{"name":"Paniqui","native":null,"lat":"12.45320000","lon":"123.38210000"},{"name":"Pantao","native":null,"lat":"13.19440000","lon":"123.32710000"},{"name":"Parabcan","native":null,"lat":"13.70880000","lon":"123.74500000"},{"name":"Paracale","native":null,"lat":"14.28040000","lon":"122.78810000"},{"name":"Pasacao","native":null,"lat":"13.51180000","lon":"123.04260000"},{"name":"Paulba","native":null,"lat":"13.71360000","lon":"123.24960000"},{"name":"Pawa","native":null,"lat":"13.17730000","lon":"123.73010000"},{"name":"Pawican","native":null,"lat":"12.07410000","lon":"123.97060000"},{"name":"Pawili","native":null,"lat":"13.51667000","lon":"123.28333000"},{"name":"Peña","native":null,"lat":"12.08900000","lon":"123.93840000"},{"name":"Pilar","native":null,"lat":"12.92310000","lon":"123.67240000"},{"name":"Pili","native":null,"lat":"12.98056000","lon":"123.86417000"},{"name":"Pinit","native":null,"lat":"13.56860000","lon":"123.41400000"},{"name":"Pio Duran","native":null,"lat":"13.02928000","lon":"123.44496000"},{"name":"Placer","native":null,"lat":"11.86870000","lon":"123.91840000"},{"name":"Polangui","native":null,"lat":"13.29230000","lon":"123.48550000"},{"name":"Ponso","native":null,"lat":"13.29100000","lon":"123.51710000"},{"name":"Potot","native":null,"lat":"12.20345000","lon":"123.43191000"},{"name":"Prieto Diaz","native":null,"lat":"13.04167000","lon":"124.19389000"},{"name":"Province of Albay","native":null,"lat":"13.21667000","lon":"123.55000000"},{"name":"Province of Camarines Norte","native":null,"lat":"14.16667000","lon":"122.75000000"},{"name":"Province of Camarines Sur","native":null,"lat":"13.66667000","lon":"123.33333000"},{"name":"Province of Catanduanes","native":null,"lat":"13.83333000","lon":"124.25000000"},{"name":"Province of Masbate","native":null,"lat":"12.16667000","lon":"123.58333000"},{"name":"Province of Sorsogon","native":null,"lat":"12.83333000","lon":"123.91667000"},{"name":"Puro","native":null,"lat":"12.48410000","lon":"123.38270000"},{"name":"Putiao","native":null,"lat":"13.01950000","lon":"123.71480000"},{"name":"Quezon","native":null,"lat":"12.60000000","lon":"123.95000000"},{"name":"Quitang","native":null,"lat":"13.55130000","lon":"123.05290000"},{"name":"Ragay","native":null,"lat":"13.81830000","lon":"122.79230000"},{"name":"Rapu-Rapu","native":null,"lat":"13.18660000","lon":"124.12560000"},{"name":"Recodo","native":null,"lat":"11.94914000","lon":"123.73695000"},{"name":"Rizal","native":null,"lat":"12.97722000","lon":"123.91417000"},{"name":"Sabang","native":null,"lat":"12.73333000","lon":"123.93333000"},{"name":"Sabang Indan","native":null,"lat":"14.21940000","lon":"122.91510000"},{"name":"Sagnay","native":null,"lat":"13.60290000","lon":"123.52250000"},{"name":"Sagpon","native":null,"lat":"13.15000000","lon":"123.73333000"},{"name":"Sagrada","native":null,"lat":"13.53010000","lon":"123.45270000"},{"name":"Sagrada Familia","native":null,"lat":"13.26900000","lon":"123.39770000"},{"name":"Sagurong","native":null,"lat":"13.78050000","lon":"122.95940000"},{"name":"Salingogan","native":null,"lat":"13.43330000","lon":"123.19230000"},{"name":"Salogon","native":null,"lat":"13.65860000","lon":"123.52250000"},{"name":"Salvacion","native":null,"lat":"13.06667000","lon":"123.61667000"},{"name":"San Agustin","native":null,"lat":"13.32630000","lon":"123.41770000"},{"name":"San Andres","native":null,"lat":"13.26140000","lon":"123.77950000"},{"name":"San Antonio","native":null,"lat":"13.37100000","lon":"123.42020000"},{"name":"San Felipe","native":null,"lat":"14.01840000","lon":"122.92950000"},{"name":"San Fernando","native":null,"lat":"13.56560000","lon":"123.14530000"},{"name":"San Francisco","native":null,"lat":"13.03670000","lon":"123.78320000"},{"name":"San Gabriel","native":null,"lat":"13.56667000","lon":"123.10000000"},{"name":"San Isidro","native":null,"lat":"12.97417000","lon":"123.85722000"},{"name":"San Jacinto","native":null,"lat":"12.56770000","lon":"123.73370000"},{"name":"San Jose","native":null,"lat":"13.35000000","lon":"123.55000000"},{"name":"San Lucas","native":null,"lat":"13.70620000","lon":"123.20320000"},{"name":"San Miguel","native":null,"lat":"13.41960000","lon":"123.40820000"},{"name":"San Pascual","native":null,"lat":"13.12888000","lon":"122.97709000"},{"name":"San Pedro","native":null,"lat":"12.01667000","lon":"124.00000000"},{"name":"San Rafael","native":null,"lat":"13.21667000","lon":"123.60000000"},{"name":"San Ramon","native":null,"lat":"13.72210000","lon":"123.54000000"},{"name":"San Roque","native":null,"lat":"13.28370000","lon":"123.74220000"},{"name":"San Sebastian","native":null,"lat":"13.72830000","lon":"123.59390000"},{"name":"San Vicente","native":null,"lat":"14.10610000","lon":"122.87330000"},{"name":"Santa Cruz","native":null,"lat":"12.87630000","lon":"124.05660000"},{"name":"Santa Elena","native":null,"lat":"14.17023000","lon":"122.38246000"},{"name":"Santa Justina","native":null,"lat":"13.39670000","lon":"123.47310000"},{"name":"Santa Magdalena","native":null,"lat":"12.64800000","lon":"124.10930000"},{"name":"Santa Rosa Sur","native":null,"lat":"14.25900000","lon":"122.72330000"},{"name":"Santa Teresita","native":null,"lat":"13.47860000","lon":"123.41910000"},{"name":"Santo Domingo","native":null,"lat":"13.42000000","lon":"123.44860000"},{"name":"Santo Niño","native":null,"lat":"13.10430000","lon":"123.96820000"},{"name":"Sinuknipan","native":null,"lat":"13.88940000","lon":"122.63750000"},{"name":"Sipocot","native":null,"lat":"13.76800000","lon":"122.97620000"},{"name":"Siruma","native":null,"lat":"14.00000000","lon":"123.25000000"},{"name":"Sogod","native":null,"lat":"13.83333000","lon":"123.31667000"},{"name":"Sorsogon","native":null,"lat":"12.97389000","lon":"123.99333000"},{"name":"Sugcad","native":null,"lat":"13.36667000","lon":"123.70000000"},{"name":"Sugod","native":null,"lat":"12.98700000","lon":"124.08050000"},{"name":"Tabaco","native":null,"lat":"13.35861000","lon":"123.73361000"},{"name":"Tagas","native":null,"lat":"13.16667000","lon":"123.71667000"},{"name":"Tagoytoy","native":null,"lat":"13.41580000","lon":"123.67800000"},{"name":"Talisay","native":null,"lat":"14.13430000","lon":"122.92260000"},{"name":"Talubatib","native":null,"lat":"14.18250000","lon":"122.78530000"},{"name":"Tambo","native":null,"lat":"13.54680000","lon":"123.03580000"},{"name":"Tara","native":null,"lat":"13.81667000","lon":"122.98333000"},{"name":"Tariric","native":null,"lat":"13.57230000","lon":"123.22350000"},{"name":"Tigaon","native":null,"lat":"13.63310000","lon":"123.49680000"},{"name":"Tigbao","native":null,"lat":"12.55460000","lon":"123.33890000"},{"name":"Tigbaw","native":null,"lat":"12.14830000","lon":"123.59090000"},{"name":"Tigbinan","native":null,"lat":"14.18648000","lon":"122.46923000"},{"name":"Tinago","native":null,"lat":"13.18333000","lon":"123.65000000"},{"name":"Tinalmud","native":null,"lat":"13.59410000","lon":"122.87800000"},{"name":"Tinambac","native":null,"lat":"13.81640000","lon":"123.32610000"},{"name":"Tinampo","native":null,"lat":"13.22825000","lon":"123.50723000"},{"name":"Tinawagan","native":null,"lat":"13.65000000","lon":"123.48333000"},{"name":"Tiwi","native":null,"lat":"13.45850000","lon":"123.68050000"},{"name":"Tubli","native":null,"lat":"13.93180000","lon":"124.14780000"},{"name":"Tuburan","native":null,"lat":"13.24170000","lon":"123.55203000"},{"name":"Tugos","native":null,"lat":"14.26667000","lon":"122.75000000"},{"name":"Tulay na Lupa","native":null,"lat":"14.09340000","lon":"122.78620000"},{"name":"Tumalaytay","native":null,"lat":"12.27584000","lon":"123.23201000"},{"name":"Umabay","native":null,"lat":"12.30954000","lon":"123.67961000"},{"name":"Usab","native":null,"lat":"12.32974000","lon":"123.58091000"},{"name":"Uson","native":null,"lat":"12.22530000","lon":"123.78340000"},{"name":"Utabi","native":null,"lat":"12.64170000","lon":"123.90920000"},{"name":"Viga","native":null,"lat":"13.87190000","lon":"124.30910000"},{"name":"Villahermosa","native":null,"lat":"13.04580000","lon":"123.71330000"},{"name":"Vinzons","native":null,"lat":"14.17370000","lon":"122.90660000"},{"name":"Virac","native":null,"lat":"13.58480000","lon":"124.23740000"}]},{"name":"Antique","native":null,"cities":[{"name":"Abaca","native":null,"lat":"11.13420000","lon":"122.71560000"},{"name":"Abangay","native":null,"lat":"10.96667000","lon":"122.65000000"},{"name":"Abiera","native":null,"lat":"11.57490000","lon":"122.09000000"},{"name":"Abilay","native":null,"lat":"10.73333000","lon":"122.50000000"},{"name":"Ag-ambulong","native":null,"lat":"11.36840000","lon":"122.50940000"},{"name":"Aganan","native":null,"lat":"10.78333000","lon":"122.53333000"},{"name":"Aglalana","native":null,"lat":"11.18030000","lon":"122.65740000"},{"name":"Agpangi","native":null,"lat":"10.57716000","lon":"123.42320000"},{"name":"Aguisan","native":null,"lat":"10.16030000","lon":"122.86150000"},{"name":"Ajuy","native":null,"lat":"11.17240000","lon":"123.01970000"},{"name":"Alacaygan","native":null,"lat":"10.84014000","lon":"123.05830000"},{"name":"Alegria","native":null,"lat":"10.64345000","lon":"123.08360000"},{"name":"Alibunan","native":null,"lat":"11.14652000","lon":"122.45911000"},{"name":"Alicante","native":null,"lat":"10.89704000","lon":"123.01850000"},{"name":"Alijis","native":null,"lat":"10.45830000","lon":"122.83480000"},{"name":"Alim","native":null,"lat":"9.56490000","lon":"122.48760000"},{"name":"Alimodian","native":null,"lat":"10.82139000","lon":"122.43111000"},{"name":"Alimono","native":null,"lat":"11.18550000","lon":"122.71290000"},{"name":"Altavas","native":null,"lat":"11.53800000","lon":"122.48700000"},{"name":"Ambulong","native":null,"lat":"11.57930000","lon":"122.49870000"},{"name":"Andres Bonifacio","native":null,"lat":"10.91667000","lon":"123.25000000"},{"name":"Anini-y","native":null,"lat":"10.43120000","lon":"121.92700000"},{"name":"Anoring","native":null,"lat":"11.25000000","lon":"123.03333000"},{"name":"Antipolo","native":null,"lat":"10.35650000","lon":"122.96460000"},{"name":"Aquino","native":null,"lat":"11.82210000","lon":"122.10880000"},{"name":"Araal","native":null,"lat":"10.41950000","lon":"123.04370000"},