[{"state":"Abra","name":"Adams","lat":"18.46141944","lon":"120.90210278"},
{"state":"Abra","name":"Agno","lat":"16.11608611","lon":"119.80268333"},
{"state":"Abra","name":"Agoo","lat":"16.32196111","lon":"120.36467500"},
{"state":"Abra","name":"Aguilar","lat":"15.88988611","lon":"120.23785278"},
{"state":"Abra","name":"Alac","lat":"15.98777778","lon":"120.80638889"},
{"state":"Abra","name":"Alaminos","lat":"16.15531389","lon":"119.98076944"},
{"state":"Abra","name":"Alcala","lat":"15.84679444","lon":"120.52182222"},
{"state":"Abra","name":"Alilem","lat":"16.88688333","lon":"120.53100833"},
{"state":"Abra","name":"Allangigan Primero","lat":"17.17388889","lon":"120.49194444"},
{"state":"Abra","name":"Aloleng","lat":"16.13083333","lon":"119.78250000"},
{"state":"Abra","name":"Amagbagan","lat":"16.09138889","lon":"120.52333333"},
{"state":"Abra","name":"Anambongan","lat":"15.86638889","lon":"120.38861111"},
{"state":"Abra","name":"Anda","lat":"16.28961389","lon":"119.94910000"},
{"state":"Abra","name":"Angatel","lat":"15.80583333","lon":"120.34333333"},
{"state":"Abra","name":"Anulid","lat":"15.82555556","lon":"120.48833333"},
{"state":"Abra","name":"Aringay","lat":"16.40000000","lon":"120.40000000"},
{"state":"Abra","name":"Asingan","lat":"16.00510000","lon":"120.66950000"},
{"state":"Abra","name":"Baay","lat":"18.11888889","lon":"120.57527778"},
{"state":"Abra","name":"Bacag","lat":"15.93000000","lon":"120.58222222"},
{"state":"Abra","name":"Bacarra","lat":"18.25290000","lon":"120.61250000"},
{"state":"Abra","name":"Bacnar","lat":"15.88638889","lon":"120.34416667"},
{"state":"Abra","name":"Bacnotan","lat":"16.73333000","lon":"120.38333000"},
{"state":"Abra","name":"Bactad Proper","lat":"15.97833333","lon":"120.61027778"},
{"state":"Abra","name":"Bacundao Weste","lat":"15.91527778","lon":"120.47666667"},
{"state":"Abra","name":"Badoc","lat":"17.92650000","lon":"120.47640000"},
{"state":"Abra","name":"Bagulin","lat":"16.61667000","lon":"120.48333000"},
{"state":"Abra","name":"Bail","lat":"16.28666667","lon":"120.40027778"},
{"state":"Abra","name":"Balaoan","lat":"16.81666667","lon":"120.40000000"},
{"state":"Abra","name":"Balingasay","lat":"16.35722222","lon":"119.85638889"},
{"state":"Abra","name":"Balingueo","lat":"15.95833333","lon":"120.40972222"},
{"state":"Abra","name":"Balogo","lat":"15.99027778","lon":"120.28305556"},
{"state":"Abra","name":"Balungao","lat":"15.90000000","lon":"120.70000000"},
{"state":"Abra","name":"Baluyot","lat":"15.79583333","lon":"120.46083333"},
{"state":"Abra","name":"Banayoyo","lat":"17.23333333","lon":"120.48333333"},
{"state":"Abra","name":"Bangan-Oda","lat":"16.10861111","lon":"119.83083333"},
{"state":"Abra","name":"Bangar","lat":"16.88333000","lon":"120.43333000"},
{"state":"Abra","name":"Bangui","lat":"18.53333333","lon":"120.76666667"},
{"state":"Abra","name":"Bani","lat":"16.18694400","lon":"119.85916700"},
{"state":"Abra","name":"Banna","lat":"17.98333333","lon":"120.65000000"},
{"state":"Abra","name":"Banog Sur","lat":"16.16555556","lon":"119.89805556"},
{"state":"Abra","name":"Bantay","lat":"17.58333333","lon":"120.38333333"},
{"state":"Abra","name":"Bantog","lat":"16.00916667","lon":"120.69277778"},
{"state":"Abra","name":"Barangobong","lat":"15.87777778","lon":"120.54833333"},
{"state":"Abra","name":"Baro","lat":"15.99888889","lon":"120.67361111"},
{"state":"Abra","name":"Barong","lat":"18.05750000","lon":"120.73388889"},
{"state":"Abra","name":"Basing","lat":"15.98500000","lon":"120.26833333"},
{"state":"Abra","name":"Basista","lat":"15.85240000","lon":"120.39760000"},
{"state":"Abra","name":"Batac","lat":"18.05540000","lon":"120.56489000"},
{"state":"Abra","name":"Bataquil","lat":"16.15527778","lon":"120.52750000"},
{"state":"Abra","name":"Bauang","lat":"16.53333333","lon":"120.33333333"},
{"state":"Abra","name":"Bautista","lat":"15.78333333","lon":"120.50000000"},
{"state":"Abra","name":"Bayambang","lat":"15.71666700","lon":"120.35000000"},
{"state":"Abra","name":"Bayaoas","lat":"15.83416667","lon":"120.26472222"},
{"state":"Abra","name":"Bical Norte","lat":"15.81472222","lon":"120.43500000"},
{"state":"Abra","name":"Bil-Loca","lat":"18.08750000","lon":"120.56861111"},
{"state":"Abra","name":"Binabalian","lat":"16.42027778","lon":"119.92777778"},
{"state":"Abra","name":"Binalonan","lat":"16.05000000","lon":"120.60000000"},
{"state":"Abra","name":"Binday","lat":"16.12805556","lon":"120.45250000"},
{"state":"Abra","name":"Binmaley","lat":"16.03232000","lon":"120.26904000"},
{"state":"Abra","name":"Bobonan","lat":"16.13472222","lon":"120.52722222"},
{"state":"Abra","name":"Bogtong","lat":"15.75527778","lon":"120.32888889"},
{"state":"Abra","name":"Bolaoit","lat":"15.93222222","lon":"120.43083333"},
{"state":"Abra","name":"Bolinao","lat":"16.33333333","lon":"119.88333333"},
{"state":"Abra","name":"Bolingit","lat":"15.95861111","lon":"120.34972222"},
{"state":"Abra","name":"Bolo","lat":"15.99472222","lon":"120.16472222"},
{"state":"Abra","name":"Boñgalon","lat":"16.00027778","lon":"120.15916667"},
{"state":"Abra","name":"Botao","lat":"15.91666667","lon":"120.41666667"},
{"state":"Abra","name":"Bued","lat":"16.16083333","lon":"119.99888889"},
{"state":"Abra","name":"Buenlag","lat":"15.82972222","lon":"120.51138889"},
{"state":"Abra","name":"Bugallon","lat":"15.91666667","lon":"120.18333333"},
{"state":"Abra","name":"Bulog","lat":"15.96027778","lon":"120.40166667"},
{"state":"Abra","name":"Burgos","lat":"16.04647200","lon":"119.85677800"},
{"state":"Abra","name":"Butubut Norte","lat":"16.80333333","lon":"120.43444444"},
{"state":"Abra","name":"Caabiangan","lat":"16.08750000","lon":"119.92444444"},
{"state":"Abra","name":"Caba","lat":"16.43160000","lon":"120.34460000"},
{"state":"Abra","name":"Cabalaoangan","lat":"15.98333333","lon":"120.78333333"},
{"state":"Abra","name":"Cabalitian","lat":"16.08833333","lon":"120.79222222"},
{"state":"Abra","name":"Cabittaogan","lat":"17.57777778","lon":"120.35916667"},
{"state":"Abra","name":"Cabugao","lat":"17.80000000","lon":"120.45000000"},
{"state":"Abra","name":"Cabungan","lat":"16.34000000","lon":"119.99500000"},
{"state":"Abra","name":"Calasiao","lat":"16.01666667","lon":"120.36666667"},
{"state":"Abra","name":"Calepaan","lat":"16.01944444","lon":"120.61888889"},
{"state":"Abra","name":"Callaguip","lat":"18.07138889","lon":"120.48666667"},
{"state":"Abra","name":"Calomboyan","lat":"15.94638889","lon":"120.30361111"},
{"state":"Abra","name":"Calongbuyan","lat":"17.16472222","lon":"120.42722222"},
{"state":"Abra","name":"Calsib","lat":"15.84722222","lon":"120.26416667"},
{"state":"Abra","name":"Camaley","lat":"15.99722222","lon":"120.30111111"},
{"state":"Abra","name":"Canan Norte","lat":"15.90972222","lon":"120.47750000"},
{"state":"Abra","name":"Canaoalan","lat":"16.02888889","lon":"120.29638889"},
{"state":"Abra","name":"Candon","lat":"17.20000000","lon":"120.45000000"},
{"state":"Abra","name":"Cantoria","lat":"16.84416667","lon":"120.40444444"},
{"state":"Abra","name":"Caoayan","lat":"17.53333333","lon":"120.40000000"},
{"state":"Abra","name":"Capandanan","lat":"15.95944444","lon":"120.69527778"},
{"state":"Abra","name":"Capulaan","lat":"15.90500000","lon":"120.53722222"},
{"state":"Abra","name":"Caramutan","lat":"15.92083333","lon":"120.61000000"},
{"state":"Abra","name":"Carasi","lat":"18.20000000","lon":"120.86666667"},
{"state":"Abra","name":"Carmen","lat":"15.88638889","lon":"120.59972222"},
{"state":"Abra","name":"Caronoan West","lat":"16.26333333","lon":"120.44638889"},
{"state":"Abra","name":"Carot","lat":"16.34472222","lon":"119.98000000"},
{"state":"Abra","name":"Carriedo","lat":"16.03111111","lon":"120.75500000"},
{"state":"Abra","name":"Carusucan","lat":"15.96583333","lon":"120.63611111"},
{"state":"Abra","name":"Caterman","lat":"17.21750000","lon":"120.42444444"},
{"state":"Abra","name":"Cato","lat":"15.83611111","lon":"119.91500000"},
{"state":"Abra","name":"Catuday","lat":"16.29222222","lon":"119.80611111"},
{"state":"Abra","name":"Cayanga","lat":"16.11500000","lon":"120.39888889"},
{"state":"Abra","name":"Cayungnan","lat":"16.13333333","lon":"119.83750000"},
{"state":"Abra","name":"Cervantes","lat":"16.99166667","lon":"120.73333333"},
{"state":"Abra","name":"City of Batac","lat":"18.03730000","lon":"120.58175000"},
{"state":"Abra","name":"City of Candon","lat":"17.20000000","lon":"120.45000000"},
{"state":"Abra","name":"City of Urdaneta","lat":"15.97944000","lon":"120.59101000"},
{"state":"Abra","name":"City of Vigan","lat":"17.56275000","lon":"120.39071000"},
{"state":"Abra","name":"Comillas Norte","lat":"16.95888889","lon":"120.74694444"},
{"state":"Abra","name":"Corrooy","lat":"16.79611111","lon":"120.44527778"},
{"state":"Abra","name":"Currimao","lat":"18.01666667","lon":"120.48333333"},
{"state":"Abra","name":"Dagup","lat":"16.63722222","lon":"120.44555556"},
{"state":"Abra","name":"Dagupan","lat":"16.04313000","lon":"120.33325000"},
{"state":"Abra","name":"Damortis","lat":"16.24055556","lon":"120.40555556"},
{"state":"Abra","name":"Darapidap","lat":"17.20000000","lon":"120.41805556"},
{"state":"Abra","name":"Dasol","lat":"15.98963900","lon":"119.88052800"},
{"state":"Abra","name":"Davila","lat":"18.47250000","lon":"120.57638889"},
{"state":"Abra","name":"Diaz","lat":"15.84638889","lon":"120.83472222"},
{"state":"Abra","name":"Dilan","lat":"16.08777778","lon":"120.52083333"},
{"state":"Abra","name":"Dingras","lat":"18.10320000","lon":"120.69670000"},
{"state":"Abra","name":"Domalanoan","lat":"16.00305556","lon":"120.21166667"},
{"state":"Abra","name":"Domampot","lat":"16.00000000","lon":"120.65000000"},
{"state":"Abra","name":"Don Pedro","lat":"15.88527778","lon":"120.43027778"},
{"state":"Abra","name":"Dorongan Punta","lat":"15.81472222","lon":"120.32277778"},
{"state":"Abra","name":"Doyong","lat":"15.97222222","lon":"120.35388889"},
{"state":"Abra","name":"Dulig","lat":"16.00222222","lon":"120.16861111"},
{"state":"Abra","name":"Dumalneg","lat":"18.50000000","lon":"120.81666667"},
{"state":"Abra","name":"Dumpay","lat":"15.88305556","lon":"120.38888889"},
{"state":"Abra","name":"Eguia","lat":"15.90638889","lon":"119.88583333"},
{"state":"Abra","name":"Esmeralda","lat":"15.86722222","lon":"120.71500000"},
{"state":"Abra","name":"Fuerte","lat":"17.53416667","lon":"120.36944444"},
{"state":"Abra","name":"Galimuyod","lat":"17.18333333","lon":"120.46666667"},
{"state":"Abra","name":"Gayaman","lat":"16.01388889","lon":"120.30750000"},
{"state":"Abra","name":"Gregorio del Pilar","lat":"17.13333333","lon":"120.61666667"},
{"state":"Abra","name":"Guiling","lat":"15.84305556","lon":"120.61500000"},
{"state":"Abra","name":"Guiset East","lat":"16.06666667","lon":"120.68333333"},
{"state":"Abra","name":"Hacienda","lat":"15.93611111","lon":"120.17861111"},
{"state":"Abra","name":"Halog West","lat":"16.36666667","lon":"120.41472222"},
{"state":"Abra","name":"Ilioilio","lat":"15.96166667","lon":"119.76583333"},
{"state":"Abra","name":"Inabaan Sur","lat":"16.26305556","lon":"120.47805556"},
{"state":"Abra","name":"Infanta","lat":"15.82638889","lon":"119.90777778"},
{"state":"Abra","name":"Isla","lat":"15.89500000","lon":"120.30138889"},
{"state":"Abra","name":"Labayug","lat":"16.15277778","lon":"120.56611111"},
{"state":"Abra","name":"Labney","lat":"16.10277778","lon":"120.46555556"},
{"state":"Abra","name":"Labrador","lat":"16.03388900","lon":"120.13916700"},
{"state":"Abra","name":"Lagasit","lat":"15.99333333","lon":"120.79388889"},
{"state":"Abra","name":"Laguit Centro","lat":"15.94722222","lon":"120.19027778"},
{"state":"Abra","name":"Laoac","lat":"16.03333300","lon":"120.55000000"},
{"state":"Abra","name":"Laoag","lat":"18.20000000","lon":"120.60000000"},
{"state":"Abra","name":"Leones East","lat":"16.36333333","lon":"120.39194444"},
{"state":"Abra","name":"Lepa","lat":"15.88444444","lon":"120.45083333"},
{"state":"Abra","name":"Libas","lat":"15.87777778","lon":"120.31638889"},
{"state":"Abra","name":"Lidlidda","lat":"17.26666667","lon":"120.51666667"},
{"state":"Abra","name":"Lingayen","lat":"16.01666700","lon":"120.23333300"},
{"state":"Abra","name":"Linmansangan","lat":"15.82972222","lon":"120.29583333"},
{"state":"Abra","name":"Lloren","lat":"16.33305556","lon":"120.43277778"},
{"state":"Abra","name":"Lobong","lat":"16.08138889","lon":"120.47027778"},
{"state":"Abra","name":"Longos","lat":"16.10722222","lon":"120.39666667"},
{"state":"Abra","name":"Loqueb Este","lat":"15.94472222","lon":"120.44611111"},
{"state":"Abra","name":"Lucap","lat":"16.19027778","lon":"120.00222222"},
{"state":"Abra","name":"Lucero","lat":"16.40500000","lon":"119.91250000"},
{"state":"Abra","name":"Luna","lat":"16.85000000","lon":"120.38333333"},
{"state":"Abra","name":"Lunec","lat":"15.95388889","lon":"120.48944444"},
{"state":"Abra","name":"Lungog","lat":"17.46444444","lon":"120.47833333"},
{"state":"Abra","name":"Lusong","lat":"16.86694444","lon":"120.44194444"},
{"state":"Abra","name":"Mabilao","lat":"16.15361111","lon":"120.42500000"},
{"state":"Abra","name":"Mabilbila Sur","lat":"17.50722222","lon":"120.44111111"},
{"state":"Abra","name":"Mabini","lat":"16.06972200","lon":"119.94000000"},
{"state":"Abra","name":"Mabusag","lat":"17.92611111","lon":"120.49750000"},
{"state":"Abra","name":"Macabuboni","lat":"16.19083333","lon":"119.78027778"},
{"state":"Abra","name":"Macalong","lat":"16.01361111","lon":"120.65861111"},
{"state":"Abra","name":"Macalva Norte","lat":"16.34861111","lon":"120.38666667"},
{"state":"Abra","name":"Macayug","lat":"16.09388889","lon":"120.43194444"},
{"state":"Abra","name":"Magallanes","lat":"16.01972222","lon":"120.73888889"},
{"state":"Abra","name":"Magsingal","lat":"17.68500000","lon":"120.42444000"},
{"state":"Abra","name":"Magtaking","lat":"15.98527778","lon":"120.18333333"},
{"state":"Abra","name":"Malabago","lat":"15.98166667","lon":"120.35916667"},
{"state":"Abra","name":"Malanay","lat":"16.00861111","lon":"120.40944444"},
{"state":"Abra","name":"Malasiqui","lat":"15.91666667","lon":"120.41666667"},
{"state":"Abra","name":"Malawa","lat":"15.95805556","lon":"120.27777778"},
{"state":"Abra","name":"Malibong East","lat":"15.84666667","lon":"120.32694444"},
{"state":"Abra","name":"Manaoag","lat":"16.04388900","lon":"120.48555600"},
{"state":"Abra","name":"Mangaldan","lat":"16.07000000","lon":"120.40250000"},
{"state":"Abra","name":"Mangatarem","lat":"15.73333000","lon":"120.26667000"},
{"state":"Abra","name":"Mapandan","lat":"16.01666700","lon":"120.45000000"},
{"state":"Abra","name":"Mapolopolo","lat":"15.88083333","lon":"120.37416667"},
{"state":"Abra","name":"Marcos","lat":"18.05000000","lon":"120.68333333"},
{"state":"Abra","name":"Maticmatic","lat":"15.98638889","lon":"120.45194444"},
{"state":"Abra","name":"Minien East","lat":"15.97722222","lon":"120.48138889"},
{"state":"Abra","name":"Nagbacalan","lat":"18.11583333","lon":"120.52361111"},
{"state":"Abra","name":"Nagbukel","lat":"17.45000000","lon":"120.55000000"},
{"state":"Abra","name":"Nagsaing","lat":"15.98055556","lon":"120.33777778"},
{"state":"Abra","name":"Naguelguel","lat":"16.00583333","lon":"120.26361111"},
{"state":"Abra","name":"Naguilayan","lat":"16.00305556","lon":"120.29111111"},
{"state":"Abra","name":"Naguilian","lat":"16.53333333","lon":"120.40000000"},
{"state":"Abra","name":"Nalsian Norte","lat":"15.84472222","lon":"120.45083333"},
{"state":"Abra","name":"Nama","lat":"16.14111111","lon":"120.54250000"},
{"state":"Abra","name":"Namboongan","lat":"16.30333333","lon":"120.37583333"},
{"state":"Abra","name":"Nancalobasaan","lat":"15.93416667","lon":"120.84250000"},
{"state":"Abra","name":"Narvacan","lat":"17.41750000","lon":"120.47530000"},
{"state":"Abra","name":"Natividad","lat":"16.05000000","lon":"120.81666667"},
{"state":"Abra","name":"Navatat","lat":"15.84972222","lon":"120.39055556"},
{"state":"Abra","name":"Nibaliw Central","lat":"16.12750000","lon":"120.40277778"},
{"state":"Abra","name":"Nilombot","lat":"16.03055556","lon":"120.43694444"},
{"state":"Abra","name":"Ninoy","lat":"15.85972222","lon":"120.24777778"},
{"state":"Abra","name":"Nueva Era","lat":"17.91666667","lon":"120.66666667"},
{"state":"Abra","name":"Oaqui","lat":"16.85833333","lon":"120.41250000"},
{"state":"Abra","name":"Olea","lat":"15.86250000","lon":"120.49361111"},
{"state":"Abra","name":"Padong","lat":"18.05444444","lon":"120.75416667"},
{"state":"Abra","name":"Pagsanahan Norte","lat":"17.91916667","lon":"120.44583333"},
{"state":"Abra","name":"Pagudpud","lat":"18.55833300","lon":"120.78472200"},
{"state":"Abra","name":"Paitan Este","lat":"16.08527778","lon":"120.03166667"},
{"state":"Abra","name":"Palacpalac","lat":"16.13111111","lon":"120.53055556"},
{"state":"Abra","name":"Palguyod","lat":"16.12277778","lon":"120.52000000"},
{"state":"Abra","name":"Panganiban","lat":"16.00750000","lon":"120.77527778"},
{"state":"Abra","name":"Pangapisan","lat":"16.21611111","lon":"119.95694444"},
{"state":"Abra","name":"Pangascasan","lat":"16.11694444","lon":"120.08666667"},
{"state":"Abra","name":"Pangpang","lat":"15.93888889","lon":"120.30944444"},
{"state":"Abra","name":"Paoay","lat":"18.05527800","lon":"120.51611100"},
{"state":"Abra","name":"Paringao","lat":"16.57166667","lon":"120.32416667"},
{"state":"Abra","name":"Parioc Segundo","lat":"17.17500000","lon":"120.46583333"},
{"state":"Abra","name":"Pasibi West","lat":"15.85861111","lon":"120.37944444"},
{"state":"Abra","name":"Pasuquin","lat":"18.33333333","lon":"120.61666667"},
{"state":"Abra","name":"Patayac","lat":"15.96305556","lon":"120.42250000"},
{"state":"Abra","name":"Patpata Segundo","lat":"17.18333333","lon":"120.43333333"},
{"state":"Abra","name":"Payocpoc Sur","lat":"16.49444444","lon":"120.32805556"},
{"state":"Abra","name":"Piddig","lat":"18.16666667","lon":"120.73333333"},
{"state":"Abra","name":"Pindangan Centro","lat":"15.86055556","lon":"120.55138889"},
{"state":"Abra","name":"Pinili","lat":"17.95400000","lon":"120.52700000"},
{"state":"Abra","name":"Pogonsili","lat":"15.82055556","lon":"120.26027778"},
{"state":"Abra","name":"Polo","lat":"16.19638889","lon":"119.94916667"},
{"state":"Abra","name":"Polong","lat":"15.97722222","lon":"120.20083333"},
{"state":"Abra","name":"Polong Norte","lat":"15.90305556","lon":"120.42138889"},
{"state":"Abra","name":"Pozorrubio","lat":"16.11666667","lon":"120.55000000"},
{"state":"Abra","name":"Pudoc","lat":"16.92138889","lon":"120.42361111"},
{"state":"Abra","name":"Pudoc North","lat":"17.60972222","lon":"120.36861111"},
{"state":"Abra","name":"Puelay","lat":"15.88694444","lon":"120.57361111"},
{"state":"Abra","name":"Pugo","lat":"16.28333333","lon":"120.48333333"},
{"state":"Abra","name":"Puro Pinget","lat":"17.67972222","lon":"120.35888889"},
{"state":"Abra","name":"Quiling","lat":"18.06833333","lon":"120.54388889"},
{"state":"Abra","name":"Quinarayan","lat":"17.44416667","lon":"120.47222222"},
{"state":"Abra","name":"Quintong","lat":"15.95583333","lon":"120.32166667"},
{"state":"Abra","name":"Quirino","lat":"17.15000000","lon":"120.66666667"},
{"state":"Abra","name":"Ranao","lat":"16.20750000","lon":"119.81555556"},
{"state":"Abra","name":"Real","lat":"15.80888889","lon":"120.34555556"},
{"state":"Abra","name":"Rimus","lat":"16.87638889","lon":"120.39666667"},
{"state":"Abra","name":"Rissing","lat":"16.87527778","lon":"120.43444444"},
{"state":"Abra","name":"Rosales","lat":"15.89444400","lon":"120.63277800"},
{"state":"Abra","name":"Rosario","lat":"16.23040000","lon":"120.48630000"},
{"state":"Abra","name":"Sablig","lat":"16.26888889","lon":"119.98777778"},
{"state":"Abra","name":"Sagud-Bahley","lat":"16.11694444","lon":"120.39111111"},
{"state":"Abra","name":"Sagunto","lat":"16.20083333","lon":"120.51500000"},
{"state":"Abra","name":"Salcedo","lat":"17.15000000","lon":"120.53333333"},
{"state":"Abra","name":"Samon","lat":"15.93500000","lon":"120.65083333"},
{"state":"Abra","name":"San Carlos","lat":"15.92805600","lon":"120.34888900"},
{"state":"Abra","name":"San Emilio","lat":"17.23333333","lon":"120.61666667"},
{"state":"Abra","name":"San Esteban","lat":"17.33333333","lon":"120.45000000"},
{"state":"Abra","name":"San Eugenio","lat":"16.35972222","lon":"120.35694444"},
{"state":"Abra","name":"San Fabian","lat":"16.15000000","lon":"120.45000000"},
{"state":"Abra","name":"San Fernando","lat":"16.61666667","lon":"120.31666667"},
{"state":"Abra","name":"San Fernando Poblacion","lat":"16.61591000","lon":"120.31663000"},
{"state":"Abra","name":"San Gabriel","lat":"16.67556000","lon":"120.40306000"},
{"state":"Abra","name":"San Gabriel First","lat":"15.76638889","lon":"120.45666667"},
{"state":"Abra","name":"San Ildefonso","lat":"17.61666667","lon":"120.40000000"},
{"state":"Abra","name":"San Jacinto","lat":"16.07250000","lon":"120.44111100"},
{"state":"Abra","name":"San Juan","lat":"16.66861000","lon":"120.34139000"},
{"state":"Abra","name":"San Lorenzo","lat":"18.13222222","lon":"120.63055556"},
{"state":"Abra","name":"San Manuel","lat":"16.06555600","lon":"120.66666700"},
{"state":"Abra","name":"San Nicolas","lat":"18.17250000","lon":"120.59583300"},
{"state":"Abra","name":"San Pedro Apartado","lat":"15.83694444","lon":"120.56527778"},
{"state":"Abra","name":"San Quintin","lat":"15.98444400","lon":"120.81500000"},
{"state":"Abra","name":"San Sebastian","lat":"17.62333333","lon":"120.36361111"},
{"state":"Abra","name":"San Vicente","lat":"17.59166667","lon":"120.37500000"},
{"state":"Abra","name":"Sanlibo","lat":"15.91666667","lon":"120.55000000"},
{"state":"Abra","name":"Santa","lat":"17.49166667","lon":"120.43333333"},
{"state":"Abra","name":"Santa Barbara","lat":"16.00305600","lon":"120.40083300"},
{"state":"Abra","name":"Santa Catalina","lat":"17.58333333","lon":"120.35833333"},
{"state":"Abra","name":"Santa Cruz","lat":"17.08333333","lon":"120.45000000"},
{"state":"Abra","name":"Santa Lucia","lat":"17.11666667","lon":"120.45000000"},
{"state":"Abra","name":"Santa Maria","lat":"15.98083300","lon":"120.70027800"},
{"state":"Abra","name":"Santiago","lat":"17.30000000","lon":"120.45000000"},
{"state":"Abra","name":"Santo Domingo","lat":"17.63333333","lon":"120.40833333"},
{"state":"Abra","name":"Santo Tomas","lat":"16.27980000","lon":"120.37920000"},
{"state":"Abra","name":"Santol","lat":"16.76666667","lon":"120.45000000"},
{"state":"Abra","name":"Sarrat","lat":"18.16222200","lon":"120.64777800"},
{"state":"Abra","name":"Sigay","lat":"17.03333333","lon":"120.58333333"},
{"state":"Abra","name":"Sinait","lat":"17.86666667","lon":"120.45833333"},
{"state":"Abra","name":"Sison","lat":"16.17389000","lon":"120.51528000"},
{"state":"Abra","name":"Solsona","lat":"18.10000000","lon":"120.76666667"},
{"state":"Abra","name":"Sonquil","lat":"15.98805556","lon":"120.39055556"},
{"state":"Abra","name":"Sual","lat":"16.06666667","lon":"120.10000000"},
{"state":"Abra","name":"Subusub","lat":"16.22694444","lon":"120.49500000"},
{"state":"Abra","name":"Sudipen","lat":"16.90000000","lon":"120.46666667"},
{"state":"Abra","name":"Sugpon","lat":"16.85000000","lon":"120.51666667"},
{"state":"Abra","name":"Sumabnit","lat":"16.03027778","lon":"120.58333333"},
{"state":"Abra","name":"Suso","lat":"17.35944444","lon":"120.46111111"},
{"state":"Abra","name":"Suyo","lat":"16.96666667","lon":"120.55000000"},
{"state":"Abra","name":"Tablac","lat":"17.21555556","lon":"120.45416667"},
{"state":"Abra","name":"Tabug","lat":"18.03416667","lon":"120.54888889"},
{"state":"Abra","name":"Tagudin","lat":"16.93333333","lon":"120.45000000"},
{"state":"Abra","name":"Talospatang","lat":"15.91694444","lon":"120.44138889"},
{"state":"Abra","name":"Taloy","lat":"15.92416667","lon":"120.39638889"},
{"state":"Abra","name":"Tamayo","lat":"15.87750000","lon":"120.28444444"},
{"state":"Abra","name":"Tamorong","lat":"17.33333333","lon":"120.43333333"},
{"state":"Abra","name":"Tandoc","lat":"15.95916667","lon":"120.32916667"},
{"state":"Abra","name":"Tanolong","lat":"15.80416667","lon":"120.41416667"},
{"state":"Abra","name":"Tayug","lat":"16.02666700","lon":"120.74777800"},
{"state":"Abra","name":"Tebag East","lat":"15.98111111","lon":"120.46750000"},
{"state":"Abra","name":"Telbang","lat":"16.17250000","lon":"120.06083333"},
{"state":"Abra","name":"Tiep","lat":"16.23833333","lon":"119.86083333"},
{"state":"Abra","name":"Toboy","lat":"16.02722222","lon":"120.63694444"},
{"state":"Abra","name":"Tobuan","lat":"16.05555556","lon":"120.11027778"},
{"state":"Abra","name":"Tococ East","lat":"15.82500000","lon":"120.42611111"},
{"state":"Abra","name":"Tocok","lat":"15.75000000","lon":"120.30000000"},
{"state":"Abra","name":"Tombod","lat":"15.93166667","lon":"120.56722222"},
{"state":"Abra","name":"Tondol","lat":"16.31027778","lon":"120.01305556"},
{"state":"Abra","name":"Toritori","lat":"16.23833333","lon":"119.99555556"},
{"state":"Abra","name":"Tubao","lat":"16.35000000","lon":"120.41666667"},
{"state":"Abra","name":"Umanday Centro","lat":"15.93805556","lon":"120.21527778"},
{"state":"Abra","name":"Umingan","lat":"15.90000000","lon":"120.80000000"},
{"state":"Abra","name":"Unzad","lat":"15.91888889","lon":"120.53916667"},
{"state":"Abra","name":"Urbiztondo","lat":"15.82270000","lon":"120.32950000"},
{"state":"Abra","name":"Urdaneta","lat":"15.97611111","lon":"120.57111111"},
{"state":"Abra","name":"Uyong","lat":"16.05000000","lon":"120.12083333"},
{"state":"Abra","name":"Vigan","lat":"17.57472000","lon":"120.38694000"},
{"state":"Abra","name":"Villasis","lat":"15.90000000","lon":"120.58333333"},
{"state":"Abra","name":"Vintar","lat":"18.22500000","lon":"120.65000000"},
{"state":"Abra","name":"Zaragoza","lat":"16.38722222","lon":"119.94416667"},
{"state":"Agusan del Norte","name":"Abut","lat":"17.35416667","lon":"121.60138889"},
{"state":"Agusan del Norte","name":"Accusilian","lat":"17.74777778","lon":"121.46250000"},
{"state":"Agusan del Norte","name":"Afusing Centro","lat":"17.85250000","lon":"121.62694444"},
{"state":"Agusan del Norte","name":"Aglipay","lat":"16.48887500","lon":"121.58735000"},
{"state":"Agusan del Norte","name":"Alabug","lat":"17.73250000","lon":"121.46777778"},
{"state":"Agusan del Norte","name":"Alannay","lat":"18.06111111","lon":"121.58611111"},
{"state":"Agusan del Norte","name":"Alcala","lat":"17.90314167","lon":"121.65896111"},
{"state":"Agusan del Norte","name":"Alfonso Castañeda","lat":"15.79401389","lon":"121.29996389"},
{"state":"Agusan del Norte","name":"Alicia","lat":"16.77868611","lon":"121.69718056"},
{"state":"Agusan del Norte","name":"Allacapan","lat":"18.22696667","lon":"121.55558333"},
{"state":"Agusan del Norte","name":"Almaguer North","lat":"16.34972222","lon":"121.09250000"},
{"state":"Agusan del Norte","name":"Ambaguio","lat":"16.53160833","lon":"121.02816944"},
{"state":"Agusan del Norte","name":"Amulung","lat":"17.83865556","lon":"121.72348333"},
{"state":"Agusan del Norte","name":"Angadanan","lat":"16.75715000","lon":"121.74792778"},
{"state":"Agusan del Norte","name":"Antagan Segunda","lat":"17.28277778","lon":"121.87138889"},
{"state":"Agusan del Norte","name":"Aparri","lat":"18.35497500","lon":"121.64185000"},
{"state":"Agusan del Norte","name":"Aritao","lat":"16.29725833","lon":"121.03381944"},
{"state":"Agusan del Norte","name":"Atulayan","lat":"17.66472222","lon":"121.69361111"},
{"state":"Agusan del Norte","name":"Aurora","lat":"16.99184722","lon":"121.63568889"},
{"state":"Agusan del Norte","name":"Awallan","lat":"17.92444444","lon":"121.91305556"},
{"state":"Agusan del Norte","name":"Bacnor East","lat":"17.03444444","lon":"121.70361111"},
{"state":"Agusan del Norte","name":"Bagabag","lat":"16.60443056","lon":"121.25209444"},
{"state":"Agusan del Norte","name":"Baggabag B","lat":"16.50583333","lon":"121.19027778"},
{"state":"Agusan del Norte","name":"Baggao","lat":"17.88935278","lon":"121.87092222"},
{"state":"Agusan del Norte","name":"Bagong Tanza","lat":"16.98277778","lon":"121.61111111"},
{"state":"Agusan del Norte","name":"Bagu","lat":"18.42444444","lon":"121.35583333"},
{"state":"Agusan del Norte","name":"Bagumbayan","lat":"17.72277778","lon":"121.44694444"},
{"state":"Agusan del Norte","name":"Ballesteros","lat":"18.40000000","lon":"121.51666667"},
{"state":"Agusan del Norte","name":"Bambang","lat":"16.38250000","lon":"121.11000000"},
{"state":"Agusan del Norte","name":"Bangad","lat":"17.49555556","lon":"121.77722222"},
{"state":"Agusan del Norte","name":"Banganan","lat":"16.31444444","lon":"121.05444444"},
{"state":"Agusan del Norte","name":"Banquero","lat":"17.02305556","lon":"121.77833333"},
{"state":"Agusan del Norte","name":"Barucboc Norte","lat":"17.25861111","lon":"121.60555556"},
{"state":"Agusan del Norte","name":"Basco","lat":"20.45000000","lon":"121.96666667"},
{"state":"Agusan del Norte","name":"Batal","lat":"16.68750000","lon":"121.60083000"},
{"state":"Agusan del Norte","name":"Battung","lat":"17.72250000","lon":"121.45916667"},
{"state":"Agusan del Norte","name":"Bauan","lat":"17.72250000","lon":"121.68027778"},
{"state":"Agusan del Norte","name":"Bayombong","lat":"16.48333333","lon":"121.15000000"},
{"state":"Agusan del Norte","name":"Belance","lat":"16.18333333","lon":"121.25000000"},
{"state":"Agusan del Norte","name":"Benito Soliven","lat":"16.98333333","lon":"121.95000000"},
{"state":"Agusan del Norte","name":"Binalan","lat":"18.32750000","lon":"121.54500000"},
{"state":"Agusan del Norte","name":"Binguang","lat":"17.45888889","lon":"121.79527778"},
{"state":"Agusan del Norte","name":"Bintawan","lat":"16.57583333","lon":"121.18777778"},
{"state":"Agusan del Norte","name":"Bitag Grande","lat":"17.90250000","lon":"121.85000000"},
{"state":"Agusan del Norte","name":"Bone South","lat":"16.24472222","lon":"120.99583333"},
{"state":"Agusan del Norte","name":"Buguey","lat":"18.28823000","lon":"121.83310000"},
{"state":"Agusan del Norte","name":"Buliwao","lat":"16.48333333","lon":"121.23333333"},
{"state":"Agusan del Norte","name":"Bulu","lat":"17.33333333","lon":"121.76666667"},
{"state":"Agusan del Norte","name":"Burgos","lat":"17.06666667","lon":"121.70000000"},
{"state":"Agusan del Norte","name":"Busilak","lat":"16.47750000","lon":"121.12416667"},
{"state":"Agusan del Norte","name":"Cabagan","lat":"17.43333333","lon":"121.76666667"},
{"state":"Agusan del Norte","name":"Cabannungan Second","lat":"17.12500000","lon":"121.85055556"},
{"state":"Agusan del Norte","name":"Cabaritan East","lat":"18.41777778","lon":"121.48861111"},
{"state":"Agusan del Norte","name":"Cabarroguis","lat":"16.58333300","lon":"121.50000000"},
{"state":"Agusan del Norte","name":"Cabatuan","lat":"16.95888889","lon":"121.66916667"},
{"state":"Agusan del Norte","name":"Cabiraoan","lat":"18.32388889","lon":"122.08583333"},
{"state":"Agusan del Norte","name":"Calamagui East","lat":"17.48805556","lon":"121.76833333"},
{"state":"Agusan del Norte","name":"Calantac","lat":"17.90916667","lon":"121.72277778"},
{"state":"Agusan del Norte","name":"Calaoagan","lat":"18.04277778","lon":"121.72333333"},
{"state":"Agusan del Norte","name":"Calayan","lat":"19.26666667","lon":"121.48333333"},
{"state":"Agusan del Norte","name":"Calinaoan Malasin","lat":"17.35194444","lon":"121.74083333"},
{"state":"Agusan del Norte","name":"Calog Norte","lat":"18.36361111","lon":"121.38527778"},
{"state":"Agusan del Norte","name":"Camalaniugan","lat":"18.26666667","lon":"121.68333333"},
{"state":"Agusan del Norte","name":"Capissayan Sur","lat":"18.05083333","lon":"121.81777778"},
{"state":"Agusan del Norte","name":"Carig","lat":"17.65916667","lon":"121.74361111"},
{"state":"Agusan del Norte","name":"Casambalangan","lat":"18.37638889","lon":"122.12750000"},
{"state":"Agusan del Norte","name":"Catayauan","lat":"18.16083333","lon":"121.65277778"},
{"state":"Agusan del Norte","name":"Cauayan","lat":"16.76666667","lon":"121.78333333"},
{"state":"Agusan del Norte","name":"Claveria","lat":"18.60000000","lon":"121.08333333"},
{"state":"Agusan del Norte","name":"Cordon","lat":"16.66666667","lon":"121.45000000"},
{"state":"Agusan del Norte","name":"Cullalabo del Sur","lat":"17.10277778","lon":"121.70388889"},
{"state":"Agusan del Norte","name":"Dagupan","lat":"17.70027778","lon":"121.50444444"},
{"state":"Agusan del Norte","name":"Dalaoig","lat":"17.94916667","lon":"121.71472222"},
{"state":"Agusan del Norte","name":"Daragutan","lat":"17.00000000","lon":"122.03333333"},
{"state":"Agusan del Norte","name":"Dassun","lat":"17.74527778","lon":"121.71138889"},
{"state":"Agusan del Norte","name":"Delfin Albano","lat":"17.31666667","lon":"121.78333333"},
{"state":"Agusan del Norte","name":"Diadi","lat":"16.63333333","lon":"121.35000000"},
{"state":"Agusan del Norte","name":"Diamantina","lat":"16.91805556","lon":"121.62666667"},
{"state":"Agusan del Norte","name":"Dibuluan","lat":"16.51916667","lon":"121.76472222"},
{"state":"Agusan del Norte","name":"Dicabisagan","lat":"17.08194444","lon":"122.41583333"},
{"state":"Agusan del Norte","name":"Dicamay","lat":"16.75611111","lon":"122.00361111"},
{"state":"Agusan del Norte","name":"Diffun","lat":"16.60000000","lon":"121.46666667"},
{"state":"Agusan del Norte","name":"Dinapigui","lat":"16.66667000","lon":"122.23333000"},
{"state":"Agusan del Norte","name":"Divilican","lat":"17.24194000","lon":"122.31548000"},
{"state":"Agusan del Norte","name":"Divisoria","lat":"17.52277778","lon":"121.77416667"},
{"state":"Agusan del Norte","name":"Dodan","lat":"17.64111111","lon":"121.79444444"},
{"state":"Agusan del Norte","name":"Dumabato","lat":"16.31666667","lon":"121.70000000"},
{"state":"Agusan del Norte","name":"Dupax del Norte","lat":"16.28638889","lon":"121.09416667"},
{"state":"Agusan del Norte","name":"Dupax del Sur","lat":"16.28333333","lon":"121.10000000"},
{"state":"Agusan del Norte","name":"Echague (town)","lat":"16.70500000","lon":"121.67638889"},
{"state":"Agusan del Norte","name":"Eden","lat":"17.03805556","lon":"121.59805556"},
{"state":"Agusan del Norte","name":"Enrile","lat":"17.55000000","lon":"121.70000000"},
{"state":"Agusan del Norte","name":"Esperanza East","lat":"17.02333333","lon":"121.68388889"},
{"state":"Agusan del Norte","name":"Estefania","lat":"17.79944444","lon":"121.72305556"},
{"state":"Agusan del Norte","name":"Furao","lat":"17.03472222","lon":"121.79694444"},
{"state":"Agusan del Norte","name":"Gadu","lat":"17.62916667","lon":"121.61055556"},
{"state":"Agusan del Norte","name":"Gammad","lat":"17.71027778","lon":"121.74361111"},
{"state":"Agusan del Norte","name":"Gamu","lat":"17.05000000","lon":"121.83333333"},
{"state":"Agusan del Norte","name":"Ganapi","lat":"17.20166667","lon":"121.86527778"},
{"state":"Agusan del Norte","name":"Gappal","lat":"16.83638889","lon":"121.82194444"},
{"state":"Agusan del Norte","name":"Gattaran","lat":"18.06166667","lon":"121.64416667"},
{"state":"Agusan del Norte","name":"Gonzaga","lat":"18.26666667","lon":"122.00000000"},
{"state":"Agusan del Norte","name":"Guiddam","lat":"18.33500000","lon":"121.46611111"},
{"state":"Agusan del Norte","name":"Ibung","lat":"16.60938000","lon":"121.18614000"},
{"state":"Agusan del Norte","name":"Iguig","lat":"17.75000000","lon":"121.73333333"},
{"state":"Agusan del Norte","name":"Ilagan","lat":"17.13333333","lon":"121.88333333"},
{"state":"Agusan del Norte","name":"Ineangan","lat":"16.31805556","lon":"121.09305556"},
{"state":"Agusan del Norte","name":"Itbayat","lat":"20.76667000","lon":"121.83333000"},
{"state":"Agusan del Norte","name":"Ivana","lat":"20.36666667","lon":"121.91666667"},
{"state":"Agusan del Norte","name":"Jones","lat":"16.55833333","lon":"121.70000000"},
{"state":"Agusan del Norte","name":"Kasibu","lat":"16.31666667","lon":"121.28333333"},
{"state":"Agusan del Norte","name":"Kayapa","lat":"16.41666667","lon":"120.91666667"},
{"state":"Agusan del Norte","name":"La Paz","lat":"16.91083333","lon":"121.66833333"},
{"state":"Agusan del Norte","name":"Lal-lo","lat":"18.20000000","lon":"121.66666667"},
{"state":"Agusan del Norte","name":"Lallayug","lat":"17.70694444","lon":"121.44166667"},
{"state":"Agusan del Norte","name":"Lanna","lat":"17.69611111","lon":"121.70027778"},
{"state":"Agusan del Norte","name":"Lapi","lat":"17.71611111","lon":"121.89777778"},
{"state":"Agusan del Norte","name":"Larion Alto","lat":"17.63083333","lon":"121.76055556"},
{"state":"Agusan del Norte","name":"Lasam","lat":"18.06666667","lon":"121.60000000"},
{"state":"Agusan del Norte","name":"Lucban","lat":"18.33638889","lon":"121.43083333"},
{"state":"Agusan del Norte","name":"Luna","lat":"16.96666667","lon":"121.73333333"},
{"state":"Agusan del Norte","name":"Mabasa","lat":"16.32111111","lon":"121.12611111"},
{"state":"Agusan del Norte","name":"Mabini","lat":"17.09944444","lon":"121.73444444"},
{"state":"Agusan del Norte","name":"Mabuttal East","lat":"18.37611111","lon":"121.51472222"},
{"state":"Agusan del Norte","name":"Maconacon","lat":"17.38712500","lon":"122.23791667"},
{"state":"Agusan del Norte","name":"Maddarulug Norte","lat":"17.60722222","lon":"121.67666667"},
{"state":"Agusan del Norte","name":"Maddela","lat":"16.34138889","lon":"121.68500000"},
{"state":"Agusan del Norte","name":"Magalalag","lat":"17.57722222","lon":"121.73500000"},
{"state":"Agusan del Norte","name":"Magdalena","lat":"16.95222222","lon":"121.66555556"},
{"state":"Agusan del Norte","name":"Maguilling","lat":"17.76972222","lon":"121.49777778"},
{"state":"Agusan del Norte","name":"Mahatao","lat":"20.41666667","lon":"121.95000000"},
{"state":"Agusan del Norte","name":"Malasin","lat":"16.30444444","lon":"121.10611111"},
{"state":"Agusan del Norte","name":"Mallig","lat":"17.20000000","lon":"121.61666667"},
{"state":"Agusan del Norte","name":"Maluno Sur","lat":"16.99888889","lon":"121.96444444"},
{"state":"Agusan del Norte","name":"Manaring","lat":"17.17305556","lon":"121.90250000"},
{"state":"Agusan del Norte","name":"Manga","lat":"17.70111111","lon":"121.86055556"},
{"state":"Agusan del Norte","name":"Masaya Sur","lat":"16.50027778","lon":"121.74750000"},
{"state":"Agusan del Norte","name":"Masipi West","lat":"17.37944444","lon":"121.83861111"},
{"state":"Agusan del Norte","name":"Maxingal","lat":"18.21500000","lon":"121.66805556"},
{"state":"Agusan del Norte","name":"Minallo","lat":"16.98694444","lon":"121.85388889"},
{"state":"Agusan del Norte","name":"Minanga Norte","lat":"17.45222222","lon":"121.78527778"},
{"state":"Agusan del Norte","name":"Minante Segundo","lat":"16.90222222","lon":"121.76194444"},
{"state":"Agusan del Norte","name":"Minuri","lat":"16.53222222","lon":"121.85527778"},
{"state":"Agusan del Norte","name":"Mozzozzin Sur","lat":"17.45694444","lon":"121.74611111"},
{"state":"Agusan del Norte","name":"Mungo","lat":"17.72416667","lon":"121.47083333"},
{"state":"Agusan del Norte","name":"Municipality of Delfin Albano","lat":"17.26667000","lon":"121.73333000"},
{"state":"Agusan del Norte","name":"Muñoz East","lat":"17.15750000","lon":"121.61361111"},
{"state":"Agusan del Norte","name":"Nabannagan West","lat":"18.07166667","lon":"121.53638889"},
{"state":"Agusan del Norte","name":"Nagrumbuan","lat":"16.89944444","lon":"121.70972222"},
{"state":"Agusan del Norte","name":"Nagtipunan","lat":"16.21666667","lon":"121.60000000"},
{"state":"Agusan del Norte","name":"Naguilian","lat":"17.01667000","lon":"121.86667000"},
{"state":"Agusan del Norte","name":"Namuac","lat":"18.61083333","lon":"121.16583333"},
{"state":"Agusan del Norte","name":"Nattapian","lat":"17.67527778","lon":"121.70305556"},
{"state":"Agusan del Norte","name":"Paddaya","lat":"18.32361111","lon":"121.73861111"},
{"state":"Agusan del Norte","name":"Palagao Norte","lat":"18.04416667","lon":"121.71861111"},
{"state":"Agusan del Norte","name":"Palanan","lat":"17.05888889","lon":"122.43000000"},
{"state":"Agusan del Norte","name":"Pamplona","lat":"18.45000000","lon":"121.34166667"},
{"state":"Agusan del Norte","name":"Pangal Sur","lat":"16.60027778","lon":"121.66972222"},
{"state":"Agusan del Norte","name":"Pata","lat":"17.71527778","lon":"121.50166667"},
{"state":"Agusan del Norte","name":"Pattao","lat":"18.24694444","lon":"121.81472222"},
{"state":"Agusan del Norte","name":"Peñablanca","lat":"17.63333333","lon":"121.78333333"},
{"state":"Agusan del Norte","name":"Piat","lat":"17.79166667","lon":"121.47500000"},
{"state":"Agusan del Norte","name":"Pinoma","lat":"16.87416667","lon":"121.70666667"},
{"state":"Agusan del Norte","name":"Quezon","lat":"17.31666667","lon":"121.61666667"},
{"state":"Agusan del Norte","name":"Quibal","lat":"17.71583333","lon":"121.81138889"},
{"state":"Agusan del Norte","name":"Quirino","lat":"17.13333333","lon":"121.70000000"},
{"state":"Agusan del Norte","name":"Ragan Norte","lat":"17.32305556","lon":"121.77416667"},
{"state":"Agusan del Norte","name":"Ramon (municipal capital)","lat":"16.78416000","lon":"121.53504000"},
{"state":"Agusan del Norte","name":"Ramos West","lat":"16.69833333","lon":"121.61361111"},
{"state":"Agusan del Norte","name":"Reina Mercedes","lat":"16.98333333","lon":"121.78333333"},
{"state":"Agusan del Norte","name":"Rizal","lat":"17.85000000","lon":"121.35000000"},
{"state":"Agusan del Norte","name":"Roxas","lat":"17.11666667","lon":"121.61666667"},
{"state":"Agusan del Norte","name":"Sabtang","lat":"20.33333333","lon":"121.86666667"},
{"state":"Agusan del Norte","name":"Saguday","lat":"16.51666667","lon":"121.60000000"},
{"state":"Agusan del Norte","name":"Salinas","lat":"16.36944444","lon":"121.01888889"},
{"state":"Agusan del Norte","name":"Salinungan Proper","lat":"16.86916667","lon":"121.61444444"},
{"state":"Agusan del Norte","name":"San Agustin","lat":"16.51666667","lon":"121.75000000"},
{"state":"Agusan del Norte","name":"San Antonio","lat":"16.35027778","lon":"121.10916667"},
{"state":"Agusan del Norte","name":"San Bernardo","lat":"17.40472222","lon":"121.75166667"},
{"state":"Agusan del Norte","name":"San Fernando","lat":"16.38916667","lon":"121.13250000"},
{"state":"Agusan del Norte","name":"San Guillermo","lat":"16.73333000","lon":"121.86667000"},
{"state":"Agusan del Norte","name":"San Isidro","lat":"16.73333000","lon":"121.61667000"},
{"state":"Agusan del Norte","name":"San Jose","lat":"17.15000000","lon":"121.60000000"},
{"state":"Agusan del Norte","name":"San Luis","lat":"16.96444444","lon":"121.82777778"},
{"state":"Agusan del Norte","name":"San Manuel","lat":"17.01666667","lon":"121.63333333"},
{"state":"Agusan del Norte","name":"San Mariano","lat":"16.98277778","lon":"122.01416667"},
{"state":"Agusan del Norte","name":"San Mateo","lat":"16.88333333","lon":"121.58333333"},
{"state":"Agusan del Norte","name":"San Pablo","lat":"17.48305556","lon":"121.98777778"},
{"state":"Agusan del Norte","name":"San Pedro","lat":"17.20000000","lon":"121.88333333"},
{"state":"Agusan del Norte","name":"San Vicente","lat":"18.50750000","lon":"122.15027778"},
{"state":"Agusan del Norte","name":"Sanchez Mira","lat":"18.56666667","lon":"121.23333333"},
{"state":"Agusan del Norte","name":"Sandiat Centro","lat":"17.07305556","lon":"121.63750000"},
{"state":"Agusan del Norte","name":"Santa Ana","lat":"18.46666667","lon":"122.15000000"},
{"state":"Agusan del Norte","name":"Santa Cruz","lat":"18.51638889","lon":"121.31055556"},
{"state":"Agusan del Norte","name":"Santa Fe","lat":"16.16194444","lon":"120.93888889"},
{"state":"Agusan del Norte","name":"Santa Maria","lat":"17.46666667","lon":"121.75000000"},
{"state":"Agusan del Norte","name":"Santa Praxedes","lat":"18.56666667","lon":"121.00000000"},
{"state":"Agusan del Norte","name":"Santa Teresita","lat":"18.25000000","lon":"121.88333333"},
{"state":"Agusan del Norte","name":"Santiago","lat":"16.68333333","lon":"121.55000000"},
{"state":"Agusan del Norte","name":"Santo Domingo","lat":"17.16000000","lon":"121.75194444"},
{"state":"Agusan del Norte","name":"Santo Niño","lat":"17.88610000","lon":"121.56910000"},
{"state":"Agusan del Norte","name":"Santo Tomas","lat":"17.40000000","lon":"121.76666667"},
{"state":"Agusan del Norte","name":"Siempre Viva","lat":"17.22861111","lon":"121.63305556"},
{"state":"Agusan del Norte","name":"Sillawit","lat":"16.87305556","lon":"121.75916667"},
{"state":"Agusan del Norte","name":"Simanu Sur","lat":"17.48527778","lon":"121.83416667"},
{"state":"Agusan del Norte","name":"Simimbaan","lat":"17.11861111","lon":"121.58138889"},
{"state":"Agusan del Norte","name":"Sinamar","lat":"16.90000000","lon":"121.56666667"},
{"state":"Agusan del Norte","name":"Sindon","lat":"17.06027778","lon":"122.01527778"},
{"state":"Agusan del Norte","name":"Solana","lat":"17.65000000","lon":"121.68333333"},
{"state":"Agusan del Norte","name":"Solano","lat":"16.52388889","lon":"121.19194444"},
{"state":"Agusan del Norte","name":"Soyung","lat":"16.70000000","lon":"121.66555556"},
{"state":"Agusan del Norte","name":"Taguing","lat":"17.94638889","lon":"121.75527778"},
{"state":"Agusan del Norte","name":"Tapel","lat":"18.28916667","lon":"122.02916667"},
{"state":"Agusan del Norte","name":"Tuao","lat":"17.73333333","lon":"121.45000000"},
{"state":"Agusan del Norte","name":"Tuguegarao","lat":"17.61577000","lon":"121.72285000"},
{"state":"Agusan del Norte","name":"Tuguegarao City","lat":"17.61667000","lon":"121.75000000"},
{"state":"Agusan del Norte","name":"Tumauini","lat":"17.26666667","lon":"121.80000000"},
{"state":"Agusan del Norte","name":"Tupang","lat":"17.90472222","lon":"121.64111111"},
{"state":"Agusan del Norte","name":"Uddiawan","lat":"16.55888889","lon":"121.15111111"},
{"state":"Agusan del Norte","name":"Ugac Sur","lat":"17.61333333","lon":"121.71583333"},
{"state":"Agusan del Norte","name":"Ugad","lat":"17.30750000","lon":"121.80027778"},
{"state":"Agusan del Norte","name":"Upi","lat":"17.08250000","lon":"121.83444444"},
{"state":"Agusan del Norte","name":"Uyugan","lat":"20.35000000","lon":"121.93333333"},
{"state":"Agusan del Norte","name":"Villaverde","lat":"16.58333333","lon":"121.20000000"},
{"state":"Agusan del Norte","name":"Yeban Norte","lat":"17.02194444","lon":"121.94194444"},
{"state":"Agusan del Sur","name":"Acli","lat":"15.12277778","lon":"120.64472222"},
{"state":"Agusan del Sur","name":"Agbannawag","lat":"15.67916667","lon":"121.08333333"},
{"state":"Agusan del Sur","name":"Akle","lat":"15.04833333","lon":"121.07333333"},
{"state":"Agusan del Sur","name":"Aliaga","lat":"15.49879722","lon":"120.84103611"},
{"state":"Agusan del Sur","name":"Alua","lat":"15.31166667","lon":"120.89444444"},
{"state":"Agusan del Sur","name":"Amacalan","lat":"15.58138889","lon":"120.61111111"},
{"state":"Agusan del Sur","name":"Amucao","lat":"15.46416667","lon":"120.68638889"},
{"state":"Agusan del Sur","name":"Amuñgan","lat":"15.36527778","lon":"119.95833333"},
{"state":"Agusan del Sur","name":"Anao","lat":"15.73038611","lon":"120.62641389"},
{"state":"Agusan del Sur","name":"Angat","lat":"14.92814722","lon":"121.02931944"},
{"state":"Agusan del Sur","name":"Angeles","lat":"15.14718056","lon":"120.58473333"},
{"state":"Agusan del Sur","name":"Antipolo","lat":"15.61805556","lon":"121.19000000"},
{"state":"Agusan del Sur","name":"Apalit","lat":"14.94956111","lon":"120.75869167"},
{"state":"Agusan del Sur","name":"Arayat","lat":"15.14926111","lon":"120.76915833"},
{"state":"Agusan del Sur","name":"Arenas","lat":"15.17055556","lon":"120.68583333"},
{"state":"Agusan del Sur","name":"Arminia","lat":"15.43555556","lon":"120.56388889"},
{"state":"Agusan del Sur","name":"Bacabac","lat":"15.72472222","lon":"120.42805556"},
{"state":"Agusan del Sur","name":"Bacolor","lat":"14.99842778","lon":"120.65265000"},
{"state":"Agusan del Sur","name":"Bacsay","lat":"15.62055556","lon":"120.34333333"},
{"state":"Agusan del Sur","name":"Bagac","lat":"14.58333000","lon":"120.41667000"},
{"state":"Agusan del Sur","name":"Bagong Barrio","lat":"14.89000000","lon":"120.94083333"},
{"state":"Agusan del Sur","name":"Bagong-Sikat","lat":"15.48000000","lon":"121.30722222"},
{"state":"Agusan del Sur","name":"Bahay Pare","lat":"15.03250000","lon":"120.88083333"},
{"state":"Agusan del Sur","name":"Bakulong","lat":"15.53777778","lon":"120.63861111"},
{"state":"Agusan del Sur","name":"Balagtas","lat":"14.81446700","lon":"120.90846700"},
{"state":"Agusan del Sur","name":"Balanga","lat":"14.68333333","lon":"120.53333333"},
{"state":"Agusan del Sur","name":"Balaoang","lat":"15.66333333","lon":"120.51472222"},
{"state":"Agusan del Sur","name":"Balas","lat":"15.05000000","lon":"120.58611111"},
{"state":"Agusan del Sur","name":"Balasing","lat":"14.85444444","lon":"121.01277778"},
{"state":"Agusan del Sur","name":"Balayang","lat":"15.54944444","lon":"120.69416667"},
{"state":"Agusan del Sur","name":"Baler","lat":"15.75833300","lon":"121.56250000"},
{"state":"Agusan del Sur","name":"Balingcanaway","lat":"15.48222222","lon":"120.68555556"},
{"state":"Agusan del Sur","name":"Balite","lat":"15.64444444","lon":"120.64194444"},
{"state":"Agusan del Sur","name":"Baliuag","lat":"14.95000000","lon":"120.90000000"},
{"state":"Agusan del Sur","name":"Baloc","lat":"15.64361111","lon":"120.88527778"},
{"state":"Agusan del Sur","name":"Baloy","lat":"15.80527778","lon":"120.77416667"},
{"state":"Agusan del Sur","name":"Balsic","lat":"14.85916667","lon":"120.48250000"},
{"state":"Agusan del Sur","name":"Balucuc","lat":"14.95277778","lon":"120.81444444"},
{"state":"Agusan del Sur","name":"Balut","lat":"14.68333333","lon":"120.55000000"},
{"state":"Agusan del Sur","name":"Balutu","lat":"15.29861111","lon":"120.69222222"},
{"state":"Agusan del Sur","name":"Bamban","lat":"15.65000000","lon":"120.25000000"},
{"state":"Agusan del Sur","name":"Banawang","lat":"14.61222222","lon":"120.39000000"},
{"state":"Agusan del Sur","name":"Bani","lat":"15.58222222","lon":"119.93361111"},
{"state":"Agusan del Sur","name":"Baquero Norte","lat":"15.71611111","lon":"120.55416667"},
{"state":"Agusan del Sur","name":"Batasan Bata","lat":"15.14444444","lon":"120.94083333"},
{"state":"Agusan del Sur","name":"Batitang","lat":"15.40027778","lon":"120.80277778"},
{"state":"Agusan del Sur","name":"Bayanan","lat":"13.35916667","lon":"121.17000000"},
{"state":"Agusan del Sur","name":"Beddeng","lat":"14.97722222","lon":"120.08500000"},
{"state":"Agusan del Sur","name":"Biay","lat":"15.74027778","lon":"119.90666667"},
{"state":"Agusan del Sur","name":"Bibiclat","lat":"15.52194444","lon":"120.86222222"},
{"state":"Agusan del Sur","name":"Bicos","lat":"15.66027778","lon":"121.04138889"},
{"state":"Agusan del Sur","name":"Biga","lat":"13.31055556","lon":"121.16111111"},
{"state":"Agusan del Sur","name":"Bilad","lat":"15.73666667","lon":"120.43333333"},
{"state":"Agusan del Sur","name":"Bobon Second","lat":"15.65666667","lon":"120.38111111"},
{"state":"Agusan del Sur","name":"Bocaue","lat":"14.80000000","lon":"120.93333333"},
{"state":"Agusan del Sur","name":"Bodega","lat":"14.92277778","lon":"120.47972222"},
{"state":"Agusan del Sur","name":"Bolitoc","lat":"15.73944444","lon":"119.87694444"},
{"state":"Agusan del Sur","name":"Bongabon","lat":"15.63210000","lon":"121.14480000"},
{"state":"Agusan del Sur","name":"Botolan","lat":"15.28960000","lon":"120.02450000"},
{"state":"Agusan del Sur","name":"Buenlag","lat":"15.62750000","lon":"120.58194444"},
{"state":"Agusan del Sur","name":"Buensuseso","lat":"15.19333333","lon":"120.67305556"},
{"state":"Agusan del Sur","name":"Bulakan","lat":"14.79278000","lon":"120.87889000"},
{"state":"Agusan del Sur","name":"Bulaon","lat":"15.08250000","lon":"120.66277778"},
{"state":"Agusan del Sur","name":"Bularit","lat":"15.56833333","lon":"120.62166667"},
{"state":"Agusan del Sur","name":"Bulawin","lat":"15.41722222","lon":"119.95638889"},
{"state":"Agusan del Sur","name":"Bulihan","lat":"14.87583333","lon":"120.89555556"},
{"state":"Agusan del Sur","name":"Buliran","lat":"15.54611111","lon":"120.95972222"},
{"state":"Agusan del Sur","name":"Buliran Segundo","lat":"15.26666667","lon":"120.86666667"},
{"state":"Agusan del Sur","name":"Bulualto","lat":"15.22138889","lon":"120.95333333"},
{"state":"Agusan del Sur","name":"Bundoc","lat":"15.48583333","lon":"120.71750000"},
{"state":"Agusan del Sur","name":"Bunol","lat":"15.66722222","lon":"120.83444444"},
{"state":"Agusan del Sur","name":"Burgos","lat":"15.72888889","lon":"120.57222222"},
{"state":"Agusan del Sur","name":"Bustos","lat":"14.95806000","lon":"120.91778000"},
{"state":"Agusan del Sur","name":"Cabanatuan","lat":"15.48333333","lon":"120.96666667"},
{"state":"Agusan del Sur","name":"Cabangan","lat":"15.13333333","lon":"120.15000000"},
{"state":"Agusan del Sur","name":"Cabayaoasan","lat":"15.66333333","lon":"120.55138889"},
{"state":"Agusan del Sur","name":"Cabcaben","lat":"14.45388889","lon":"120.59138889"},
{"state":"Agusan del Sur","name":"Cabiao","lat":"15.25000000","lon":"120.85000000"},
{"state":"Agusan del Sur","name":"Cabog","lat":"15.31527778","lon":"121.37027778"},
{"state":"Agusan del Sur","name":"Cafe","lat":"15.33694444","lon":"120.70611111"},
{"state":"Agusan del Sur","name":"Calaba","lat":"15.30055556","lon":"120.87416667"},
{"state":"Agusan del Sur","name":"Calancuasan Norte","lat":"15.80138889","lon":"120.64111111"},
{"state":"Agusan del Sur","name":"Calangain","lat":"14.89805556","lon":"120.55888889"},
{"state":"Agusan del Sur","name":"Calantas","lat":"15.01944444","lon":"120.51805556"},
{"state":"Agusan del Sur","name":"Calayaan","lat":"15.56750000","lon":"120.51444444"},
{"state":"Agusan del Sur","name":"Calibungan","lat":"15.59833333","lon":"120.72388889"},
{"state":"Agusan del Sur","name":"Calibutbut","lat":"15.11500000","lon":"120.59805556"},
{"state":"Agusan del Sur","name":"Calingcuan","lat":"15.33333333","lon":"120.58333333"},
{"state":"Agusan del Sur","name":"Calumpang","lat":"15.17388889","lon":"121.02500000"},
{"state":"Agusan del Sur","name":"Calumpit","lat":"14.91666667","lon":"120.76666667"},
{"state":"Agusan del Sur","name":"Cama Juan","lat":"15.39222222","lon":"120.76861111"},
{"state":"Agusan del Sur","name":"Camachile","lat":"14.64361111","lon":"120.58083333"},
{"state":"Agusan del Sur","name":"Camias","lat":"15.16666667","lon":"120.97416667"},
{"state":"Agusan del Sur","name":"Camiling","lat":"15.70000000","lon":"120.41666667"},
{"state":"Agusan del Sur","name":"Candaba","lat":"15.09333300","lon":"120.82833300"},
{"state":"Agusan del Sur","name":"Candating","lat":"15.15055556","lon":"120.81861111"},
{"state":"Agusan del Sur","name":"Candelaria","lat":"15.63333333","lon":"119.93333333"},
{"state":"Agusan del Sur","name":"Capas","lat":"15.35000000","lon":"120.46667000"},
{"state":"Agusan del Sur","name":"Cardona","lat":"15.57222222","lon":"120.58972222"},
{"state":"Agusan del Sur","name":"Carmen","lat":"15.44694444","lon":"120.82666667"},
{"state":"Agusan del Sur","name":"Carranglan","lat":"15.96138889","lon":"121.06416667"},
{"state":"Agusan del Sur","name":"Casiguran","lat":"16.28333333","lon":"122.11666667"},
{"state":"Agusan del Sur","name":"Castillejos","lat":"14.93333333","lon":"120.20000000"},
{"state":"Agusan del Sur","name":"Cauayan","lat":"15.15138889","lon":"120.67166667"},
{"state":"Agusan del Sur","name":"Cavite","lat":"15.67777778","lon":"120.76972222"},
{"state":"Agusan del Sur","name":"Cawayan Bugtong","lat":"15.63361111","lon":"120.77694444"},
{"state":"Agusan del Sur","name":"City of Balanga","lat":"14.66695000","lon":"120.49430000"},
{"state":"Agusan del Sur","name":"City of Gapan","lat":"15.28333000","lon":"120.98333000"},
{"state":"Agusan del Sur","name":"City of Malolos","lat":"14.82978000","lon":"120.83713000"},
{"state":"Agusan del Sur","name":"City of Meycauayan","lat":"14.75238000","lon":"120.96794000"},
{"state":"Agusan del Sur","name":"City of San Fernando","lat":"15.04574000","lon":"120.70373000"},
{"state":"Agusan del Sur","name":"City of San Jose del Monte","lat":"14.81667000","lon":"121.11667000"},
{"state":"Agusan del Sur","name":"Comillas","lat":"15.39833333","lon":"120.70055556"},
{"state":"Agusan del Sur","name":"Communal","lat":"13.25472222","lon":"121.13666667"},
{"state":"Agusan del Sur","name":"Concepcion","lat":"14.80000000","lon":"120.93333333"},
{"state":"Agusan del Sur","name":"Conversion","lat":"15.89833333","lon":"121.12777778"},
{"state":"Agusan del Sur","name":"Culianin","lat":"14.91500000","lon":"120.89861111"},
{"state":"Agusan del Sur","name":"Culubasa","lat":"15.14444444","lon":"120.65222222"},
{"state":"Agusan del Sur","name":"Cut-cut Primero","lat":"15.48277778","lon":"120.58611111"},
{"state":"Agusan del Sur","name":"Cuyapo","lat":"15.78333333","lon":"120.66666667"},
{"state":"Agusan del Sur","name":"Dampol","lat":"14.90138889","lon":"120.82194444"},
{"state":"Agusan del Sur","name":"Del Carmen","lat":"15.00555556","lon":"120.53416667"},
{"state":"Agusan del Sur","name":"Del Pilar","lat":"15.03611111","lon":"120.69944444"},
{"state":"Agusan del Sur","name":"Digdig","lat":"15.94888889","lon":"120.97777778"},
{"state":"Agusan del Sur","name":"Dilasag","lat":"16.40000000","lon":"122.21666667"},
{"state":"Agusan del Sur","name":"Diliman Primero","lat":"15.02472222","lon":"120.95194444"},
{"state":"Agusan del Sur","name":"Dinalongan","lat":"16.18333000","lon":"121.88333000"},
{"state":"Agusan del Sur","name":"Dinalupihan","lat":"14.88333333","lon":"120.46666667"},
{"state":"Agusan del Sur","name":"Dingalan","lat":"15.38972222","lon":"121.39277778"},
{"state":"Agusan del Sur","name":"Dipaculao","lat":"15.98333333","lon":"121.63333333"},
{"state":"Agusan del Sur","name":"Dolores","lat":"15.09500000","lon":"120.52888889"},
{"state":"Agusan del Sur","name":"Doña Remedios Trinidad","lat":"15.00000000","lon":"121.08333333"},
{"state":"Agusan del Sur","name":"Entablado","lat":"15.28666667","lon":"120.86305556"},
{"state":"Agusan del Sur","name":"Estipona","lat":"15.59027778","lon":"120.63777778"},
{"state":"Agusan del Sur","name":"Estrella","lat":"15.75000000","lon":"121.03333333"},
{"state":"Agusan del Sur","name":"Floridablanca","lat":"14.93333333","lon":"120.50000000"},
{"state":"Agusan del Sur","name":"Gabaldon","lat":"15.54777778","lon":"120.67722222"},
{"state":"Agusan del Sur","name":"Gapan","lat":"15.30750000","lon":"120.94527800"},
{"state":"Agusan del Sur","name":"General Luna","lat":"15.73055556","lon":"121.17916667"},
{"state":"Agusan del Sur","name":"General Mamerto Natividad","lat":"15.60250000","lon":"121.05150000"},
{"state":"Agusan del Sur","name":"General Tinio","lat":"15.35075000","lon":"121.04773000"},
{"state":"Agusan del Sur","name":"Gerona","lat":"15.60000000","lon":"120.60000000"},
{"state":"Agusan del Sur","name":"Guagua","lat":"14.96666667","lon":"120.63333333"},
{"state":"Agusan del Sur","name":"Gueset","lat":"15.95000000","lon":"120.63333333"},
{"state":"Agusan del Sur","name":"Guiguinto","lat":"14.83333333","lon":"120.88333333"},
{"state":"Agusan del Sur","name":"Guimba","lat":"15.65805556","lon":"120.76888889"},
{"state":"Agusan del Sur","name":"Guisguis","lat":"15.79277778","lon":"119.97666667"},
{"state":"Agusan del Sur","name":"Guyong","lat":"14.83611111","lon":"120.97833333"},
{"state":"Agusan del Sur","name":"Hagonoy","lat":"14.83416667","lon":"120.73277778"},
{"state":"Agusan del Sur","name":"Hermosa","lat":"14.83333333","lon":"120.50000000"},
{"state":"Agusan del Sur","name":"Iba","lat":"15.33333333","lon":"119.98333333"},
{"state":"Agusan del Sur","name":"Jaen","lat":"15.33333333","lon":"120.90000000"},
{"state":"Agusan del Sur","name":"La Paz","lat":"15.44305556","lon":"120.72888889"},
{"state":"Agusan del Sur","name":"Lambakin","lat":"14.75000000","lon":"120.86666667"},
{"state":"Agusan del Sur","name":"Lanat","lat":"15.79194444","lon":"120.60472222"},
{"state":"Agusan del Sur","name":"Laug","lat":"15.04666667","lon":"120.75138889"},
{"state":"Agusan del Sur","name":"Laur","lat":"15.58333333","lon":"121.18333333"},
{"state":"Agusan del Sur","name":"Lawang Kupang","lat":"15.34805556","lon":"120.85750000"},
{"state":"Agusan del Sur","name":"Lennec","lat":"15.68361111","lon":"120.73388889"},
{"state":"Agusan del Sur","name":"Licab","lat":"15.54390000","lon":"120.76340000"},
{"state":"Agusan del Sur","name":"Ligaya","lat":"15.50916667","lon":"121.28722222"},
{"state":"Agusan del Sur","name":"Limay","lat":"14.56194000","lon":"120.59833000"},
{"state":"Agusan del Sur","name":"Liozon","lat":"15.39916667","lon":"119.93305556"},
{"state":"Agusan del Sur","name":"Lipay","lat":"15.45611111","lon":"119.92083333"},
{"state":"Agusan del Sur","name":"Llanera","lat":"15.66666667","lon":"121.01666667"},
{"state":"Agusan del Sur","name":"Lomboy","lat":"15.49250000","lon":"120.71722222"},
{"state":"Agusan del Sur","name":"Lourdes","lat":"14.96666667","lon":"120.68333333"},
{"state":"Agusan del Sur","name":"Lubao","lat":"14.93333333","lon":"120.60000000"},
{"state":"Agusan del Sur","name":"Lucapon","lat":"15.69972222","lon":"119.93194444"},
{"state":"Agusan del Sur","name":"Lupao","lat":"15.87930000","lon":"120.89830000"},
{"state":"Agusan del Sur","name":"Maasim","lat":"14.99555556","lon":"121.03083333"},
{"state":"Agusan del Sur","name":"Mabalacat","lat":"15.21666667","lon":"120.58333333"},
{"state":"Agusan del Sur","name":"Mabayo","lat":"14.73166667","lon":"120.27805556"},
{"state":"Agusan del Sur","name":"Mabilang","lat":"15.67500000","lon":"120.48833333"},
{"state":"Agusan del Sur","name":"Mabilog","lat":"15.39472222","lon":"120.66583333"},
{"state":"Agusan del Sur","name":"Mabini","lat":"15.60000000","lon":"120.98333333"},
{"state":"Agusan del Sur","name":"Macabebe","lat":"14.90805556","lon":"120.71555556"},
{"state":"Agusan del Sur","name":"Macapsing","lat":"15.67833333","lon":"121.13194444"},
{"state":"Agusan del Sur","name":"Macarse","lat":"15.42500000","lon":"120.77472222"},
{"state":"Agusan del Sur","name":"Macatbong","lat":"15.50472222","lon":"121.07916667"},
{"state":"Agusan del Sur","name":"Magalang","lat":"15.21666667","lon":"120.66666667"},
{"state":"Agusan del Sur","name":"Magliman","lat":"15.03555556","lon":"120.66416667"},
{"state":"Agusan del Sur","name":"Magtangol","lat":"15.75805556","lon":"120.91555556"},
{"state":"Agusan del Sur","name":"Maguinao","lat":"15.02222222","lon":"120.93416667"},
{"state":"Agusan del Sur","name":"Malabon","lat":"15.63611111","lon":"119.93777778"},
{"state":"Agusan del Sur","name":"Malacampa","lat":"15.64333333","lon":"120.41111111"},
{"state":"Agusan del Sur","name":"Maligaya","lat":"15.67472222","lon":"120.88861111"},
{"state":"Agusan del Sur","name":"Malino","lat":"15.12694444","lon":"120.67444444"},
{"state":"Agusan del Sur","name":"Malolos","lat":"14.84333333","lon":"120.81138889"},
{"state":"Agusan del Sur","name":"Maloma","lat":"15.11361111","lon":"120.06388889"},
{"state":"Agusan del Sur","name":"Maluid","lat":"15.54916667","lon":"120.65277778"},
{"state":"Agusan del Sur","name":"Malusac","lat":"14.85833333","lon":"120.62111111"},
{"state":"Agusan del Sur","name":"Mambog","lat":"15.31361111","lon":"120.03027778"},
{"state":"Agusan del Sur","name":"Mamonit","lat":"15.58722222","lon":"120.39638889"},
{"state":"Agusan del Sur","name":"Manacsac","lat":"15.59527778","lon":"120.79111111"},
{"state":"Agusan del Sur","name":"Manatal","lat":"14.87694444","lon":"120.91638889"},
{"state":"Agusan del Sur","name":"Mandili","lat":"15.17916667","lon":"120.87722222"},
{"state":"Agusan del Sur","name":"Mangga","lat":"15.25027778","lon":"120.90888889"},
{"state":"Agusan del Sur","name":"Manibaug Pasig","lat":"15.09611111","lon":"120.56444444"},
{"state":"Agusan del Sur","name":"Manogpi","lat":"13.31083333","lon":"121.20388889"},
{"state":"Agusan del Sur","name":"Mapalacsiao","lat":"15.42833333","lon":"120.65250000"},
{"state":"Agusan del Sur","name":"Mapalad","lat":"15.45138889","lon":"121.08388889"},
{"state":"Agusan del Sur","name":"Mapaniqui","lat":"15.10694444","lon":"120.92277778"},
{"state":"Agusan del Sur","name":"Maquiapo","lat":"14.98555556","lon":"120.55861111"},
{"state":"Agusan del Sur","name":"Marawa","lat":"15.41722222","lon":"120.83805556"},
{"state":"Agusan del Sur","name":"Maria Aurora","lat":"15.79670000","lon":"121.47370000"},
{"state":"Agusan del Sur","name":"Marilao","lat":"14.75805556","lon":"120.94805556"},
{"state":"Agusan del Sur","name":"Mariveles","lat":"14.43333333","lon":"120.48333333"},
{"state":"Agusan del Sur","name":"Masalipit","lat":"15.14805556","lon":"121.03722222"},
{"state":"Agusan del Sur","name":"Masantol","lat":"14.90000000","lon":"120.71666667"},
{"state":"Agusan del Sur","name":"Masinloc","lat":"15.53333333","lon":"119.95000000"},
{"state":"Agusan del Sur","name":"Matayumtayum","lat":"15.51666667","lon":"120.70972222"},
{"state":"Agusan del Sur","name":"Maturanoc","lat":"15.65722222","lon":"120.79222222"},
{"state":"Agusan del Sur","name":"Mayantoc","lat":"15.61666667","lon":"120.38333333"},
{"state":"Agusan del Sur","name":"Mexico","lat":"15.06666667","lon":"120.71666667"},
{"state":"Agusan del Sur","name":"Meycauayan","lat":"14.73333333","lon":"120.95000000"},
{"state":"Agusan del Sur","name":"Minalin","lat":"14.96666667","lon":"120.68333333"},
{"state":"Agusan del Sur","name":"Moncada","lat":"15.73333333","lon":"120.56666667"},
{"state":"Agusan del Sur","name":"Moriones","lat":"15.46111111","lon":"120.46583333"},
{"state":"Agusan del Sur","name":"Morong","lat":"14.68000000","lon":"120.26833333"},
{"state":"Agusan del Sur","name":"Motrico","lat":"15.41361111","lon":"120.67666667"},
{"state":"Agusan del Sur","name":"Muñoz","lat":"15.71666667","lon":"120.90000000"},
{"state":"Agusan del Sur","name":"Murcia","lat":"15.40416667","lon":"120.60916667"},
{"state":"Agusan del Sur","name":"Nagpandayan","lat":"15.60138889","lon":"120.76888889"},
{"state":"Agusan del Sur","name":"Nambalan","lat":"15.59916667","lon":"120.46027778"},
{"state":"Agusan del Sur","name":"Nampicuan","lat":"15.73333333","lon":"120.63333333"},
{"state":"Agusan del Sur","name":"Nancamarinan","lat":"15.67527778","lon":"120.53638889"},
{"state":"Agusan del Sur","name":"Nieves","lat":"15.32833333","lon":"120.94888889"},
{"state":"Agusan del Sur","name":"Niugan","lat":"14.94611111","lon":"120.96722222"},
{"state":"Agusan del Sur","name":"Norzagaray","lat":"14.91083333","lon":"121.04916667"},
{"state":"Agusan del Sur","name":"Obando","lat":"14.70000000","lon":"120.91666667"},
{"state":"Agusan del Sur","name":"Olongapo","lat":"14.83333333","lon":"120.28333333"},
{"state":"Agusan del Sur","name":"Orani","lat":"14.80000000","lon":"120.53333333"},
{"state":"Agusan del Sur","name":"Orion","lat":"14.62056000","lon":"120.58167000"},
{"state":"Agusan del Sur","name":"Paco Roman","lat":"15.65972222","lon":"121.08777778"},
{"state":"Agusan del Sur","name":"Padapada","lat":"15.55166667","lon":"120.51638889"},
{"state":"Agusan del Sur","name":"Paitan Norte","lat":"15.83333333","lon":"120.74083333"},
{"state":"Agusan del Sur","name":"Palauig","lat":"15.43333333","lon":"120.05000000"},
{"state":"Agusan del Sur","name":"Palayan","lat":"15.53333333","lon":"121.08333333"},
{"state":"Agusan del Sur","name":"Palusapis","lat":"15.68333333","lon":"120.86277778"},
{"state":"Agusan del Sur","name":"Pamatawan","lat":"14.92777778","lon":"120.21361111"},
{"state":"Agusan del Sur","name":"Panabingan","lat":"15.37722222","lon":"120.76500000"},
{"state":"Agusan del Sur","name":"Panan","lat":"15.21333333","lon":"120.02722222"},
{"state":"Agusan del Sur","name":"Pance","lat":"15.68861111","lon":"120.62000000"},
{"state":"Agusan del Sur","name":"Pandacaqui","lat":"15.17194444","lon":"120.65444444"},
{"state":"Agusan del Sur","name":"Pandi","lat":"14.86666667","lon":"120.95000000"},
{"state":"Agusan del Sur","name":"Pando","lat":"15.39388889","lon":"120.68472222"},
{"state":"Agusan del Sur","name":"Paniqui","lat":"15.66666667","lon":"120.58333333"},
{"state":"Agusan del Sur","name":"Pantabangan","lat":"15.81666667","lon":"121.15000000"},
{"state":"Agusan del Sur","name":"Pantubig","lat":"14.96805556","lon":"120.95472222"},
{"state":"Agusan del Sur","name":"Paombong","lat":"14.83111100","lon":"120.78916700"},
{"state":"Agusan del Sur","name":"Papaya","lat":"15.32027778","lon":"120.83583333"},
{"state":"Agusan del Sur","name":"Parang","lat":"14.63305556","lon":"120.44916667"},
{"state":"Agusan del Sur","name":"Parista","lat":"15.85361111","lon":"120.92833333"},
{"state":"Agusan del Sur","name":"Pau","lat":"15.02777778","lon":"120.72416667"},
{"state":"Agusan del Sur","name":"Peñaranda","lat":"15.35000000","lon":"121.00000000"},
{"state":"Agusan del Sur","name":"Pias","lat":"15.34527778","lon":"121.07472222"},
{"state":"Agusan del Sur","name":"Pilar","lat":"14.66666667","lon":"120.56666667"},
{"state":"Agusan del Sur","name":"Piñahan","lat":"15.62666667","lon":"121.06222222"},
{"state":"Agusan del Sur","name":"Pinambaran","lat":"15.20222222","lon":"120.97805556"},
{"state":"Agusan del Sur","name":"Pio","lat":"15.04750000","lon":"120.51888889"},
{"state":"Agusan del Sur","name":"Plaridel","lat":"14.88694444","lon":"120.85694444"},
{"state":"Agusan del Sur","name":"Porac","lat":"15.07194444","lon":"120.54194444"},
{"state":"Agusan del Sur","name":"Porais","lat":"15.75500000","lon":"121.04277778"},
{"state":"Agusan del Sur","name":"Prado Siongco","lat":"14.87888889","lon":"120.51305556"},
{"state":"Agusan del Sur","name":"Pulilan","lat":"14.90000000","lon":"120.85000000"},
{"state":"Agusan del Sur","name":"Pulo","lat":"14.96222222","lon":"121.01472222"},
{"state":"Agusan del Sur","name":"Pulong Gubat","lat":"14.85944444","lon":"120.90611111"},
{"state":"Agusan del Sur","name":"Pulong Sampalok","lat":"14.96111111","lon":"121.06083333"},
{"state":"Agusan del Sur","name":"Pulung Santol","lat":"15.04583333","lon":"120.56194444"},
{"state":"Agusan del Sur","name":"Pulungmasle","lat":"15.00027778","lon":"120.55777778"},
{"state":"Agusan del Sur","name":"Puncan","lat":"15.90722222","lon":"120.99083333"},
{"state":"Agusan del Sur","name":"Pura","lat":"15.62480000","lon":"120.64800000"},
{"state":"Agusan del Sur","name":"Purac","lat":"15.25194444","lon":"120.01694444"},
{"state":"Agusan del Sur","name":"Putlod","lat":"15.37055556","lon":"120.86750000"},
{"state":"Agusan del Sur","name":"Quezon","lat":"15.55000000","lon":"120.81666667"},
{"state":"Agusan del Sur","name":"Rajal Norte","lat":"15.44472222","lon":"120.86250000"},
{"state":"Agusan del Sur","name":"Ramos","lat":"15.66666667","lon":"120.64166667"},
{"state":"Agusan del Sur","name":"Rizal","lat":"15.68333333","lon":"121.16666667"},
{"state":"Agusan del Sur","name":"Sabang","lat":"14.69500000","lon":"120.25083333"},
{"state":"Agusan del Sur","name":"Sagana","lat":"15.56888889","lon":"121.15222222"},
{"state":"Agusan del Sur","name":"Salapungan","lat":"15.13388889","lon":"120.92805556"},
{"state":"Agusan del Sur","name":"Salaza","lat":"15.45416667","lon":"119.95527778"},
{"state":"Agusan del Sur","name":"Salcedo","lat":"15.85722222","lon":"120.60000000"},
{"state":"Agusan del Sur","name":"Salvacion I","lat":"15.83972222","lon":"120.91583333"},
{"state":"Agusan del Sur","name":"Samal","lat":"14.76778000","lon":"120.54306000"},
{"state":"Agusan del Sur","name":"Sampaloc","lat":"15.81666667","lon":"120.86666667"},
{"state":"Agusan del Sur","name":"San Agustin","lat":"14.93333333","lon":"120.15000000"},
{"state":"Agusan del Sur","name":"San Alejandro","lat":"15.56111111","lon":"120.84888889"},
{"state":"Agusan del Sur","name":"San Andres","lat":"15.71916667","lon":"120.77750000"},
{"state":"Agusan del Sur","name":"San Anton","lat":"15.34777778","lon":"120.92000000"},
{"state":"Agusan del Sur","name":"San Antonio","lat":"15.38333333","lon":"120.80000000"},
{"state":"Agusan del Sur","name":"San Basilio","lat":"15.03333333","lon":"120.58416667"},
{"state":"Agusan del Sur","name":"San Benito","lat":"14.85166667","lon":"120.42694444"},
{"state":"Agusan del Sur","name":"San Carlos","lat":"15.03972222","lon":"120.76277778"},
{"state":"Agusan del Sur","name":"San Casimiro","lat":"15.55305556","lon":"120.78083333"},
{"state":"Agusan del Sur","name":"San Clemente","lat":"15.71666667","lon":"120.36666667"},
{"state":"Agusan del Sur","name":"San Cristobal","lat":"15.55388889","lon":"120.76694444"},
{"state":"Agusan del Sur","name":"San Fabian","lat":"15.59638889","lon":"120.90666667"},
{"state":"Agusan del Sur","name":"San Felipe","lat":"15.06194444","lon":"120.07000000"},
{"state":"Agusan del Sur","name":"San Felipe Old","lat":"15.50138889","lon":"120.90777778"},
{"state":"Agusan del Sur","name":"San Fernando","lat":"15.03333333","lon":"120.68333333"},
{"state":"Agusan del Sur","name":"San Francisco","lat":"15.35555556","lon":"120.84000000"},
{"state":"Agusan del Sur","name":"San Ildefonso","lat":"15.07888900","lon":"120.94194400"},
{"state":"Agusan del Sur","name":"San Isidro","lat":"15.26666667","lon":"120.90000000"},
{"state":"Agusan del Sur","name":"San Jacinto","lat":"15.54500000","lon":"120.66972222"},
{"state":"Agusan del Sur","name":"San Jose","lat":"15.78333333","lon":"121.00000000"},
{"state":"Agusan del Sur","name":"San Jose del Monte","lat":"14.81388889","lon":"121.04527778"},
{"state":"Agusan del Sur","name":"San Juan","lat":"15.28972222","lon":"120.06472222"},
{"state":"Agusan del Sur","name":"San Juan de Mata","lat":"15.53527778","lon":"120.53027778"},
{"state":"Agusan del Sur","name":"San Leonardo","lat":"15.36666667","lon":"120.96666667"},
{"state":"Agusan del Sur","name":"San Lorenzo","lat":"15.48611111","lon":"119.96222222"},
{"state":"Agusan del Sur","name":"San Luis","lat":"15.04000000","lon":"120.79194444"},
{"state":"Agusan del Sur","name":"San Manuel","lat":"15.83333333","lon":"120.58333333"},
{"state":"Agusan del Sur","name":"San Marcelino","lat":"14.97418000","lon":"120.15733000"},
{"state":"Agusan del Sur","name":"San Mariano","lat":"15.32083333","lon":"120.87611111"},
{"state":"Agusan del Sur","name":"San Mateo","lat":"15.20000000","lon":"120.79472222"},
{"state":"Agusan del Sur","name":"San Miguel","lat":"15.14222222","lon":"120.97555556"},
{"state":"Agusan del Sur","name":"San Narciso","lat":"15.01666667","lon":"120.08333333"},
{"state":"Agusan del Sur","name":"San Nicolas","lat":"15.58416667","lon":"120.67638889"},
{"state":"Agusan del Sur","name":"San Pascual","lat":"15.50138889","lon":"120.66722222"},
{"state":"Agusan del Sur","name":"San Patricio","lat":"15.09777778","lon":"120.72888889"},
{"state":"Agusan del Sur","name":"San Rafael","lat":"14.95000000","lon":"120.96666667"},
{"state":"Agusan del Sur","name":"San Ricardo","lat":"15.59583333","lon":"120.97277778"},
{"state":"Agusan del Sur","name":"San Roque","lat":"15.00944444","lon":"120.93833333"},
{"state":"Agusan del Sur","name":"San Roque Dau First","lat":"14.97722222","lon":"120.57694444"},
{"state":"Agusan del Sur","name":"San Simon","lat":"14.99960000","lon":"120.78080000"},
{"state":"Agusan del Sur","name":"San Vicente","lat":"15.29222222","lon":"120.65500000"},
{"state":"Agusan del Sur","name":"San Vincente","lat":"13.40666667","lon":"121.17500000"},
{"state":"Agusan del Sur","name":"Santa Ana","lat":"15.09388889","lon":"120.76805556"},
{"state":"Agusan del Sur","name":"Santa Barbara","lat":"15.38500000","lon":"120.79611111"},
{"state":"Agusan del Sur","name":"Santa Cruz","lat":"15.76527778","lon":"119.90916667"},
{"state":"Agusan del Sur","name":"Santa Fe","lat":"15.01027778","lon":"120.21027778"},
{"state":"Agusan del Sur","name":"Santa Ignacia","lat":"15.61666667","lon":"120.43333333"},
{"state":"Agusan del Sur","name":"Santa Ines West","lat":"15.55694444","lon":"120.46444444"},
{"state":"Agusan del Sur","name":"Santa Juliana","lat":"15.32833333","lon":"120.42861111"},
{"state":"Agusan del Sur","name":"Santa Lucia","lat":"15.36805556","lon":"120.48638889"},
{"state":"Agusan del Sur","name":"Santa Maria","lat":"14.81833333","lon":"120.95633333"},
{"state":"Agusan del Sur","name":"Santa Monica","lat":"15.35777778","lon":"120.72000000"},
{"state":"Agusan del Sur","name":"Santa Rita","lat":"14.99527800","lon":"120.61527800"},
{"state":"Agusan del Sur","name":"Santa Rosa","lat":"15.42388889","lon":"120.93888889"},
{"state":"Agusan del Sur","name":"Santa Teresa First","lat":"14.92638889","lon":"120.55777778"},
{"state":"Agusan del Sur","name":"Santiago","lat":"14.90361111","lon":"120.51138889"},
{"state":"Agusan del Sur","name":"Santo Cristo","lat":"15.29694444","lon":"120.89027778"},
{"state":"Agusan del Sur","name":"Santo Domingo","lat":"15.58333333","lon":"120.86666667"},
{"state":"Agusan del Sur","name":"Santo Niño","lat":"15.33444444","lon":"120.62611111"},
{"state":"Agusan del Sur","name":"Santo Rosario","lat":"15.43416667","lon":"120.88972222"},
{"state":"Agusan del Sur","name":"Santo Tomas","lat":"14.96666667","lon":"120.71666667"},
{"state":"Agusan del Sur","name":"Santol","lat":"15.16222000","lon":"120.56750000"},
{"state":"Agusan del Sur","name":"Sapang","lat":"15.70333333","lon":"120.52444444"},
{"state":"Agusan del Sur","name":"Sapang Buho","lat":"15.59027778","lon":"121.12444444"},
{"state":"Agusan del Sur","name":"Sapol","lat":"13.36500000","lon":"121.18916667"},
{"state":"Agusan del Sur","name":"Sasmuan","lat":"14.93333333","lon":"120.61666667"},
{"state":"Agusan del Sur","name":"Saysain","lat":"14.56111111","lon":"120.39250000"},
{"state":"Agusan del Sur","name":"Sibul","lat":"15.16888889","lon":"121.06166667"},
{"state":"Agusan del Sur","name":"Siclong","lat":"15.58083333","lon":"121.22388889"},
{"state":"Agusan del Sur","name":"Sinait","lat":"15.53666667","lon":"120.58500000"},
{"state":"Agusan del Sur","name":"Sinilian First","lat":"15.69333333","lon":"120.45944444"},
{"state":"Agusan del Sur","name":"Soledad","lat":"15.42833333","lon":"120.98361111"},
{"state":"Agusan del Sur","name":"Subic","lat":"14.90000000","lon":"120.23333333"},
{"state":"Agusan del Sur","name":"Suklayin","lat":"15.75750000","lon":"121.55027778"},
{"state":"Agusan del Sur","name":"Sula","lat":"15.45722222","lon":"120.39555556"},
{"state":"Agusan del Sur","name":"Sulucan","lat":"14.79444444","lon":"120.92583333"},
{"state":"Agusan del Sur","name":"Tabacao","lat":"15.64972222","lon":"120.94055556"},
{"state":"Agusan del Sur","name":"Tabon","lat":"15.27111111","lon":"120.91277778"},
{"state":"Agusan del Sur","name":"Tabuating","lat":"15.39222222","lon":"120.94083333"},
{"state":"Agusan del Sur","name":"Tal I Mun Doc","lat":"15.21222222","lon":"120.68500000"},
{"state":"Agusan del Sur","name":"Talaga","lat":"15.38388889","lon":"120.58944444"},
{"state":"Agusan del Sur","name":"Talang","lat":"15.02500000","lon":"120.83777778"},
{"state":"Agusan del Sur","name":"Talavera","lat":"15.58388889","lon":"120.91888889"},
{"state":"Agusan del Sur","name":"Taltal","lat":"15.58777778","lon":"119.94555556"},
{"state":"Agusan del Sur","name":"Talugtug","lat":"15.77888889","lon":"120.81111111"},
{"state":"Agusan del Sur","name":"Tariji","lat":"15.52111111","lon":"120.61444444"},
{"state":"Agusan del Sur","name":"Tarlac City","lat":"15.48562000","lon":"120.61616000"},
{"state":"Agusan del Sur","name":"Tayabo","lat":"15.83444444","lon":"121.03083333"},
{"state":"Agusan del Sur","name":"Telabastagan","lat":"15.11861111","lon":"120.60777778"},
{"state":"Agusan del Sur","name":"Tikiw","lat":"15.31194444","lon":"120.86111111"},
{"state":"Agusan del Sur","name":"Tinang","lat":"15.37638889","lon":"120.65333333"},
{"state":"Agusan del Sur","name":"Tondod","lat":"15.71833333","lon":"120.96805556"},
{"state":"Agusan del Sur","name":"Uacon","lat":"15.67861111","lon":"119.94027778"},
{"state":"Agusan del Sur","name":"Umiray","lat":"15.22055556","lon":"121.41111111"},
{"state":"Agusan del Sur","name":"Upig","lat":"15.02555556","lon":"120.99194444"},
{"state":"Agusan del Sur","name":"Vargas","lat":"15.59333333","lon":"120.48722222"},
{"state":"Agusan del Sur","name":"Victoria","lat":"15.57805556","lon":"120.68194444"},
{"state":"Agusan del Sur","name":"Villa Aglipay","lat":"15.46611111","lon":"120.45277778"},
{"state":"Agusan del Sur","name":"Villa Isla","lat":"15.77027778","lon":"120.86666667"},
{"state":"Agusan del Sur","name":"Vizal San Pablo","lat":"15.06250000","lon":"120.90027778"},
{"state":"Agusan del Sur","name":"Vizal Santo Niño","lat":"15.02916667","lon":"120.90500000"},
{"state":"Agusan del Sur","name":"Zaragoza","lat":"15.45305556","lon":"120.79111111"},
{"state":"Albay","name":"Aanislag","lat":"13.07480000","lon":"123.70300000"},
{"state":"Albay","name":"Abucay","lat":"12.98200000","lon":"123.64920000"},
{"state":"Albay","name":"Abuyog","lat":"12.94610000","lon":"124.05190000"},
{"state":"Albay","name":"Agos","lat":"13.34340000","lon":"123.39830000"},
{"state":"Albay","name":"Aguada","lat":"12.81667000","lon":"123.83333000"},
{"state":"Albay","name":"Agupit","lat":"13.42250000","lon":"123.32472000"},
{"state":"Albay","name":"Alayao","lat":"14.28180000","lon":"122.55240000"},
{"state":"Albay","name":"Antipolo","lat":"13.52860000","lon":"123.16220000"},
{"state":"Albay","name":"Anuling","lat":"13.20930000","lon":"123.67610000"},
{"state":"Albay","name":"Apad","lat":"13.81500000","lon":"122.76640000"},
{"state":"Albay","name":"Apud","lat":"13.13928000","lon":"123.29164000"},
{"state":"Albay","name":"Armenia","lat":"12.25324000","lon":"123.74361000"},
{"state":"Albay","name":"Aroroy","lat":"12.51110000","lon":"123.39770000"},
{"state":"Albay","name":"Ayugan","lat":"13.54690000","lon":"123.32170000"},
{"state":"Albay","name":"Baao","lat":"13.45490000","lon":"123.36530000"},
{"state":"Albay","name":"Bacacay","lat":"13.29340000","lon":"123.79190000"},
{"state":"Albay","name":"Bacolod","lat":"12.22854000","lon":"123.50851000"},
{"state":"Albay","name":"Bacon","lat":"13.03778000","lon":"124.04111000"},
{"state":"Albay","name":"Badian","lat":"13.03167000","lon":"123.30778000"},
{"state":"Albay","name":"Bagacay","lat":"12.98210000","lon":"124.14150000"},
{"state":"Albay","name":"Bagahanlad","lat":"12.57970000","lon":"123.66880000"},
{"state":"Albay","name":"Bagamanoc","lat":"13.94040000","lon":"124.28962000"},
{"state":"Albay","name":"Bagumbayan","lat":"13.45000000","lon":"123.66667000"},
{"state":"Albay","name":"Bahay","lat":"13.54370000","lon":"123.04070000"},
{"state":"Albay","name":"Balading","lat":"13.39060000","lon":"123.71210000"},
{"state":"Albay","name":"Balaogan","lat":"13.43280000","lon":"123.28180000"},
{"state":"Albay","name":"Balatan","lat":"13.32111000","lon":"123.23333000"},
{"state":"Albay","name":"Baleno","lat":"12.47390000","lon":"123.49820000"},
{"state":"Albay","name":"Balete","lat":"13.01917000","lon":"124.03194000"},
{"state":"Albay","name":"Baligang","lat":"13.15370000","lon":"123.64320000"},
{"state":"Albay","name":"Balinad","lat":"13.29260000","lon":"123.54540000"},
{"state":"Albay","name":"Baliuag Nuevo","lat":"13.52140000","lon":"123.20160000"},
{"state":"Albay","name":"Balogo","lat":"13.28710000","lon":"123.54960000"},
{"state":"Albay","name":"Balucawi","lat":"12.20130000","lon":"123.84260000"},
{"state":"Albay","name":"Balud","lat":"12.03686000","lon":"123.19351000"},
{"state":"Albay","name":"Banag","lat":"13.37889000","lon":"123.70333000"},
{"state":"Albay","name":"Bangad","lat":"12.16125000","lon":"123.40131000"},
{"state":"Albay","name":"Bangkirohan","lat":"13.05530000","lon":"123.74680000"},
{"state":"Albay","name":"Banocboc","lat":"14.30000000","lon":"122.58333000"},
{"state":"Albay","name":"Bao","lat":"13.64140000","lon":"122.83140000"},
{"state":"Albay","name":"Baras","lat":"13.65880000","lon":"124.37000000"},
{"state":"Albay","name":"Barayong","lat":"13.10000000","lon":"123.71667000"},
{"state":"Albay","name":"Barcelona","lat":"12.86830000","lon":"124.14190000"},
{"state":"Albay","name":"Bariw","lat":"13.13333000","lon":"123.73333000"},
{"state":"Albay","name":"Barra","lat":"12.07170000","lon":"123.63950000"},
{"state":"Albay","name":"Bascaron","lat":"13.10290000","lon":"123.69990000"},
{"state":"Albay","name":"Basiad","lat":"14.15617000","lon":"122.33749000"},
{"state":"Albay","name":"Basicao Coastal","lat":"13.04589000","lon":"123.40423000"},
{"state":"Albay","name":"Basud","lat":"14.06500000","lon":"122.96420000"},
{"state":"Albay","name":"Batana","lat":"13.24980000","lon":"123.56410000"},
{"state":"Albay","name":"Bato","lat":"13.35280000","lon":"123.36770000"},
{"state":"Albay","name":"Batobalane","lat":"14.23333000","lon":"122.75000000"},
{"state":"Albay","name":"Batuan","lat":"12.39760000","lon":"123.76279000"},
{"state":"Albay","name":"Baybay","lat":"13.40830000","lon":"123.71350000"},
{"state":"Albay","name":"Beberon","lat":"13.54440000","lon":"123.14050000"},
{"state":"Albay","name":"Bigaa","lat":"13.19930000","lon":"123.75660000"},
{"state":"Albay","name":"Binanwanaan","lat":"13.70000000","lon":"123.30000000"},
{"state":"Albay","name":"Binitayan","lat":"13.29450000","lon":"123.75790000"},
{"state":"Albay","name":"Binodegahan","lat":"13.06140000","lon":"123.45790000"},
{"state":"Albay","name":"Bolo","lat":"13.75300000","lon":"122.96580000"},
{"state":"Albay","name":"Bombon","lat":"13.68870000","lon":"123.20770000"},
{"state":"Albay","name":"Bonga","lat":"13.27990000","lon":"123.75870000"},
{"state":"Albay","name":"Boton","lat":"12.92870000","lon":"124.04790000"},
{"state":"Albay","name":"Buang","lat":"13.31150000","lon":"123.64210000"},
{"state":"Albay","name":"Buenavista","lat":"12.17639000","lon":"123.79056000"},
{"state":"Albay","name":"Buga","lat":"13.29660000","lon":"123.35960000"},
{"state":"Albay","name":"Buhatan","lat":"12.97550000","lon":"124.04780000"},
{"state":"Albay","name":"Buhi","lat":"13.43220000","lon":"123.51700000"},
{"state":"Albay","name":"Bula","lat":"13.47010000","lon":"123.27800000"},
{"state":"Albay","name":"Bulan","lat":"12.67139000","lon":"123.87500000"},
{"state":"Albay","name":"Bulo","lat":"12.41090000","lon":"123.56720000"},
{"state":"Albay","name":"Buluang","lat":"13.30680000","lon":"123.34250000"},
{"state":"Albay","name":"Bulusan","lat":"12.74936000","lon":"124.12087000"},
{"state":"Albay","name":"Burabod","lat":"13.26860000","lon":"123.41620000"},
{"state":"Albay","name":"Buracan","lat":"13.60000000","lon":"123.50000000"},
{"state":"Albay","name":"Busing","lat":"13.15139000","lon":"122.97139000"},
{"state":"Albay","name":"Butag","lat":"12.62920000","lon":"123.93350000"},
{"state":"Albay","name":"Buyo","lat":"13.11440000","lon":"123.86660000"},
{"state":"Albay","name":"Cabcab","lat":"13.62680000","lon":"124.05150000"},
{"state":"Albay","name":"Cabiguan","lat":"12.90583000","lon":"123.73139000"},
{"state":"Albay","name":"Cabitan","lat":"12.29434000","lon":"123.34121000"},
{"state":"Albay","name":"Cabognon","lat":"13.18290000","lon":"123.67770000"},
{"state":"Albay","name":"Cabugao","lat":"13.59620000","lon":"124.28040000"},
{"state":"Albay","name":"Cabusao","lat":"13.72270000","lon":"123.11690000"},
{"state":"Albay","name":"Caditaan","lat":"12.80528000","lon":"123.84917000"},
{"state":"Albay","name":"Cadlan","lat":"13.59710000","lon":"123.25700000"},
{"state":"Albay","name":"Cagmanaba","lat":"13.05501000","lon":"123.29706000"},
{"state":"Albay","name":"Calabaca","lat":"14.30010000","lon":"122.43364000"},
{"state":"Albay","name":"Calabanga","lat":"13.70680000","lon":"123.20870000"},
{"state":"Albay","name":"Calachuchi","lat":"12.21775000","lon":"123.53061000"},
{"state":"Albay","name":"Calasgasan","lat":"14.08333000","lon":"122.93333000"},
{"state":"Albay","name":"Calatagan","lat":"13.58850000","lon":"124.20650000"},
{"state":"Albay","name":"Calolbon","lat":"13.59600000","lon":"124.09910000"},
{"state":"Albay","name":"Camalig","lat":"13.18210000","lon":"123.65430000"},
{"state":"Albay","name":"Camaligan","lat":"13.62240000","lon":"123.16670000"},
{"state":"Albay","name":"Canaman","lat":"13.64800000","lon":"123.16990000"},
{"state":"Albay","name":"Canomoy","lat":"12.15735000","lon":"123.27011000"},
{"state":"Albay","name":"Capalonga","lat":"14.33060000","lon":"122.49370000"},
{"state":"Albay","name":"Capucnasan","lat":"13.60000000","lon":"123.21667000"},
{"state":"Albay","name":"Capuy","lat":"12.98333000","lon":"123.93333000"},
{"state":"Albay","name":"Caramoan","lat":"13.77070000","lon":"123.86310000"},
{"state":"Albay","name":"Caramoran","lat":"13.98490000","lon":"124.13470000"},
{"state":"Albay","name":"Caranan","lat":"13.51670000","lon":"123.01560000"},
{"state":"Albay","name":"Caraycayon","lat":"13.61667000","lon":"123.48333000"},
{"state":"Albay","name":"Carriedo","lat":"12.93440000","lon":"124.10500000"},
{"state":"Albay","name":"Casiguran","lat":"12.87361000","lon":"124.00972000"},
{"state":"Albay","name":"Castilla","lat":"12.94861000","lon":"123.88222000"},
{"state":"Albay","name":"Castillo","lat":"13.73130000","lon":"123.11660000"},
{"state":"Albay","name":"Catabangan","lat":"13.87770000","lon":"122.66150000"},
{"state":"Albay","name":"Cataingan","lat":"12.00300000","lon":"123.99200000"},
{"state":"Albay","name":"Causip","lat":"13.51590000","lon":"123.28340000"},
{"state":"Albay","name":"Claveria","lat":"12.90350000","lon":"123.24570000"},
{"state":"Albay","name":"Cotmon","lat":"13.11750000","lon":"123.66370000"},
{"state":"Albay","name":"Culacling","lat":"13.78150000","lon":"122.87670000"},
{"state":"Albay","name":"Cumadcad","lat":"12.98056000","lon":"123.78917000"},
{"state":"Albay","name":"Curry","lat":"13.60000000","lon":"123.30000000"},
{"state":"Albay","name":"Daet","lat":"14.11220000","lon":"122.95530000"},
{"state":"Albay","name":"Daguit","lat":"14.18950000","lon":"122.72660000"},
{"state":"Albay","name":"Dalupaon","lat":"13.55170000","lon":"122.94570000"},
{"state":"Albay","name":"Dangcalan","lat":"12.91680000","lon":"123.58380000"},
{"state":"Albay","name":"Dapdap","lat":"12.21550000","lon":"123.76620000"},
{"state":"Albay","name":"Daraga","lat":"13.14830000","lon":"123.71240000"},
{"state":"Albay","name":"Del Gallego","lat":"13.92230000","lon":"122.59540000"},
{"state":"Albay","name":"Del Rosario","lat":"13.30570000","lon":"123.31330000"},
{"state":"Albay","name":"Dimasalang","lat":"12.19230000","lon":"123.85920000"},
{"state":"Albay","name":"Donsol","lat":"12.90550000","lon":"123.59490000"},
{"state":"Albay","name":"Dugcal","lat":"13.62410000","lon":"123.16120000"},
{"state":"Albay","name":"Dugongan","lat":"14.10250000","lon":"122.90660000"},
{"state":"Albay","name":"Esperanza","lat":"11.73650000","lon":"124.04200000"},
{"state":"Albay","name":"Estancia","lat":"13.35890000","lon":"123.67960000"},
{"state":"Albay","name":"Fabrica","lat":"13.49000000","lon":"123.29400000"},
{"state":"Albay","name":"Gabao","lat":"12.99240000","lon":"124.01690000"},
{"state":"Albay","name":"Gainza","lat":"13.61650000","lon":"123.14190000"},
{"state":"Albay","name":"Gambalidio","lat":"13.62050000","lon":"122.89130000"},
{"state":"Albay","name":"Garchitorena","lat":"13.88040000","lon":"123.69460000"},
{"state":"Albay","name":"Gatbo","lat":"13.58333000","lon":"123.38333000"},
{"state":"Albay","name":"Gibgos","lat":"13.85900000","lon":"123.76750000"},
{"state":"Albay","name":"Gigmoto","lat":"13.77960000","lon":"124.39000000"},
{"state":"Albay","name":"Goa","lat":"13.69780000","lon":"123.48920000"},
{"state":"Albay","name":"Gubat","lat":"12.92056000","lon":"124.12306000"},
{"state":"Albay","name":"Guijalo","lat":"13.73730000","lon":"123.86800000"},
{"state":"Albay","name":"Guinacotan","lat":"14.15690000","lon":"122.86800000"},
{"state":"Albay","name":"Guinobatan","lat":"13.19130000","lon":"123.59870000"},
{"state":"Albay","name":"Gumaus","lat":"14.31030000","lon":"122.72290000"},
{"state":"Albay","name":"Guruyan","lat":"12.73889000","lon":"123.93917000"},
{"state":"Albay","name":"Hamoraon","lat":"12.22564000","lon":"123.55151000"},
{"state":"Albay","name":"Herrera","lat":"13.26930000","lon":"123.57690000"},
{"state":"Albay","name":"Himaao","lat":"13.54480000","lon":"123.30050000"},
{"state":"Albay","name":"Hobo","lat":"13.51010000","lon":"123.17920000"},
{"state":"Albay","name":"Imelda","lat":"14.03333000","lon":"122.88333000"},
{"state":"Albay","name":"Inapatan","lat":"13.39640000","lon":"123.32270000"},
{"state":"Albay","name":"Iraya","lat":"13.25000000","lon":"123.51667000"},
{"state":"Albay","name":"Iriga City","lat":"13.43240000","lon":"123.41150000"},
{"state":"Albay","name":"Irosin","lat":"12.70013000","lon":"124.03221000"},
{"state":"Albay","name":"Joroan","lat":"13.48850000","lon":"123.61890000"},
{"state":"Albay","name":"Jose Pañganiban","lat":"14.29060000","lon":"122.69170000"},
{"state":"Albay","name":"Jovellar","lat":"13.06950000","lon":"123.59990000"},
{"state":"Albay","name":"Juban","lat":"12.84778000","lon":"123.98778000"},
{"state":"Albay","name":"Kaliliog","lat":"13.90390000","lon":"123.29250000"},
{"state":"Albay","name":"Kinalansan","lat":"13.70360000","lon":"123.55310000"},
{"state":"Albay","name":"Labnig","lat":"13.37690000","lon":"123.67880000"},
{"state":"Albay","name":"Labo","lat":"14.15320000","lon":"122.83030000"},
{"state":"Albay","name":"Lacag","lat":"13.15530000","lon":"123.68120000"},
{"state":"Albay","name":"Lagonoy","lat":"13.73420000","lon":"123.52070000"},
{"state":"Albay","name":"Lajong","lat":"12.83333000","lon":"123.96667000"},
{"state":"Albay","name":"Lanigay","lat":"13.31667000","lon":"123.50000000"},
{"state":"Albay","name":"Lantangan","lat":"12.19815000","lon":"123.27101000"},
{"state":"Albay","name":"Larap","lat":"14.29900000","lon":"122.65040000"},
{"state":"Albay","name":"Legaspi","lat":"13.14125000","lon":"123.74073000"},
{"state":"Albay","name":"Libmanan","lat":"13.69280000","lon":"123.05960000"},
{"state":"Albay","name":"Libog","lat":"13.23490000","lon":"123.77780000"},
{"state":"Albay","name":"Libon","lat":"13.29970000","lon":"123.43860000"},
{"state":"Albay","name":"Liboro","lat":"13.82450000","lon":"122.72950000"},
{"state":"Albay","name":"Ligao","lat":"13.21697000","lon":"123.51924000"},
{"state":"Albay","name":"Limbuhan","lat":"11.88377000","lon":"124.05011000"},
{"state":"Albay","name":"Lourdes","lat":"13.38990000","lon":"123.37350000"},
{"state":"Albay","name":"Lubigan","lat":"13.74200000","lon":"122.93730000"},
{"state":"Albay","name":"Lugui","lat":"14.11310000","lon":"122.79350000"},
{"state":"Albay","name":"Luklukan","lat":"14.32540000","lon":"122.71240000"},
{"state":"Albay","name":"Luna","lat":"12.54920000","lon":"123.73360000"},
{"state":"Albay","name":"Lupi","lat":"13.53333000","lon":"123.15000000"},
{"state":"Albay","name":"Lupi Viejo","lat":"13.78970000","lon":"122.90980000"},
{"state":"Albay","name":"Maagnas","lat":"13.71920000","lon":"123.66750000"},
{"state":"Albay","name":"Mabiton","lat":"12.83340000","lon":"123.26120000"},
{"state":"Albay","name":"Macabugos","lat":"13.23620000","lon":"123.30530000"},
{"state":"Albay","name":"Macalaya","lat":"12.88944000","lon":"123.77111000"},
{"state":"Albay","name":"Magallanes","lat":"12.82917000","lon":"123.83639000"},
{"state":"Albay","name":"Magarao","lat":"13.66040000","lon":"123.18690000"},
{"state":"Albay","name":"Magsalangi","lat":"12.18275000","lon":"123.56661000"},
{"state":"Albay","name":"Mahaba","lat":"13.26760000","lon":"123.55140000"},
{"state":"Albay","name":"Malabog","lat":"13.17380000","lon":"123.68650000"},
{"state":"Albay","name":"Malasugui","lat":"14.14390000","lon":"122.84710000"},
{"state":"Albay","name":"Malatap","lat":"14.18710000","lon":"122.51190000"},
{"state":"Albay","name":"Malawag","lat":"13.38333000","lon":"123.28333000"},
{"state":"Albay","name":"Malbug","lat":"12.05630000","lon":"123.64610000"},
{"state":"Albay","name":"Malidong","lat":"13.01333000","lon":"123.45962000"},
{"state":"Albay","name":"Malilipot","lat":"13.31880000","lon":"123.73850000"},
{"state":"Albay","name":"Malinao","lat":"13.39920000","lon":"123.70690000"},
{"state":"Albay","name":"Malinta","lat":"12.30144000","lon":"123.55811000"},
{"state":"Albay","name":"Mambulo","lat":"13.71667000","lon":"123.05000000"},
{"state":"Albay","name":"Mampurog","lat":"14.04580000","lon":"122.88360000"},
{"state":"Albay","name":"Manamrag","lat":"13.73510000","lon":"124.10640000"},
{"state":"Albay","name":"Mandaon","lat":"12.22594000","lon":"123.28421000"},
{"state":"Albay","name":"Manga","lat":"13.27190000","lon":"123.46230000"},
{"state":"Albay","name":"Manito","lat":"13.12350000","lon":"123.86930000"},
{"state":"Albay","name":"Manquiring","lat":"13.73410000","lon":"123.26900000"},
{"state":"Albay","name":"Maonon","lat":"13.03643000","lon":"123.37074000"},
{"state":"Albay","name":"Marintoc","lat":"12.28554000","lon":"123.72281000"},
{"state":"Albay","name":"Marupit","lat":"13.62690000","lon":"123.16630000"},
{"state":"Albay","name":"Masaraway","lat":"13.22680000","lon":"123.61480000"},
{"state":"Albay","name":"Masbate","lat":"12.37169000","lon":"123.62494000"},
{"state":"Albay","name":"Maslog","lat":"13.10460000","lon":"123.77130000"},
{"state":"Albay","name":"Masoli","lat":"13.35930000","lon":"123.38980000"},
{"state":"Albay","name":"Matacon","lat":"13.32840000","lon":"123.43560000"},
{"state":"Albay","name":"Matnog","lat":"12.58780000","lon":"124.08750000"},
{"state":"Albay","name":"Mauraro","lat":"13.14940000","lon":"123.59530000"},
{"state":"Albay","name":"Mayngaran","lat":"12.34920000","lon":"123.59960000"},
{"state":"Albay","name":"Mercedes","lat":"14.10930000","lon":"123.01090000"},
{"state":"Albay","name":"Miaga","lat":"12.23760000","lon":"123.81670000"},
{"state":"Albay","name":"Milagros","lat":"12.21814000","lon":"123.50951000"},
{"state":"Albay","name":"Milaor","lat":"13.59610000","lon":"123.17720000"},
{"state":"Albay","name":"Miliroc","lat":"13.34490000","lon":"123.70200000"},
{"state":"Albay","name":"Minalabac","lat":"13.56870000","lon":"123.18380000"},
{"state":"Albay","name":"Mobo","lat":"12.33630000","lon":"123.65740000"},
{"state":"Albay","name":"Monbon","lat":"12.73070000","lon":"124.01890000"},
{"state":"Albay","name":"Monreal","lat":"12.64400000","lon":"123.66480000"},
{"state":"Albay","name":"Muladbucad","lat":"13.23890000","lon":"123.60570000"},
{"state":"Albay","name":"Naagas","lat":"13.43570000","lon":"123.67810000"},
{"state":"Albay","name":"Nabangig","lat":"12.09890000","lon":"123.95030000"},
{"state":"Albay","name":"Nabua","lat":"13.40750000","lon":"123.37240000"},
{"state":"Albay","name":"Naga","lat":"13.61917000","lon":"123.18139000"},
{"state":"Albay","name":"Naro","lat":"11.89697000","lon":"123.67392000"},
{"state":"Albay","name":"Nato","lat":"13.61050000","lon":"123.53560000"},
{"state":"Albay","name":"Ocampo","lat":"13.55940000","lon":"123.37610000"},
{"state":"Albay","name":"Odicon","lat":"13.53000000","lon":"123.05880000"},
{"state":"Albay","name":"Ogod","lat":"12.90090000","lon":"123.61700000"},
{"state":"Albay","name":"Osiao","lat":"13.09140000","lon":"123.98110000"},
{"state":"Albay","name":"Osmeña","lat":"12.73150000","lon":"123.33180000"},
{"state":"Albay","name":"Padang","lat":"13.21960000","lon":"123.76550000"},
{"state":"Albay","name":"Palali","lat":"14.30622000","lon":"122.48571000"},
{"state":"Albay","name":"Palanas","lat":"12.14580000","lon":"123.92160000"},
{"state":"Albay","name":"Palestina","lat":"13.61170000","lon":"123.24900000"},
{"state":"Albay","name":"Palsong","lat":"13.42480000","lon":"123.29630000"},
{"state":"Albay","name":"Pambuhan","lat":"13.97360000","lon":"123.08370000"},
{"state":"Albay","name":"Pamplona","lat":"13.59160000","lon":"123.08160000"},
{"state":"Albay","name":"Pandan","lat":"14.04530000","lon":"124.16940000"},
{"state":"Albay","name":"Panganiban","lat":"13.90033000","lon":"124.29816000"},
{"state":"Albay","name":"Panguiranan","lat":"12.06986000","lon":"123.31851000"},
{"state":"Albay","name":"Paniqui","lat":"12.45320000","lon":"123.38210000"},
{"state":"Albay","name":"Pantao","lat":"13.19440000","lon":"123.32710000"},
{"state":"Albay","name":"Parabcan","lat":"13.70880000","lon":"123.74500000"},
{"state":"Albay","name":"Paracale","lat":"14.28040000","lon":"122.78810000"},
{"state":"Albay","name":"Pasacao","lat":"13.51180000","lon":"123.04260000"},
{"state":"Albay","name":"Paulba","lat":"13.71360000","lon":"123.24960000"},
{"state":"Albay","name":"Pawa","lat":"13.17730000","lon":"123.73010000"},
{"state":"Albay","name":"Pawican","lat":"12.07410000","lon":"123.97060000"},
{"state":"Albay","name":"Pawili","lat":"13.51667000","lon":"123.28333000"},
{"state":"Albay","name":"Peña","lat":"12.08900000","lon":"123.93840000"},
{"state":"Albay","name":"Pilar","lat":"12.92310000","lon":"123.67240000"},
{"state":"Albay","name":"Pili","lat":"12.98056000","lon":"123.86417000"},
{"state":"Albay","name":"Pinit","lat":"13.56860000","lon":"123.41400000"},
{"state":"Albay","name":"Pio Duran","lat":"13.02928000","lon":"123.44496000"},
{"state":"Albay","name":"Placer","lat":"11.86870000","lon":"123.91840000"},