[{"state":"Azad Kashmir","name":"Bhimbar","lat":"32.97465000","lon":"74.07846000"},
{"state":"Azad Kashmir","name":"Kotli","lat":"33.51836000","lon":"73.90220000"},
{"state":"Azad Kashmir","name":"Kotli District","lat":"33.44559000","lon":"73.91557000"},
{"state":"Azad Kashmir","name":"Mirpur District","lat":"33.21556000","lon":"73.75144000"},
{"state":"Azad Kashmir","name":"Muzaffarābād","lat":"34.37002000","lon":"73.47082000"},
{"state":"Azad Kashmir","name":"New Mirpur","lat":"33.14782000","lon":"73.75187000"},
{"state":"Azad Kashmir","name":"Rawala Kot","lat":"33.85782000","lon":"73.76043000"},
{"state":"Balochistan","name":"Alik Ghund","lat":"30.48976000","lon":"67.52177000"},
{"state":"Balochistan","name":"Awārān District","lat":"26.21157000","lon":"65.42944000"},
{"state":"Balochistan","name":"Barkhan","lat":"29.89773000","lon":"69.52558000"},
{"state":"Balochistan","name":"Bārkhān District","lat":"29.98482000","lon":"69.69944000"},
{"state":"Balochistan","name":"Bela","lat":"26.22718000","lon":"66.31178000"},
{"state":"Balochistan","name":"Bhag","lat":"29.04174000","lon":"67.82394000"},
{"state":"Balochistan","name":"Chāgai District","lat":"28.98765000","lon":"63.59087000"},
{"state":"Balochistan","name":"Chaman","lat":"30.91769000","lon":"66.45259000"},
{"state":"Balochistan","name":"Chowki Jamali","lat":"28.01944000","lon":"67.92083000"},
{"state":"Balochistan","name":"Dadhar","lat":"29.47489000","lon":"67.65167000"},
{"state":"Balochistan","name":"Dalbandin","lat":"28.88846000","lon":"64.40616000"},
{"state":"Balochistan","name":"Dera Bugti","lat":"29.03619000","lon":"69.15849000"},
{"state":"Balochistan","name":"Dera Bugti District","lat":"28.94250000","lon":"69.06883000"},
{"state":"Balochistan","name":"Duki","lat":"30.15307000","lon":"68.57323000"},
{"state":"Balochistan","name":"Gadani","lat":"25.11879000","lon":"66.73219000"},
{"state":"Balochistan","name":"Garhi Khairo","lat":"28.06029000","lon":"67.98033000"},
{"state":"Balochistan","name":"Gwadar","lat":"25.12163000","lon":"62.32541000"},
{"state":"Balochistan","name":"Harnai","lat":"30.10077000","lon":"67.93824000"},
{"state":"Balochistan","name":"Jāfarābād District","lat":"28.30104000","lon":"68.19783000"},
{"state":"Balochistan","name":"Jhal Magsi District","lat":"28.36881000","lon":"67.54300000"},
{"state":"Balochistan","name":"Jiwani","lat":"25.04852000","lon":"61.74573000"},
{"state":"Balochistan","name":"Kalat","lat":"29.02663000","lon":"66.59361000"},
{"state":"Balochistan","name":"Kalāt District","lat":"28.88242000","lon":"66.53165000"},
{"state":"Balochistan","name":"Khadan Khak","lat":"30.75236000","lon":"67.71133000"},
{"state":"Balochistan","name":"Kharan","lat":"28.58459000","lon":"65.41501000"},
{"state":"Balochistan","name":"Khārān District","lat":"27.96308000","lon":"64.57113000"},
{"state":"Balochistan","name":"Khuzdar","lat":"27.81193000","lon":"66.61096000"},
{"state":"Balochistan","name":"Khuzdār District","lat":"27.48680000","lon":"66.58703000"},
{"state":"Balochistan","name":"Kohlu","lat":"29.89651000","lon":"69.25324000"},
{"state":"Balochistan","name":"Kot Malik Barkhurdar","lat":"30.20379000","lon":"66.98723000"},
{"state":"Balochistan","name":"Lasbela District","lat":"25.78634000","lon":"66.60330000"},
{"state":"Balochistan","name":"Loralai","lat":"30.37051000","lon":"68.59795000"},
{"state":"Balochistan","name":"Loralai District","lat":"30.30253000","lon":"68.84636000"},
{"state":"Balochistan","name":"Mach","lat":"29.86371000","lon":"67.33018000"},
{"state":"Balochistan","name":"Mastung","lat":"29.79966000","lon":"66.84553000"},
{"state":"Balochistan","name":"Mastung District","lat":"29.79455000","lon":"66.72068000"},
{"state":"Balochistan","name":"Mehrabpur","lat":"28.10773000","lon":"68.02554000"},
{"state":"Balochistan","name":"Mūsa Khel District","lat":"30.84937000","lon":"69.90069000"},
{"state":"Balochistan","name":"Nasīrābād District","lat":"28.62643000","lon":"68.12925000"},
{"state":"Balochistan","name":"Nushki","lat":"29.55218000","lon":"66.02288000"},
{"state":"Balochistan","name":"Ormara","lat":"25.21018000","lon":"64.63626000"},
{"state":"Balochistan","name":"Panjgūr District","lat":"26.73750000","lon":"64.20380000"},
{"state":"Balochistan","name":"Pasni","lat":"25.26302000","lon":"63.46921000"},
{"state":"Balochistan","name":"Pishin","lat":"30.58176000","lon":"66.99406000"},
{"state":"Balochistan","name":"Qila Saifullāh District","lat":"30.95392000","lon":"68.33996000"},
{"state":"Balochistan","name":"Quetta","lat":"30.18414000","lon":"67.00141000"},
{"state":"Balochistan","name":"Quetta District","lat":"30.17458000","lon":"66.76203000"},
{"state":"Balochistan","name":"Sibi","lat":"29.54299000","lon":"67.87726000"},
{"state":"Balochistan","name":"Sohbatpur","lat":"28.52038000","lon":"68.54298000"},
{"state":"Balochistan","name":"Surab","lat":"28.49276000","lon":"66.25999000"},
{"state":"Balochistan","name":"Turbat","lat":"26.00122000","lon":"63.04849000"},
{"state":"Balochistan","name":"Usta Muhammad","lat":"28.17723000","lon":"68.04367000"},
{"state":"Balochistan","name":"Uthal","lat":"25.80722000","lon":"66.62194000"},
{"state":"Balochistan","name":"Zhob","lat":"31.34082000","lon":"69.44930000"},
{"state":"Balochistan","name":"Zhob District","lat":"31.36444000","lon":"69.20749000"},
{"state":"Balochistan","name":"Ziarat","lat":"30.38244000","lon":"67.72562000"},
{"state":"Balochistan","name":"Ziārat District","lat":"30.43591000","lon":"67.50962000"},
{"state":"Federally Administered Tribal Areas","name":"Alizai","lat":"33.53613000","lon":"70.34607000"},
{"state":"Federally Administered Tribal Areas","name":"Gulishah Kach","lat":"32.67087000","lon":"70.33917000"},
{"state":"Federally Administered Tribal Areas","name":"Landi Kotal","lat":"34.09880000","lon":"71.14108000"},
{"state":"Federally Administered Tribal Areas","name":"Miran Shah","lat":"33.00059000","lon":"70.07117000"},
{"state":"Federally Administered Tribal Areas","name":"North Wazīristān Agency","lat":"32.95087000","lon":"69.95764000"},
{"state":"Federally Administered Tribal Areas","name":"Shinpokh","lat":"34.32959000","lon":"71.17852000"},
{"state":"Federally Administered Tribal Areas","name":"South Wazīristān Agency","lat":"32.30397000","lon":"69.68207000"},
{"state":"Federally Administered Tribal Areas","name":"Wana","lat":"32.29889000","lon":"69.57250000"},
{"state":"Gilgit-Baltistan","name":"Barishal","lat":"36.32162000","lon":"74.69502000"},
{"state":"Gilgit-Baltistan","name":"Gilgit","lat":"35.91869000","lon":"74.31245000"},
{"state":"Gilgit-Baltistan","name":"Skardu","lat":"35.29787000","lon":"75.63372000"},
{"state":"Islamabad Capital Territory","name":"Islamabad","lat":"33.72148000","lon":"73.04329000"},
{"state":"Khyber Pakhtunkhwa","name":"Abbottabad","lat":"34.14630000","lon":"73.21168000"},
{"state":"Khyber Pakhtunkhwa","name":"Akora","lat":"34.00337000","lon":"72.12561000"},
{"state":"Khyber Pakhtunkhwa","name":"Aman Garh","lat":"34.00584000","lon":"71.92971000"},
{"state":"Khyber Pakhtunkhwa","name":"Amirabad","lat":"34.18729000","lon":"73.09078000"},
{"state":"Khyber Pakhtunkhwa","name":"Ashanagro Koto","lat":"34.10773000","lon":"72.24517000"},
{"state":"Khyber Pakhtunkhwa","name":"Baffa","lat":"34.43770000","lon":"73.22368000"},
{"state":"Khyber Pakhtunkhwa","name":"Bannu","lat":"32.98527000","lon":"70.60403000"},
{"state":"Khyber Pakhtunkhwa","name":"Bat Khela","lat":"34.61780000","lon":"71.97247000"},
{"state":"Khyber Pakhtunkhwa","name":"Battagram","lat":"34.67719000","lon":"73.02329000"},
{"state":"Khyber Pakhtunkhwa","name":"Battagram District","lat":"34.68051000","lon":"73.00535000"},
{"state":"Khyber Pakhtunkhwa","name":"Buner District","lat":"34.44301000","lon":"72.49933000"},
{"state":"Khyber Pakhtunkhwa","name":"Charsadda","lat":"34.14822000","lon":"71.74060000"},
{"state":"Khyber Pakhtunkhwa","name":"Cherat Cantonement","lat":"33.82342000","lon":"71.89292000"},
{"state":"Khyber Pakhtunkhwa","name":"Chitral","lat":"35.85180000","lon":"71.78636000"},
{"state":"Khyber Pakhtunkhwa","name":"Dera Ismail Khan","lat":"31.83129000","lon":"70.90170000"},
{"state":"Khyber Pakhtunkhwa","name":"Dera Ismāīl Khān District","lat":"31.85963000","lon":"70.64879000"},
{"state":"Khyber Pakhtunkhwa","name":"Doaba","lat":"33.42450000","lon":"70.73676000"},
{"state":"Khyber Pakhtunkhwa","name":"Hangu","lat":"33.53198000","lon":"71.05950000"},
{"state":"Khyber Pakhtunkhwa","name":"Haripur","lat":"33.99783000","lon":"72.93493000"},
{"state":"Khyber Pakhtunkhwa","name":"Havelian","lat":"34.05348000","lon":"73.15993000"},
{"state":"Khyber Pakhtunkhwa","name":"Kakad Wari Dir Upper","lat":"34.99798000","lon":"72.07295000"},
{"state":"Khyber Pakhtunkhwa","name":"Karak","lat":"33.11633000","lon":"71.09354000"},
{"state":"Khyber Pakhtunkhwa","name":"Khalabat","lat":"34.05997000","lon":"72.88963000"},
{"state":"Khyber Pakhtunkhwa","name":"Kohat","lat":"33.58196000","lon":"71.44929000"},
{"state":"Khyber Pakhtunkhwa","name":"Kulachi","lat":"31.93058000","lon":"70.45959000"},
{"state":"Khyber Pakhtunkhwa","name":"Lachi","lat":"33.38291000","lon":"71.33733000"},
{"state":"Khyber Pakhtunkhwa","name":"Lakki","lat":"32.60724000","lon":"70.91234000"},
{"state":"Khyber Pakhtunkhwa","name":"Mansehra","lat":"34.33023000","lon":"73.19679000"},
{"state":"Khyber Pakhtunkhwa","name":"Mardan","lat":"34.19794000","lon":"72.04965000"},
{"state":"Khyber Pakhtunkhwa","name":"Mingora","lat":"34.77950000","lon":"72.36265000"},
{"state":"Khyber Pakhtunkhwa","name":"Noorabad","lat":"34.25195000","lon":"71.96656000"},
{"state":"Khyber Pakhtunkhwa","name":"Nowshera","lat":"34.01583000","lon":"71.98123000"},
{"state":"Khyber Pakhtunkhwa","name":"Nowshera Cantonment","lat":"33.99829000","lon":"71.99834000"},
{"state":"Khyber Pakhtunkhwa","name":"Pabbi","lat":"34.00968000","lon":"71.79445000"},
{"state":"Khyber Pakhtunkhwa","name":"Paharpur","lat":"32.10502000","lon":"70.97055000"},
{"state":"Khyber Pakhtunkhwa","name":"Peshawar","lat":"34.00800000","lon":"71.57849000"},
{"state":"Khyber Pakhtunkhwa","name":"Risalpur Cantonment","lat":"34.06048000","lon":"71.99276000"},
{"state":"Khyber Pakhtunkhwa","name":"Sarai Naurang","lat":"32.82581000","lon":"70.78107000"},
{"state":"Khyber Pakhtunkhwa","name":"Shabqadar","lat":"34.21599000","lon":"71.55480000"},
{"state":"Khyber Pakhtunkhwa","name":"Shingli Bala","lat":"34.67872000","lon":"72.98491000"},
{"state":"Khyber Pakhtunkhwa","name":"Shorkot","lat":"31.91023000","lon":"70.87757000"},
{"state":"Khyber Pakhtunkhwa","name":"Swabi","lat":"34.12018000","lon":"72.46982000"},
{"state":"Khyber Pakhtunkhwa","name":"Tangi","lat":"34.30090000","lon":"71.65238000"},
{"state":"Khyber Pakhtunkhwa","name":"Tank","lat":"32.21707000","lon":"70.38315000"},
{"state":"Khyber Pakhtunkhwa","name":"Thal","lat":"35.47836000","lon":"72.24383000"},
{"state":"Khyber Pakhtunkhwa","name":"Topi","lat":"34.07034000","lon":"72.62147000"},
{"state":"Khyber Pakhtunkhwa","name":"Upper Dir","lat":"35.20740000","lon":"71.87680000"},
{"state":"Khyber Pakhtunkhwa","name":"Utmanzai","lat":"34.18775000","lon":"71.76274000"},
{"state":"Khyber Pakhtunkhwa","name":"Zaida","lat":"34.05950000","lon":"72.46690000"},
{"state":"Punjab","name":"Ahmadpur Sial","lat":"30.67791000","lon":"71.74344000"},
{"state":"Punjab","name":"Ahmedpur East","lat":"29.14269000","lon":"71.25771000"},
{"state":"Punjab","name":"Alipur Chatha","lat":"29.38242000","lon":"70.91106000"},
{"state":"Punjab","name":"Arifwala","lat":"30.29058000","lon":"73.06574000"},
{"state":"Punjab","name":"Attock Tehsil","lat":"33.76671000","lon":"72.35977000"},
{"state":"Punjab","name":"Baddomalhi","lat":"31.99042000","lon":"74.66410000"},
{"state":"Punjab","name":"Bahawalnagar","lat":"29.99835000","lon":"73.25272000"},
{"state":"Punjab","name":"Bahawalpur","lat":"29.39779000","lon":"71.67520000"},
{"state":"Punjab","name":"Bakhri Ahmad Khan","lat":"30.73586000","lon":"70.83796000"},
{"state":"Punjab","name":"Basirpur","lat":"30.57759000","lon":"73.83912000"},
{"state":"Punjab","name":"Basti Dosa","lat":"30.78769000","lon":"70.86853000"},
{"state":"Punjab","name":"Begowala","lat":"32.43816000","lon":"74.26794000"},
{"state":"Punjab","name":"Bhakkar","lat":"31.62685000","lon":"71.06471000"},
{"state":"Punjab","name":"Bhalwal","lat":"32.26576000","lon":"72.89809000"},
{"state":"Punjab","name":"Bhawana","lat":"31.56884000","lon":"72.64917000"},
{"state":"Punjab","name":"Bhera","lat":"32.48206000","lon":"72.90865000"},
{"state":"Punjab","name":"Bhopalwala","lat":"32.42968000","lon":"74.36350000"},
{"state":"Punjab","name":"Burewala","lat":"30.16667000","lon":"72.65000000"},
{"state":"Punjab","name":"Chak Azam Saffo","lat":"30.75202000","lon":"73.02834000"},
{"state":"Punjab","name":"Chak Jhumra","lat":"31.56808000","lon":"73.18317000"},
{"state":"Punjab","name":"Chak One Hundred Twenty Nine Left","lat":"30.42919000","lon":"73.04522000"},
{"state":"Punjab","name":"Chak Thirty-one -Eleven Left","lat":"30.42388000","lon":"72.69737000"},
{"state":"Punjab","name":"Chak Two Hundred Forty-Nine TDA","lat":"31.17772000","lon":"71.20480000"},
{"state":"Punjab","name":"Chakwal","lat":"32.93286000","lon":"72.85394000"},
{"state":"Punjab","name":"Chawinda","lat":"32.34434000","lon":"74.70507000"},
{"state":"Punjab","name":"Chichawatni","lat":"30.53010000","lon":"72.69155000"},
{"state":"Punjab","name":"Chiniot","lat":"31.72091000","lon":"72.97836000"},
{"state":"Punjab","name":"Chishtian","lat":"29.79713000","lon":"72.85772000"},
{"state":"Punjab","name":"Choa Saidanshah","lat":"32.71962000","lon":"72.98625000"},
{"state":"Punjab","name":"Chuhar Kana","lat":"31.75000000","lon":"73.80000000"},
{"state":"Punjab","name":"Chunian","lat":"30.96621000","lon":"73.97908000"},
{"state":"Punjab","name":"Daira Din Panah","lat":"30.57053000","lon":"70.93722000"},
{"state":"Punjab","name":"Dajal","lat":"29.55769000","lon":"70.37614000"},
{"state":"Punjab","name":"Dandot RS","lat":"32.64167000","lon":"72.97500000"},
{"state":"Punjab","name":"Darya Khan","lat":"31.78447000","lon":"71.10197000"},
{"state":"Punjab","name":"Daska","lat":"32.32422000","lon":"74.35039000"},
{"state":"Punjab","name":"Daud Khel","lat":"32.87498000","lon":"71.57013000"},
{"state":"Punjab","name":"Daultala","lat":"33.19282000","lon":"73.14099000"},
{"state":"Punjab","name":"Dera Ghazi Khan","lat":"30.04587000","lon":"70.64029000"},
{"state":"Punjab","name":"Dhanot","lat":"29.57991000","lon":"71.75213000"},
{"state":"Punjab","name":"Dhaunkal","lat":"32.40613000","lon":"74.13706000"},
{"state":"Punjab","name":"Dhok Awan","lat":"32.84452000","lon":"72.52357000"},
{"state":"Punjab","name":"Dijkot","lat":"31.21735000","lon":"72.99621000"},
{"state":"Punjab","name":"Dinan Bashnoian Wala","lat":"29.76584000","lon":"73.26557000"},
{"state":"Punjab","name":"Dinga","lat":"32.64101000","lon":"73.72039000"},
{"state":"Punjab","name":"Dipalpur","lat":"30.66984000","lon":"73.65306000"},
{"state":"Punjab","name":"Dullewala","lat":"31.83439000","lon":"71.43639000"},
{"state":"Punjab","name":"Dunga Bunga","lat":"29.74975000","lon":"73.24294000"},
{"state":"Punjab","name":"Dunyapur","lat":"29.80275000","lon":"71.74344000"},
{"state":"Punjab","name":"Eminabad","lat":"32.04237000","lon":"74.25996000"},
{"state":"Punjab","name":"Faisalabad","lat":"31.41554000","lon":"73.08969000"},
{"state":"Punjab","name":"Faqirwali","lat":"29.46799000","lon":"73.03489000"},
{"state":"Punjab","name":"Faruka","lat":"31.88642000","lon":"72.41362000"},
{"state":"Punjab","name":"Fazilpur","lat":"32.17629000","lon":"75.06583000"},
{"state":"Punjab","name":"Ferozewala","lat":"29.30000000","lon":"70.43333333"},
{"state":"Punjab","name":"Fort Abbas","lat":"29.19344000","lon":"72.85525000"},
{"state":"Punjab","name":"Garh Maharaja","lat":"30.83383000","lon":"71.90491000"},
{"state":"Punjab","name":"Gojra","lat":"31.14926000","lon":"72.68323000"},
{"state":"Punjab","name":"Gujar Khan","lat":"33.25411000","lon":"73.30433000"},
{"state":"Punjab","name":"Gujranwala","lat":"32.15567000","lon":"74.18705000"},
{"state":"Punjab","name":"Gujranwala Division","lat":"32.45000000","lon":"74.13333000"},
{"state":"Punjab","name":"Gujrat","lat":"32.57420000","lon":"74.07542000"},
{"state":"Punjab","name":"Hadali","lat":"32.64043000","lon":"74.56898000"},
{"state":"Punjab","name":"Hafizabad","lat":"32.07095000","lon":"73.68802000"},
{"state":"Punjab","name":"Harnoli","lat":"32.27871000","lon":"71.55429000"},
{"state":"Punjab","name":"Harunabad","lat":"29.61206000","lon":"73.13802000"},
{"state":"Punjab","name":"Hasan Abdal","lat":"33.81948611","lon":"72.68902778"},
{"state":"Punjab","name":"Hasilpur","lat":"29.69221000","lon":"72.54566000"},
{"state":"Punjab","name":"Haveli Lakha","lat":"30.45097000","lon":"73.69371000"},
{"state":"Punjab","name":"Hazro","lat":"33.90990000","lon":"72.49179000"},
{"state":"Punjab","name":"Hujra Shah Muqeem","lat":"30.74168000","lon":"73.82327000"},
{"state":"Punjab","name":"Jahanian Shah","lat":"31.80541000","lon":"72.27740000"},
{"state":"Punjab","name":"Jalalpur Jattan","lat":"32.64118000","lon":"74.20561000"},
{"state":"Punjab","name":"Jalalpur Pirwala","lat":"29.50510000","lon":"71.22202000"},
{"state":"Punjab","name":"Jampur","lat":"29.64235000","lon":"70.59518000"},
{"state":"Punjab","name":"Jand","lat":"33.43304000","lon":"72.01877000"},
{"state":"Punjab","name":"Jandiala Sher Khan","lat":"31.82098000","lon":"73.91815000"},
{"state":"Punjab","name":"Jaranwala","lat":"31.33320000","lon":"73.41868000"},
{"state":"Punjab","name":"Jatoi Shimali","lat":"29.51827000","lon":"70.84474000"},
{"state":"Punjab","name":"Jauharabad","lat":"32.29016000","lon":"72.28182000"},
{"state":"Punjab","name":"Jhang","lat":"31.30568000","lon":"72.32594000"},
{"state":"Punjab","name":"Jhang Sadar","lat":"31.26981000","lon":"72.31687000"},
{"state":"Punjab","name":"Jhawarian","lat":"32.36192000","lon":"72.62275000"},
{"state":"Punjab","name":"Jhelum","lat":"32.93448000","lon":"73.73102000"},
{"state":"Punjab","name":"Kabirwala","lat":"30.40472000","lon":"71.86269000"},
{"state":"Punjab","name":"Kahna Nau","lat":"31.36709000","lon":"74.36899000"},
{"state":"Punjab","name":"Kahuta","lat":"33.59183000","lon":"73.38736000"},
{"state":"Punjab","name":"Kalabagh","lat":"32.96164000","lon":"71.54638000"},
{"state":"Punjab","name":"Kalaswala","lat":"32.20081000","lon":"74.64858000"},
{"state":"Punjab","name":"Kaleke Mandi","lat":"31.97597000","lon":"73.59999000"},
{"state":"Punjab","name":"Kallar Kahar","lat":"32.77998000","lon":"72.69793000"},
{"state":"Punjab","name":"Kalur Kot","lat":"32.15512000","lon":"71.26631000"},
{"state":"Punjab","name":"Kamalia","lat":"30.72708000","lon":"72.64607000"},
{"state":"Punjab","name":"Kamar Mushani","lat":"32.84318000","lon":"71.36192000"},
{"state":"Punjab","name":"Kamoke","lat":"31.97526000","lon":"74.22304000"},
{"state":"Punjab","name":"Kamra","lat":"33.74698000","lon":"73.51229000"},
{"state":"Punjab","name":"Kanganpur","lat":"30.76468000","lon":"74.12286000"},
{"state":"Punjab","name":"Karor","lat":"31.22460000","lon":"70.95153000"},
{"state":"Punjab","name":"Kasur","lat":"31.11866000","lon":"74.45025000"},
{"state":"Punjab","name":"Keshupur","lat":"32.26000000","lon":"72.50000000"},
{"state":"Punjab","name":"Khairpur Tamiwali","lat":"29.58139000","lon":"72.23804000"},
{"state":"Punjab","name":"Khandowa","lat":"32.74255000","lon":"72.73478000"},
{"state":"Punjab","name":"Khanewal","lat":"30.30173000","lon":"71.93212000"},
{"state":"Punjab","name":"Khanga Dogran","lat":"31.83294000","lon":"73.62213000"},
{"state":"Punjab","name":"Khangarh","lat":"29.91446000","lon":"71.16067000"},
{"state":"Punjab","name":"Khanpur","lat":"28.64739000","lon":"70.65694000"},
{"state":"Punjab","name":"Kharian","lat":"32.81612000","lon":"73.88697000"},
{"state":"Punjab","name":"Khewra","lat":"32.64910000","lon":"73.01059000"},
{"state":"Punjab","name":"Khurrianwala","lat":"31.49936000","lon":"73.26763000"},
{"state":"Punjab","name":"Khushab","lat":"32.29667000","lon":"72.35250000"},
{"state":"Punjab","name":"Kohror Pakka","lat":"29.62382000","lon":"71.91673000"},
{"state":"Punjab","name":"Kot Addu Tehsil","lat":"30.46907000","lon":"70.96699000"},
{"state":"Punjab","name":"Kot Ghulam Muhammad","lat":"32.33311000","lon":"74.54694000"},
{"state":"Punjab","name":"Kot Mumin","lat":"32.18843000","lon":"73.02987000"},
{"state":"Punjab","name":"Kot Radha Kishan","lat":"31.17068000","lon":"74.10126000"},
{"state":"Punjab","name":"Kot Rajkour","lat":"32.41208000","lon":"74.62855000"},
{"state":"Punjab","name":"Kot Samaba","lat":"28.55207000","lon":"70.46837000"},
{"state":"Punjab","name":"Kot Sultan","lat":"30.77370000","lon":"70.93125000"},
{"state":"Punjab","name":"Kotli Loharan","lat":"32.58893000","lon":"74.49466000"},
{"state":"Punjab","name":"Kundian","lat":"32.45775000","lon":"71.47892000"},
{"state":"Punjab","name":"Kunjah","lat":"32.52982000","lon":"73.97486000"},
{"state":"Punjab","name":"Ladhewala Waraich","lat":"32.15692000","lon":"74.11564000"},
{"state":"Punjab","name":"Lahore","lat":"31.55800000","lon":"74.35071000"},
{"state":"Punjab","name":"Lala Musa","lat":"32.70138000","lon":"73.95746000"},
{"state":"Punjab","name":"Lalian","lat":"31.82462000","lon":"72.80116000"},
{"state":"Punjab","name":"Layyah","lat":"30.96128000","lon":"70.93904000"},
{"state":"Punjab","name":"Layyah District","lat":"30.96800000","lon":"70.94300000"},
{"state":"Punjab","name":"Liliani","lat":"32.20393000","lon":"72.95120000"},
{"state":"Punjab","name":"Lodhran","lat":"29.53390000","lon":"71.63244000"},
{"state":"Punjab","name":"Mailsi","lat":"29.80123000","lon":"72.17398000"},
{"state":"Punjab","name":"Malakwal","lat":"32.55449000","lon":"73.21274000"},
{"state":"Punjab","name":"Malakwal City","lat":"32.55492000","lon":"73.21220000"},
{"state":"Punjab","name":"Mamu Kanjan","lat":"30.83044000","lon":"72.79943000"},
{"state":"Punjab","name":"Mananwala","lat":"31.58803000","lon":"73.68927000"},
{"state":"Punjab","name":"Mandi Bahauddin","lat":"32.58704000","lon":"73.49123000"},
{"state":"Punjab","name":"Mandi Bahauddin District","lat":"32.58333333","lon":"73.50000000"},
{"state":"Punjab","name":"Mangla","lat":"31.89306000","lon":"72.38167000"},
{"state":"Punjab","name":"Mankera","lat":"31.38771000","lon":"71.44047000"},
{"state":"Punjab","name":"Mehmand Chak","lat":"32.78518000","lon":"73.82306000"},
{"state":"Punjab","name":"Mian Channun","lat":"30.44067000","lon":"72.35679000"},
{"state":"Punjab","name":"Mianke Mor","lat":"31.20240000","lon":"73.94857000"},
{"state":"Punjab","name":"Mianwali","lat":"32.57756000","lon":"71.52847000"},
{"state":"Punjab","name":"Minchinabad","lat":"30.16356000","lon":"73.56858000"},
{"state":"Punjab","name":"Mitha Tiwana","lat":"32.24540000","lon":"72.10615000"},
{"state":"Punjab","name":"Moza Shahwala","lat":"30.80563000","lon":"70.84911000"},
{"state":"Punjab","name":"Multan","lat":"30.19679000","lon":"71.47824000"},
{"state":"Punjab","name":"Multan District","lat":"30.08333333","lon":"71.66666667"},
{"state":"Punjab","name":"Muridke","lat":"31.80258000","lon":"74.25772000"},
{"state":"Punjab","name":"Murree","lat":"33.90836000","lon":"73.39030000"},
{"state":"Punjab","name":"Mustafabad","lat":"30.89222000","lon":"73.49889000"},
{"state":"Punjab","name":"Muzaffargarh","lat":"30.07258000","lon":"71.19379000"},
{"state":"Punjab","name":"Nankana Sahib","lat":"31.45010000","lon":"73.70653000"},
{"state":"Punjab","name":"Narang Mandi","lat":"31.90376000","lon":"74.51587000"},
{"state":"Punjab","name":"Narowal","lat":"32.10197000","lon":"74.87303000"},
{"state":"Punjab","name":"Naushahra Virkan","lat":"31.96258000","lon":"73.97117000"},
{"state":"Punjab","name":"Nazir Town","lat":"33.30614000","lon":"73.48330000"},
{"state":"Punjab","name":"Okara","lat":"30.81029000","lon":"73.45155000"},
{"state":"Punjab","name":"Pakki Shagwanwali","lat":"30.79033000","lon":"70.87139000"},
{"state":"Punjab","name":"Pakpattan","lat":"30.34314000","lon":"73.38944000"},
{"state":"Punjab","name":"Pasrur","lat":"32.26286000","lon":"74.66327000"},
{"state":"Punjab","name":"Pattoki","lat":"31.02021000","lon":"73.85333000"},
{"state":"Punjab","name":"Phalia","lat":"32.43104000","lon":"73.57900000"},
{"state":"Punjab","name":"Pind Dadan Khan","lat":"32.58662000","lon":"73.04456000"},
{"state":"Punjab","name":"Pindi Bhattian","lat":"31.89844000","lon":"73.27339000"},
{"state":"Punjab","name":"Pindi Gheb","lat":"33.24095000","lon":"72.26480000"},
{"state":"Punjab","name":"Pir Mahal","lat":"30.76663000","lon":"72.43455000"},
{"state":"Punjab","name":"Qadirpur Ran","lat":"30.29184000","lon":"71.67164000"},
{"state":"Punjab","name":"Qila Didar Singh","lat":"32.80000000","lon":"74.10000000"},
{"state":"Punjab","name":"Rabwah","lat":"31.75511000","lon":"72.91403000"},
{"state":"Punjab","name":"Rahim Yar Khan","lat":"28.41987000","lon":"70.30345000"},
{"state":"Punjab","name":"Rahimyar Khan District","lat":"28.46020000","lon":"70.52837000"},
{"state":"Punjab","name":"Raiwind","lat":"31.24895000","lon":"74.21534000"},
{"state":"Punjab","name":"Raja Jang","lat":"31.22078000","lon":"74.25483000"},
{"state":"Punjab","name":"Rajanpur","lat":"29.10408000","lon":"70.32969000"},
{"state":"Punjab","name":"Rasulnagar","lat":"32.32794000","lon":"73.78040000"},
{"state":"Punjab","name":"Rawalpindi","lat":"33.59733000","lon":"73.04790000"},
{"state":"Punjab","name":"Rawalpindi District","lat":"33.42987000","lon":"73.23092000"},
{"state":"Punjab","name":"Renala Khurd","lat":"30.87878000","lon":"73.59857000"},
{"state":"Punjab","name":"Rojhan","lat":"28.68735000","lon":"69.95350000"},
{"state":"Punjab","name":"Sadiqabad","lat":"28.30910000","lon":"70.12652000"},
{"state":"Punjab","name":"Sahiwal","lat":"30.66595000","lon":"73.10186000"},
{"state":"Punjab","name":"Sambrial","lat":"32.47835000","lon":"74.35338000"},
{"state":"Punjab","name":"Sangla Hill","lat":"31.71667000","lon":"73.38333000"},
{"state":"Punjab","name":"Sanjwal","lat":"33.76105000","lon":"72.43315000"},
{"state":"Punjab","name":"Sarai Alamgir","lat":"32.90495000","lon":"73.75518000"},
{"state":"Punjab","name":"Sarai Sidhu","lat":"30.59476000","lon":"71.96990000"},
{"state":"Punjab","name":"Sargodha","lat":"32.08586000","lon":"72.67418000"},
{"state":"Punjab","name":"Shahkot Tehsil","lat":"31.56166667","lon":"73.48750000"},
{"state":"Punjab","name":"Shahpur","lat":"32.26820000","lon":"72.46884000"},
{"state":"Punjab","name":"Shahr Sultan","lat":"29.57517000","lon":"71.02209000"},
{"state":"Punjab","name":"Shakargarh","lat":"32.26361000","lon":"75.16008000"},
{"state":"Punjab","name":"Sharqpur","lat":"31.46116000","lon":"74.10091000"},
{"state":"Punjab","name":"Sheikhupura","lat":"31.71287000","lon":"73.98556000"},
{"state":"Punjab","name":"Shorkot","lat":"30.50000000","lon":"72.40000000"},
{"state":"Punjab","name":"Shujaabad","lat":"29.88092000","lon":"71.29344000"},
{"state":"Punjab","name":"Sialkot","lat":"32.49268000","lon":"74.53134000"},
{"state":"Punjab","name":"Sillanwali","lat":"31.82539000","lon":"72.54064000"},
{"state":"Punjab","name":"Sodhra","lat":"32.46211000","lon":"74.18207000"},
{"state":"Punjab","name":"Sukheke Mandi","lat":"31.86541000","lon":"73.50875000"},
{"state":"Punjab","name":"Surkhpur","lat":"32.71816000","lon":"74.44773000"},
{"state":"Punjab","name":"Talagang","lat":"32.92766000","lon":"72.41594000"},
{"state":"Punjab","name":"Talamba","lat":"30.52693000","lon":"72.24079000"},
{"state":"Punjab","name":"Tandlianwala","lat":"31.03359000","lon":"73.13268000"},
{"state":"Punjab","name":"Taunsa","lat":"30.70358000","lon":"70.65054000"},
{"state":"Punjab","name":"Toba Tek Singh","lat":"30.97127000","lon":"72.48275000"},
{"state":"Punjab","name":"Umerkot","lat":"25.36138889","lon":"69.73611111"},
{"state":"Punjab","name":"Vihari","lat":"30.04450000","lon":"72.35560000"},
{"state":"Punjab","name":"Wah","lat":"33.81000000","lon":"72.70972222"},
{"state":"Punjab","name":"Warburton","lat":"31.55000000","lon":"73.83330000"},
{"state":"Punjab","name":"Wazirabad","lat":"32.44324000","lon":"74.12000000"},
{"state":"Punjab","name":"West Punjab","lat":"31.00000000","lon":"72.00000000"},
{"state":"Punjab","name":"Yazman","lat":"29.12122000","lon":"71.74459000"},
{"state":"Punjab","name":"Zafarwal","lat":"32.34464000","lon":"74.89990000"},
{"state":"Punjab","name":"Zahir Pir","lat":"28.81284000","lon":"70.52341000"},
{"state":"Sindh","name":"Adilpur","lat":"27.93677000","lon":"69.31941000"},
{"state":"Sindh","name":"Badin","lat":"24.65600000","lon":"68.83700000"},
{"state":"Sindh","name":"Bagarji","lat":"27.75431000","lon":"68.75866000"},
{"state":"Sindh","name":"Bandhi","lat":"26.58761000","lon":"68.30215000"},
{"state":"Sindh","name":"Berani","lat":"25.78497000","lon":"68.80754000"},
{"state":"Sindh","name":"Bhan","lat":"26.55831000","lon":"67.72139000"},
{"state":"Sindh","name":"Bhiria","lat":"26.91041000","lon":"68.19466000"},
{"state":"Sindh","name":"Bhit Shah","lat":"25.80565000","lon":"68.49143000"},
{"state":"Sindh","name":"Bozdar Wada","lat":"27.18300000","lon":"68.63580000"},
{"state":"Sindh","name":"Bulri","lat":"24.86667000","lon":"68.33333000"},
{"state":"Sindh","name":"Chak","lat":"27.85838000","lon":"68.83378000"},
{"state":"Sindh","name":"Chamber","lat":"25.29362000","lon":"68.81176000"},
{"state":"Sindh","name":"Chhor","lat":"25.51260000","lon":"69.78437000"},
{"state":"Sindh","name":"Chuhar Jamali","lat":"24.39440000","lon":"67.99298000"},
{"state":"Sindh","name":"Dadu","lat":"26.73033000","lon":"67.77690000"},
{"state":"Sindh","name":"Daromehar","lat":"24.79382000","lon":"68.17978000"},
{"state":"Sindh","name":"Darya Khan Marri","lat":"26.67765000","lon":"68.28666000"},
{"state":"Sindh","name":"Daulatpur","lat":"26.50158000","lon":"67.97079000"},
{"state":"Sindh","name":"Daur","lat":"26.45528000","lon":"68.31835000"},
{"state":"Sindh","name":"Dhoro Naro","lat":"25.50484000","lon":"69.57090000"},
{"state":"Sindh","name":"Digri","lat":"25.15657000","lon":"69.11098000"},
{"state":"Sindh","name":"Diplo","lat":"24.46688000","lon":"69.58114000"},
{"state":"Sindh","name":"Dokri","lat":"27.37421000","lon":"68.09715000"},
{"state":"Sindh","name":"Gambat","lat":"27.35170000","lon":"68.52150000"},
{"state":"Sindh","name":"Garhiyasin","lat":"27.90631000","lon":"68.51210000"},
{"state":"Sindh","name":"Gharo","lat":"24.74182000","lon":"67.58534000"},
{"state":"Sindh","name":"Ghauspur","lat":"28.13882000","lon":"69.08245000"},
{"state":"Sindh","name":"Ghotki","lat":"28.00437000","lon":"69.31569000"},
{"state":"Sindh","name":"Goth Garelo","lat":"27.43521000","lon":"68.07572000"},
{"state":"Sindh","name":"Goth Phulji","lat":"26.88099000","lon":"67.68239000"},
{"state":"Sindh","name":"Goth Radhan","lat":"27.19846000","lon":"67.95348000"},
{"state":"Sindh","name":"Hala","lat":"25.81459000","lon":"68.42198000"},
{"state":"Sindh","name":"Hingorja","lat":"27.21088000","lon":"68.41598000"},
{"state":"Sindh","name":"Hyderabad","lat":"25.39242000","lon":"68.37366000"},
{"state":"Sindh","name":"Islamkot","lat":"24.69904000","lon":"70.17982000"},
{"state":"Sindh","name":"Jacobabad","lat":"28.28187000","lon":"68.43761000"},
{"state":"Sindh","name":"Jām Sāhib","lat":"26.29583000","lon":"68.62917000"},
{"state":"Sindh","name":"Jamshoro","lat":"25.43608000","lon":"68.28017000"},
{"state":"Sindh","name":"Jati","lat":"24.35492000","lon":"68.26732000"},
{"state":"Sindh","name":"Jhol","lat":"25.95533000","lon":"68.88871000"},
{"state":"Sindh","name":"Johi","lat":"26.69225000","lon":"67.61431000"},
{"state":"Sindh","name":"Kadhan","lat":"24.48041000","lon":"68.98551000"},
{"state":"Sindh","name":"Kambar","lat":"27.58753000","lon":"68.00066000"},
{"state":"Sindh","name":"Kandhkot","lat":"28.24574000","lon":"69.17974000"},
{"state":"Sindh","name":"Kandiari","lat":"26.91550000","lon":"68.52193000"},
{"state":"Sindh","name":"Kandiaro","lat":"27.05918000","lon":"68.21022000"},
{"state":"Sindh","name":"Karachi","lat":"24.86080000","lon":"67.01040000"},
{"state":"Sindh","name":"Karaundi","lat":"26.89709000","lon":"68.40643000"},
{"state":"Sindh","name":"Kario Ghanwar","lat":"24.80817000","lon":"68.60483000"},
{"state":"Sindh","name":"Kashmor","lat":"28.43260000","lon":"69.58364000"},
{"state":"Sindh","name":"Keti Bandar","lat":"24.14422000","lon":"67.45094000"},
{"state":"Sindh","name":"Khadro","lat":"26.14713000","lon":"68.71777000"},
{"state":"Sindh","name":"Khairpur","lat":"28.06437000","lon":"69.70363000"},
{"state":"Sindh","name":"Khairpur Mir’s","lat":"27.52948000","lon":"68.75915000"},
{"state":"Sindh","name":"Khairpur Nathan Shah","lat":"27.09064000","lon":"67.73489000"},
{"state":"Sindh","name":"Khanpur Mahar","lat":"27.84088000","lon":"69.41302000"},
{"state":"Sindh","name":"Kot Diji","lat":"27.34156000","lon":"68.70821000"},
{"state":"Sindh","name":"Kotri","lat":"25.36566000","lon":"68.30831000"},
{"state":"Sindh","name":"Kunri","lat":"25.17874000","lon":"69.56572000"},
{"state":"Sindh","name":"Lakhi","lat":"27.84884000","lon":"68.69972000"},
{"state":"Sindh","name":"Larkana","lat":"27.55898000","lon":"68.21204000"},
{"state":"Sindh","name":"Madeji","lat":"27.75314000","lon":"68.45166000"},
{"state":"Sindh","name":"Malir Cantonment","lat":"24.94343000","lon":"67.20591000"},
{"state":"Sindh","name":"Matiari","lat":"25.59709000","lon":"68.44670000"},
{"state":"Sindh","name":"Matli","lat":"25.04290000","lon":"68.65591000"},
{"state":"Sindh","name":"Mehar","lat":"27.18027000","lon":"67.82051000"},
{"state":"Sindh","name":"Miro Khan","lat":"27.75985000","lon":"68.09195000"},
{"state":"Sindh","name":"Mirpur Bhtoro","lat":"24.72852000","lon":"68.26010000"},
{"state":"Sindh","name":"Mirpur Khas","lat":"25.52760000","lon":"69.01255000"},
{"state":"Sindh","name":"Mirpur Mathelo","lat":"28.02136000","lon":"69.54914000"},
{"state":"Sindh","name":"Mirpur Sakro","lat":"24.54692000","lon":"67.62797000"},
{"state":"Sindh","name":"Mirwah Gorchani","lat":"25.30981000","lon":"69.05019000"},
{"state":"Sindh","name":"Mithi","lat":"24.73701000","lon":"69.79707000"},
{"state":"Sindh","name":"Moro","lat":"26.66317000","lon":"68.00016000"},
{"state":"Sindh","name":"Nabisar","lat":"25.06717000","lon":"69.64340000"},
{"state":"Sindh","name":"Nasirabad","lat":"27.38137000","lon":"67.91644000"},
{"state":"Sindh","name":"Naudero","lat":"27.66684000","lon":"68.36090000"},
{"state":"Sindh","name":"Naukot","lat":"24.85822000","lon":"69.40153000"},
{"state":"Sindh","name":"Naushahro Firoz","lat":"26.84010000","lon":"68.12265000"},
{"state":"Sindh","name":"Nawabshah","lat":"26.23939000","lon":"68.40369000"},
{"state":"Sindh","name":"New Bādāh","lat":"27.34167000","lon":"68.03194000"},
{"state":"Sindh","name":"Pad Idan","lat":"26.77455000","lon":"68.30094000"},
{"state":"Sindh","name":"Pano Aqil","lat":"27.85619000","lon":"69.11111000"},
{"state":"Sindh","name":"Pir Jo Goth","lat":"27.59178000","lon":"68.61848000"},
{"state":"Sindh","name":"Pithoro","lat":"25.51122000","lon":"69.37803000"},
{"state":"Sindh","name":"Rajo Khanani","lat":"24.98391000","lon":"68.85370000"},
{"state":"Sindh","name":"Ranipur","lat":"27.28720000","lon":"68.50623000"},
{"state":"Sindh","name":"Ratodero","lat":"27.80227000","lon":"68.28902000"},
{"state":"Sindh","name":"Rohri","lat":"27.69203000","lon":"68.89503000"},
{"state":"Sindh","name":"Rustam","lat":"27.96705000","lon":"68.80386000"},
{"state":"Sindh","name":"Sakrand","lat":"26.13845000","lon":"68.27444000"},
{"state":"Sindh","name":"Samaro","lat":"25.28143000","lon":"69.39623000"},
{"state":"Sindh","name":"Sanghar","lat":"26.04694000","lon":"68.94917000"},
{"state":"Sindh","name":"Sann","lat":"26.04030000","lon":"68.13763000"},
{"state":"Sindh","name":"Sehwan","lat":"26.42495000","lon":"67.86126000"},
{"state":"Sindh","name":"Setharja Old","lat":"27.21270000","lon":"68.46883000"},
{"state":"Sindh","name":"Shahdad Kot","lat":"27.84726000","lon":"67.90679000"},
{"state":"Sindh","name":"Shahdadpur","lat":"25.92539000","lon":"68.62280000"},
{"state":"Sindh","name":"Shahpur Chakar","lat":"26.15411000","lon":"68.65013000"},
{"state":"Sindh","name":"Shikarpur","lat":"27.95558000","lon":"68.63823000"},
{"state":"Sindh","name":"Sinjhoro","lat":"26.03008000","lon":"68.80867000"},
{"state":"Sindh","name":"Sīta Road","lat":"27.03333000","lon":"67.85000000"},
{"state":"Sindh","name":"Sobhodero","lat":"27.30475000","lon":"68.39715000"},
{"state":"Sindh","name":"Sukkur","lat":"27.70323000","lon":"68.85889000"},
{"state":"Sindh","name":"Talhar","lat":"24.88454000","lon":"68.81437000"},
{"state":"Sindh","name":"Tando Adam","lat":"25.76818000","lon":"68.66196000"},
{"state":"Sindh","name":"Tando Allahyar","lat":"25.46050000","lon":"68.71745000"},
{"state":"Sindh","name":"Tando Bago","lat":"24.78914000","lon":"68.96535000"},
{"state":"Sindh","name":"Tando Jam","lat":"25.42813000","lon":"68.52923000"},
{"state":"Sindh","name":"Tando Mitha Khan","lat":"25.99625000","lon":"69.20251000"},
{"state":"Sindh","name":"Tando Muhammad Khan","lat":"25.12384000","lon":"68.53677000"},
{"state":"Sindh","name":"Tangwani","lat":"28.27886000","lon":"68.99760000"},
{"state":"Sindh","name":"Tharu Shah","lat":"26.94230000","lon":"68.11759000"},
{"state":"Sindh","name":"Thatta","lat":"24.74745000","lon":"67.92353000"},
{"state":"Sindh","name":"Thul","lat":"28.24030000","lon":"68.77550000"},
{"state":"Sindh","name":"Ubauro","lat":"28.16429000","lon":"69.73114000"},
{"state":"Sindh","name":"Umarkot","lat":"25.36329000","lon":"69.74184000"},
{"state":"Sindh","name":"Umerkot District","lat":"25.37000000","lon":"69.73000000"},
{"state":"Sindh","name":"Warah","lat":"27.44805000","lon":"67.79654000"}]