[{"state":"Açores","name":"Água de Pau","lat":"37.72142000","lon":"-25.51170000"},
{"state":"Açores","name":"Angra do Heroísmo","lat":"38.65483000","lon":"-27.21734000"},
{"state":"Açores","name":"Angústias","lat":"38.52547000","lon":"-28.63132000"},
{"state":"Açores","name":"Arrifes","lat":"37.76667000","lon":"-25.70000000"},
{"state":"Açores","name":"Biscoitos","lat":"38.78333000","lon":"-27.25000000"},
{"state":"Açores","name":"Cabouco","lat":"37.76667000","lon":"-25.56667000"},
{"state":"Açores","name":"Cais do Pico","lat":"38.52531000","lon":"-28.32074000"},
{"state":"Açores","name":"Calheta","lat":"38.60186000","lon":"-28.01792000"},
{"state":"Açores","name":"Calheta de São Jorge","lat":"38.59767000","lon":"-27.91459000"},
{"state":"Açores","name":"Castelo Branco","lat":"38.52198000","lon":"-28.71365000"},
{"state":"Açores","name":"Corvo","lat":"39.69771000","lon":"-31.10550000"},
{"state":"Açores","name":"Fajã de Baixo","lat":"37.75000000","lon":"-25.65000000"},
{"state":"Açores","name":"Fenais da Ajuda","lat":"37.85128000","lon":"-25.32406000"},
{"state":"Açores","name":"Fenais da Luz","lat":"37.82490000","lon":"-25.64229000"},
{"state":"Açores","name":"Feteira","lat":"38.65429000","lon":"-27.14995000"},
{"state":"Açores","name":"Fonte Bastardo","lat":"38.69201000","lon":"-27.07942000"},
{"state":"Açores","name":"Furnas","lat":"37.77567000","lon":"-25.31035000"},
{"state":"Açores","name":"Horta","lat":"38.53737000","lon":"-28.62615000"},
{"state":"Açores","name":"Lagoa","lat":"37.74486000","lon":"-25.57184000"},
{"state":"Açores","name":"Lajes","lat":"38.76352000","lon":"-27.10336000"},
{"state":"Açores","name":"Lajes das Flores","lat":"39.41619000","lon":"-31.21725000"},
{"state":"Açores","name":"Lajes do Pico","lat":"38.42797000","lon":"-28.17402000"},
{"state":"Açores","name":"Madalena","lat":"38.53642000","lon":"-28.52660000"},
{"state":"Açores","name":"Maia","lat":"37.83247000","lon":"-25.38976000"},
{"state":"Açores","name":"Mosteiros","lat":"37.89017000","lon":"-25.81999000"},
{"state":"Açores","name":"Nordeste","lat":"37.82721000","lon":"-25.22863000"},
{"state":"Açores","name":"Ponta Delgada","lat":"37.74230000","lon":"-25.67093000"},
{"state":"Açores","name":"Ponta Garça","lat":"37.71667000","lon":"-25.36667000"},
{"state":"Açores","name":"Porto Judeu","lat":"38.64814000","lon":"-27.11944000"},
{"state":"Açores","name":"Porto Martins","lat":"38.68146000","lon":"-27.05835000"},
{"state":"Açores","name":"Povoação","lat":"37.76471000","lon":"-25.24487000"},
{"state":"Açores","name":"Praia da Vitória","lat":"38.73333000","lon":"-27.06667000"},
{"state":"Açores","name":"Rabo de Peixe","lat":"37.81022000","lon":"-25.58263000"},
{"state":"Açores","name":"Relva","lat":"37.75271000","lon":"-25.71848000"},
{"state":"Açores","name":"Ribeira Grande","lat":"38.51667000","lon":"-28.70000000"},
{"state":"Açores","name":"Ribeira Seca","lat":"37.81667000","lon":"-25.53333000"},
{"state":"Açores","name":"Ribeirinha","lat":"38.66203000","lon":"-27.18093000"},
{"state":"Açores","name":"Rosto de Cão","lat":"37.75000000","lon":"-25.65000000"},
{"state":"Açores","name":"Santa Bárbara","lat":"38.69608000","lon":"-27.33907000"},
{"state":"Açores","name":"Santa Cruz da Graciosa","lat":"39.04946000","lon":"-28.00432000"},
{"state":"Açores","name":"Santa Cruz das Flores","lat":"39.46984000","lon":"-31.18514000"},
{"state":"Açores","name":"São Bartolomeu","lat":"38.67491000","lon":"-27.29349000"},
{"state":"Açores","name":"São Mateus","lat":"38.65630000","lon":"-27.26935000"},
{"state":"Açores","name":"São Roque","lat":"37.75418000","lon":"-25.64127000"},
{"state":"Açores","name":"São Roque do Pico","lat":"38.51631000","lon":"-28.30752000"},
{"state":"Açores","name":"São Sebastião","lat":"38.66584000","lon":"-27.08976000"},
{"state":"Açores","name":"São Vicente","lat":"37.81829000","lon":"-25.66583000"},
{"state":"Açores","name":"Senhora do Rosário","lat":"37.83333000","lon":"-25.15000000"},
{"state":"Açores","name":"Velas","lat":"38.67995000","lon":"-28.15155000"},
{"state":"Açores","name":"Vila do Porto","lat":"36.97454000","lon":"-25.09967000"},
{"state":"Açores","name":"Vila Franca do Campo","lat":"37.71667000","lon":"-25.43333000"},
{"state":"Aveiro","name":"Aguada de Cima","lat":"40.52291000","lon":"-8.42700000"},
{"state":"Aveiro","name":"Águeda","lat":"40.57720000","lon":"-8.44442000"},
{"state":"Aveiro","name":"Albergaria-a-Velha","lat":"40.68706000","lon":"-8.50399000"},
{"state":"Aveiro","name":"Anadia","lat":"40.43841000","lon":"-8.43352000"},
{"state":"Aveiro","name":"Aradas","lat":"40.62084000","lon":"-8.64195000"},
{"state":"Aveiro","name":"Arcos","lat":"40.44779000","lon":"-8.44171000"},
{"state":"Aveiro","name":"Argoncilhe","lat":"41.02541000","lon":"-8.53885000"},
{"state":"Aveiro","name":"Arouca","lat":"40.92658000","lon":"-8.27251000"},
{"state":"Aveiro","name":"Arrifana","lat":"40.91565000","lon":"-8.49657000"},
{"state":"Aveiro","name":"Avanca","lat":"40.80771000","lon":"-8.57220000"},
{"state":"Aveiro","name":"Aveiro","lat":"40.64427000","lon":"-8.64554000"},
{"state":"Aveiro","name":"Beduido","lat":"40.76427000","lon":"-8.56110000"},
{"state":"Aveiro","name":"Branca","lat":"40.76653000","lon":"-8.48262000"},
{"state":"Aveiro","name":"Castelo de Paiva","lat":"41.03353000","lon":"-8.29822000"},
{"state":"Aveiro","name":"Cortegaça","lat":"40.94883000","lon":"-8.62130000"},
{"state":"Aveiro","name":"Cucujães","lat":"40.87413000","lon":"-8.50687000"},
{"state":"Aveiro","name":"Eixo","lat":"40.62758000","lon":"-8.56922000"},
{"state":"Aveiro","name":"Esgueira","lat":"40.64899000","lon":"-8.62943000"},
{"state":"Aveiro","name":"Esmoriz","lat":"40.95773000","lon":"-8.62753000"},
{"state":"Aveiro","name":"Espargo","lat":"40.92462000","lon":"-8.57495000"},
{"state":"Aveiro","name":"Espinho","lat":"41.00763000","lon":"-8.64125000"},
{"state":"Aveiro","name":"Estarreja","lat":"40.75463000","lon":"-8.57917000"},
{"state":"Aveiro","name":"Feira","lat":"40.92535000","lon":"-8.54277000"},
{"state":"Aveiro","name":"Fiães","lat":"40.99446000","lon":"-8.52537000"},
{"state":"Aveiro","name":"Gafanha da Encarnação","lat":"40.61806000","lon":"-8.73303000"},
{"state":"Aveiro","name":"Gafanha da Nazaré","lat":"40.63621000","lon":"-8.71338000"},
{"state":"Aveiro","name":"Ílhavo","lat":"40.60188000","lon":"-8.67021000"},
{"state":"Aveiro","name":"Lamas","lat":"40.98597000","lon":"-8.56923000"},
{"state":"Aveiro","name":"Lobão","lat":"40.98664000","lon":"-8.48566000"},
{"state":"Aveiro","name":"Lourosa","lat":"40.98420000","lon":"-8.55142000"},
{"state":"Aveiro","name":"Luso","lat":"40.38429000","lon":"-8.37845000"},
{"state":"Aveiro","name":"Macieira de Cambra","lat":"40.85939000","lon":"-8.37338000"},
{"state":"Aveiro","name":"Mealhada","lat":"40.36273000","lon":"-8.44781000"},
{"state":"Aveiro","name":"Milheirós de Poiares","lat":"40.92163000","lon":"-8.46788000"},
{"state":"Aveiro","name":"Mosteirô","lat":"40.89843000","lon":"-8.53196000"},
{"state":"Aveiro","name":"Murtosa","lat":"40.74301000","lon":"-8.64023000"},
{"state":"Aveiro","name":"Nogueira da Regedoura","lat":"41.00530000","lon":"-8.59195000"},
{"state":"Aveiro","name":"Oiã","lat":"40.54264000","lon":"-8.53856000"},
{"state":"Aveiro","name":"Oliveira de Azemeis","lat":"40.84101000","lon":"-8.47555000"},
{"state":"Aveiro","name":"Oliveira do Bairro","lat":"40.50977000","lon":"-8.56374000"},
{"state":"Aveiro","name":"Oliveirinha","lat":"40.60715000","lon":"-8.59198000"},
{"state":"Aveiro","name":"Ovar","lat":"40.85862000","lon":"-8.62513000"},
{"state":"Aveiro","name":"Paços de Brandão","lat":"40.97541000","lon":"-8.58350000"},
{"state":"Aveiro","name":"Pampilhosa do Botão","lat":"40.33580000","lon":"-8.42738000"},
{"state":"Aveiro","name":"Pardilhó","lat":"40.79925000","lon":"-8.62598000"},
{"state":"Aveiro","name":"Rio Meão","lat":"40.95775000","lon":"-8.57818000"},
{"state":"Aveiro","name":"Salreu","lat":"40.73971000","lon":"-8.55720000"},
{"state":"Aveiro","name":"Sanfins","lat":"40.92979000","lon":"-8.52563000"},
{"state":"Aveiro","name":"Sangalhos","lat":"40.48678000","lon":"-8.46968000"},
{"state":"Aveiro","name":"Santa Maria da Feira","lat":"40.96043000","lon":"-8.51545000"},
{"state":"Aveiro","name":"São João","lat":"40.86802000","lon":"-8.60672000"},
{"state":"Aveiro","name":"São João da Madeira","lat":"40.90070000","lon":"-8.49020000"},
{"state":"Aveiro","name":"São João de Ver","lat":"40.95527000","lon":"-8.55117000"},
{"state":"Aveiro","name":"São Roque","lat":"40.87216000","lon":"-8.47149000"},
{"state":"Aveiro","name":"Sever do Vouga","lat":"40.73156000","lon":"-8.35493000"},
{"state":"Aveiro","name":"Silvalde","lat":"40.99205000","lon":"-8.62567000"},
{"state":"Aveiro","name":"Souto","lat":"40.98496000","lon":"-8.62185000"},
{"state":"Aveiro","name":"Vagos","lat":"40.49943000","lon":"-8.67830000"},
{"state":"Aveiro","name":"Vale de Cambra","lat":"40.84500000","lon":"-8.36022000"},
{"state":"Aveiro","name":"Válega","lat":"40.83629000","lon":"-8.58061000"},
{"state":"Aveiro","name":"Valongo","lat":"40.61667000","lon":"-8.45000000"},
{"state":"Aveiro","name":"Vila Chã","lat":"40.86667000","lon":"-8.46667000"},
{"state":"Beja","name":"Aldeia Nova de São Bento","lat":"37.92603000","lon":"-7.40804000"},
{"state":"Beja","name":"Aljustrel","lat":"37.87759000","lon":"-8.16516000"},
{"state":"Beja","name":"Almodôvar","lat":"37.49590000","lon":"-8.09372000"},
{"state":"Beja","name":"Almograve","lat":"37.65665000","lon":"-8.79214000"},
{"state":"Beja","name":"Alvito","lat":"38.24653000","lon":"-8.05038000"},
{"state":"Beja","name":"Barrancos","lat":"38.13446000","lon":"-6.97604000"},
{"state":"Beja","name":"Beja","lat":"38.01506000","lon":"-7.86323000"},
{"state":"Beja","name":"Beringel","lat":"38.05656000","lon":"-7.98427000"},
{"state":"Beja","name":"Boavista dos Pinheiros","lat":"37.58058000","lon":"-8.66441000"},
{"state":"Beja","name":"Cabeça Gorda","lat":"37.92401000","lon":"-7.79290000"},
{"state":"Beja","name":"Castro Verde","lat":"37.69828000","lon":"-8.08581000"},
{"state":"Beja","name":"Cuba","lat":"38.21972000","lon":"-7.92114000"},
{"state":"Beja","name":"Ferreira do Alentejo","lat":"38.05000000","lon":"-8.03333000"},
{"state":"Beja","name":"Mértola","lat":"37.65918000","lon":"-7.66434000"},
{"state":"Beja","name":"Minas de São Domingos","lat":"37.67322000","lon":"-7.49765000"},
{"state":"Beja","name":"Moura","lat":"38.14010000","lon":"-7.44856000"},
{"state":"Beja","name":"Neves","lat":"38.02270000","lon":"-7.81344000"},
{"state":"Beja","name":"Odemira","lat":"37.59798000","lon":"-8.63972000"},
{"state":"Beja","name":"Ourique","lat":"37.69156000","lon":"-8.31031000"},
{"state":"Beja","name":"Penedo Gordo","lat":"37.98477000","lon":"-7.91651000"},
{"state":"Beja","name":"Salvada","lat":"37.93771000","lon":"-7.77448000"},
{"state":"Beja","name":"São Luis","lat":"37.71556000","lon":"-8.66472000"},
{"state":"Beja","name":"São Teotónio","lat":"37.51282000","lon":"-8.70708000"},
{"state":"Beja","name":"Serpa","lat":"37.95201000","lon":"-7.47534000"},
{"state":"Beja","name":"Vidigueira","lat":"38.18448000","lon":"-7.74469000"},
{"state":"Beja","name":"Vila Nova de Milfontes","lat":"37.72377000","lon":"-8.78278000"},
{"state":"Beja","name":"Zambujeira do Mar","lat":"37.52799000","lon":"-8.78483000"},
{"state":"Braga","name":"Adaúfe","lat":"41.58732000","lon":"-8.39817000"},
{"state":"Braga","name":"Amares","lat":"41.64718000","lon":"-8.35558000"},
{"state":"Braga","name":"Apúlia","lat":"41.48512000","lon":"-8.76413000"},
{"state":"Braga","name":"Apúlia e Fão","lat":"41.51194000","lon":"-8.77288000"},
{"state":"Braga","name":"Arcos","lat":"41.52185000","lon":"-8.42151000"},
{"state":"Braga","name":"Arões","lat":"41.45553000","lon":"-8.21419000"},
{"state":"Braga","name":"Aveleda","lat":"41.52113000","lon":"-8.46682000"},
{"state":"Braga","name":"Barcelos","lat":"41.53174000","lon":"-8.61843000"},
{"state":"Braga","name":"Barqueiros","lat":"41.49111000","lon":"-8.73192000"},
{"state":"Braga","name":"Braga","lat":"41.55032000","lon":"-8.42005000"},
{"state":"Braga","name":"Brito","lat":"41.45821000","lon":"-8.36103000"},
{"state":"Braga","name":"Cabeceiras de Basto","lat":"41.52079000","lon":"-7.97198000"},
{"state":"Braga","name":"Caldas das Taipas","lat":"41.48465000","lon":"-8.34850000"},
{"state":"Braga","name":"Caldas de Vizela","lat":"41.38212000","lon":"-8.30890000"},
{"state":"Braga","name":"Caldelas","lat":"41.67101000","lon":"-8.38148000"},
{"state":"Braga","name":"Calendário","lat":"41.40361000","lon":"-8.52967000"},
{"state":"Braga","name":"Candoso","lat":"41.42768000","lon":"-8.32166000"},
{"state":"Braga","name":"Celorico de Basto","lat":"41.40278000","lon":"-8.03346000"},
{"state":"Braga","name":"Chavão","lat":"41.45235000","lon":"-8.60194000"},
{"state":"Braga","name":"Cristelo","lat":"41.47964000","lon":"-8.69785000"},
{"state":"Braga","name":"Esporões","lat":"41.51006000","lon":"-8.41729000"},
{"state":"Braga","name":"Esposende","lat":"41.53610000","lon":"-8.78201000"},
{"state":"Braga","name":"Fafe","lat":"41.46837000","lon":"-8.15863000"},
{"state":"Braga","name":"Faria","lat":"41.48298000","lon":"-8.67152000"},
{"state":"Braga","name":"Ferreiros","lat":"41.35000000","lon":"-8.55000000"},
{"state":"Braga","name":"Fradelos","lat":"41.36846000","lon":"-8.59887000"},
{"state":"Braga","name":"Frossos","lat":"41.56590000","lon":"-8.45134000"},
{"state":"Braga","name":"Galegos","lat":"41.56268000","lon":"-8.57204000"},
{"state":"Braga","name":"Gandra","lat":"41.52185000","lon":"-8.76185000"},
{"state":"Braga","name":"Gondizalves","lat":"41.54158000","lon":"-8.45570000"},
{"state":"Braga","name":"Gueral","lat":"41.45859000","lon":"-8.62946000"},
{"state":"Braga","name":"Guimarães","lat":"41.44384000","lon":"-8.28918000"},
{"state":"Braga","name":"Guisande","lat":"41.48264000","lon":"-8.44564000"},
{"state":"Braga","name":"Joane","lat":"41.43906000","lon":"-8.40846000"},
{"state":"Braga","name":"Lago","lat":"41.62148000","lon":"-8.41258000"},
{"state":"Braga","name":"Lordelo","lat":"41.37411000","lon":"-8.38016000"},
{"state":"Braga","name":"Macieira de Rates","lat":"41.44092000","lon":"-8.63426000"},
{"state":"Braga","name":"Marinhas","lat":"41.55906000","lon":"-8.78297000"},
{"state":"Braga","name":"Mariz","lat":"41.52823000","lon":"-8.67081000"},
{"state":"Braga","name":"Merelim","lat":"41.58568000","lon":"-8.46555000"},
{"state":"Braga","name":"Moreira de Conegos","lat":"41.38680000","lon":"-8.33940000"},
{"state":"Braga","name":"Negreiros","lat":"41.43552000","lon":"-8.61398000"},
{"state":"Braga","name":"Oliveira","lat":"41.47819000","lon":"-8.46965000"},
{"state":"Braga","name":"Perelhal","lat":"41.53075000","lon":"-8.68982000"},
{"state":"Braga","name":"Ponte","lat":"41.47057000","lon":"-8.32990000"},
{"state":"Braga","name":"Póvoa de Lanhoso","lat":"41.57599000","lon":"-8.27008000"},
{"state":"Braga","name":"Prado","lat":"41.60246000","lon":"-8.46297000"},
{"state":"Braga","name":"Real","lat":"41.55841000","lon":"-8.44330000"},
{"state":"Braga","name":"Refojos de Basto","lat":"41.51318000","lon":"-7.99517000"},
{"state":"Braga","name":"Rendufe","lat":"41.62898000","lon":"-8.40858000"},
{"state":"Braga","name":"Riba de Ave","lat":"41.39648000","lon":"-8.38685000"},
{"state":"Braga","name":"Ribeirão","lat":"41.36081000","lon":"-8.56774000"},
{"state":"Braga","name":"Ronfe","lat":"41.44146000","lon":"-8.38412000"},
{"state":"Braga","name":"Sande","lat":"41.70190000","lon":"-8.39246000"},
{"state":"Braga","name":"Selho","lat":"41.41938000","lon":"-8.34599000"},
{"state":"Braga","name":"Semelhe","lat":"41.55437000","lon":"-8.46281000"},
{"state":"Braga","name":"Serzedelo","lat":"41.40128000","lon":"-8.36888000"},
{"state":"Braga","name":"Serzedo","lat":"41.40502000","lon":"-8.22926000"},
{"state":"Braga","name":"Tebosa","lat":"41.48253000","lon":"-8.48399000"},
{"state":"Braga","name":"Terras de Bouro","lat":"41.73914000","lon":"-8.19109000"},
{"state":"Braga","name":"Urgeses","lat":"41.42720000","lon":"-8.29796000"},
{"state":"Braga","name":"Várzea","lat":"41.51512000","lon":"-8.58400000"},
{"state":"Braga","name":"Vieira do Minho","lat":"41.63557000","lon":"-8.13244000"},
{"state":"Braga","name":"Vila Cova","lat":"41.55107000","lon":"-8.71645000"},
{"state":"Braga","name":"Vila Frescainha","lat":"41.53846000","lon":"-8.63971000"},
{"state":"Braga","name":"Vila Nova de Famalicão","lat":"41.40797000","lon":"-8.51978000"},
{"state":"Braga","name":"Vila Seca","lat":"41.50031000","lon":"-8.68525000"},
{"state":"Braga","name":"Vila Verde","lat":"41.64869000","lon":"-8.43628000"},
{"state":"Braga","name":"Vilaça","lat":"41.51787000","lon":"-8.48357000"},
{"state":"Braga","name":"Vilar de Figos","lat":"41.47555000","lon":"-8.65382000"},
{"state":"Braga","name":"Vizela","lat":"41.37529000","lon":"-8.29310000"},
{"state":"Bragança","name":"Alfândega da Fé","lat":"41.34315000","lon":"-6.96112000"},
{"state":"Bragança","name":"Belver","lat":"41.24696000","lon":"-7.27594000"},
{"state":"Bragança","name":"Bragança Municipality","lat":"41.75608000","lon":"-6.75535000"},
{"state":"Bragança","name":"Carrazeda de Anciães","lat":"41.24247000","lon":"-7.30721000"},
{"state":"Bragança","name":"Carrazeda de Ansiães","lat":"41.23424000","lon":"-7.31129000"},
{"state":"Bragança","name":"Freixo de Espada à Cinta","lat":"41.09033000","lon":"-6.80648000"},
{"state":"Bragança","name":"Macedo de Cavaleiros","lat":"41.55132000","lon":"-6.93355000"},
{"state":"Bragança","name":"Miranda do Douro","lat":"41.49692000","lon":"-6.27308000"},
{"state":"Bragança","name":"Mirandela","lat":"41.50098000","lon":"-7.19185000"},
{"state":"Bragança","name":"Mogadouro","lat":"41.34034000","lon":"-6.71187000"},
{"state":"Bragança","name":"Samil","lat":"41.77632000","lon":"-6.75698000"},
{"state":"Bragança","name":"Sendim","lat":"41.38739000","lon":"-6.42625000"},
{"state":"Bragança","name":"Torre de Moncorvo","lat":"41.17454000","lon":"-7.05364000"},
{"state":"Bragança","name":"Vila Flor","lat":"41.31429000","lon":"-7.15071000"},
{"state":"Bragança","name":"Vimioso","lat":"41.57287000","lon":"-6.52087000"},
{"state":"Bragança","name":"Vinhais","lat":"41.83509000","lon":"-7.00501000"},
{"state":"Castelo Branco","name":"Aldeia de Joanes","lat":"40.13905000","lon":"-7.51694000"},
{"state":"Castelo Branco","name":"Belmonte","lat":"40.36181000","lon":"-7.35157000"},
{"state":"Castelo Branco","name":"Castelo Branco","lat":"39.82219000","lon":"-7.49087000"},
{"state":"Castelo Branco","name":"Covilhã","lat":"40.28106000","lon":"-7.50504000"},
{"state":"Castelo Branco","name":"Fundão","lat":"40.12412000","lon":"-7.49542000"},
{"state":"Castelo Branco","name":"Idanha-A-Nova","lat":"39.92957000","lon":"-7.23690000"},
{"state":"Castelo Branco","name":"Oleiros","lat":"39.94948000","lon":"-7.88592000"},
{"state":"Castelo Branco","name":"Penamacor","lat":"40.15495000","lon":"-7.17149000"},
{"state":"Castelo Branco","name":"Proença-a-Nova","lat":"39.75700000","lon":"-7.92595000"},
{"state":"Castelo Branco","name":"Sertã","lat":"39.80205000","lon":"-8.09589000"},
{"state":"Castelo Branco","name":"Teixoso","lat":"40.31448000","lon":"-7.45759000"},
{"state":"Castelo Branco","name":"Vila de Rei","lat":"39.70685000","lon":"-8.12836000"},
{"state":"Castelo Branco","name":"Vila Velha de Ródão","lat":"39.68709000","lon":"-7.65987000"},
{"state":"Coimbra","name":"Alfarelos","lat":"40.15057000","lon":"-8.65326000"},
{"state":"Coimbra","name":"Alhadas","lat":"40.18607000","lon":"-8.79057000"},
{"state":"Coimbra","name":"Ançã","lat":"40.27161000","lon":"-8.52090000"},
{"state":"Coimbra","name":"Arazede","lat":"40.28627000","lon":"-8.64999000"},
{"state":"Coimbra","name":"Arganil","lat":"40.21826000","lon":"-8.05403000"},
{"state":"Coimbra","name":"Assafarge","lat":"40.15895000","lon":"-8.43167000"},
{"state":"Coimbra","name":"Buarcos","lat":"40.16604000","lon":"-8.87680000"},
{"state":"Coimbra","name":"Cantanhede","lat":"40.36354000","lon":"-8.60549000"},
{"state":"Coimbra","name":"Carapinheira","lat":"40.20620000","lon":"-8.64810000"},
{"state":"Coimbra","name":"Coimbra","lat":"40.20564000","lon":"-8.41955000"},
{"state":"Coimbra","name":"Condeixa-a-Nova","lat":"40.10639000","lon":"-8.49632000"},
{"state":"Coimbra","name":"Figueira da Foz","lat":"40.15085000","lon":"-8.86179000"},
{"state":"Coimbra","name":"Góis","lat":"40.12535000","lon":"-8.08340000"},
{"state":"Coimbra","name":"Lavos","lat":"40.09363000","lon":"-8.82826000"},
{"state":"Coimbra","name":"Lorvão","lat":"40.25938000","lon":"-8.31683000"},
{"state":"Coimbra","name":"Lousã","lat":"40.11673000","lon":"-8.24921000"},
{"state":"Coimbra","name":"Mira","lat":"40.44559000","lon":"-8.73849000"},
{"state":"Coimbra","name":"Miranda do Corvo","lat":"40.09318000","lon":"-8.33261000"},
{"state":"Coimbra","name":"Montemor-o-Velho","lat":"40.19385000","lon":"-8.66696000"},
{"state":"Coimbra","name":"Oliveira do Hospital","lat":"40.35522000","lon":"-7.86481000"},
{"state":"Coimbra","name":"Oliveira do Mondego","lat":"40.32305000","lon":"-8.22367000"},
{"state":"Coimbra","name":"Pampilhosa da Serra","lat":"40.04620000","lon":"-7.95182000"},
{"state":"Coimbra","name":"Penacova","lat":"40.26884000","lon":"-8.28237000"},
{"state":"Coimbra","name":"Penela","lat":"40.03333000","lon":"-8.38333000"},
{"state":"Coimbra","name":"Poiares","lat":"40.21026000","lon":"-8.25746000"},
{"state":"Coimbra","name":"Santa Clara","lat":"40.19985000","lon":"-8.44018000"},
{"state":"Coimbra","name":"Santo António dos Olivais","lat":"40.21805000","lon":"-8.40523000"},
{"state":"Coimbra","name":"São Pedro de Alva","lat":"40.30044000","lon":"-8.16623000"},
{"state":"Coimbra","name":"Soure","lat":"40.05989000","lon":"-8.62605000"},
{"state":"Coimbra","name":"Tábua","lat":"40.36207000","lon":"-8.02936000"},
{"state":"Coimbra","name":"Tavarede","lat":"40.16692000","lon":"-8.84568000"},
{"state":"Coimbra","name":"Tocha","lat":"40.31308000","lon":"-8.75339000"},
{"state":"Coimbra","name":"Travanca","lat":"40.32357000","lon":"-8.18687000"},
{"state":"Coimbra","name":"Vila Nova de Poiares","lat":"40.22129000","lon":"-8.24105000"},
{"state":"Évora","name":"Alandroal","lat":"38.62924000","lon":"-7.36599000"},
{"state":"Évora","name":"Arraiolos","lat":"38.76774000","lon":"-7.95831000"},
{"state":"Évora","name":"Borba","lat":"38.80553000","lon":"-7.45465000"},
{"state":"Évora","name":"Estremoz","lat":"38.84996000","lon":"-7.60117000"},
{"state":"Évora","name":"Évora","lat":"38.56667000","lon":"-7.90000000"},
{"state":"Évora","name":"Montemor-o-Novo","lat":"38.67103000","lon":"-8.29956000"},
{"state":"Évora","name":"Mora","lat":"38.92174000","lon":"-8.09972000"},
{"state":"Évora","name":"Mourão","lat":"38.29778000","lon":"-7.22230000"},
{"state":"Évora","name":"Portel","lat":"38.29385000","lon":"-7.72762000"},
{"state":"Évora","name":"Redondo","lat":"38.58010000","lon":"-7.59659000"},
{"state":"Évora","name":"Reguengos de Monsaraz","lat":"38.42529000","lon":"-7.53494000"},
{"state":"Évora","name":"Vendas Novas","lat":"38.63975000","lon":"-8.54702000"},
{"state":"Évora","name":"Viana do Alentejo","lat":"38.33645000","lon":"-8.00011000"},
{"state":"Évora","name":"Vila Viçosa","lat":"38.78790000","lon":"-7.41852000"},
{"state":"Faro","name":"Albufeira","lat":"37.08819000","lon":"-8.25030000"},
{"state":"Faro","name":"Alcantarilha","lat":"37.13044000","lon":"-8.34623000"},
{"state":"Faro","name":"Alcoutim","lat":"37.42400000","lon":"-7.65456000"},
{"state":"Faro","name":"Algoz","lat":"37.16301000","lon":"-8.30359000"},
{"state":"Faro","name":"Aljezur","lat":"37.31745000","lon":"-8.80147000"},
{"state":"Faro","name":"Almancil","lat":"37.08686000","lon":"-8.03074000"},
{"state":"Faro","name":"Altura","lat":"37.17560000","lon":"-7.50064000"},
{"state":"Faro","name":"Alvor","lat":"37.12994000","lon":"-8.59174000"},
{"state":"Faro","name":"Armação de Pêra","lat":"37.10256000","lon":"-8.35695000"},
{"state":"Faro","name":"Bensafrim","lat":"37.15583000","lon":"-8.73520000"},
{"state":"Faro","name":"Boliqueime","lat":"37.13718000","lon":"-8.15820000"},
{"state":"Faro","name":"Cabanas de Tavira","lat":"37.13521000","lon":"-7.60048000"},
{"state":"Faro","name":"Carvoeiro","lat":"37.09736000","lon":"-8.46846000"},
{"state":"Faro","name":"Castro Marim","lat":"37.25865000","lon":"-7.50732000"},
{"state":"Faro","name":"Conceição","lat":"37.14789000","lon":"-7.60426000"},
{"state":"Faro","name":"Estói","lat":"37.09503000","lon":"-7.89445000"},
{"state":"Faro","name":"Estômbar","lat":"37.14629000","lon":"-8.48505000"},
{"state":"Faro","name":"Faro","lat":"37.01869000","lon":"-7.92716000"},
{"state":"Faro","name":"Ferragudo","lat":"37.12474000","lon":"-8.51915000"},
{"state":"Faro","name":"Ferreiras","lat":"37.12926000","lon":"-8.23759000"},
{"state":"Faro","name":"Fuzeta","lat":"37.05429000","lon":"-7.74699000"},
{"state":"Faro","name":"Guia","lat":"37.12959000","lon":"-8.29963000"},
{"state":"Faro","name":"Lagoa","lat":"37.10505000","lon":"-8.45974000"},
{"state":"Faro","name":"Lagos","lat":"37.10202000","lon":"-8.67422000"},
{"state":"Faro","name":"Laranjeiro","lat":"37.06799000","lon":"-7.80780000"},
{"state":"Faro","name":"Loulé","lat":"37.14399000","lon":"-8.02345000"},
{"state":"Faro","name":"Luz","lat":"37.09216000","lon":"-7.70433000"},
{"state":"Faro","name":"Manta Rota","lat":"37.16849000","lon":"-7.51804000"},
{"state":"Faro","name":"Marmelete","lat":"37.31014000","lon":"-8.66813000"},
{"state":"Faro","name":"Mexilhoeira Grande","lat":"37.15858000","lon":"-8.61487000"},
{"state":"Faro","name":"Moncarapacho","lat":"37.08360000","lon":"-7.78763000"},
{"state":"Faro","name":"Monchique","lat":"37.31664000","lon":"-8.58340000"},
{"state":"Faro","name":"Monte Gordo","lat":"37.18192000","lon":"-7.45225000"},
{"state":"Faro","name":"Olhão","lat":"37.04509000","lon":"-7.81032000"},
{"state":"Faro","name":"Olhos de Água","lat":"37.09024000","lon":"-8.19168000"},
{"state":"Faro","name":"Paderne","lat":"37.17935000","lon":"-8.20150000"},
{"state":"Faro","name":"Parchal","lat":"37.13827000","lon":"-8.51703000"},
{"state":"Faro","name":"Pêra","lat":"37.12296000","lon":"-8.34115000"},
{"state":"Faro","name":"Porches","lat":"37.12665000","lon":"-8.40162000"},
{"state":"Faro","name":"Portimão","lat":"37.17544000","lon":"-8.58420000"},
{"state":"Faro","name":"Quarteira","lat":"37.06946000","lon":"-8.10064000"},
{"state":"Faro","name":"Sagres","lat":"37.00864000","lon":"-8.94311000"},
{"state":"Faro","name":"Santa Bárbara de Nexe","lat":"37.10619000","lon":"-7.96648000"},
{"state":"Faro","name":"Santa Luzia","lat":"37.10224000","lon":"-7.66202000"},
{"state":"Faro","name":"São Bartolomeu de Messines","lat":"37.25648000","lon":"-8.28672000"},
{"state":"Faro","name":"São Brás de Alportel","lat":"37.19564000","lon":"-7.87546000"},
{"state":"Faro","name":"São Marcos da Serra","lat":"37.36100000","lon":"-8.37764000"},
{"state":"Faro","name":"Senhora da Luz","lat":"37.08771000","lon":"-8.72649000"},
{"state":"Faro","name":"Silves","lat":"37.20343000","lon":"-8.33472000"},
{"state":"Faro","name":"Tavira","lat":"37.12734000","lon":"-7.64861000"},
{"state":"Faro","name":"Tunes","lat":"37.16592000","lon":"-8.25919000"},
{"state":"Faro","name":"Vila do Bispo","lat":"37.08317000","lon":"-8.91144000"},
{"state":"Faro","name":"Vila Nova De Cacela","lat":"37.17391000","lon":"-7.53169000"},
{"state":"Faro","name":"Vila Real de Santo António","lat":"37.19232000","lon":"-7.42538000"},
{"state":"Faro","name":"Vilamoura","lat":"37.08728000","lon":"-8.11701000"},
{"state":"Guarda","name":"Abrigada","lat":"39.14472222","lon":"-9.01861111"},
{"state":"Guarda","name":"Açores","lat":"40.64500000","lon":"-7.30527778"},
{"state":"Guarda","name":"Adão","lat":"40.45916667","lon":"-7.16500000"},
{"state":"Guarda","name":"Agualva","lat":"38.77004444","lon":"-9.29881111"},
{"state":"Guarda","name":"Águas Belas","lat":"40.37472222","lon":"-7.16694444"},
{"state":"Guarda","name":"Aguiar da Beira","lat":"40.81726000","lon":"-7.54431000"},
{"state":"Guarda","name":"Ajuda","lat":"38.70750000","lon":"-9.19833333"},
{"state":"Guarda","name":"Albardo","lat":"40.51145000","lon":"-7.13028000"},
{"state":"Guarda","name":"Alcabideche","lat":"38.73361111","lon":"-9.40916667"},
{"state":"Guarda","name":"Alcains","lat":"39.91540278","lon":"-7.46107778"},
{"state":"Guarda","name":"Alcântara","lat":"38.70638889","lon":"-9.17416667"},
{"state":"Guarda","name":"Alcoentre","lat":"39.20861111","lon":"-8.95944444"},
{"state":"Guarda","name":"Aldeia da Ponte","lat":"40.41348889","lon":"-6.86908333"},
{"state":"Guarda","name":"Aldeia da Ribeira","lat":"40.45666667","lon":"-6.89777778"},
{"state":"Guarda","name":"Aldeia de Santo António","lat":"40.34305556","lon":"-7.13638889"},
{"state":"Guarda","name":"Aldeia do Bispo","lat":"40.32333333","lon":"-6.84805556"},
{"state":"Guarda","name":"Aldeia Galega da Merceana","lat":"39.08222222","lon":"-9.11194444"},
{"state":"Guarda","name":"Aldeia Gavinha","lat":"39.08444444","lon":"-9.09638889"},
{"state":"Guarda","name":"Aldeia Nova Miranda do Douro","lat":"40.72584000","lon":"-7.42384000"},
{"state":"Guarda","name":"Aldeia Velha","lat":"40.34333333","lon":"-6.86750000"},
{"state":"Guarda","name":"Aldeia Viçosa","lat":"40.57888889","lon":"-7.31777778"},
{"state":"Guarda","name":"Aldeias","lat":"40.46861111","lon":"-7.59805556"},
{"state":"Guarda","name":"Alenquer","lat":"39.05000000","lon":"-9.01666667"},
{"state":"Guarda","name":"Alfaiates","lat":"40.39111111","lon":"-6.91333333"},
{"state":"Guarda","name":"Alfornelos","lat":"38.76333333","lon":"-9.20638889"},
{"state":"Guarda","name":"Alfragide","lat":"38.73203000","lon":"-9.21920000"},
{"state":"Guarda","name":"Algés","lat":"38.69949722","lon":"-9.22927222"},
{"state":"Guarda","name":"Algodres","lat":"40.95250000","lon":"-7.05472222"},
{"state":"Guarda","name":"Alguber","lat":"39.27583333","lon":"-9.01888889"},
{"state":"Guarda","name":"Algueirão","lat":"38.79764000","lon":"-9.34370000"},
{"state":"Guarda","name":"Algueirão–Mem Martins","lat":"38.79411389","lon":"-9.34510833"},
{"state":"Guarda","name":"Alhandra","lat":"38.92732000","lon":"-9.00864000"},
{"state":"Guarda","name":"Almargem","lat":"38.84472222","lon":"-9.27305556"},
{"state":"Guarda","name":"Almargem do Bispo","lat":"38.84750000","lon":"-9.27138889"},
{"state":"Guarda","name":"Almeida","lat":"40.73070000","lon":"-6.90594000"},
{"state":"Guarda","name":"Almendra","lat":"40.99284444","lon":"-7.05756944"},
{"state":"Guarda","name":"Almofala","lat":"40.86027778","lon":"-6.84861111"},
{"state":"Guarda","name":"Alto do Pina","lat":"38.74027778","lon":"-9.12805556"},
{"state":"Guarda","name":"Alvalade","lat":"38.74694444","lon":"-9.13611111"},
{"state":"Guarda","name":"Alvendre","lat":"40.58500000","lon":"-7.25833333"},
{"state":"Guarda","name":"Alverca da Beira","lat":"40.70055556","lon":"-7.21750000"},
{"state":"Guarda","name":"Alverca do Ribatejo","lat":"38.89866111","lon":"-9.03947778"},
{"state":"Guarda","name":"Alvoco da Serra","lat":"40.29555556","lon":"-7.67027778"},
{"state":"Guarda","name":"Amadora","lat":"38.75000000","lon":"-9.23333333"},
{"state":"Guarda","name":"Ameixoeira","lat":"38.78777778","lon":"-9.15250000"},
{"state":"Guarda","name":"Amoreira","lat":"40.58805556","lon":"-7.01555556"},
{"state":"Guarda","name":"Anjos","lat":"38.72388889","lon":"-9.13638889"},
{"state":"Guarda","name":"Apelação","lat":"38.81500000","lon":"-9.13249000"},
{"state":"Guarda","name":"Arcozelo","lat":"40.54055556","lon":"-7.62722222"},
{"state":"Guarda","name":"Arranhó","lat":"38.95371667","lon":"-9.13497778"},
{"state":"Guarda","name":"Arrifana","lat":"40.56972222","lon":"-7.21027778"},
{"state":"Guarda","name":"Arruda Dos Vinhos","lat":"38.97172000","lon":"-9.08807000"},
{"state":"Guarda","name":"Atalaia","lat":"40.66000000","lon":"-7.03305556"},
{"state":"Guarda","name":"Aveiras de Baixo","lat":"39.11138889","lon":"-8.86916667"},
{"state":"Guarda","name":"Aveiras de Cima","lat":"39.13769444","lon":"-8.89995556"},
{"state":"Guarda","name":"Avelãs da Ribeira","lat":"40.67773000","lon":"-7.21492000"},
{"state":"Guarda","name":"Aveloso","lat":"40.93111111","lon":"-7.31666667"},
{"state":"Guarda","name":"Azambuja","lat":"39.06666667","lon":"-8.86666667"},
{"state":"Guarda","name":"Azambuja (town)","lat":"39.07027778","lon":"-8.86833333"},
{"state":"Guarda","name":"Azenhas do Mar","lat":"38.84055556","lon":"-9.46000000"},
{"state":"Guarda","name":"Azevo","lat":"40.85166667","lon":"-7.13138889"},
{"state":"Guarda","name":"Azueira","lat":"39.00653000","lon":"-9.27475000"},
{"state":"Guarda","name":"Baraçal","lat":"40.39357000","lon":"-7.08522000"},
{"state":"Guarda","name":"Barcarena","lat":"38.73250000","lon":"-9.28000000"},
{"state":"Guarda","name":"Barreira","lat":"40.91111111","lon":"-7.18638889"},
{"state":"Guarda","name":"Beato","lat":"38.73472222","lon":"-9.10583333"},
{"state":"Guarda","name":"Belas","lat":"38.76666667","lon":"-9.26666667"},
{"state":"Guarda","name":"Bendada","lat":"40.37083333","lon":"-7.25472222"},
{"state":"Guarda","name":"Benespera","lat":"40.44027778","lon":"-7.27638889"},
{"state":"Guarda","name":"Benfica","lat":"38.75111111","lon":"-9.20222222"},
{"state":"Guarda","name":"Bismula","lat":"40.44694444","lon":"-6.96444444"},
{"state":"Guarda","name":"Bobadela","lat":"38.80663000","lon":"-9.09731000"},
{"state":"Guarda","name":"Bouça Cova","lat":"40.70464000","lon":"-7.23830000"},
{"state":"Guarda","name":"Brandoa","lat":"38.76611111","lon":"-9.21444444"},
{"state":"Guarda","name":"Bucelas","lat":"38.90000000","lon":"-9.11666667"},
{"state":"Guarda","name":"Buraca","lat":"38.74222222","lon":"-9.20944444"},
{"state":"Guarda","name":"Cabanas de Torres","lat":"39.15631000","lon":"-9.06328000"},
{"state":"Guarda","name":"Cabeça","lat":"40.31916667","lon":"-7.73527778"},
{"state":"Guarda","name":"Cacem","lat":"38.77042000","lon":"-9.30809000"},
{"state":"Guarda","name":"Cachoeiras","lat":"38.98583333","lon":"-9.01638889"},
{"state":"Guarda","name":"Cadafais","lat":"39.00444444","lon":"-9.00416667"},
{"state":"Guarda","name":"Cadafaz","lat":"40.58472222","lon":"-7.36194444"},
{"state":"Guarda","name":"Cadaval","lat":"39.24621000","lon":"-9.06738000"},
{"state":"Guarda","name":"Calhandriz","lat":"38.92500000","lon":"-9.06777778"},
{"state":"Guarda","name":"Camarate","lat":"38.80358000","lon":"-9.12809000"},
{"state":"Guarda","name":"Campelos","lat":"39.20000000","lon":"-9.23333333"},
{"state":"Guarda","name":"Campo Grande","lat":"38.75694444","lon":"-9.15361111"},
{"state":"Guarda","name":"Campolide","lat":"38.72638889","lon":"-9.16333333"},
{"state":"Guarda","name":"Caneças","lat":"38.81666667","lon":"-9.23333333"},
{"state":"Guarda","name":"Carapito","lat":"40.76759000","lon":"-7.45447000"},
{"state":"Guarda","name":"Carcavelos","lat":"38.69220000","lon":"-9.33327000"},
{"state":"Guarda","name":"Cardosas","lat":"38.97722222","lon":"-9.04083333"},
{"state":"Guarda","name":"Carmões","lat":"39.05777778","lon":"-9.13416667"},
{"state":"Guarda","name":"Carnaxide","lat":"38.72666667","lon":"-9.24166667"},
{"state":"Guarda","name":"Carnicães","lat":"40.73333333","lon":"-7.31833333"},
{"state":"Guarda","name":"Carnide","lat":"38.76083333","lon":"-9.18361111"},
{"state":"Guarda","name":"Carnota","lat":"39.03361111","lon":"-9.07166667"},
{"state":"Guarda","name":"Carragozela","lat":"40.40572000","lon":"-7.76077000"},
{"state":"Guarda","name":"Carrapichana","lat":"40.56194444","lon":"-7.48694444"},
{"state":"Guarda","name":"Carregado","lat":"39.02334000","lon":"-8.96450000"},
{"state":"Guarda","name":"Carvalhal","lat":"40.88361111","lon":"-7.28361111"},
{"state":"Guarda","name":"Carvoeira","lat":"39.08055556","lon":"-9.16222222"},
{"state":"Guarda","name":"Casal de Cambra","lat":"38.80236000","lon":"-9.23188000"},
{"state":"Guarda","name":"Casal de Cinza","lat":"40.54416667","lon":"-7.16416667"},
{"state":"Guarda","name":"Casal Vasco","lat":"40.63792000","lon":"-7.55538000"},
{"state":"Guarda","name":"Casas do Soeiro","lat":"40.61888889","lon":"-7.40638889"},
{"state":"Guarda","name":"Cascais","lat":"38.69681000","lon":"-9.42147000"},
{"state":"Guarda","name":"Castanheira","lat":"40.57472222","lon":"-7.07944444"},
{"state":"Guarda","name":"Castanheira do Ribatejo","lat":"38.98333333","lon":"-8.96666667"},
{"state":"Guarda","name":"Casteição","lat":"40.88083333","lon":"-7.32583333"},
{"state":"Guarda","name":"Casteleiro","lat":"40.30222222","lon":"-7.23166667"},
{"state":"Guarda","name":"Castelo (Lisbon)","lat":"38.71361111","lon":"-9.13333333"},
{"state":"Guarda","name":"Castelo Bom","lat":"40.62027778","lon":"-6.90055556"},
{"state":"Guarda","name":"Castelo Melhor","lat":"41.02750000","lon":"-7.06500000"},
{"state":"Guarda","name":"Castelo Rodrigo","lat":"40.87555556","lon":"-6.96388889"},
{"state":"Guarda","name":"Cativelos","lat":"40.53083333","lon":"-7.68194444"},
{"state":"Guarda","name":"Cavadoude","lat":"40.58472222","lon":"-7.28666667"},
{"state":"Guarda","name":"Caxias","lat":"38.70000000","lon":"-9.28333333"},
{"state":"Guarda","name":"Cedovim","lat":"41.03333333","lon":"-7.31666667"},
{"state":"Guarda","name":"Celorico da Beira","lat":"40.63333333","lon":"-7.40000000"},
{"state":"Guarda","name":"Cercal","lat":"39.23388889","lon":"-8.99833333"},
{"state":"Guarda","name":"Cerdeira","lat":"40.51416667","lon":"-7.04666667"},
{"state":"Guarda","name":"Cerejo","lat":"40.72944444","lon":"-7.22361111"},
{"state":"Guarda","name":"Charneca","lat":"38.78527778","lon":"-9.14500000"},
{"state":"Guarda","name":"Chãs","lat":"40.98972222","lon":"-7.17027778"},
{"state":"Guarda","name":"Cheleiros","lat":"38.88972222","lon":"-9.32888889"},
{"state":"Guarda","name":"Codesseiro","lat":"40.65111111","lon":"-7.20500000"},
{"state":"Guarda","name":"Cogula","lat":"40.81277778","lon":"-7.26138889"},
{"state":"Guarda","name":"Colares","lat":"38.80206000","lon":"-9.46305000"},
{"state":"Guarda","name":"Coração de Jesus","lat":"38.72416667","lon":"-9.14500000"},
{"state":"Guarda","name":"Coriscada","lat":"40.86197000","lon":"-7.20372000"},
{"state":"Guarda","name":"Cortiçada","lat":"40.76500000","lon":"-7.54222222"},
{"state":"Guarda","name":"Cortiçô","lat":"40.66305556","lon":"-7.49472222"},
{"state":"Guarda","name":"Cortiçô da Serra","lat":"40.60124000","lon":"-7.43426000"},
{"state":"Guarda","name":"Coruche","lat":"40.79361111","lon":"-7.54083333"},
{"state":"Guarda","name":"Corujeira","lat":"40.50609000","lon":"-7.32803000"},
{"state":"Guarda","name":"Cótimos","lat":"40.82750000","lon":"-7.23972222"},
{"state":"Guarda","name":"Cruz Quebrada - Dafundo","lat":"38.70611111","lon":"-9.25055556"},
{"state":"Guarda","name":"Custoias","lat":"41.10527778","lon":"-7.32083333"},
{"state":"Guarda","name":"Damaia","lat":"38.74527778","lon":"-9.21833333"},
{"state":"Guarda","name":"Dois Portos","lat":"39.03840000","lon":"-9.18556000"},
{"state":"Guarda","name":"Dornelas","lat":"40.73105000","lon":"-7.55894000"},
{"state":"Guarda","name":"Eirado","lat":"40.77333333","lon":"-7.49000000"},
{"state":"Guarda","name":"Encarnação","lat":"39.03333333","lon":"-9.36805556"},
{"state":"Guarda","name":"Enxara do Bispo","lat":"38.99194444","lon":"-9.24083333"},
{"state":"Guarda","name":"Ericeira","lat":"38.96277778","lon":"-9.41527778"},
{"state":"Guarda","name":"Ervas Tenras","lat":"40.74055556","lon":"-7.18611111"},
{"state":"Guarda","name":"Ervedosa","lat":"40.84694444","lon":"-7.17611111"},
{"state":"Guarda","name":"Escalhão","lat":"40.94944444","lon":"-6.92611111"},
{"state":"Guarda","name":"Estoril","lat":"38.70571000","lon":"-9.39773000"},
{"state":"Guarda","name":"Faia","lat":"40.56055556","lon":"-7.31027778"},
{"state":"Guarda","name":"Falagueira","lat":"38.75903000","lon":"-9.21988000"},
{"state":"Guarda","name":"Famalicão","lat":"40.44361111","lon":"-7.37722222"},
{"state":"Guarda","name":"Famões","lat":"38.78333333","lon":"-9.21666667"},
{"state":"Guarda","name":"Fanhões","lat":"38.88111111","lon":"-9.15250000"},
{"state":"Guarda","name":"Fernão Joanes","lat":"40.48694444","lon":"-7.35527778"},
{"state":"Guarda","name":"Fiães","lat":"40.73305556","lon":"-7.37305556"},
{"state":"Guarda","name":"Figueira de Castelo Rodrigo","lat":"40.90000000","lon":"-6.96666667"},
{"state":"Guarda","name":"Figueira do Guincho","lat":"38.75000000","lon":"-9.46666667"},
{"state":"Guarda","name":"Figueiró da Granja","lat":"40.62805556","lon":"-7.49916667"},
{"state":"Guarda","name":"Figueiró da Serra","lat":"40.54055556","lon":"-7.48888889"},
{"state":"Guarda","name":"Figueiros","lat":"39.27946000","lon":"-9.05083000"},
{"state":"Guarda","name":"Fóios","lat":"40.28666667","lon":"-6.89250000"},
{"state":"Guarda","name":"Folgosinho","lat":"40.50944444","lon":"-7.51388889"},
{"state":"Guarda","name":"Folhadosa","lat":"40.37944444","lon":"-7.78472222"},
{"state":"Guarda","name":"Fontanelas","lat":"38.85000000","lon":"-9.43333333"},
{"state":"Guarda","name":"Fonte Longa","lat":"41.01305556","lon":"-7.23361111"},
{"state":"Guarda","name":"Forninhos","lat":"40.70472222","lon":"-7.55416667"},
{"state":"Guarda","name":"Forno Telheiro","lat":"40.67333333","lon":"-7.39777778"},
{"state":"Guarda","name":"Fornos de Algodres","lat":"40.61666667","lon":"-7.53333333"},
{"state":"Guarda","name":"Forte da Casa","lat":"38.87391000","lon":"-9.05216000"},
{"state":"Guarda","name":"Freches","lat":"40.73166667","lon":"-7.34638889"},
{"state":"Guarda","name":"Freineda","lat":"40.58305556","lon":"-6.89111111"},
{"state":"Guarda","name":"Freiria","lat":"39.02739000","lon":"-9.31995000"},
{"state":"Guarda","name":"Freixeda do Torrão","lat":"40.89027778","lon":"-7.03222222"},
{"state":"Guarda","name":"Freixedas","lat":"40.69194444","lon":"-7.16305556"},
{"state":"Guarda","name":"Freixo","lat":"40.61861111","lon":"-7.01027778"},
{"state":"Guarda","name":"Freixo de Numão","lat":"41.06666667","lon":"-7.21666667"},
{"state":"Guarda","name":"Frielas","lat":"38.82583333","lon":"-9.14444444"},
{"state":"Guarda","name":"Gagos","lat":"40.58388889","lon":"-7.11472222"},
{"state":"Guarda","name":"Girabolhos","lat":"40.50944444","lon":"-7.73666667"},
{"state":"Guarda","name":"Gonçalo","lat":"40.41666667","lon":"-7.35000000"},
{"state":"Guarda","name":"Gonçalo Bocas","lat":"40.57666667","lon":"-7.17750000"},
{"state":"Guarda","name":"Gouveia","lat":"40.50000000","lon":"-7.60000000"},
{"state":"Guarda","name":"Graça","lat":"38.71722222","lon":"-9.13083333"},
{"state":"Guarda","name":"Gradil","lat":"38.98222222","lon":"-9.28083333"},
{"state":"Guarda","name":"Gradiz","lat":"40.85944444","lon":"-7.52861111"},
{"state":"Guarda","name":"Granja","lat":"40.75201000","lon":"-7.20428000"},
{"state":"Guarda","name":"Guarda","lat":"40.53638889","lon":"-7.26833333"},
{"state":"Guarda","name":"Guilheiro","lat":"40.89805556","lon":"-7.40972222"},
{"state":"Guarda","name":"Horta","lat":"41.06777778","lon":"-7.31055556"},
{"state":"Guarda","name":"Igreja Nova","lat":"38.91694444","lon":"-9.31944444"},
{"state":"Guarda","name":"Infias","lat":"40.63000000","lon":"-7.53944444"},
{"state":"Guarda","name":"Jarmelo São Miguel","lat":"40.60040000","lon":"-7.14915000"},
{"state":"Guarda","name":"Jarmelo São Pedro","lat":"40.59447000","lon":"-7.13016000"},
{"state":"Guarda","name":"João Antão","lat":"40.46443000","lon":"-7.23940000"},
{"state":"Guarda","name":"Junça","lat":"40.68138889","lon":"-6.88555556"},
{"state":"Guarda","name":"Juncais","lat":"40.60944444","lon":"-7.50750000"},
{"state":"Guarda","name":"Lagarinhos","lat":"40.48583333","lon":"-7.66944444"},
{"state":"Guarda","name":"Lajeosa","lat":"40.34353000","lon":"-6.81621000"},
{"state":"Guarda","name":"Lajeosa do Mondego","lat":"40.62750000","lon":"-7.33750000"},
{"state":"Guarda","name":"Lajes","lat":"40.48361111","lon":"-7.71638889"},
{"state":"Guarda","name":"Lamas","lat":"39.21114000","lon":"-9.06151000"},
{"state":"Guarda","name":"Lamegal","lat":"40.66500000","lon":"-7.07972222"},
{"state":"Guarda","name":"Lameiras","lat":"40.71138889","lon":"-7.10444444"},
{"state":"Guarda","name":"Lapa","lat":"38.71189000","lon":"-9.16007000"},
{"state":"Guarda","name":"Lapa Dos Dinheiros","lat":"40.37888889","lon":"-7.70944444"},
{"state":"Guarda","name":"Leomil","lat":"40.63527778","lon":"-6.96416667"},
{"state":"Guarda","name":"Linda-a-Velha","lat":"38.71446000","lon":"-9.24220000"},
{"state":"Guarda","name":"Linhares (Celorico da Beira)","lat":"40.54083333","lon":"-7.46111111"},
{"state":"Guarda","name":"Lisbon","lat":"38.71666667","lon":"-9.16666667"},
{"state":"Guarda","name":"Longroiva","lat":"40.98103000","lon":"-7.20334000"},
{"state":"Guarda","name":"Loriga","lat":"40.31666667","lon":"-7.68333333"},
{"state":"Guarda","name":"Loures","lat":"38.83333333","lon":"-9.16666667"},
{"state":"Guarda","name":"Lourinhã","lat":"39.25000000","lon":"-9.31666667"},
{"state":"Guarda","name":"Lousa","lat":"38.89171000","lon":"-9.20972000"},
{"state":"Guarda","name":"Lumiar","lat":"38.76527778","lon":"-9.15861111"},
{"state":"Guarda","name":"Maçainhas","lat":"40.53666667","lon":"-7.30250000"},
{"state":"Guarda","name":"Maçal do Chão","lat":"40.69171000","lon":"-7.29178000"},
{"state":"Guarda","name":"Maceira","lat":"40.68555556","lon":"-7.47166667"},
{"state":"Guarda","name":"Maçussa","lat":"39.19472222","lon":"-8.86722222"},
{"state":"Guarda","name":"Madalena","lat":"38.71000000","lon":"-9.13472222"},
{"state":"Guarda","name":"Mafra","lat":"38.93333333","lon":"-9.33333333"},
{"state":"Guarda","name":"Malcata","lat":"40.29990000","lon":"-7.06147000"},
{"state":"Guarda","name":"Malhada Sorda","lat":"40.53638889","lon":"-6.91444444"},
{"state":"Guarda","name":"Malpartida","lat":"40.76000000","lon":"-6.86666667"},
{"state":"Guarda","name":"Malveira","lat":"38.93059000","lon":"-9.26165000"},
{"state":"Guarda","name":"Mangualde da Serra","lat":"40.46638889","lon":"-7.62166667"},
{"state":"Guarda","name":"Manigoto","lat":"40.70833333","lon":"-7.07583333"},
{"state":"Guarda","name":"Manique do Intendente","lat":"39.22111111","lon":"-8.89361111"},
{"state":"Guarda","name":"Manteigas","lat":"40.40000000","lon":"-7.53333333"},
{"state":"Guarda","name":"Manteigas (São Pedro)","lat":"40.36611111","lon":"-7.54611111"},
{"state":"Guarda","name":"Marialva","lat":"40.91000000","lon":"-7.23166667"},
{"state":"Guarda","name":"Marmeleiro","lat":"40.46861111","lon":"-7.11416667"},
{"state":"Guarda","name":"Marteleira","lat":"39.21305556","lon":"-9.28333333"},
{"state":"Guarda","name":"Mártires","lat":"38.70861111","lon":"-9.14166667"},
{"state":"Guarda","name":"Marvila","lat":"38.74527778","lon":"-9.10416667"},
{"state":"Guarda","name":"Massamá","lat":"38.75564000","lon":"-9.28427000"},
{"state":"Guarda","name":"Mata de Lobos","lat":"40.91691000","lon":"-6.88804000"},
{"state":"Guarda","name":"Matacães","lat":"39.09277778","lon":"-9.21222222"},
{"state":"Guarda","name":"Matança","lat":"40.67888889","lon":"-7.52888889"},
{"state":"Guarda","name":"Maxial","lat":"39.14301000","lon":"-9.16898000"},
{"state":"Guarda","name":"Meca","lat":"39.08972222","lon":"-9.02555556"},
{"state":"Guarda","name":"Mêda","lat":"40.96666667","lon":"-7.26666667"},
{"state":"Guarda","name":"Meios","lat":"40.49361111","lon":"-7.35916667"},
{"state":"Guarda","name":"Melo","lat":"40.51944444","lon":"-7.53361111"},
{"state":"Guarda","name":"Mem Martins","lat":"38.79443000","lon":"-9.34284000"},
{"state":"Guarda","name":"Mercês","lat":"38.71611111","lon":"-9.14888889"},
{"state":"Guarda","name":"Mesquitela","lat":"40.58805556","lon":"-7.48944444"},
{"state":"Guarda","name":"Milharado","lat":"38.94722222","lon":"-9.19916667"},
{"state":"Guarda","name":"Mina","lat":"38.76166667","lon":"-9.23611111"},
{"state":"Guarda","name":"Minhocal","lat":"40.68944444","lon":"-7.34666667"},
{"state":"Guarda","name":"Mira-Sintra","lat":"38.78417000","lon":"-9.30148000"},
{"state":"Guarda","name":"Miragaia","lat":"39.23583333","lon":"-9.26500000"},
{"state":"Guarda","name":"Miuzela","lat":"40.51055556","lon":"-7.00500000"},
{"state":"Guarda","name":"Mizarela","lat":"40.55746000","lon":"-7.34107000"},
{"state":"Guarda","name":"Moimenta da Serra","lat":"40.47359000","lon":"-7.63839000"},
{"state":"Guarda","name":"Moimentinha","lat":"40.74555556","lon":"-7.22777778"},
{"state":"Guarda","name":"Moita","lat":"40.30000000","lon":"-7.19750000"},
{"state":"Guarda","name":"Moita dos Ferreiros","lat":"39.24825000","lon":"-9.22355000"},
{"state":"Guarda","name":"Moledo","lat":"39.28388889","lon":"-9.25722222"},
{"state":"Guarda","name":"Monte Abraão","lat":"38.75840000","lon":"-9.26527000"},
{"state":"Guarda","name":"Monte Estoril","lat":"38.70636000","lon":"-9.40595000"},
{"state":"Guarda","name":"Monte Redondo","lat":"39.11500000","lon":"-9.20444444"},
{"state":"Guarda","name":"Montelavar","lat":"38.86968000","lon":"-9.31581000"},
{"state":"Guarda","name":"Moreira de Rei","lat":"40.83915000","lon":"-7.32316000"},
{"state":"Guarda","name":"Mós","lat":"41.11306000","lon":"-7.19717000"},
{"state":"Guarda","name":"Moscavide","lat":"38.77929000","lon":"-9.10222000"},
{"state":"Guarda","name":"Murça","lat":"41.10055556","lon":"-7.23138889"},
{"state":"Guarda","name":"Muxagata","lat":"41.03611111","lon":"-7.15000000"},
{"state":"Guarda","name":"Nabais","lat":"40.52000000","lon":"-7.55555556"},
{"state":"Guarda","name":"Nave","lat":"40.39821000","lon":"-6.96030000"},
{"state":"Guarda","name":"Nave de Haver","lat":"40.52166667","lon":"-6.83416667"},
{"state":"Guarda","name":"Nespereira","lat":"40.51722222","lon":"-7.60972222"},
{"state":"Guarda","name":"Nossa Senhora de Fátima","lat":"38.73916667","lon":"-9.15083333"},
{"state":"Guarda","name":"Numão","lat":"41.09750000","lon":"-7.29111111"},
{"state":"Guarda","name":"Odivelas","lat":"38.80000000","lon":"-9.18333333"},
{"state":"Guarda","name":"Odivelas Municipality","lat":"38.79705000","lon":"-9.19108000"},
{"state":"Guarda","name":"Oeiras","lat":"38.69704444","lon":"-9.30165278"},
{"state":"Guarda","name":"Oeiras e São Julião da Barra","lat":"38.69722222","lon":"-9.30833333"},
{"state":"Guarda","name":"Olhalvo","lat":"39.09861111","lon":"-9.06388889"},
{"state":"Guarda","name":"Olival de Basto","lat":"38.79083333","lon":"-9.16722222"},
{"state":"Guarda","name":"Olival do Basto","lat":"38.79083333","lon":"-9.16611111"},
{"state":"Guarda","name":"Ota","lat":"39.11000000","lon":"-8.98972222"},
{"state":"Guarda","name":"Outeiro da Cabeça","lat":"39.19222222","lon":"-9.18222222"},
{"state":"Guarda","name":"Outeiro de Gatos","lat":"40.95222222","lon":"-7.30222222"},
{"state":"Guarda","name":"Paço de Arcos","lat":"38.69500000","lon":"-9.29361111"},
{"state":"Guarda","name":"Paços da Serra","lat":"40.45972222","lon":"-7.65055556"},
{"state":"Guarda","name":"Painho","lat":"39.30222222","lon":"-9.04944444"},
{"state":"Guarda","name":"Pala","lat":"40.76305556","lon":"-7.15111111"},
{"state":"Guarda","name":"Palhais","lat":"40.81666667","lon":"-7.43000000"},
{"state":"Guarda","name":"Panoias de Cima","lat":"40.49777778","lon":"-7.23277778"},
{"state":"Guarda","name":"Parada","lat":"40.53972222","lon":"-7.03777778"},
{"state":"Guarda","name":"Paranhos","lat":"40.48635000","lon":"-7.79454000"},
{"state":"Guarda","name":"Parede","lat":"38.69328000","lon":"-9.35695000"},
{"state":"Guarda","name":"Pega","lat":"40.42861111","lon":"-7.14444444"},
{"state":"Guarda","name":"Pena","lat":"38.72138889","lon":"-9.14000000"},
{"state":"Guarda","name":"Pena Lobo","lat":"40.39277778","lon":"-7.20388889"},
{"state":"Guarda","name":"Pena Verde","lat":"40.72833333","lon":"-7.50527778"},
{"state":"Guarda","name":"Penha de Águia","lat":"40.86636000","lon":"-7.06814000"},
{"state":"Guarda","name":"Penha de França","lat":"38.73000000","lon":"-9.13166667"},
{"state":"Guarda","name":"Pêra do Moço","lat":"40.61305556","lon":"-7.20972222"},
{"state":"Guarda","name":"Peral","lat":"39.26166667","lon":"-9.07444444"},
{"state":"Guarda","name":"Pereiro","lat":"40.73500000","lon":"-7.01305556"},
{"state":"Guarda","name":"Pereiro de Palhacana","lat":"39.04277778","lon":"-9.10888889"},
{"state":"Guarda","name":"Pêro Moniz","lat":"39.22138889","lon":"-9.12361111"},
{"state":"Guarda","name":"Pero Pinheiro","lat":"38.83990000","lon":"-9.32066000"},
{"state":"Guarda","name":"Peva","lat":"40.66472222","lon":"-6.99083333"},
{"state":"Guarda","name":"Pinhanços","lat":"40.46638889","lon":"-7.68305556"},
{"state":"Guarda","name":"Pinheiro","lat":"40.80083333","lon":"-7.59833333"},
{"state":"Guarda","name":"Pinhel","lat":"40.78333333","lon":"-7.06666667"},
{"state":"Guarda","name":"Pínzio","lat":"40.60250000","lon":"-7.06527778"},
{"state":"Guarda","name":"Poço do Canto","lat":"40.99944444","lon":"-7.26833333"},
{"state":"Guarda","name":"Pomares","lat":"40.64305556","lon":"-7.13805556"},
{"state":"Guarda","name":"Ponte do Rol","lat":"39.09277778","lon":"-9.31916667"},
{"state":"Guarda","name":"Pontinha","lat":"38.77700000","lon":"-9.20377000"},
{"state":"Guarda","name":"Portela","lat":"38.78277778","lon":"-9.11111111"},
{"state":"Guarda","name":"Porto da Carne","lat":"40.60527778","lon":"-7.29222222"},
{"state":"Guarda","name":"Porto Salvo","lat":"38.71722222","lon":"-9.29916667"},
{"state":"Guarda","name":"Pousada","lat":"40.54722222","lon":"-7.12611111"},
{"state":"Guarda","name":"Pousafoles do Bispo","lat":"40.41222222","lon":"-7.17916667"},
{"state":"Guarda","name":"Póvoa de Santa Iria","lat":"38.86111111","lon":"-9.06444444"},
{"state":"Guarda","name":"Póvoa de Santo Adrião","lat":"38.80016000","lon":"-9.16395000"},
{"state":"Guarda","name":"Póvoa do Concelho","lat":"40.75972222","lon":"-7.26638889"},
{"state":"Guarda","name":"Prados","lat":"40.56138889","lon":"-7.37666667"},
{"state":"Guarda","name":"Prazeres","lat":"38.70888889","lon":"-9.16888889"},
{"state":"Guarda","name":"Prior Velho","lat":"38.79194444","lon":"-9.12083333"},
{"state":"Guarda","name":"Prova","lat":"40.91250000","lon":"-7.34194444"},
{"state":"Guarda","name":"Quadrazais","lat":"40.32472222","lon":"-6.99833333"},
{"state":"Guarda","name":"Queijas","lat":"38.72236000","lon":"-9.26593000"},
{"state":"Guarda","name":"Queiriz","lat":"40.73596000","lon":"-7.44999000"},
{"state":"Guarda","name":"Queluz","lat":"38.75657000","lon":"-9.25451000"},
{"state":"Guarda","name":"Quintã de Pêro Martins","lat":"40.88194444","lon":"-7.08305556"},
{"state":"Guarda","name":"Quintas de São Bartolomeu","lat":"40.37138889","lon":"-7.09861111"},
{"state":"Guarda","name":"Rabaçal","lat":"40.86250000","lon":"-7.24941000"},
{"state":"Guarda","name":"Ramada","lat":"38.80361111","lon":"-9.19111111"},
{"state":"Guarda","name":"Ramalhal","lat":"39.14472222","lon":"-9.23222222"},
{"state":"Guarda","name":"Ramela","lat":"40.47777778","lon":"-7.25888889"},
{"state":"Guarda","name":"Ranhados","lat":"40.99527778","lon":"-7.32944444"},
{"state":"Guarda","name":"Rapa","lat":"40.58416667","lon":"-7.34555556"},
{"state":"Guarda","name":"Rapoula do Côa","lat":"40.42111111","lon":"-7.04750000"},
{"state":"Guarda","name":"Ratoeira","lat":"40.64027778","lon":"-7.35361111"},
{"state":"Guarda","name":"Reboleira","lat":"38.75083333","lon":"-9.23027778"},
{"state":"Guarda","name":"Reboleiro","lat":"40.83250000","lon":"-7.41888889"},
{"state":"Guarda","name":"Rebolosa","lat":"40.42361111","lon":"-6.91111111"},
{"state":"Guarda","name":"Reguengo Grande","lat":"39.28722222","lon":"-9.21472222"},
{"state":"Guarda","name":"Reigada","lat":"40.80444444","lon":"-6.94805556"},
{"state":"Guarda","name":"Rendo","lat":"40.37972222","lon":"-7.04444444"},
{"state":"Guarda","name":"Ribafria","lat":"39.06194444","lon":"-9.09472222"},
{"state":"Guarda","name":"Ribamar","lat":"39.20250000","lon":"-9.33250000"},
{"state":"Guarda","name":"Ribamondego","lat":"40.56805556","lon":"-7.58138889"},
{"state":"Guarda","name":"Ribeira Dos Carinhos","lat":"40.62138889","lon":"-7.14222222"},
{"state":"Guarda","name":"Rio de Mel","lat":"40.80777778","lon":"-7.39361111"},
{"state":"Guarda","name":"Rio de Mouro","lat":"38.76889000","lon":"-9.33273000"},
{"state":"Guarda","name":"Rio Torto","lat":"40.50916667","lon":"-7.65694444"},
{"state":"Guarda","name":"Rochoso","lat":"40.51638889","lon":"-7.09333333"},
{"state":"Guarda","name":"Runa","lat":"39.06527778","lon":"-9.20888889"},
{"state":"Guarda","name":"Ruvina","lat":"40.41500000","lon":"-7.01055556"},
{"state":"Guarda","name":"Sabugal","lat":"40.35000000","lon":"-7.08333333"},
{"state":"Guarda","name":"Sabugueiro","lat":"40.40194444","lon":"-7.63972222"},
{"state":"Guarda","name":"Sacavém","lat":"38.79442000","lon":"-9.10533000"},
{"state":"Guarda","name":"Sacramento","lat":"38.71222222","lon":"-9.14000000"},
{"state":"Guarda","name":"Safurdão","lat":"40.63694444","lon":"-7.06888889"},
{"state":"Guarda","name":"Salgueirais","lat":"40.57445000","lon":"-7.42247000"},
{"state":"Guarda","name":"Sameice","lat":"40.43444444","lon":"-7.77611111"},
{"state":"Guarda","name":"Sameiro","lat":"40.40916667","lon":"-7.49000000"},
{"state":"Guarda","name":"Sandomil","lat":"40.35805556","lon":"-7.78277778"},
{"state":"Guarda","name":"Santa Bárbara","lat":"39.21000000","lon":"-9.31388889"},
{"state":"Guarda","name":"Santa Catarina","lat":"38.71138889","lon":"-9.14805556"},
{"state":"Guarda","name":"Santa Comba","lat":"40.45055556","lon":"-7.71472222"},
{"state":"Guarda","name":"Santa Engrácia","lat":"38.71916667","lon":"-9.11972222"},
{"state":"Guarda","name":"Santa Eufémia","lat":"40.79833333","lon":"-7.18083333"},
{"state":"Guarda","name":"Santa Eulália","lat":"40.41439000","lon":"-7.78717000"},
{"state":"Guarda","name":"Santa Iria da Azóia","lat":"38.84629000","lon":"-9.08748000"},
{"state":"Guarda","name":"Santa Iria de Azoia","lat":"38.84638889","lon":"-9.08805556"},
{"state":"Guarda","name":"Santa Isabel","lat":"38.71861111","lon":"-9.15833333"},
{"state":"Guarda","name":"Santa Justa","lat":"38.71555556","lon":"-9.13638889"},
{"state":"Guarda","name":"Santa Maria","lat":"40.42388889","lon":"-7.52138889"},
{"state":"Guarda","name":"Santa Maria de Belém","lat":"38.69911000","lon":"-9.20867000"},
{"state":"Guarda","name":"Santa Maria do Castelo e São Miguel","lat":"39.10864000","lon":"-9.23907000"},
{"state":"Guarda","name":"Santa Maria dos Olivais","lat":"38.76989000","lon":"-9.12073000"},
{"state":"Guarda","name":"Santa Maria e São Miguel","lat":"38.80083333","lon":"-9.37944444"},
{"state":"Guarda","name":"Santa Marinha","lat":"40.45027778","lon":"-7.66333333"},
{"state":"Guarda","name":"Santana da Azinha","lat":"40.47361111","lon":"-7.20916667"},
{"state":"Guarda","name":"Santiago","lat":"40.42388889","lon":"-7.72916667"},
{"state":"Guarda","name":"Santiago dos Velhos","lat":"38.94166667","lon":"-9.10361111"},
{"state":"Guarda","name":"Santo Antão do Tojal","lat":"38.85361111","lon":"-9.14305556"},
{"state":"Guarda","name":"Santo António dos Cavaleiros","lat":"38.81166667","lon":"-9.16111111"},
{"state":"Guarda","name":"Santo Condestável","lat":"38.71527778","lon":"-9.16694444"},
{"state":"Guarda","name":"Santo Estêvão","lat":"39.04222222","lon":"-9.01583333"},
{"state":"Guarda","name":"Santo Estêvão das Galés","lat":"38.89008000","lon":"-9.25066000"},
{"state":"Guarda","name":"Santo Isidoro","lat":"38.99361111","lon":"-9.39861111"},
{"state":"Guarda","name":"Santo Quintino","lat":"39.00611111","lon":"-9.14972222"},
{"state":"Guarda","name":"Santos-o-Velho","lat":"38.70694444","lon":"-9.15638889"},
{"state":"Guarda","name":"São Bartolomeu","lat":"39.27511000","lon":"-9.27885000"},
{"state":"Guarda","name":"São Bartolomeu dos Galegos","lat":"39.27583333","lon":"-9.27944444"},
{"state":"Guarda","name":"São Brás","lat":"38.76750000","lon":"-9.23305556"},
{"state":"Guarda","name":"São Cristóvão e São Lourenço","lat":"38.71277778","lon":"-9.13555556"},
{"state":"Guarda","name":"São Domingos de Benfica","lat":"38.74361111","lon":"-9.17000000"},
{"state":"Guarda","name":"São Domingos de Rana","lat":"38.70123000","lon":"-9.32760000"},
{"state":"Guarda","name":"São Francisco Xavier","lat":"38.70722222","lon":"-9.21722222"},
{"state":"Guarda","name":"São João","lat":"38.72888889","lon":"-9.12277778"},
{"state":"Guarda","name":"São João da Talha","lat":"38.82583333","lon":"-9.09222222"},
{"state":"Guarda","name":"São João das Lampas","lat":"38.87000000","lon":"-9.42111111"},
{"state":"Guarda","name":"São João de Brito","lat":"38.75500000","lon":"-9.13777778"},
{"state":"Guarda","name":"São João de Deus","lat":"38.74027778","lon":"-9.13777778"},
{"state":"Guarda","name":"São João Dos Montes","lat":"38.95166000","lon":"-9.05449000"},
{"state":"Guarda","name":"São Jorge de Arroios","lat":"38.72888889","lon":"-9.13888889"},
{"state":"Guarda","name":"São José","lat":"38.71805556","lon":"-9.14250000"},
{"state":"Guarda","name":"São Julião","lat":"40.48757000","lon":"-7.59498000"},
{"state":"Guarda","name":"São Julião do Tojal","lat":"38.85805556","lon":"-9.13555556"},
{"state":"Guarda","name":"São Mamede","lat":"38.72023000","lon":"-9.15298000"},
{"state":"Guarda","name":"São Marcos","lat":"38.75624000","lon":"-9.29731000"},
{"state":"Guarda","name":"São Martinho","lat":"40.44305556","lon":"-7.67194444"},
{"state":"Guarda","name":"São Miguel","lat":"38.71111111","lon":"-9.12944444"},
{"state":"Guarda","name":"São Miguel da Guarda","lat":"40.55555556","lon":"-7.24611111"},
{"state":"Guarda","name":"São Miguel de Alcainça","lat":"38.92111111","lon":"-9.29583333"},
{"state":"Guarda","name":"São Nicolau","lat":"38.70750000","lon":"-9.13666667"},
{"state":"Guarda","name":"São Paio","lat":"40.51527778","lon":"-7.58222222"},
{"state":"Guarda","name":"São Paulo","lat":"38.70760000","lon":"-9.14707000"},
{"state":"Guarda","name":"São Pedro","lat":"40.63222222","lon":"-7.38138889"},
{"state":"Guarda","name":"São Pedro da Cadeira","lat":"39.06972222","lon":"-9.37166667"},
{"state":"Guarda","name":"São Pedro de Penaferrim","lat":"38.76947000","lon":"-9.38963000"},
{"state":"Guarda","name":"São Pedro de Rio Seco","lat":"40.66194444","lon":"-6.83916667"},
{"state":"Guarda","name":"São Romão","lat":"40.40194444","lon":"-7.71694444"},
{"state":"Guarda","name":"São Sebastião da Pedreira","lat":"38.73083333","lon":"-9.14916667"},
{"state":"Guarda","name":"São Vicente","lat":"40.53979000","lon":"-7.23536000"},
{"state":"Guarda","name":"São Vicente de Fora","lat":"38.71583333","lon":"-9.12416667"},
{"state":"Guarda","name":"Sapataria","lat":"38.97188000","lon":"-9.20195000"},
{"state":"Guarda","name":"Sazes da Beira","lat":"40.34888889","lon":"-7.73527778"},
{"state":"Guarda","name":"Sé","lat":"40.53861111","lon":"-7.26916667"},
{"state":"Guarda","name":"Sebadelhe","lat":"41.05222222","lon":"-7.26972222"},
{"state":"Guarda","name":"Sebadelhe da Serra","lat":"40.87111111","lon":"-7.39833333"},
{"state":"Guarda","name":"Seia","lat":"40.42027778","lon":"-7.70333333"},
{"state":"Guarda","name":"Seixas","lat":"41.11196000","lon":"-7.25251000"},
{"state":"Guarda","name":"Seixo do Côa","lat":"40.46305556","lon":"-7.02666667"},
{"state":"Guarda","name":"Sequeira","lat":"40.55361111","lon":"-7.22583333"},
{"state":"Guarda","name":"Sequeiros","lat":"40.83714000","lon":"-7.49803000"},
{"state":"Guarda","name":"Silveira","lat":"39.11111111","lon":"-9.36416667"},
{"state":"Guarda","name":"Sintra","lat":"38.79736111","lon":"-9.39041667"},
{"state":"Guarda","name":"Sintra (town)","lat":"38.81439000","lon":"-9.38370000"},
{"state":"Guarda","name":"Sobral da Abelheira","lat":"38.99833333","lon":"-9.32916667"},
{"state":"Guarda","name":"Sobral da Serra","lat":"40.61916667","lon":"-7.27972222"},
{"state":"Guarda","name":"Sobral de Monte Agraço","lat":"39.01666667","lon":"-9.15000000"},
{"state":"Guarda","name":"Sobral Pichorro","lat":"40.69073000","lon":"-7.45598000"},
{"state":"Guarda","name":"Sobralinho","lat":"38.91750000","lon":"-9.02611111"},
{"state":"Guarda","name":"Socorro","lat":"38.71666667","lon":"-9.13444444"},
{"state":"Guarda","name":"Sortelha","lat":"40.33138889","lon":"-7.21138889"},
{"state":"Guarda","name":"Souro Pires","lat":"40.74500000","lon":"-7.12472222"},
{"state":"Guarda","name":"Souto","lat":"40.35666667","lon":"-6.95833333"},
{"state":"Guarda","name":"Souto de Aguiar da Beira","lat":"40.81075000","lon":"-7.49244000"},
{"state":"Guarda","name":"Souto Maior","lat":"40.79686000","lon":"-7.31410000"},
{"state":"Guarda","name":"Tamanhos","lat":"40.76166667","lon":"-7.31555556"},
{"state":"Guarda","name":"Teixeira","lat":"40.25333333","lon":"-7.74166667"},
{"state":"Guarda","name":"Terrenho","lat":"40.86611111","lon":"-7.35416667"},
{"state":"Guarda","name":"Terrugem","lat":"38.85111111","lon":"-9.37472222"},
{"state":"Guarda","name":"Torre do Terrenho","lat":"40.88888889","lon":"-7.35944444"},
{"state":"Guarda","name":"Torres","lat":"40.74833333","lon":"-7.31916667"},
{"state":"Guarda","name":"Torres Vedras","lat":"39.08333333","lon":"-9.26666667"},
{"state":"Guarda","name":"Torrozelo","lat":"40.38611111","lon":"-7.76027778"},
{"state":"Guarda","name":"Touça","lat":"41.04722222","lon":"-7.23388889"},
{"state":"Guarda","name":"Tourais","lat":"40.47138889","lon":"-7.75083333"},
{"state":"Guarda","name":"Trancoso","lat":"40.78330000","lon":"-7.35000000"},
{"state":"Guarda","name":"Travancinha","lat":"40.42234000","lon":"-7.82175000"},
{"state":"Guarda","name":"Triana","lat":"39.06988000","lon":"-8.98660000"},
{"state":"Guarda","name":"Trinta","lat":"40.50444444","lon":"-7.35527778"},
{"state":"Guarda","name":"Turcifal","lat":"39.03578000","lon":"-9.26017000"},
{"state":"Guarda","name":"Unhos","lat":"38.82583333","lon":"-9.12138889"},
{"state":"Guarda","name":"Valbom","lat":"40.78055556","lon":"-7.12888889"},
{"state":"Guarda","name":"Valdujo","lat":"40.84500000","lon":"-7.26694444"},
{"state":"Guarda","name":"Vale da Mula","lat":"40.70361111","lon":"-6.82361111"},
{"state":"Guarda","name":"Vale de Amoreira","lat":"40.41416667","lon":"-7.44138889"},
{"state":"Guarda","name":"Vale de Azares","lat":"40.60492000","lon":"-7.36421000"},
{"state":"Guarda","name":"Vale de Espinho","lat":"40.29694444","lon":"-6.95055556"},
{"state":"Guarda","name":"Vale de Estrela","lat":"40.49944444","lon":"-7.30777778"},
{"state":"Guarda","name":"Vale do Paraíso","lat":"39.11555556","lon":"-8.88583333"},
{"state":"Guarda","name":"Vale do Seixo","lat":"40.79291000","lon":"-7.27266000"},
{"state":"Guarda","name":"Vale Flor","lat":"40.91277778","lon":"-7.28222222"},
{"state":"Guarda","name":"Valezim","lat":"40.35889000","lon":"-7.70831000"},
{"state":"Guarda","name":"Valhelhas","lat":"40.40722222","lon":"-7.40305556"},
{"state":"Guarda","name":"Valverde","lat":"40.78416667","lon":"-7.52194444"},
{"state":"Guarda","name":"Várzea de Meruge","lat":"40.39527778","lon":"-7.78361111"},
{"state":"Guarda","name":"Vascoveiro","lat":"40.73416667","lon":"-7.06972222"},
{"state":"Guarda","name":"Vela","lat":"40.43585000","lon":"-7.30369000"},
{"state":"Guarda","name":"Velosa","lat":"40.65250000","lon":"-7.29000000"},
{"state":"Guarda","name":"Venda do Pinheiro","lat":"38.92527778","lon":"-9.23222222"},
{"state":"Guarda","name":"Venda Nova","lat":"38.75422000","lon":"-9.21452000"},
{"state":"Guarda","name":"Venteira","lat":"38.75944444","lon":"-9.24111111"},
{"state":"Guarda","name":"Ventosa","lat":"39.12694444","lon":"-9.08416667"},
{"state":"Guarda","name":"Vermelha","lat":"39.27277778","lon":"-9.10555556"},
{"state":"Guarda","name":"Vermiosa","lat":"40.82722222","lon":"-6.87750000"},
{"state":"Guarda","name":"Vialonga","lat":"38.87094000","lon":"-9.06823000"},
{"state":"Guarda","name":"Vide","lat":"40.29444444","lon":"-7.78416667"},
{"state":"Guarda","name":"Vide Entre Vinhas","lat":"40.59722222","lon":"-7.40416667"},
{"state":"Guarda","name":"Videmonte","lat":"40.51388889","lon":"-7.39000000"},
{"state":"Guarda","name":"Vila Boa","lat":"40.38305556","lon":"-7.00388889"},
{"state":"Guarda","name":"Vila Boa do Mondego","lat":"40.62694444","lon":"-7.43777778"},
{"state":"Guarda","name":"Vila Cortês da Serra","lat":"40.55083333","lon":"-7.52944444"},
{"state":"Guarda","name":"Vila Cortês do Mondego","lat":"40.60593000","lon":"-7.31236000"},
{"state":"Guarda","name":"Vila Cova à Coelheira","lat":"40.38333333","lon":"-7.73416667"},
{"state":"Guarda","name":"Vila do Touro","lat":"40.41638889","lon":"-7.10555556"},
{"state":"Guarda","name":"Vila Fernando","lat":"40.49472222","lon":"-7.15444444"},
{"state":"Guarda","name":"Vila Franca da Serra","lat":"40.58722222","lon":"-7.53944444"},
{"state":"Guarda","name":"Vila Franca das Naves","lat":"40.72392000","lon":"-7.26206000"},
{"state":"Guarda","name":"Vila Franca de Xira","lat":"38.95000000","lon":"-8.98333333"},
{"state":"Guarda","name":"Vila Franca do Deão","lat":"40.65277778","lon":"-7.24222222"},
{"state":"Guarda","name":"Vila Franca do Rosário","lat":"38.97472222","lon":"-9.25611111"},
{"state":"Guarda","name":"Vila Garcia","lat":"40.79414000","lon":"-7.23318000"},
{"state":"Guarda","name":"Vila Nova da Rainha","lat":"39.03722222","lon":"-8.93361111"},
{"state":"Guarda","name":"Vila Nova de Foz Côa","lat":"41.08333333","lon":"-7.13333333"},
{"state":"Guarda","name":"Vila Nova de São Pedro","lat":"39.21980000","lon":"-8.84037000"},
{"state":"Guarda","name":"Vila Nova de Tazem","lat":"40.50250000","lon":"-7.70305556"},
{"state":"Guarda","name":"Vila Ruiva","lat":"40.56944444","lon":"-7.51416667"},
{"state":"Guarda","name":"Vila Soeiro do Chão","lat":"40.61036000","lon":"-7.48202000"},
{"state":"Guarda","name":"Vila Verde","lat":"39.15489000","lon":"-9.11512000"},
{"state":"Guarda","name":"Vila Verde dos Francos","lat":"39.15444444","lon":"-9.11333333"},
{"state":"Guarda","name":"Vilar","lat":"39.18671000","lon":"-9.10687000"},
{"state":"Guarda","name":"Vilar de Amargo","lat":"40.94636000","lon":"-7.00157000"},
{"state":"Guarda","name":"Vilar Formoso","lat":"40.61382000","lon":"-6.83493000"},
{"state":"Guarda","name":"Vilar Maior","lat":"40.48473000","lon":"-6.91999000"},
{"state":"Guarda","name":"Vilar Torpim","lat":"40.82555556","lon":"-6.95194444"},
{"state":"Guarda","name":"Vilares","lat":"40.72062000","lon":"-7.28348000"},
{"state":"Guarda","name":"Vimeiro","lat":"39.17777778","lon":"-9.31777778"},
{"state":"Guarda","name":"Vinhó","lat":"40.49583333","lon":"-7.62694444"},
{"state":"Leiria","name":"A dos Francos","lat":"39.32272000","lon":"-9.04743000"},
{"state":"Leiria","name":"Alcobaça","lat":"39.55223000","lon":"-8.97749000"},
{"state":"Leiria","name":"Alfeizerão","lat":"39.49971000","lon":"-9.10341000"},
{"state":"Leiria","name":"Aljubarrota","lat":"39.56715000","lon":"-8.92925000"},
{"state":"Leiria","name":"Alvaiázere","lat":"39.81951000","lon":"-8.38858000"},
{"state":"Leiria","name":"Alvorninha","lat":"39.38224000","lon":"-9.03674000"},
{"state":"Leiria","name":"Amor","lat":"39.80404000","lon":"-8.85984000"},
{"state":"Leiria","name":"Ansião","lat":"39.93424000","lon":"-8.42045000"},
{"state":"Leiria","name":"Atouguia da Baleia","lat":"39.33814000","lon":"-9.32630000"},
{"state":"Leiria","name":"Batalha","lat":"39.66025000","lon":"-8.82475000"},
{"state":"Leiria","name":"Benedita","lat":"39.42470000","lon":"-8.96996000"},
{"state":"Leiria","name":"Bombarral","lat":"39.26723000","lon":"-9.15795000"},
{"state":"Leiria","name":"Caldas da Rainha","lat":"39.40326000","lon":"-9.13839000"},
{"state":"Leiria","name":"Caranguejeira","lat":"39.74619000","lon":"-8.70740000"},
{"state":"Leiria","name":"Castanheira de Pêra","lat":"40.00717000","lon":"-8.21048000"},
{"state":"Leiria","name":"Cela","lat":"39.54075000","lon":"-9.03449000"},
{"state":"Leiria","name":"Famalicão","lat":"39.53642000","lon":"-9.08308000"},
{"state":"Leiria","name":"Ferrel","lat":"39.36398000","lon":"-9.31541000"},
{"state":"Leiria","name":"Figueiró Dos Vinhos","lat":"39.90617000","lon":"-8.27753000"},
{"state":"Leiria","name":"Foz do Arelho","lat":"39.43672000","lon":"-9.21374000"},
{"state":"Leiria","name":"Leiria","lat":"39.74362000","lon":"-8.80705000"},
{"state":"Leiria","name":"Louriçal","lat":"40.00390000","lon":"-8.73736000"},
{"state":"Leiria","name":"Maceira","lat":"39.68853000","lon":"-8.89423000"},
{"state":"Leiria","name":"Marinha Grande","lat":"39.77681000","lon":"-8.95005000"},
{"state":"Leiria","name":"Mira","lat":"39.54315000","lon":"-8.71505000"},
{"state":"Leiria","name":"Monte Real","lat":"39.85210000","lon":"-8.86349000"},
{"state":"Leiria","name":"Monte Redondo","lat":"39.89930000","lon":"-8.83171000"},
{"state":"Leiria","name":"Nadadouro","lat":"39.41927000","lon":"-9.19091000"},
{"state":"Leiria","name":"Nazaré","lat":"39.59965000","lon":"-9.07162000"},
{"state":"Leiria","name":"Óbidos","lat":"39.35854000","lon":"-9.17603000"},
{"state":"Leiria","name":"Pataias","lat":"39.66978000","lon":"-8.99580000"},
{"state":"Leiria","name":"Pedrógão Grande","lat":"39.92682000","lon":"-8.20093000"},
{"state":"Leiria","name":"Peniche","lat":"39.35580000","lon":"-9.38112000"},
{"state":"Leiria","name":"Pombal","lat":"39.90735000","lon":"-8.66949000"},
{"state":"Leiria","name":"Porto de Mós","lat":"39.60191000","lon":"-8.81839000"},
{"state":"Leiria","name":"Salir de Matos","lat":"39.43186000","lon":"-9.09479000"},
{"state":"Leiria","name":"Santa Catarina da Serra","lat":"39.67960000","lon":"-8.68679000"},
{"state":"Leiria","name":"São Martinho do Porto","lat":"39.51444000","lon":"-9.13111000"},
{"state":"Leiria","name":"Serra de El-Rei","lat":"39.33291000","lon":"-9.26843000"},
{"state":"Leiria","name":"Souto da Carpalhosa","lat":"39.84867000","lon":"-8.83506000"},
{"state":"Leiria","name":"Turquel","lat":"39.46411000","lon":"-8.97743000"},
{"state":"Leiria","name":"Valado de Frades","lat":"39.58432000","lon":"-9.02290000"},
{"state":"Leiria","name":"Vestiaria","lat":"39.55271000","lon":"-8.99790000"},
{"state":"Leiria","name":"Vidais","lat":"39.36886000","lon":"-9.04916000"},
{"state":"Leiria","name":"Vieira de Leiria","lat":"39.86945000","lon":"-8.93238000"},
{"state":"Lisbon","name":"A dos Cunhados","lat":"39.15237000","lon":"-9.29720000"},
{"state":"Lisbon","name":"Abrigada","lat":"39.14416000","lon":"-9.01853000"},
{"state":"Lisbon","name":"Alcabideche","lat":"38.73366000","lon":"-9.40928000"},
{"state":"Lisbon","name":"Alcoentre","lat":"39.20857000","lon":"-8.95953000"},
{"state":"Lisbon","name":"Alenquer","lat":"39.05315000","lon":"-9.00928000"},
{"state":"Lisbon","name":"Alfragide","lat":"38.73203000","lon":"-9.21920000"},
{"state":"Lisbon","name":"Algés","lat":"38.70245000","lon":"-9.22936000"},
{"state":"Lisbon","name":"Algueirão","lat":"38.79764000","lon":"-9.34370000"},
{"state":"Lisbon","name":"Alhandra","lat":"38.92732000","lon":"-9.00864000"},
{"state":"Lisbon","name":"Almargem","lat":"38.84485000","lon":"-9.27315000"},
{"state":"Lisbon","name":"Alvalade","lat":"38.75328000","lon":"-9.14397000"},
{"state":"Lisbon","name":"Amadora","lat":"38.75382000","lon":"-9.23083000"},
{"state":"Lisbon","name":"Apelação","lat":"38.81387000","lon":"-9.13225000"},
{"state":"Lisbon","name":"Arranhó","lat":"38.95378000","lon":"-9.13465000"},
{"state":"Lisbon","name":"Arruda dos Vinhos","lat":"38.97172000","lon":"-9.08807000"},
{"state":"Lisbon","name":"Aveiras de Cima","lat":"39.13796000","lon":"-8.89932000"},
{"state":"Lisbon","name":"Azambuja","lat":"39.07029000","lon":"-8.86822000"},
{"state":"Lisbon","name":"Barcarena","lat":"38.73245000","lon":"-9.28000000"},
{"state":"Lisbon","name":"Beato António","lat":"38.73327000","lon":"-9.10335000"},
{"state":"Lisbon","name":"Belas","lat":"38.77670000","lon":"-9.26353000"},
{"state":"Lisbon","name":"Benfica","lat":"38.75087000","lon":"-9.20282000"},
{"state":"Lisbon","name":"Bobadela","lat":"38.80774000","lon":"-9.09925000"},
{"state":"Lisbon","name":"Bucelas","lat":"38.90193000","lon":"-9.11885000"},
{"state":"Lisbon","name":"Cabanas de Torres","lat":"39.15581000","lon":"-9.06588000"},
{"state":"Lisbon","name":"Cacém","lat":"38.76698000","lon":"-9.29793000"},
{"state":"Lisbon","name":"Cadafais","lat":"39.00461000","lon":"-9.00419000"},
{"state":"Lisbon","name":"Cadaval","lat":"39.24621000","lon":"-9.06738000"},
{"state":"Lisbon","name":"Camarate","lat":"38.80358000","lon":"-9.12809000"},
{"state":"Lisbon","name":"Campelos","lat":"39.19678000","lon":"-9.23519000"},
{"state":"Lisbon","name":"Caneças","lat":"38.81321000","lon":"-9.22679000"},
{"state":"Lisbon","name":"Carcavelos","lat":"38.69105000","lon":"-9.32215000"},
{"state":"Lisbon","name":"Carnaxide","lat":"38.72706000","lon":"-9.24671000"},
{"state":"Lisbon","name":"Carregado","lat":"39.02362000","lon":"-8.97692000"},
{"state":"Lisbon","name":"Cascais","lat":"38.69681000","lon":"-9.42147000"},
{"state":"Lisbon","name":"Castanheira do Ribatejo","lat":"38.99298000","lon":"-8.97346000"},
{"state":"Lisbon","name":"Caxias","lat":"38.70314000","lon":"-9.27666000"},
{"state":"Lisbon","name":"Charneca","lat":"38.78351000","lon":"-9.14348000"},
{"state":"Lisbon","name":"Colares","lat":"38.79921000","lon":"-9.44691000"},
{"state":"Lisbon","name":"Ericeira","lat":"38.96275000","lon":"-9.41563000"},
{"state":"Lisbon","name":"Estoril","lat":"38.70571000","lon":"-9.39773000"},
{"state":"Lisbon","name":"Famões","lat":"38.78804000","lon":"-9.21033000"},
{"state":"Lisbon","name":"Fontanelas","lat":"38.84806000","lon":"-9.43942000"},
{"state":"Lisbon","name":"Linda-a-Velha","lat":"38.71446000","lon":"-9.24220000"},
{"state":"Lisbon","name":"Lisbon","lat":"38.72635000","lon":"-9.14843000"},
{"state":"Lisbon","name":"Loures","lat":"38.83091000","lon":"-9.16845000"},
{"state":"Lisbon","name":"Lourinhã","lat":"39.24745000","lon":"-9.31194000"},
{"state":"Lisbon","name":"Mafra","lat":"38.94107000","lon":"-9.32636000"},
{"state":"Lisbon","name":"Malveira","lat":"38.93213000","lon":"-9.25779000"},
{"state":"Lisbon","name":"Massamá","lat":"38.75279000","lon":"-9.28110000"},
{"state":"Lisbon","name":"Meca","lat":"39.08178000","lon":"-9.03459000"},
{"state":"Lisbon","name":"Mem Martins","lat":"38.79443000","lon":"-9.34284000"},
{"state":"Lisbon","name":"Milharado","lat":"38.94732000","lon":"-9.19914000"},
{"state":"Lisbon","name":"Moita dos Ferreiros","lat":"39.24825000","lon":"-9.22355000"},
{"state":"Lisbon","name":"Monte Estoril","lat":"38.70636000","lon":"-9.40595000"},
{"state":"Lisbon","name":"Moscavide e Portela","lat":"38.77929000","lon":"-9.10222000"},
{"state":"Lisbon","name":"Odivelas","lat":"38.79269000","lon":"-9.18380000"},
{"state":"Lisbon","name":"Oeiras","lat":"38.71371000","lon":"-9.26832000"},
{"state":"Lisbon","name":"Olivais","lat":"38.76994000","lon":"-9.10674000"},
{"state":"Lisbon","name":"Olival do Basto","lat":"38.79079000","lon":"-9.16621000"},
{"state":"Lisbon","name":"Ota","lat":"39.11199000","lon":"-8.99105000"},
{"state":"Lisbon","name":"Paço de Arcos","lat":"38.69569000","lon":"-9.29143000"},
{"state":"Lisbon","name":"Parede","lat":"38.69282000","lon":"-9.35412000"},
{"state":"Lisbon","name":"Pero Pinheiro","lat":"38.85783000","lon":"-9.32352000"},
{"state":"Lisbon","name":"Pontinha","lat":"38.76771000","lon":"-9.19935000"},
{"state":"Lisbon","name":"Porto Salvo","lat":"38.72293000","lon":"-9.30473000"},
{"state":"Lisbon","name":"Póvoa de Santa Iria","lat":"38.86101000","lon":"-9.06453000"},
{"state":"Lisbon","name":"Póvoa de Santo Adrião","lat":"38.80000000","lon":"-9.16667000"},
{"state":"Lisbon","name":"Prior Velho","lat":"38.79174000","lon":"-9.12119000"},
{"state":"Lisbon","name":"Queijas","lat":"38.71925000","lon":"-9.26255000"},
{"state":"Lisbon","name":"Queluz","lat":"38.75657000","lon":"-9.25451000"},
{"state":"Lisbon","name":"Ramada","lat":"38.80368000","lon":"-9.18770000"},
{"state":"Lisbon","name":"Rio de Mouro","lat":"38.76613000","lon":"-9.32804000"},
{"state":"Lisbon","name":"Sacavém","lat":"38.79202000","lon":"-9.10801000"},
{"state":"Lisbon","name":"Santa Iria da Azóia","lat":"38.84110000","lon":"-9.09908000"},
{"state":"Lisbon","name":"Santo Antão do Tojal","lat":"38.85151000","lon":"-9.13975000"},
{"state":"Lisbon","name":"Santo Isidoro","lat":"38.99593000","lon":"-9.39940000"},
{"state":"Lisbon","name":"Santos-o-Velho","lat":"38.70690000","lon":"-9.15611000"},
{"state":"Lisbon","name":"São Bartolomeu","lat":"39.27511000","lon":"-9.27885000"},
{"state":"Lisbon","name":"São Domingos de Rana","lat":"38.70194000","lon":"-9.34083000"},
{"state":"Lisbon","name":"São João da Talha","lat":"38.82378000","lon":"-9.09719000"},
{"state":"Lisbon","name":"São João das Lampas","lat":"38.87376000","lon":"-9.39842000"},
{"state":"Lisbon","name":"São João dos Montes","lat":"38.93944000","lon":"-9.01892000"},
{"state":"Lisbon","name":"São Pedro da Cadeira","lat":"39.06983000","lon":"-9.37174000"},
{"state":"Lisbon","name":"Silveira","lat":"39.11120000","lon":"-9.36430000"},
{"state":"Lisbon","name":"Sintra","lat":"38.81439000","lon":"-9.38370000"},
{"state":"Lisbon","name":"Sobral de Monte Agraço","lat":"39.01958000","lon":"-9.15081000"},
{"state":"Lisbon","name":"Sobralinho","lat":"38.91703000","lon":"-9.02656000"},
{"state":"Lisbon","name":"Terrugem","lat":"38.70647000","lon":"-9.28693000"},
{"state":"Lisbon","name":"Torres Vedras","lat":"39.09109000","lon":"-9.25860000"},
{"state":"Lisbon","name":"Unhos","lat":"38.81958000","lon":"-9.12007000"},
{"state":"Lisbon","name":"Venda do Pinheiro","lat":"38.92365000","lon":"-9.23178000"},
{"state":"Lisbon","name":"Ventosa","lat":"39.12696000","lon":"-9.08423000"},
{"state":"Lisbon","name":"Vialonga","lat":"38.87206000","lon":"-9.07805000"},
{"state":"Lisbon","name":"Vila Franca de Xira","lat":"38.92137000","lon":"-9.03220000"},
{"state":"Lisbon","name":"Vila Verde","lat":"39.15489000","lon":"-9.11512000"},
{"state":"Lisbon","name":"Vimeiro","lat":"39.17768000","lon":"-9.31702000"},
{"state":"Madeira","name":"Água de Pena","lat":"32.70143000","lon":"-16.77874000"},
{"state":"Madeira","name":"Arco da Calheta","lat":"32.71502000","lon":"-17.14974000"},
{"state":"Madeira","name":"Boaventura","lat":"32.81846000","lon":"-16.97268000"},
{"state":"Madeira","name":"Calheta","lat":"32.71667000","lon":"-17.18333000"},
{"state":"Madeira","name":"Camacha","lat":"32.67919000","lon":"-16.84462000"},
{"state":"Madeira","name":"Câmara de Lobos","lat":"32.65043000","lon":"-16.97718000"},
{"state":"Madeira","name":"Campanário","lat":"32.66578000","lon":"-17.03576000"},
{"state":"Madeira","name":"Canhas","lat":"32.69465000","lon":"-17.09867000"},
{"state":"Madeira","name":"Caniçal","lat":"32.73834000","lon":"-16.73836000"},
{"state":"Madeira","name":"Caniço","lat":"32.65078000","lon":"-16.83749000"},
{"state":"Madeira","name":"Curral das Freiras","lat":"32.72029000","lon":"-16.96993000"},
{"state":"Madeira","name":"Estreito da Calheta","lat":"32.73704000","lon":"-17.18674000"},
{"state":"Madeira","name":"Faial","lat":"32.78333000","lon":"-16.85000000"},
{"state":"Madeira","name":"Fajã da Ovelha","lat":"32.77457000","lon":"-17.23412000"},
{"state":"Madeira","name":"Funchal","lat":"32.66568000","lon":"-16.92547000"},
{"state":"Madeira","name":"Machico","lat":"32.71620000","lon":"-16.76758000"},
{"state":"Madeira","name":"Nossa Senhora do Monte","lat":"32.66667000","lon":"-16.90000000"},
{"state":"Madeira","name":"Ponta do Sol","lat":"32.67980000","lon":"-17.10000000"},
{"state":"Madeira","name":"Porto da Cruz","lat":"32.76667000","lon":"-16.83333000"},
{"state":"Madeira","name":"Porto Moniz","lat":"32.86681000","lon":"-17.16667000"},
{"state":"Madeira","name":"Porto Santo","lat":"33.07145000","lon":"-16.34304000"},
{"state":"Madeira","name":"Ribeira Brava","lat":"32.67483000","lon":"-17.06288000"},
{"state":"Madeira","name":"Santa Cruz","lat":"32.68806000","lon":"-16.79388000"},
{"state":"Madeira","name":"Santana","lat":"32.80000000","lon":"-16.88333000"},
{"state":"Madeira","name":"São Jorge","lat":"32.81667000","lon":"-16.90000000"},
{"state":"Madeira","name":"São Martinho","lat":"32.64480000","lon":"-16.93843000"},
{"state":"Madeira","name":"São Roque","lat":"32.66667000","lon":"-16.91667000"},
{"state":"Madeira","name":"São Vicente","lat":"32.79673000","lon":"-17.04323000"},
{"state":"Portalegre","name":"Alter do Chão","lat":"39.23098000","lon":"-7.74430000"},
{"state":"Portalegre","name":"Arronches","lat":"39.12242000","lon":"-7.28619000"},
{"state":"Portalegre","name":"Atalaia","lat":"39.45551000","lon":"-7.87295000"},
{"state":"Portalegre","name":"Avis","lat":"39.06448000","lon":"-7.89560000"},
{"state":"Portalegre","name":"Campo Maior","lat":"39.02935000","lon":"-7.06479000"},
{"state":"Portalegre","name":"Castelo de Vide","lat":"39.41624000","lon":"-7.45680000"},
{"state":"Portalegre","name":"Crato","lat":"39.28657000","lon":"-7.64408000"},
{"state":"Portalegre","name":"Elvas","lat":"38.88150000","lon":"-7.16282000"},
{"state":"Portalegre","name":"Fronteira","lat":"39.07179000","lon":"-7.61052000"},
{"state":"Portalegre","name":"Gavião","lat":"39.44462000","lon":"-7.89532000"},
{"state":"Portalegre","name":"Marvão","lat":"39.39377000","lon":"-7.37663000"},
{"state":"Portalegre","name":"Monforte","lat":"39.04960000","lon":"-7.44428000"},
{"state":"Portalegre","name":"Montargil","lat":"39.07771000","lon":"-8.17044000"},
{"state":"Portalegre","name":"Nisa","lat":"39.51828000","lon":"-7.67496000"},
{"state":"Portalegre","name":"Ponte de Sor","lat":"39.21441000","lon":"-8.05420000"},
{"state":"Portalegre","name":"Portalegre","lat":"39.29740000","lon":"-7.41538000"},
{"state":"Portalegre","name":"Santo André","lat":"39.05532000","lon":"-8.24414000"},
{"state":"Portalegre","name":"Sousel","lat":"38.96685000","lon":"-7.71788000"},
{"state":"Portalegre","name":"Vale da Amoreira","lat":"39.06969000","lon":"-7.69849000"},
{"state":"Porto","name":"Água Longa","lat":"41.24972000","lon":"-8.49285000"},
{"state":"Porto","name":"Águas Santas","lat":"41.21017000","lon":"-8.57599000"},
{"state":"Porto","name":"Aguçadoura","lat":"41.43116000","lon":"-8.77844000"},
{"state":"Porto","name":"Alfena","lat":"41.23671000","lon":"-8.52454000"},
{"state":"Porto","name":"Alpendurada","lat":"41.08944000","lon":"-8.24643000"},
{"state":"Porto","name":"Amarante","lat":"41.27271000","lon":"-8.08245000"},
{"state":"Porto","name":"Amorim","lat":"41.40503000","lon":"-8.75046000"},
{"state":"Porto","name":"Anta","lat":"41.26634000","lon":"-8.62844000"},
{"state":"Porto","name":"Arcozelo","lat":"41.06187000","lon":"-8.63192000"},
{"state":"Porto","name":"Argivai","lat":"41.37744000","lon":"-8.72987000"},
{"state":"Porto","name":"Árvore","lat":"41.33922000","lon":"-8.71806000"},
{"state":"Porto","name":"Aver-o-Mar","lat":"41.40607000","lon":"-8.77958000"},
{"state":"Porto","name":"Aves","lat":"41.37034000","lon":"-8.41010000"},
{"state":"Porto","name":"Avintes","lat":"41.10711000","lon":"-8.55131000"},
{"state":"Porto","name":"Azenha","lat":"41.07651000","lon":"-8.62468000"},
{"state":"Porto","name":"Baguim do Monte","lat":"41.19203000","lon":"-8.54118000"},
{"state":"Porto","name":"Baião","lat":"41.16384000","lon":"-8.03581000"},
{"state":"Porto","name":"Balazar","lat":"41.40435000","lon":"-8.62386000"},
{"state":"Porto","name":"Baltar","lat":"41.19272000","lon":"-8.38768000"},
{"state":"Porto","name":"Barrosas","lat":"41.35534000","lon":"-8.29943000"},
{"state":"Porto","name":"Beiriz de Baixo","lat":"41.39727000","lon":"-8.72385000"},
{"state":"Porto","name":"Bougado","lat":"41.33979000","lon":"-8.55180000"},
{"state":"Porto","name":"Campo","lat":"41.18516000","lon":"-8.46493000"},
{"state":"Porto","name":"Canelas","lat":"41.08333000","lon":"-8.60000000"},
{"state":"Porto","name":"Canidelo","lat":"41.12314000","lon":"-8.64654000"},
{"state":"Porto","name":"Carvalhosa","lat":"41.30057000","lon":"-8.36080000"},
{"state":"Porto","name":"Castelões de Cepeda","lat":"41.20265000","lon":"-8.33516000"},
{"state":"Porto","name":"Ermesinde","lat":"41.21653000","lon":"-8.55318000"},
{"state":"Porto","name":"Estela","lat":"41.44944000","lon":"-8.75166000"},
{"state":"Porto","name":"Fânzeres","lat":"41.16754000","lon":"-8.52981000"},
{"state":"Porto","name":"Felgueiras","lat":"41.34774000","lon":"-8.20808000"},
{"state":"Porto","name":"Ferreira","lat":"41.26718000","lon":"-8.34434000"},
{"state":"Porto","name":"Figueiró","lat":"41.29922000","lon":"-8.16779000"},
{"state":"Porto","name":"Foz do Douro","lat":"41.15119000","lon":"-8.67125000"},
{"state":"Porto","name":"Foz do Sousa","lat":"41.09668000","lon":"-8.50184000"},
{"state":"Porto","name":"Frazão","lat":"41.25866000","lon":"-8.40014000"},
{"state":"Porto","name":"Freamunde","lat":"41.28835000","lon":"-8.33533000"},
{"state":"Porto","name":"Gandra","lat":"41.20116000","lon":"-8.43376000"},
{"state":"Porto","name":"Gemunde","lat":"41.26766000","lon":"-8.64515000"},
{"state":"Porto","name":"Gondomar","lat":"41.12015000","lon":"-8.49595000"},
{"state":"Porto","name":"Grijó","lat":"41.02836000","lon":"-8.58017000"},
{"state":"Porto","name":"Guifões","lat":"41.19748000","lon":"-8.66899000"},
{"state":"Porto","name":"Gulpilhares","lat":"41.08292000","lon":"-8.62679000"},
{"state":"Porto","name":"Jovim","lat":"41.11102000","lon":"-8.51903000"},
{"state":"Porto","name":"Lavra","lat":"41.25935000","lon":"-8.71849000"},
{"state":"Porto","name":"Leça da Palmeira","lat":"41.19100000","lon":"-8.70027000"},
{"state":"Porto","name":"Leça do Bailio","lat":"41.21201000","lon":"-8.63422000"},
{"state":"Porto","name":"Lordelo","lat":"41.23451000","lon":"-8.40297000"},
{"state":"Porto","name":"Lousada","lat":"41.28355000","lon":"-8.27437000"},
{"state":"Porto","name":"Lustosa","lat":"41.34081000","lon":"-8.31715000"},
{"state":"Porto","name":"Madalena","lat":"41.21616000","lon":"-8.33451000"},
{"state":"Porto","name":"Maia","lat":"41.24254000","lon":"-8.60257000"},
{"state":"Porto","name":"Marco de Canaveses","lat":"41.15545000","lon":"-8.16954000"},
{"state":"Porto","name":"Marco de Canavezes","lat":"41.18389000","lon":"-8.14864000"},
{"state":"Porto","name":"Margaride","lat":"41.36478000","lon":"-8.19999000"},
{"state":"Porto","name":"Matosinhos","lat":"41.18207000","lon":"-8.68908000"},
{"state":"Porto","name":"Meinedo","lat":"41.24827000","lon":"-8.25807000"},
{"state":"Porto","name":"Melres","lat":"41.06989000","lon":"-8.40091000"},
{"state":"Porto","name":"Milheirós","lat":"41.21478000","lon":"-8.58837000"},
{"state":"Porto","name":"Mindelo","lat":"41.31527000","lon":"-8.72124000"},
{"state":"Porto","name":"Moreira","lat":"41.05600000","lon":"-8.38939000"},
{"state":"Porto","name":"Negrelos","lat":"41.34946000","lon":"-8.40145000"},
{"state":"Porto","name":"Nogueira","lat":"41.24246000","lon":"-8.58685000"},
{"state":"Porto","name":"Olival","lat":"41.05024000","lon":"-8.54416000"},
{"state":"Porto","name":"Oliveira do Douro","lat":"41.12466000","lon":"-8.58463000"},
{"state":"Porto","name":"Paços de Ferreira","lat":"41.28964000","lon":"-8.37584000"},
{"state":"Porto","name":"Paredes","lat":"41.20501000","lon":"-8.37506000"},
{"state":"Porto","name":"Pedroso","lat":"41.41103000","lon":"-8.74897000"},
{"state":"Porto","name":"Pedrouços","lat":"41.18880000","lon":"-8.58624000"},
{"state":"Porto","name":"Penafiel","lat":"41.20931000","lon":"-8.26996000"},
{"state":"Porto","name":"Perafita","lat":"41.18252000","lon":"-8.25450000"},
{"state":"Porto","name":"Perozinho","lat":"41.06513000","lon":"-8.58531000"},
{"state":"Porto","name":"Porto","lat":"41.14961000","lon":"-8.61099000"},
{"state":"Porto","name":"Póvoa de Varzim","lat":"41.38344000","lon":"-8.76364000"},
{"state":"Porto","name":"Rebordões","lat":"41.35509000","lon":"-8.42355000"},
{"state":"Porto","name":"Rebordosa","lat":"41.22405000","lon":"-8.40669000"},
{"state":"Porto","name":"Recarei","lat":"41.15356000","lon":"-8.41178000"},
{"state":"Porto","name":"Rio Mau","lat":"41.40422000","lon":"-8.67994000"},
{"state":"Porto","name":"Rio Tinto","lat":"41.17872000","lon":"-8.55953000"},
{"state":"Porto","name":"Sandim","lat":"41.03508000","lon":"-8.50700000"},
{"state":"Porto","name":"Santa Cruz do Bispo","lat":"41.21462000","lon":"-8.67406000"},
{"state":"Porto","name":"Santo Izidoro","lat":"41.21083000","lon":"-8.14224000"},
{"state":"Porto","name":"Santo Tirso","lat":"41.33014000","lon":"-8.43827000"},
{"state":"Porto","name":"São Félix da Marinha","lat":"41.03555000","lon":"-8.62259000"},
{"state":"Porto","name":"São Mamede de Infesta","lat":"41.19183000","lon":"-8.61105000"},
{"state":"Porto","name":"São Miguel do Couto","lat":"41.33167000","lon":"-8.46185000"},
{"state":"Porto","name":"São Pedro da Cova","lat":"41.14331000","lon":"-8.50033000"},
{"state":"Porto","name":"São Romão do Coronado","lat":"41.28544000","lon":"-8.56320000"},
{"state":"Porto","name":"Senhora da Hora","lat":"41.18641000","lon":"-8.65172000"},
{"state":"Porto","name":"Sermonde","lat":"41.04712000","lon":"-8.58449000"},
{"state":"Porto","name":"Seroa","lat":"41.26511000","lon":"-8.42892000"},
{"state":"Porto","name":"Serzedo","lat":"41.05105000","lon":"-8.61605000"},
{"state":"Porto","name":"Sobrado","lat":"41.21041000","lon":"-8.45488000"},
{"state":"Porto","name":"Telões","lat":"41.31054000","lon":"-8.11101000"},
{"state":"Porto","name":"Trofa","lat":"41.30646000","lon":"-8.57640000"},
{"state":"Porto","name":"Vairão","lat":"41.33290000","lon":"-8.66657000"},
{"state":"Porto","name":"Valadares","lat":"41.14737000","lon":"-7.98120000"},
{"state":"Porto","name":"Valbom","lat":"41.12921000","lon":"-8.56199000"},
{"state":"Porto","name":"Valongo","lat":"41.20797000","lon":"-8.50086000"},
{"state":"Porto","name":"Vila do Conde","lat":"41.35326000","lon":"-8.74516000"},
{"state":"Porto","name":"Vila Meã","lat":"41.25116000","lon":"-8.18397000"},
{"state":"Porto","name":"Vila Nova da Telha","lat":"41.07170000","lon":"-8.64146000"},
{"state":"Porto","name":"Vila Nova de Gaia","lat":"41.12401000","lon":"-8.61241000"},
{"state":"Porto","name":"Vilar de Andorinho","lat":"41.10574000","lon":"-8.58622000"},
{"state":"Porto","name":"Vilar do Paraíso","lat":"41.08974000","lon":"-8.62110000"},
{"state":"Porto","name":"Vilarinho","lat":"41.35955000","lon":"-8.33123000"},
{"state":"Porto","name":"Vizela","lat":"41.38242000","lon":"-8.24887000"},
{"state":"Santarém","name":"Abrantes","lat":"39.46667000","lon":"-8.20000000"},
{"state":"Santarém","name":"Alcanede","lat":"39.41501000","lon":"-8.82189000"},
{"state":"Santarém","name":"Alcanena","lat":"39.45900000","lon":"-8.66892000"},
{"state":"Santarém","name":"Alcanhões","lat":"39.29603000","lon":"-8.65847000"},
{"state":"Santarém","name":"Alferrarede","lat":"39.48333000","lon":"-8.16667000"},
{"state":"Santarém","name":"Almeirim","lat":"39.20837000","lon":"-8.62635000"},
{"state":"Santarém","name":"Alpiarça","lat":"39.25712000","lon":"-8.58187000"},
{"state":"Santarém","name":"Amiães de Baixo","lat":"39.44296000","lon":"-8.73358000"},
{"state":"Santarém","name":"Azinhaga","lat":"39.34877000","lon":"-8.53005000"},
{"state":"Santarém","name":"Bemfica","lat":"39.14325000","lon":"-8.68717000"},
{"state":"Santarém","name":"Benavente","lat":"38.90800000","lon":"-8.76898000"},
{"state":"Santarém","name":"Cartaxo","lat":"39.15377000","lon":"-8.81373000"},
{"state":"Santarém","name":"Chamusca","lat":"39.29900000","lon":"-8.39933000"},
{"state":"Santarém","name":"Constância","lat":"39.45718000","lon":"-8.30368000"},
{"state":"Santarém","name":"Coruche","lat":"38.95950000","lon":"-8.52745000"},
{"state":"Santarém","name":"Entroncamento","lat":"39.46667000","lon":"-8.46667000"},
{"state":"Santarém","name":"Fátima","lat":"39.62071000","lon":"-8.65237000"},
{"state":"Santarém","name":"Fazendas de Almeirim","lat":"39.17553000","lon":"-8.56927000"},
{"state":"Santarém","name":"Ferreira do Zêzere","lat":"39.72303000","lon":"-8.31661000"},
{"state":"Santarém","name":"Golegã","lat":"39.38683000","lon":"-8.50591000"},
{"state":"Santarém","name":"Mação","lat":"39.59331000","lon":"-7.99772000"},
{"state":"Santarém","name":"Madalena","lat":"39.57133000","lon":"-8.44635000"},
{"state":"Santarém","name":"Marinhais","lat":"39.04730000","lon":"-8.70236000"},
{"state":"Santarém","name":"Minde","lat":"39.51631000","lon":"-8.68799000"},
{"state":"Santarém","name":"Monsanto","lat":"39.46203000","lon":"-8.71180000"},
{"state":"Santarém","name":"Montalvinho","lat":"39.48333000","lon":"-8.30000000"},
{"state":"Santarém","name":"Montalvo","lat":"39.48333000","lon":"-8.30000000"},
{"state":"Santarém","name":"Ourém","lat":"39.66179000","lon":"-8.57895000"},
{"state":"Santarém","name":"Paialvo","lat":"39.56399000","lon":"-8.46835000"},
{"state":"Santarém","name":"Pego","lat":"39.46146000","lon":"-8.14955000"},
{"state":"Santarém","name":"Pinheiro Grande","lat":"39.39212000","lon":"-8.43410000"},
{"state":"Santarém","name":"Poceirão","lat":"38.83095000","lon":"-8.79365000"},
{"state":"Santarém","name":"Pontével","lat":"39.14945000","lon":"-8.83880000"},
{"state":"Santarém","name":"Praia do Ribatejo","lat":"39.46667000","lon":"-8.35000000"},
{"state":"Santarém","name":"Riachos","lat":"39.44472000","lon":"-8.51420000"},
{"state":"Santarém","name":"Rio Maior","lat":"39.34288000","lon":"-8.93806000"},
{"state":"Santarém","name":"Salvaterra de Magos","lat":"39.04482000","lon":"-8.68903000"},
{"state":"Santarém","name":"Samora Correia","lat":"38.93709000","lon":"-8.87178000"},
{"state":"Santarém","name":"Santa Margarida da Coutada","lat":"39.45000000","lon":"-8.31667000"},
{"state":"Santarém","name":"Santarém","lat":"39.23333000","lon":"-8.68333000"},
{"state":"Santarém","name":"São Miguel de Rio Torto","lat":"39.43333000","lon":"-8.21667000"},
{"state":"Santarém","name":"São Vicente do Paul","lat":"39.34946000","lon":"-8.62221000"},
{"state":"Santarém","name":"Sardoal","lat":"39.55643000","lon":"-8.14323000"},
{"state":"Santarém","name":"Tomar","lat":"39.60199000","lon":"-8.40924000"},
{"state":"Santarém","name":"Torres Novas","lat":"39.49160000","lon":"-8.54796000"},
{"state":"Santarém","name":"Tramagal","lat":"39.45000000","lon":"-8.25000000"},
{"state":"Santarém","name":"Vale de Figueira","lat":"39.30569000","lon":"-8.62876000"},
{"state":"Santarém","name":"Vale de Santarém","lat":"39.19052000","lon":"-8.72735000"},
{"state":"Santarém","name":"Vila Chã de Ourique","lat":"39.17219000","lon":"-8.76658000"},
{"state":"Santarém","name":"Vila Nova da Barquinha","lat":"39.46081000","lon":"-8.43588000"},
{"state":"Setúbal","name":"Alcácer do Sal","lat":"38.37326000","lon":"-8.51444000"},
{"state":"Setúbal","name":"Alcochete","lat":"38.73827000","lon":"-8.97936000"},
{"state":"Setúbal","name":"Aldeia de Paio Pires","lat":"38.61667000","lon":"-9.08333000"},
{"state":"Setúbal","name":"Alhos Vedros","lat":"38.65486000","lon":"-9.02368000"},
{"state":"Setúbal","name":"Almada","lat":"38.67902000","lon":"-9.15690000"},
{"state":"Setúbal","name":"Amora","lat":"38.62961000","lon":"-9.11557000"},
{"state":"Setúbal","name":"Arrentela","lat":"38.62500000","lon":"-9.10151000"},
{"state":"Setúbal","name":"Azeitão","lat":"38.51919000","lon":"-9.01390000"},
{"state":"Setúbal","name":"Barreiro","lat":"38.66314000","lon":"-9.07240000"},
{"state":"Setúbal","name":"Cacilhas","lat":"38.68638000","lon":"-9.14938000"},
{"state":"Setúbal","name":"Caparica","lat":"38.66179000","lon":"-9.20032000"},
{"state":"Setúbal","name":"Cercal","lat":"37.80129000","lon":"-8.67400000"},
{"state":"Setúbal","name":"Charneca de Caparica","lat":"38.62032000","lon":"-9.19426000"},
{"state":"Setúbal","name":"Comporta","lat":"38.38059000","lon":"-8.78608000"},
{"state":"Setúbal","name":"Corroios","lat":"38.64004000","lon":"-9.15080000"},
{"state":"Setúbal","name":"Costa de Caparica","lat":"38.64458000","lon":"-9.23556000"},
{"state":"Setúbal","name":"Grândola","lat":"38.18999000","lon":"-8.61197000"},
{"state":"Setúbal","name":"Laranjeira","lat":"38.65599000","lon":"-9.15376000"},
{"state":"Setúbal","name":"Lavradio","lat":"38.66808000","lon":"-9.05204000"},
{"state":"Setúbal","name":"Moita","lat":"38.65854000","lon":"-9.01040000"},
{"state":"Setúbal","name":"Montijo","lat":"38.72990000","lon":"-8.69364000"},
{"state":"Setúbal","name":"Palmela","lat":"38.56902000","lon":"-8.90126000"},
{"state":"Setúbal","name":"Piedade","lat":"38.67005000","lon":"-9.15852000"},
{"state":"Setúbal","name":"Pinhal Novo","lat":"38.63106000","lon":"-8.91376000"},
{"state":"Setúbal","name":"Porto Covo","lat":"37.85256000","lon":"-8.79018000"},
{"state":"Setúbal","name":"Pragal","lat":"38.67459000","lon":"-9.16981000"},
{"state":"Setúbal","name":"Quinta do Anjo","lat":"38.56753000","lon":"-8.94228000"},
{"state":"Setúbal","name":"Quinta Do Conde","lat":"38.56528000","lon":"-9.04316000"},
{"state":"Setúbal","name":"Rosairinho","lat":"38.67734000","lon":"-9.00836000"},
{"state":"Setúbal","name":"Samouco","lat":"38.72035000","lon":"-9.00471000"},
{"state":"Setúbal","name":"Santiago do Cacém","lat":"38.02502000","lon":"-8.67577000"},
{"state":"Setúbal","name":"Santo André","lat":"38.06078000","lon":"-8.78220000"},
{"state":"Setúbal","name":"Santo António da Charneca","lat":"38.62561000","lon":"-9.03043000"},
{"state":"Setúbal","name":"Sarilhos Pequenos","lat":"38.68176000","lon":"-8.98231000"},
{"state":"Setúbal","name":"Seixal","lat":"38.61173000","lon":"-9.10371000"},
{"state":"Setúbal","name":"Sesimbra","lat":"38.49486000","lon":"-9.12011000"},
{"state":"Setúbal","name":"Setúbal","lat":"38.52440000","lon":"-8.88820000"},
{"state":"Setúbal","name":"Sines","lat":"37.95622000","lon":"-8.86979000"},
{"state":"Setúbal","name":"Sobreda","lat":"38.64961000","lon":"-9.18977000"},
{"state":"Setúbal","name":"Trafaria","lat":"38.67222000","lon":"-9.23268000"},
{"state":"Viana do Castelo","name":"Arcos de Valdevez","lat":"41.84668000","lon":"-8.41905000"},
{"state":"Viana do Castelo","name":"Caminha","lat":"41.84647000","lon":"-8.80133000"},
{"state":"Viana do Castelo","name":"Melgaço","lat":"42.08067000","lon":"-8.24844000"},
{"state":"Viana do Castelo","name":"Monção","lat":"42.07892000","lon":"-8.48076000"},
{"state":"Viana do Castelo","name":"Paredes de Coura","lat":"41.90995000","lon":"-8.57034000"},
{"state":"Viana do Castelo","name":"Ponte da Barca","lat":"41.80669000","lon":"-8.31014000"},
{"state":"Viana do Castelo","name":"Ponte de Lima","lat":"41.74682000","lon":"-8.57637000"},
{"state":"Viana do Castelo","name":"Valença","lat":"42.02821000","lon":"-8.63388000"},
{"state":"Viana do Castelo","name":"Viana do Castelo","lat":"41.69371000","lon":"-8.83456000"},
{"state":"Vila Real","name":"Alijó","lat":"41.28447000","lon":"-7.48545000"},
{"state":"Vila Real","name":"Boticas","lat":"41.68939000","lon":"-7.66914000"},
{"state":"Vila Real","name":"Chaves","lat":"41.73961000","lon":"-7.45030000"},
{"state":"Vila Real","name":"Favaios","lat":"41.26876000","lon":"-7.50465000"},
{"state":"Vila Real","name":"Godim","lat":"41.17104000","lon":"-7.80303000"},
{"state":"Vila Real","name":"Mesão Frio","lat":"41.16190000","lon":"-7.87284000"},
{"state":"Vila Real","name":"Mondim de Basto","lat":"41.41347000","lon":"-7.95479000"},
{"state":"Vila Real","name":"Montalegre","lat":"41.83180000","lon":"-7.78999000"},
{"state":"Vila Real","name":"Murça","lat":"41.41825000","lon":"-7.45121000"},
{"state":"Vila Real","name":"Peso da Régua","lat":"41.19157000","lon":"-7.83668000"},
{"state":"Vila Real","name":"Ribeira de Pena","lat":"41.51021000","lon":"-7.79673000"},
{"state":"Vila Real","name":"Sabrosa","lat":"41.26702000","lon":"-7.57601000"},
{"state":"Vila Real","name":"Santa Cruz","lat":"41.76007000","lon":"-7.46834000"},
{"state":"Vila Real","name":"Santa Marta de Penaguião","lat":"41.20991000","lon":"-7.78386000"},
{"state":"Vila Real","name":"Sobreira","lat":"41.52371000","lon":"-7.80234000"},
{"state":"Vila Real","name":"Valpaços","lat":"41.62082000","lon":"-7.33607000"},
{"state":"Vila Real","name":"Vila Pouca de Aguiar","lat":"41.52079000","lon":"-7.63671000"},
{"state":"Vila Real","name":"Vila Real","lat":"41.30021000","lon":"-7.73985000"},
{"state":"Vila Real","name":"Vilela","lat":"41.22511000","lon":"-7.60338000"},
{"state":"Viseu","name":"Abraveses","lat":"40.68137000","lon":"-7.92102000"},
{"state":"Viseu","name":"Armamar","lat":"41.09718000","lon":"-7.68553000"},
{"state":"Viseu","name":"Cabanas de Viriato","lat":"40.47662000","lon":"-7.97445000"},
{"state":"Viseu","name":"Campo","lat":"40.71086000","lon":"-7.91445000"},
{"state":"Viseu","name":"Campo de Besteiros","lat":"40.55655000","lon":"-8.13432000"},
{"state":"Viseu","name":"Canas de Senhorim","lat":"40.50012000","lon":"-7.89874000"},
{"state":"Viseu","name":"Carregal do Sal","lat":"40.45007000","lon":"-7.99819000"},
{"state":"Viseu","name":"Castro Daire","lat":"40.92279000","lon":"-7.93878000"},
{"state":"Viseu","name":"Cinfães","lat":"41.03986000","lon":"-8.11218000"},
{"state":"Viseu","name":"Ervedosa do Douro","lat":"41.16626000","lon":"-7.47305000"},
{"state":"Viseu","name":"Lamego","lat":"41.10229000","lon":"-7.81025000"},
{"state":"Viseu","name":"Mangualde","lat":"40.60425000","lon":"-7.76115000"},
{"state":"Viseu","name":"Moimenta da Beira","lat":"40.97134000","lon":"-7.62959000"},
{"state":"Viseu","name":"Mortágua","lat":"40.39434000","lon":"-8.25811000"},
{"state":"Viseu","name":"Nelas","lat":"40.53216000","lon":"-7.85152000"},
{"state":"Viseu","name":"Oliveira de Frades","lat":"40.73357000","lon":"-8.17481000"},
{"state":"Viseu","name":"Penalva do Castelo","lat":"40.66791000","lon":"-7.66015000"},
{"state":"Viseu","name":"Penedono","lat":"40.98875000","lon":"-7.39386000"},
{"state":"Viseu","name":"Resende","lat":"41.07688000","lon":"-7.95123000"},
{"state":"Viseu","name":"Rio de Loba","lat":"40.66596000","lon":"-7.87781000"},
{"state":"Viseu","name":"Santa Comba Dão","lat":"40.40442000","lon":"-8.11380000"},
{"state":"Viseu","name":"São João da Pesqueira","lat":"41.14805000","lon":"-7.40489000"},
{"state":"Viseu","name":"São João de Areias","lat":"40.38722000","lon":"-8.06783000"},
{"state":"Viseu","name":"São Pedro do Sul","lat":"40.80073000","lon":"-8.09023000"},
{"state":"Viseu","name":"Sátão","lat":"40.76246000","lon":"-7.67600000"},
{"state":"Viseu","name":"Sernancelhe","lat":"40.92097000","lon":"-7.51226000"},
{"state":"Viseu","name":"Tabuaço","lat":"41.09555000","lon":"-7.56735000"},
{"state":"Viseu","name":"Tarouca","lat":"41.02651000","lon":"-7.74998000"},
{"state":"Viseu","name":"Tondela","lat":"40.54052000","lon":"-8.10040000"},
{"state":"Viseu","name":"Treixedo","lat":"40.43246000","lon":"-8.09428000"},
{"state":"Viseu","name":"Vila Nova de Paiva","lat":"40.86590000","lon":"-7.76127000"},
{"state":"Viseu","name":"Viseu","lat":"40.67450000","lon":"-7.91721000"},
{"state":"Viseu","name":"Vouzela","lat":"40.68944000","lon":"-8.11360000"}]