[{"name":"Açores","native":null,"cities":[{"name":"Água de Pau","native":null,"lat":"37.72142000","lon":"-25.51170000"},{"name":"Angra do Heroísmo","native":null,"lat":"38.65483000","lon":"-27.21734000"},{"name":"Angústias","native":null,"lat":"38.52547000","lon":"-28.63132000"},{"name":"Arrifes","native":null,"lat":"37.76667000","lon":"-25.70000000"},{"name":"Biscoitos","native":null,"lat":"38.78333000","lon":"-27.25000000"},{"name":"Cabouco","native":null,"lat":"37.76667000","lon":"-25.56667000"},{"name":"Cais do Pico","native":null,"lat":"38.52531000","lon":"-28.32074000"},{"name":"Calheta","native":null,"lat":"38.60186000","lon":"-28.01792000"},{"name":"Calheta de São Jorge","native":null,"lat":"38.59767000","lon":"-27.91459000"},{"name":"Castelo Branco","native":null,"lat":"38.52198000","lon":"-28.71365000"},{"name":"Corvo","native":null,"lat":"39.69771000","lon":"-31.10550000"},{"name":"Fajã de Baixo","native":null,"lat":"37.75000000","lon":"-25.65000000"},{"name":"Fenais da Ajuda","native":null,"lat":"37.85128000","lon":"-25.32406000"},{"name":"Fenais da Luz","native":null,"lat":"37.82490000","lon":"-25.64229000"},{"name":"Feteira","native":null,"lat":"38.65429000","lon":"-27.14995000"},{"name":"Fonte Bastardo","native":null,"lat":"38.69201000","lon":"-27.07942000"},{"name":"Furnas","native":null,"lat":"37.77567000","lon":"-25.31035000"},{"name":"Horta","native":null,"lat":"38.53737000","lon":"-28.62615000"},{"name":"Lagoa","native":null,"lat":"37.74486000","lon":"-25.57184000"},{"name":"Lajes","native":null,"lat":"38.76352000","lon":"-27.10336000"},{"name":"Lajes das Flores","native":null,"lat":"39.41619000","lon":"-31.21725000"},{"name":"Lajes do Pico","native":null,"lat":"38.42797000","lon":"-28.17402000"},{"name":"Madalena","native":null,"lat":"38.53642000","lon":"-28.52660000"},{"name":"Maia","native":null,"lat":"37.83247000","lon":"-25.38976000"},{"name":"Mosteiros","native":null,"lat":"37.89017000","lon":"-25.81999000"},{"name":"Nordeste","native":null,"lat":"37.82721000","lon":"-25.22863000"},{"name":"Ponta Delgada","native":null,"lat":"37.74230000","lon":"-25.67093000"},{"name":"Ponta Garça","native":null,"lat":"37.71667000","lon":"-25.36667000"},{"name":"Porto Judeu","native":null,"lat":"38.64814000","lon":"-27.11944000"},{"name":"Porto Martins","native":null,"lat":"38.68146000","lon":"-27.05835000"},{"name":"Povoação","native":null,"lat":"37.76471000","lon":"-25.24487000"},{"name":"Praia da Vitória","native":null,"lat":"38.73333000","lon":"-27.06667000"},{"name":"Rabo de Peixe","native":null,"lat":"37.81022000","lon":"-25.58263000"},{"name":"Relva","native":null,"lat":"37.75271000","lon":"-25.71848000"},{"name":"Ribeira Grande","native":null,"lat":"38.51667000","lon":"-28.70000000"},{"name":"Ribeira Seca","native":null,"lat":"37.81667000","lon":"-25.53333000"},{"name":"Ribeirinha","native":null,"lat":"38.66203000","lon":"-27.18093000"},{"name":"Rosto de Cão","native":null,"lat":"37.75000000","lon":"-25.65000000"},{"name":"Santa Bárbara","native":null,"lat":"38.69608000","lon":"-27.33907000"},{"name":"Santa Cruz da Graciosa","native":null,"lat":"39.04946000","lon":"-28.00432000"},{"name":"Santa Cruz das Flores","native":null,"lat":"39.46984000","lon":"-31.18514000"},{"name":"São Bartolomeu","native":null,"lat":"38.67491000","lon":"-27.29349000"},{"name":"São Mateus","native":null,"lat":"38.65630000","lon":"-27.26935000"},{"name":"São Roque","native":null,"lat":"37.75418000","lon":"-25.64127000"},{"name":"São Roque do Pico","native":null,"lat":"38.51631000","lon":"-28.30752000"},{"name":"São Sebastião","native":null,"lat":"38.66584000","lon":"-27.08976000"},{"name":"São Vicente","native":null,"lat":"37.81829000","lon":"-25.66583000"},{"name":"Senhora do Rosário","native":null,"lat":"37.83333000","lon":"-25.15000000"},{"name":"Velas","native":null,"lat":"38.67995000","lon":"-28.15155000"},{"name":"Vila do Porto","native":null,"lat":"36.97454000","lon":"-25.09967000"},{"name":"Vila Franca do Campo","native":null,"lat":"37.71667000","lon":"-25.43333000"}]},{"name":"Aveiro","native":null,"cities":[{"name":"Aguada de Cima","native":null,"lat":"40.52291000","lon":"-8.42700000"},{"name":"Águeda","native":null,"lat":"40.57720000","lon":"-8.44442000"},{"name":"Albergaria-a-Velha","native":null,"lat":"40.68706000","lon":"-8.50399000"},{"name":"Anadia","native":null,"lat":"40.43841000","lon":"-8.43352000"},{"name":"Aradas","native":null,"lat":"40.62084000","lon":"-8.64195000"},{"name":"Arcos","native":null,"lat":"40.44779000","lon":"-8.44171000"},{"name":"Argoncilhe","native":null,"lat":"41.02541000","lon":"-8.53885000"},{"name":"Arouca","native":null,"lat":"40.92658000","lon":"-8.27251000"},{"name":"Arrifana","native":null,"lat":"40.91565000","lon":"-8.49657000"},{"name":"Avanca","native":null,"lat":"40.80771000","lon":"-8.57220000"},{"name":"Aveiro","native":null,"lat":"40.64427000","lon":"-8.64554000"},{"name":"Beduido","native":null,"lat":"40.76427000","lon":"-8.56110000"},{"name":"Branca","native":null,"lat":"40.76653000","lon":"-8.48262000"},{"name":"Castelo de Paiva","native":null,"lat":"41.03353000","lon":"-8.29822000"},{"name":"Cortegaça","native":null,"lat":"40.94883000","lon":"-8.62130000"},{"name":"Cucujães","native":null,"lat":"40.87413000","lon":"-8.50687000"},{"name":"Eixo","native":null,"lat":"40.62758000","lon":"-8.56922000"},{"name":"Esgueira","native":null,"lat":"40.64899000","lon":"-8.62943000"},{"name":"Esmoriz","native":null,"lat":"40.95773000","lon":"-8.62753000"},{"name":"Espargo","native":null,"lat":"40.92462000","lon":"-8.57495000"},{"name":"Espinho","native":null,"lat":"41.00763000","lon":"-8.64125000"},{"name":"Estarreja","native":null,"lat":"40.75463000","lon":"-8.57917000"},{"name":"Feira","native":null,"lat":"40.92535000","lon":"-8.54277000"},{"name":"Fiães","native":null,"lat":"40.99446000","lon":"-8.52537000"},{"name":"Gafanha da Encarnação","native":null,"lat":"40.61806000","lon":"-8.73303000"},{"name":"Gafanha da Nazaré","native":null,"lat":"40.63621000","lon":"-8.71338000"},{"name":"Ílhavo","native":null,"lat":"40.60188000","lon":"-8.67021000"},{"name":"Lamas","native":null,"lat":"40.98597000","lon":"-8.56923000"},{"name":"Lobão","native":null,"lat":"40.98664000","lon":"-8.48566000"},{"name":"Lourosa","native":null,"lat":"40.98420000","lon":"-8.55142000"},{"name":"Luso","native":null,"lat":"40.38429000","lon":"-8.37845000"},{"name":"Macieira de Cambra","native":null,"lat":"40.85939000","lon":"-8.37338000"},{"name":"Mealhada","native":null,"lat":"40.36273000","lon":"-8.44781000"},{"name":"Milheirós de Poiares","native":null,"lat":"40.92163000","lon":"-8.46788000"},{"name":"Mosteirô","native":null,"lat":"40.89843000","lon":"-8.53196000"},{"name":"Murtosa","native":null,"lat":"40.74301000","lon":"-8.64023000"},{"name":"Nogueira da Regedoura","native":null,"lat":"41.00530000","lon":"-8.59195000"},{"name":"Oiã","native":null,"lat":"40.54264000","lon":"-8.53856000"},{"name":"Oliveira de Azemeis","native":null,"lat":"40.84101000","lon":"-8.47555000"},{"name":"Oliveira do Bairro","native":null,"lat":"40.50977000","lon":"-8.56374000"},{"name":"Oliveirinha","native":null,"lat":"40.60715000","lon":"-8.59198000"},{"name":"Ovar","native":null,"lat":"40.85862000","lon":"-8.62513000"},{"name":"Paços de Brandão","native":null,"lat":"40.97541000","lon":"-8.58350000"},{"name":"Pampilhosa do Botão","native":null,"lat":"40.33580000","lon":"-8.42738000"},{"name":"Pardilhó","native":null,"lat":"40.79925000","lon":"-8.62598000"},{"name":"Rio Meão","native":null,"lat":"40.95775000","lon":"-8.57818000"},{"name":"Salreu","native":null,"lat":"40.73971000","lon":"-8.55720000"},{"name":"Sanfins","native":null,"lat":"40.92979000","lon":"-8.52563000"},{"name":"Sangalhos","native":null,"lat":"40.48678000","lon":"-8.46968000"},{"name":"Santa Maria da Feira","native":null,"lat":"40.96043000","lon":"-8.51545000"},{"name":"São João","native":null,"lat":"40.86802000","lon":"-8.60672000"},{"name":"São João da Madeira","native":null,"lat":"40.90070000","lon":"-8.49020000"},{"name":"São João de Ver","native":null,"lat":"40.95527000","lon":"-8.55117000"},{"name":"São Roque","native":null,"lat":"40.87216000","lon":"-8.47149000"},{"name":"Sever do Vouga","native":null,"lat":"40.73156000","lon":"-8.35493000"},{"name":"Silvalde","native":null,"lat":"40.99205000","lon":"-8.62567000"},{"name":"Souto","native":null,"lat":"40.98496000","lon":"-8.62185000"},{"name":"Vagos","native":null,"lat":"40.49943000","lon":"-8.67830000"},{"name":"Vale de Cambra","native":null,"lat":"40.84500000","lon":"-8.36022000"},{"name":"Válega","native":null,"lat":"40.83629000","lon":"-8.58061000"},{"name":"Valongo","native":null,"lat":"40.61667000","lon":"-8.45000000"},{"name":"Vila Chã","native":null,"lat":"40.86667000","lon":"-8.46667000"}]},{"name":"Beja","native":null,"cities":[{"name":"Aldeia Nova de São Bento","native":null,"lat":"37.92603000","lon":"-7.40804000"},{"name":"Aljustrel","native":null,"lat":"37.87759000","lon":"-8.16516000"},{"name":"Almodôvar","native":null,"lat":"37.49590000","lon":"-8.09372000"},{"name":"Almograve","native":null,"lat":"37.65665000","lon":"-8.79214000"},{"name":"Alvito","native":null,"lat":"38.24653000","lon":"-8.05038000"},{"name":"Barrancos","native":null,"lat":"38.13446000","lon":"-6.97604000"},{"name":"Beja","native":null,"lat":"38.01506000","lon":"-7.86323000"},{"name":"Beringel","native":null,"lat":"38.05656000","lon":"-7.98427000"},{"name":"Boavista dos Pinheiros","native":null,"lat":"37.58058000","lon":"-8.66441000"},{"name":"Cabeça Gorda","native":null,"lat":"37.92401000","lon":"-7.79290000"},{"name":"Castro Verde","native":null,"lat":"37.69828000","lon":"-8.08581000"},{"name":"Cuba","native":null,"lat":"38.21972000","lon":"-7.92114000"},{"name":"Ferreira do Alentejo","native":null,"lat":"38.05000000","lon":"-8.03333000"},{"name":"Mértola","native":null,"lat":"37.65918000","lon":"-7.66434000"},{"name":"Minas de São Domingos","native":null,"lat":"37.67322000","lon":"-7.49765000"},{"name":"Moura","native":null,"lat":"38.14010000","lon":"-7.44856000"},{"name":"Neves","native":null,"lat":"38.02270000","lon":"-7.81344000"},{"name":"Odemira","native":null,"lat":"37.59798000","lon":"-8.63972000"},{"name":"Ourique","native":null,"lat":"37.69156000","lon":"-8.31031000"},{"name":"Penedo Gordo","native":null,"lat":"37.98477000","lon":"-7.91651000"},{"name":"Salvada","native":null,"lat":"37.93771000","lon":"-7.77448000"},{"name":"São Luis","native":null,"lat":"37.71556000","lon":"-8.66472000"},{"name":"São Teotónio","native":null,"lat":"37.51282000","lon":"-8.70708000"},{"name":"Serpa","native":null,"lat":"37.95201000","lon":"-7.47534000"},{"name":"Vidigueira","native":null,"lat":"38.18448000","lon":"-7.74469000"},{"name":"Vila Nova de Milfontes","native":null,"lat":"37.72377000","lon":"-8.78278000"},{"name":"Zambujeira do Mar","native":null,"lat":"37.52799000","lon":"-8.78483000"}]},{"name":"Braga","native":null,"cities":[{"name":"Adaúfe","native":null,"lat":"41.58732000","lon":"-8.39817000"},{"name":"Amares","native":null,"lat":"41.64718000","lon":"-8.35558000"},{"name":"Apúlia","native":null,"lat":"41.48512000","lon":"-8.76413000"},{"name":"Apúlia e Fão","native":null,"lat":"41.51194000","lon":"-8.77288000"},{"name":"Arcos","native":null,"lat":"41.52185000","lon":"-8.42151000"},{"name":"Arões","native":null,"lat":"41.45553000","lon":"-8.21419000"},{"name":"Aveleda","native":null,"lat":"41.52113000","lon":"-8.46682000"},{"name":"Barcelos","native":null,"lat":"41.53174000","lon":"-8.61843000"},{"name":"Barqueiros","native":null,"lat":"41.49111000","lon":"-8.73192000"},{"name":"Braga","native":null,"lat":"41.55032000","lon":"-8.42005000"},{"name":"Brito","native":null,"lat":"41.45821000","lon":"-8.36103000"},{"name":"Cabeceiras de Basto","native":null,"lat":"41.52079000","lon":"-7.97198000"},{"name":"Caldas das Taipas","native":null,"lat":"41.48465000","lon":"-8.34850000"},{"name":"Caldas de Vizela","native":null,"lat":"41.38212000","lon":"-8.30890000"},{"name":"Caldelas","native":null,"lat":"41.67101000","lon":"-8.38148000"},{"name":"Calendário","native":null,"lat":"41.40361000","lon":"-8.52967000"},{"name":"Candoso","native":null,"lat":"41.42768000","lon":"-8.32166000"},{"name":"Celorico de Basto","native":null,"lat":"41.40278000","lon":"-8.03346000"},{"name":"Chavão","native":null,"lat":"41.45235000","lon":"-8.60194000"},{"name":"Cristelo","native":null,"lat":"41.47964000","lon":"-8.69785000"},{"name":"Esporões","native":null,"lat":"41.51006000","lon":"-8.41729000"},{"name":"Esposende","native":null,"lat":"41.53610000","lon":"-8.78201000"},{"name":"Fafe","native":null,"lat":"41.46837000","lon":"-8.15863000"},{"name":"Faria","native":null,"lat":"41.48298000","lon":"-8.67152000"},{"name":"Ferreiros","native":null,"lat":"41.35000000","lon":"-8.55000000"},{"name":"Fradelos","native":null,"lat":"41.36846000","lon":"-8.59887000"},{"name":"Frossos","native":null,"lat":"41.56590000","lon":"-8.45134000"},{"name":"Galegos","native":null,"lat":"41.56268000","lon":"-8.57204000"},{"name":"Gandra","native":null,"lat":"41.52185000","lon":"-8.76185000"},{"name":"Gondizalves","native":null,"lat":"41.54158000","lon":"-8.45570000"},{"name":"Gueral","native":null,"lat":"41.45859000","lon":"-8.62946000"},{"name":"Guimarães","native":null,"lat":"41.44384000","lon":"-8.28918000"},{"name":"Guisande","native":null,"lat":"41.48264000","lon":"-8.44564000"},{"name":"Joane","native":null,"lat":"41.43906000","lon":"-8.40846000"},{"name":"Lago","native":null,"lat":"41.62148000","lon":"-8.41258000"},{"name":"Lordelo","native":null,"lat":"41.37411000","lon":"-8.38016000"},{"name":"Macieira de Rates","native":null,"lat":"41.44092000","lon":"-8.63426000"},{"name":"Marinhas","native":null,"lat":"41.55906000","lon":"-8.78297000"},{"name":"Mariz","native":null,"lat":"41.52823000","lon":"-8.67081000"},{"name":"Merelim","native":null,"lat":"41.58568000","lon":"-8.46555000"},{"name":"Moreira de Conegos","native":null,"lat":"41.38680000","lon":"-8.33940000"},{"name":"Negreiros","native":null,"lat":"41.43552000","lon":"-8.61398000"},{"name":"Oliveira","native":null,"lat":"41.47819000","lon":"-8.46965000"},{"name":"Perelhal","native":null,"lat":"41.53075000","lon":"-8.68982000"},{"name":"Ponte","native":null,"lat":"41.47057000","lon":"-8.32990000"},{"name":"Póvoa de Lanhoso","native":null,"lat":"41.57599000","lon":"-8.27008000"},{"name":"Prado","native":null,"lat":"41.60246000","lon":"-8.46297000"},{"name":"Real","native":null,"lat":"41.55841000","lon":"-8.44330000"},{"name":"Refojos de Basto","native":null,"lat":"41.51318000","lon":"-7.99517000"},{"name":"Rendufe","native":null,"lat":"41.62898000","lon":"-8.40858000"},{"name":"Riba de Ave","native":null,"lat":"41.39648000","lon":"-8.38685000"},{"name":"Ribeirão","native":null,"lat":"41.36081000","lon":"-8.56774000"},{"name":"Ronfe","native":null,"lat":"41.44146000","lon":"-8.38412000"},{"name":"Sande","native":null,"lat":"41.70190000","lon":"-8.39246000"},{"name":"Selho","native":null,"lat":"41.41938000","lon":"-8.34599000"},{"name":"Semelhe","native":null,"lat":"41.55437000","lon":"-8.46281000"},{"name":"Serzedelo","native":null,"lat":"41.40128000","lon":"-8.36888000"},{"name":"Serzedo","native":null,"lat":"41.40502000","lon":"-8.22926000"},{"name":"Tebosa","native":null,"lat":"41.48253000","lon":"-8.48399000"},{"name":"Terras de Bouro","native":null,"lat":"41.73914000","lon":"-8.19109000"},{"name":"Urgeses","native":null,"lat":"41.42720000","lon":"-8.29796000"},{"name":"Várzea","native":null,"lat":"41.51512000","lon":"-8.58400000"},{"name":"Vieira do Minho","native":null,"lat":"41.63557000","lon":"-8.13244000"},{"name":"Vila Cova","native":null,"lat":"41.55107000","lon":"-8.71645000"},{"name":"Vila Frescainha","native":null,"lat":"41.53846000","lon":"-8.63971000"},{"name":"Vila Nova de Famalicão","native":null,"lat":"41.40797000","lon":"-8.51978000"},{"name":"Vila Seca","native":null,"lat":"41.50031000","lon":"-8.68525000"},{"name":"Vila Verde","native":null,"lat":"41.64869000","lon":"-8.43628000"},{"name":"Vilaça","native":null,"lat":"41.51787000","lon":"-8.48357000"},{"name":"Vilar de Figos","native":null,"lat":"41.47555000","lon":"-8.65382000"},{"name":"Vizela","native":null,"lat":"41.37529000","lon":"-8.29310000"}]},{"name":"Bragança","native":null,"cities":[{"name":"Alfândega da Fé","native":null,"lat":"41.34315000","lon":"-6.96112000"},{"name":"Belver","native":null,"lat":"41.24696000","lon":"-7.27594000"},{"name":"Bragança Municipality","native":null,"lat":"41.75608000","lon":"-6.75535000"},{"name":"Carrazeda de Anciães","native":null,"lat":"41.24247000","lon":"-7.30721000"},{"name":"Carrazeda de Ansiães","native":null,"lat":"41.23424000","lon":"-7.31129000"},{"name":"Freixo de Espada à Cinta","native":null,"lat":"41.09033000","lon":"-6.80648000"},{"name":"Macedo de Cavaleiros","native":null,"lat":"41.55132000","lon":"-6.93355000"},{"name":"Miranda do Douro","native":null,"lat":"41.49692000","lon":"-6.27308000"},{"name":"Mirandela","native":null,"lat":"41.50098000","lon":"-7.19185000"},{"name":"Mogadouro","native":null,"lat":"41.34034000","lon":"-6.71187000"},{"name":"Samil","native":null,"lat":"41.77632000","lon":"-6.75698000"},{"name":"Sendim","native":null,"lat":"41.38739000","lon":"-6.42625000"},{"name":"Torre de Moncorvo","native":null,"lat":"41.17454000","lon":"-7.05364000"},{"name":"Vila Flor","native":null,"lat":"41.31429000","lon":"-7.15071000"},{"name":"Vimioso","native":null,"lat":"41.57287000","lon":"-6.52087000"},{"name":"Vinhais","native":null,"lat":"41.83509000","lon":"-7.00501000"}]},{"name":"Castelo Branco","native":null,"cities":[{"name":"Aldeia de Joanes","native":null,"lat":"40.13905000","lon":"-7.51694000"},{"name":"Belmonte","native":null,"lat":"40.36181000","lon":"-7.35157000"},{"name":"Castelo Branco","native":null,"lat":"39.82219000","lon":"-7.49087000"},{"name":"Covilhã","native":null,"lat":"40.28106000","lon":"-7.50504000"},{"name":"Fundão","native":null,"lat":"40.12412000","lon":"-7.49542000"},{"name":"Idanha-A-Nova","native":null,"lat":"39.92957000","lon":"-7.23690000"},{"name":"Oleiros","native":null,"lat":"39.94948000","lon":"-7.88592000"},{"name":"Penamacor","native":null,"lat":"40.15495000","lon":"-7.17149000"},{"name":"Proença-a-Nova","native":null,"lat":"39.75700000","lon":"-7.92595000"},{"name":"Sertã","native":null,"lat":"39.80205000","lon":"-8.09589000"},{"name":"Teixoso","native":null,"lat":"40.31448000","lon":"-7.45759000"},{"name":"Vila de Rei","native":null,"lat":"39.70685000","lon":"-8.12836000"},{"name":"Vila Velha de Ródão","native":null,"lat":"39.68709000","lon":"-7.65987000"}]},{"name":"Coimbra","native":null,"cities":[{"name":"Alfarelos","native":null,"lat":"40.15057000","lon":"-8.65326000"},{"name":"Alhadas","native":null,"lat":"40.18607000","lon":"-8.79057000"},{"name":"Ançã","native":null,"lat":"40.27161000","lon":"-8.52090000"},{"name":"Arazede","native":null,"lat":"40.28627000","lon":"-8.64999000"},{"name":"Arganil","native":null,"lat":"40.21826000","lon":"-8.05403000"},{"name":"Assafarge","native":null,"lat":"40.15895000","lon":"-8.43167000"},{"name":"Buarcos","native":null,"lat":"40.16604000","lon":"-8.87680000"},{"name":"Cantanhede","native":null,"lat":"40.36354000","lon":"-8.60549000"},{"name":"Carapinheira","native":null,"lat":"40.20620000","lon":"-8.64810000"},{"name":"Coimbra","native":null,"lat":"40.20564000","lon":"-8.41955000"},{"name":"Condeixa-a-Nova","native":null,"lat":"40.10639000","lon":"-8.49632000"},{"name":"Figueira da Foz","native":null,"lat":"40.15085000","lon":"-8.86179000"},{"name":"Góis","native":null,"lat":"40.12535000","lon":"-8.08340000"},{"name":"Lavos","native":null,"lat":"40.09363000","lon":"-8.82826000"},{"name":"Lorvão","native":null,"lat":"40.25938000","lon":"-8.31683000"},{"name":"Lousã","native":null,"lat":"40.11673000","lon":"-8.24921000"},{"name":"Mira","native":null,"lat":"40.44559000","lon":"-8.73849000"},{"name":"Miranda do Corvo","native":null,"lat":"40.09318000","lon":"-8.33261000"},{"name":"Montemor-o-Velho","native":null,"lat":"40.19385000","lon":"-8.66696000"},{"name":"Oliveira do Hospital","native":null,"lat":"40.35522000","lon":"-7.86481000"},{"name":"Oliveira do Mondego","native":null,"lat":"40.32305000","lon":"-8.22367000"},{"name":"Pampilhosa da Serra","native":null,"lat":"40.04620000","lon":"-7.95182000"},{"name":"Penacova","native":null,"lat":"40.26884000","lon":"-8.28237000"},{"name":"Penela","native":null,"lat":"40.03333000","lon":"-8.38333000"},{"name":"Poiares","native":null,"lat":"40.21026000","lon":"-8.25746000"},{"name":"Santa Clara","native":null,"lat":"40.19985000","lon":"-8.44018000"},{"name":"Santo António dos Olivais","native":null,"lat":"40.21805000","lon":"-8.40523000"},{"name":"São Pedro de Alva","native":null,"lat":"40.30044000","lon":"-8.16623000"},{"name":"Soure","native":null,"lat":"40.05989000","lon":"-8.62605000"},{"name":"Tábua","native":null,"lat":"40.36207000","lon":"-8.02936000"},{"name":"Tavarede","native":null,"lat":"40.16692000","lon":"-8.84568000"},{"name":"Tocha","native":null,"lat":"40.31308000","lon":"-8.75339000"},{"name":"Travanca","native":null,"lat":"40.32357000","lon":"-8.18687000"},{"name":"Vila Nova de Poiares","native":null,"lat":"40.22129000","lon":"-8.24105000"}]},{"name":"Évora","native":null,"cities":[{"name":"Alandroal","native":null,"lat":"38.62924000","lon":"-7.36599000"},{"name":"Arraiolos","native":null,"lat":"38.76774000","lon":"-7.95831000"},{"name":"Borba","native":null,"lat":"38.80553000","lon":"-7.45465000"},{"name":"Estremoz","native":null,"lat":"38.84996000","lon":"-7.60117000"},{"name":"Évora","native":null,"lat":"38.56667000","lon":"-7.90000000"},{"name":"Montemor-o-Novo","native":null,"lat":"38.67103000","lon":"-8.29956000"},{"name":"Mora","native":null,"lat":"38.92174000","lon":"-8.09972000"},{"name":"Mourão","native":null,"lat":"38.29778000","lon":"-7.22230000"},{"name":"Portel","native":null,"lat":"38.29385000","lon":"-7.72762000"},{"name":"Redondo","native":null,"lat":"38.58010000","lon":"-7.59659000"},{"name":"Reguengos de Monsaraz","native":null,"lat":"38.42529000","lon":"-7.53494000"},{"name":"Vendas Novas","native":null,"lat":"38.63975000","lon":"-8.54702000"},{"name":"Viana do Alentejo","native":null,"lat":"38.33645000","lon":"-8.00011000"},{"name":"Vila Viçosa","native":null,"lat":"38.78790000","lon":"-7.41852000"}]},{"name":"Faro","native":null,"cities":[{"name":"Albufeira","native":null,"lat":"37.08819000","lon":"-8.25030000"},{"name":"Alcantarilha","native":null,"lat":"37.13044000","lon":"-8.34623000"},{"name":"Alcoutim","native":null,"lat":"37.42400000","lon":"-7.65456000"},{"name":"Algoz","native":null,"lat":"37.16301000","lon":"-8.30359000"},{"name":"Aljezur","native":null,"lat":"37.31745000","lon":"-8.80147000"},{"name":"Almancil","native":null,"lat":"37.08686000","lon":"-8.03074000"},{"name":"Altura","native":null,"lat":"37.17560000","lon":"-7.50064000"},{"name":"Alvor","native":null,"lat":"37.12994000","lon":"-8.59174000"},{"name":"Armação de Pêra","native":null,"lat":"37.10256000","lon":"-8.35695000"},{"name":"Bensafrim","native":null,"lat":"37.15583000","lon":"-8.73520000"},{"name":"Boliqueime","native":null,"lat":"37.13718000","lon":"-8.15820000"},{"name":"Cabanas de Tavira","native":null,"lat":"37.13521000","lon":"-7.60048000"},{"name":"Carvoeiro","native":null,"lat":"37.09736000","lon":"-8.46846000"},{"name":"Castro Marim","native":null,"lat":"37.25865000","lon":"-7.50732000"},{"name":"Conceição","native":null,"lat":"37.14789000","lon":"-7.60426000"},{"name":"Estói","native":null,"lat":"37.09503000","lon":"-7.89445000"},{"name":"Estômbar","native":null,"lat":"37.14629000","lon":"-8.48505000"},{"name":"Faro","native":null,"lat":"37.01869000","lon":"-7.92716000"},{"name":"Ferragudo","native":null,"lat":"37.12474000","lon":"-8.51915000"},{"name":"Ferreiras","native":null,"lat":"37.12926000","lon":"-8.23759000"},{"name":"Fuzeta","native":null,"lat":"37.05429000","lon":"-7.74699000"},{"name":"Guia","native":null,"lat":"37.12959000","lon":"-8.29963000"},{"name":"Lagoa","native":null,"lat":"37.10505000","lon":"-8.45974000"},{"name":"Lagos","native":null,"lat":"37.10202000","lon":"-8.67422000"},{"name":"Laranjeiro","native":null,"lat":"37.06799000","lon":"-7.80780000"},{"name":"Loulé","native":null,"lat":"37.14399000","lon":"-8.02345000"},{"name":"Luz","native":null,"lat":"37.09216000","lon":"-7.70433000"},{"name":"Manta Rota","native":null,"lat":"37.16849000","lon":"-7.51804000"},{"name":"Marmelete","native":null,"lat":"37.31014000","lon":"-8.66813000"},{"name":"Mexilhoeira Grande","native":null,"lat":"37.15858000","lon":"-8.61487000"},{"name":"Moncarapacho","native":null,"lat":"37.08360000","lon":"-7.78763000"},{"name":"Monchique","native":null,"lat":"37.31664000","lon":"-8.58340000"},{"name":"Monte Gordo","native":null,"lat":"37.18192000","lon":"-7.45225000"},{"name":"Olhão","native":null,"lat":"37.04509000","lon":"-7.81032000"},{"name":"Olhos de Água","native":null,"lat":"37.09024000","lon":"-8.19168000"},{"name":"Paderne","native":null,"lat":"37.17935000","lon":"-8.20150000"},{"name":"Parchal","native":null,"lat":"37.13827000","lon":"-8.51703000"},{"name":"Pêra","native":null,"lat":"37.12296000","lon":"-8.34115000"},{"name":"Porches","native":null,"lat":"37.12665000","lon":"-8.40162000"},{"name":"Portimão","native":null,"lat":"37.17544000","lon":"-8.58420000"},{"name":"Quarteira","native":null,"lat":"37.06946000","lon":"-8.10064000"},{"name":"Sagres","native":null,"lat":"37.00864000","lon":"-8.94311000"},{"name":"Santa Bárbara de Nexe","native":null,"lat":"37.10619000","lon":"-7.96648000"},{"name":"Santa Luzia","native":null,"lat":"37.10224000","lon":"-7.66202000"},{"name":"São Bartolomeu de Messines","native":null,"lat":"37.25648000","lon":"-8.28672000"},{"name":"São Brás de Alportel","native":null,"lat":"37.19564000","lon":"-7.87546000"},{"name":"São Marcos da Serra","native":null,"lat":"37.36100000","lon":"-8.37764000"},{"name":"Senhora da Luz","native":null,"lat":"37.08771000","lon":"-8.72649000"},{"name":"Silves","native":null,"lat":"37.20343000","lon":"-8.33472000"},{"name":"Tavira","native":null,"lat":"37.12734000","lon":"-7.64861000"},{"name":"Tunes","native":null,"lat":"37.16592000","lon":"-8.25919000"},{"name":"Vila do Bispo","native":null,"lat":"37.08317000","lon":"-8.91144000"},{"name":"Vila Nova De Cacela","native":null,"lat":"37.17391000","lon":"-7.53169000"},{"name":"Vila Real de Santo António","native":null,"lat":"37.19232000","lon":"-7.42538000"},{"name":"Vilamoura","native":null,"lat":"37.08728000","lon":"-8.11701000"}]},{"name":"Guarda","native":null,"cities":[{"name":"Abrigada","native":null,"lat":"39.14472222","lon":"-9.01861111"},{"name":"Açores","native":null,"lat":"40.64500000","lon":"-7.30527778"},{"name":"Adão","native":null,"lat":"40.45916667","lon":"-7.16500000"},{"name":"Agualva","native":null,"lat":"38.77004444","lon":"-9.29881111"},{"name":"Águas Belas","native":null,"lat":"40.37472222","lon":"-7.16694444"},{"name":"Aguiar da Beira","native":null,"lat":"40.81726000","lon":"-7.54431000"},{"name":"Ajuda","native":null,"lat":"38.70750000","lon":"-9.19833333"},{"name":"Albardo","native":null,"lat":"40.51145000","lon":"-7.13028000"},{"name":"Alcabideche","native":null,"lat":"38.73361111","lon":"-9.40916667"},{"name":"Alcains","native":null,"lat":"39.91540278","lon":"-7.46107778"},{"name":"Alcântara","native":null,"lat":"38.70638889","lon":"-9.17416667"},{"name":"Alcoentre","native":null,"lat":"39.20861111","lon":"-8.95944444"},{"name":"Aldeia da Ponte","native":null,"lat":"40.41348889","lon":"-6.86908333"},{"name":"Aldeia da Ribeira","native":null,"lat":"40.45666667","lon":"-6.89777778"},{"name":"Aldeia de Santo António","native":null,"lat":"40.34305556","lon":"-7.13638889"},{"name":"Aldeia do Bispo","native":null,"lat":"40.32333333","lon":"-6.84805556"},{"name":"Aldeia Galega da Merceana","native":null,"lat":"39.08222222","lon":"-9.11194444"},{"name":"Aldeia Gavinha","native":null,"lat":"39.08444444","lon":"-9.09638889"},{"name":"Aldeia Nova Miranda do Douro","native":null,"lat":"40.72584000","lon":"-7.42384000"},{"name":"Aldeia Velha","native":null,"lat":"40.34333333","lon":"-6.86750000"},{"name":"Aldeia Viçosa","native":null,"lat":"40.57888889","lon":"-7.31777778"},{"name":"Aldeias","native":null,"lat":"40.46861111","lon":"-7.59805556"},{"name":"Alenquer","native":null,"lat":"39.05000000","lon":"-9.01666667"},{"name":"Alfaiates","native":null,"lat":"40.39111111","lon":"-6.91333333"},{"name":"Alfornelos","native":null,"lat":"38.76333333","lon":"-9.20638889"},{"name":"Alfragide","native":null,"lat":"38.73203000","lon":"-9.21920000"},{"name":"Algés","native":null,"lat":"38.69949722","lon":"-9.22927222"},{"name":"Algodres","native":null,"lat":"40.95250000","lon":"-7.05472222"},{"name":"Alguber","native":null,"lat":"39.27583333","lon":"-9.01888889"},{"name":"Algueirão","native":null,"lat":"38.79764000","lon":"-9.34370000"},{"name":"Algueirão–Mem Martins","native":null,"lat":"38.79411389","lon":"-9.34510833"},{"name":"Alhandra","native":null,"lat":"38.92732000","lon":"-9.00864000"},{"name":"Almargem","native":null,"lat":"38.84472222","lon":"-9.27305556"},{"name":"Almargem do Bispo","native":null,"lat":"38.84750000","lon":"-9.27138889"},{"name":"Almeida","native":null,"lat":"40.73070000","lon":"-6.90594000"},{"name":"Almendra","native":null,"lat":"40.99284444","lon":"-7.05756944"},{"name":"Almofala","native":null,"lat":"40.86027778","lon":"-6.84861111"},{"name":"Alto do Pina","native":null,"lat":"38.74027778","lon":"-9.12805556"},{"name":"Alvalade","native":null,"lat":"38.74694444","lon":"-9.13611111"},{"name":"Alvendre","native":null,"lat":"40.58500000","lon":"-7.25833333"},{"name":"Alverca da Beira","native":null,"lat":"40.70055556","lon":"-7.21750000"},{"name":"Alverca do Ribatejo","native":null,"lat":"38.89866111","lon":"-9.03947778"},{"name":"Alvoco da Serra","native":null,"lat":"40.29555556","lon":"-7.67027778"},{"name":"Amadora","native":null,"lat":"38.75000000","lon":"-9.23333333"},{"name":"Ameixoeira","native":null,"lat":"38.78777778","lon":"-9.15250000"},{"name":"Amoreira","native":null,"lat":"40.58805556","lon":"-7.01555556"},{"name":"Anjos","native":null,"lat":"38.72388889","lon":"-9.13638889"},{"name":"Apelação","native":null,"lat":"38.81500000","lon":"-9.13249000"},{"name":"Arcozelo","native":null,"lat":"40.54055556","lon":"-7.62722222"},{"name":"Arranhó","native":null,"lat":"38.95371667","lon":"-9.13497778"},{"name":"Arrifana","native":null,"lat":"40.56972222","lon":"-7.21027778"},{"name":"Arruda Dos Vinhos","native":null,"lat":"38.97172000","lon":"-9.08807000"},{"name":"Atalaia","native":null,"lat":"40.66000000","lon":"-7.03305556"},{"name":"Aveiras de Baixo","native":null,"lat":"39.11138889","lon":"-8.86916667"},{"name":"Aveiras de Cima","native":null,"lat":"39.13769444","lon":"-8.89995556"},{"name":"Avelãs da Ribeira","native":null,"lat":"40.67773000","lon":"-7.21492000"},{"name":"Aveloso","native":null,"lat":"40.93111111","lon":"-7.31666667"},{"name":"Azambuja","native":null,"lat":"39.06666667","lon":"-8.86666667"},{"name":"Azambuja (town)","native":null,"lat":"39.07027778","lon":"-8.86833333"},{"name":"Azenhas do Mar","native":null,"lat":"38.84055556","lon":"-9.46000000"},{"name":"Azevo","native":null,"lat":"40.85166667","lon":"-7.13138889"},{"name":"Azueira","native":null,"lat":"39.00653000","lon":"-9.27475000"},{"name":"Baraçal","native":null,"lat":"40.39357000","lon":"-7.08522000"},{"name":"Barcarena","native":null,"lat":"38.73250000","lon":"-9.28000000"},{"name":"Barreira","native":null,"lat":"40.91111111","lon":"-7.18638889"},{"name":"Beato","native":null,"lat":"38.73472222","lon":"-9.10583333"},{"name":"Belas","native":null,"lat":"38.76666667","lon":"-9.26666667"},{"name":"Bendada","native":null,"lat":"40.37083333","lon":"-7.25472222"},{"name":"Benespera","native":null,"lat":"40.44027778","lon":"-7.27638889"},{"name":"Benfica","native":null,"lat":"38.75111111","lon":"-9.20222222"},{"name":"Bismula","native":null,"lat":"40.44694444","lon":"-6.96444444"},{"name":"Bobadela","native":null,"lat":"38.80663000","lon":"-9.09731000"},{"name":"Bouça Cova","native":null,"lat":"40.70464000","lon":"-7.23830000"},{"name":"Brandoa","native":null,"lat":"38.76611111","lon":"-9.21444444"},{"name":"Bucelas","native":null,"lat":"38.90000000","lon":"-9.11666667"},{"name":"Buraca","native":null,"lat":"38.74222222","lon":"-9.20944444"},{"name":"Cabanas de Torres","native":null,"lat":"39.15631000","lon":"-9.06328000"},{"name":"Cabeça","native":null,"lat":"40.31916667","lon":"-7.73527778"},{"name":"Cacem","native":null,"lat":"38.77042000","lon":"-9.30809000"},{"name":"Cachoeiras","native":null,"lat":"38.98583333","lon":"-9.01638889"},{"name":"Cadafais","native":null,"lat":"39.00444444","lon":"-9.00416667"},{"name":"Cadafaz","native":null,"lat":"40.58472222","lon":"-7.36194444"},{"name":"Cadaval","native":null,"lat":"39.24621000","lon":"-9.06738000"},{"name":"Calhandriz","native":null,"lat":"38.92500000","lon":"-9.06777778"},{"name":"Camarate","native":null,"lat":"38.80358000","lon":"-9.12809000"},{"name":"Campelos","native":null,"lat":"39.20000000","lon":"-9.23333333"},{"name":"Campo Grande","native":null,"lat":"38.75694444","lon":"-9.15361111"},{"name":"Campolide","native":null,"lat":"38.72638889","lon":"-9.16333333"},{"name":"Caneças","native":null,"lat":"38.81666667","lon":"-9.23333333"},{"name":"Carapito","native":null,"lat":"40.76759000","lon":"-7.45447000"},{"name":"Carcavelos","native":null,"lat":"38.69220000","lon":"-9.33327000"},{"name":"Cardosas","native":null,"lat":"38.97722222","lon":"-9.04083333"},{"name":"Carmões","native":null,"lat":"39.05777778","lon":"-9.13416667"},{"name":"Carnaxide","native":null,"lat":"38.72666667","lon":"-9.24166667"},{"name":"Carnicães","native":null,"lat":"40.73333333","lon":"-7.31833333"},{"name":"Carnide","native":null,"lat":"38.76083333","lon":"-9.18361111"},{"name":"Carnota","native":null,"lat":"39.03361111","lon":"-9.07166667"},{"name":"Carragozela","native":null,"lat":"40.40572000","lon":"-7.76077000"},{"name":"Carrapichana","native":null,"lat":"40.56194444","lon":"-7.48694444"},{"name":"Carregado","native":null,"lat":"39.02334000","lon":"-8.96450000"},{"name":"Carvalhal","native":null,"lat":"40.88361111","lon":"-7.28361111"},{"name":"Carvoeira","native":null,"lat":"39.08055556","lon":"-9.16222222"},{"name":"Casal de Cambra","native":null,"lat":"38.80236000","lon":"-9.23188000"},{"name":"Casal de Cinza","native":null,"lat":"40.54416667","lon":"-7.16416667"},{"name":"Casal Vasco","native":null,"lat":"40.63792000","lon":"-7.55538000"},{"name":"Casas do Soeiro","native":null,"lat":"40.61888889","lon":"-7.40638889"},{"name":"Cascais","native":null,"lat":"38.69681000","lon":"-9.42147000"},{"name":"Castanheira","native":null,"lat":"40.57472222","lon":"-7.07944444"},{"name":"Castanheira do Ribatejo","native":null,"lat":"38.98333333","lon":"-8.96666667"},{"name":"Casteição","native":null,"lat":"40.88083333","lon":"-7.32583333"},{"name":"Casteleiro","native":null,"lat":"40.30222222","lon":"-7.23166667"},{"name":"Castelo (Lisbon)","native":null,"lat":"38.71361111","lon":"-9.13333333"},{"name":"Castelo Bom","native":null,"lat":"40.62027778","lon":"-6.90055556"},{"name":"Castelo Melhor","native":null,"lat":"41.02750000","lon":"-7.06500000"},{"name":"Castelo Rodrigo","native":null,"lat":"40.87555556","lon":"-6.96388889"},{"name":"Cativelos","native":null,"lat":"40.53083333","lon":"-7.68194444"},{"name":"Cavadoude","native":null,"lat":"40.58472222","lon":"-7.28666667"},{"name":"Caxias","native":null,"lat":"38.70000000","lon":"-9.28333333"},{"name":"Cedovim","native":null,"lat":"41.03333333","lon":"-7.31666667"},{"name":"Celorico da Beira","native":null,"lat":"40.63333333","lon":"-7.40000000"},{"name":"Cercal","native":null,"lat":"39.23388889","lon":"-8.99833333"},{"name":"Cerdeira","native":null,"lat":"40.51416667","lon":"-7.04666667"},{"name":"Cerejo","native":null,"lat":"40.72944444","lon":"-7.22361111"},{"name":"Charneca","native":null,"lat":"38.78527778","lon":"-9.14500000"},{"name":"Chãs","native":null,"lat":"40.98972222","lon":"-7.17027778"},{"name":"Cheleiros","native":null,"lat":"38.88972222","lon":"-9.32888889"},{"name":"Codesseiro","native":null,"lat":"40.65111111","lon":"-7.20500000"},{"name":"Cogula","native":null,"lat":"40.81277778","lon":"-7.26138889"},{"name":"Colares","native":null,"lat":"38.80206000","lon":"-9.46305000"},{"name":"Coração de Jesus","native":null,"lat":"38.72416667","lon":"-9.14500000"},{"name":"Coriscada","native":null,"lat":"40.86197000","lon":"-7.20372000"},{"name":"Cortiçada","native":null,"lat":"40.76500000","lon":"-7.54222222"},{"name":"Cortiçô","native":null,"lat":"40.66305556","lon":"-7.49472222"},{"name":"Cortiçô da Serra","native":null,"lat":"40.60124000","lon":"-7.43426000"},{"name":"Coruche","native":null,"lat":"40.79361111","lon":"-7.54083333"},{"name":"Corujeira","native":null,"lat":"40.50609000","lon":"-7.32803000"},{"name":"Cótimos","native":null,"lat":"40.82750000","lon":"-7.23972222"},{"name":"Cruz Quebrada - Dafundo","native":null,"lat":"38.70611111","lon":"-9.25055556"},{"name":"Custoias","native":null,"lat":"41.10527778","lon":"-7.32083333"},{"name":"Damaia","native":null,"lat":"38.74527778","lon":"-9.21833333"},{"name":"Dois Portos","native":null,"lat":"39.03840000","lon":"-9.18556000"},{"name":"Dornelas","native":null,"lat":"40.73105000","lon":"-7.55894000"},{"name":"Eirado","native":null,"lat":"40.77333333","lon":"-7.49000000"},{"name":"Encarnação","native":null,"lat":"39.03333333","lon":"-9.36805556"},{"name":"Enxara do Bispo","native":null,"lat":"38.99194444","lon":"-9.24083333"},{"name":"Ericeira","native":null,"lat":"38.96277778","lon":"-9.41527778"},{"name":"Ervas Tenras","native":null,"lat":"40.74055556","lon":"-7.18611111"},{"name":"Ervedosa","native":null,"lat":"40.84694444","lon":"-7.17611111"},{"name":"Escalhão","native":null,"lat":"40.94944444","lon":"-6.92611111"},{"name":"Estoril","native":null,"lat":"38.70571000","lon":"-9.39773000"},{"name":"Faia","native":null,"lat":"40.56055556","lon":"-7.31027778"},{"name":"Falagueira","native":null,"lat":"38.75903000","lon":"-9.21988000"},{"name":"Famalicão","native":null,"lat":"40.44361111","lon":"-7.37722222"},{"name":"Famões","native":null,"lat":"38.78333333","lon":"-9.21666667"},{"name":"Fanhões","native":null,"lat":"38.88111111","lon":"-9.15250000"},{"name":"Fernão Joanes","native":null,"lat":"40.48694444","lon":"-7.35527778"},{"name":"Fiães","native":null,"lat":"40.73305556","lon":"-7.37305556"},{"name":"Figueira de Castelo Rodrigo","native":null,"lat":"40.90000000","lon":"-6.96666667"},{"name":"Figueira do Guincho","native":null,"lat":"38.75000000","lon":"-9.46666667"},{"name":"Figueiró da Granja","native":null,"lat":"40.62805556","lon":"-7.49916667"},{"name":"Figueiró da Serra","native":null,"lat":"40.54055556","lon":"-7.48888889"},{"name":"Figueiros","native":null,"lat":"39.27946000","lon":"-9.05083000"},{"name":"Fóios","native":null,"lat":"40.28666667","lon":"-6.89250000"},{"name":"Folgosinho","native":null,"lat":"40.50944444","lon":"-7.51388889"},{"name":"Folhadosa","native":null,"lat":"40.37944444","lon":"-7.78472222"},{"name":"Fontanelas","native":null,"lat":"38.85000000","lon":"-9.43333333"},{"name":"Fonte Longa","native":null,"lat":"41.01305556","lon":"-7.23361111"},{"name":"Forninhos","native":null,"lat":"40.70472222","lon":"-7.55416667"},{"name":"Forno Telheiro","native":null,"lat":"40.67333333","lon":"-7.39777778"},{"name":"Fornos de Algodres","native":null,"lat":"40.61666667","lon":"-7.53333333"},{"name":"Forte da Casa","native":null,"lat":"38.87391000","lon":"-9.05216000"},{"name":"Freches","native":null,"lat":"40.73166667","lon":"-7.34638889"},{"name":"Freineda","native":null,"lat":"40.58305556","lon":"-6.89111111"},{"name":"Freiria","native":null,"lat":"39.02739000","lon":"-9.31995000"},{"name":"Freixeda do Torrão","native":null,"lat":"40.89027778","lon":"-7.03222222"},{"name":"Freixedas","native":null,"lat":"40.69194444","lon":"-7.16305556"},{"name":"Freixo","native":null,"lat":"40.61861111","lon":"-7.01027778"},{"name":"Freixo de Numão","native":null,"lat":"41.06666667","lon":"-7.21666667"},{"name":"Frielas","native":null,"lat":"38.82583333","lon":"-9.14444444"},{"name":"Gagos","native":null,"lat":"40.58388889","lon":"-7.11472222"},{"name":"Girabolhos","native":null,"lat":"40.50944444","lon":"-7.73666667"},{"name":"Gonçalo","native":null,"lat":"40.41666667","lon":"-7.35000000"},{"name":"Gonçalo Bocas","native":null,"lat":"40.57666667","lon":"-7.17750000"},{"name":"Gouveia","native":null,"lat":"40.50000000","lon":"-7.60000000"},{"name":"Graça","native":null,"lat":"38.71722222","lon":"-9.13083333"},{"name":"Gradil","native":null,"lat":"38.98222222","lon":"-9.28083333"},{"name":"Gradiz","native":null,"lat":"40.85944444","lon":"-7.52861111"},{"name":"Granja","native":null,"lat":"40.75201000","lon":"-7.20428000"},{"name":"Guarda","native":null,"lat":"40.53638889","lon":"-7.26833333"},{"name":"Guilheiro","native":null,"lat":"40.89805556","lon":"-7.40972222"},{"name":"Horta","native":null,"lat":"41.06777778","lon":"-7.31055556"},{"name":"Igreja Nova","native":null,"lat":"38.91694444","lon":"-9.31944444"},{"name":"Infias","native":null,"lat":"40.63000000","lon":"-7.53944444"},{"name":"Jarmelo São Miguel","native":null,"lat":"40.60040000","lon":"-7.14915000"},{"name":"Jarmelo São Pedro","native":null,"lat":"40.59447000","lon":"-7.13016000"},{"name":"João Antão","native":null,"lat":"40.46443000","lon":"-7.23940000"},{"name":"Junça","native":null,"lat":"40.68138889","lon":"-6.88555556"},{"name":"Juncais","native":null,"lat":"40.60944444","lon":"-7.50750000"},{"name":"Lagarinhos","native":null,"lat":"40.48583333","lon":"-7.66944444"},{"name":"Lajeosa","native":null,"lat":"40.34353000","lon":"-6.81621000"},{"name":"Lajeosa do Mondego","native":null,"lat":"40.62750000","lon":"-7.33750000"},{"name":"Lajes","native":null,"lat":"40.48361111","lon":"-7.71638889"},{"name":"Lamas","native":null,"lat":"39.21114000","lon":"-9.06151000"},{"name":"Lamegal","native":null,"lat":"40.66500000","lon":"-7.07972222"},{"name":"Lameiras","native":null,"lat":"40.71138889","lon":"-7.10444444"},{"name":"Lapa","native":null,"lat":"38.71189000","lon":"-9.16007000"},{"name":"Lapa Dos Dinheiros","native":null,"lat":"40.37888889","lon":"-7.70944444"},{"name":"Leomil","native":null,"lat":"40.63527778","lon":"-6.96416667"},{"name":"Linda-a-Velha","native":null,"lat":"38.71446000","lon":"-9.24220000"},{"name":"Linhares (Celorico da Beira)","native":null,"lat":"40.54083333","lon":"-7.46111111"},{"name":"Lisbon","native":null,"lat":"38.71666667","lon":"-9.16666667"},{"name":"Longroiva","native":null,"lat":"40.98103000","lon":"-7.20334000"},{"name":"Loriga","native":null,"lat":"40.31666667","lon":"-7.68333333"},{"name":"Loures","native":null,"lat":"38.83333333","lon":"-9.16666667"},{"name":"Lourinhã","native":null,"lat":"39.25000000","lon":"-9.31666667"},{"name":"Lousa","native":null,"lat":"38.89171000","lon":"-9.20972000"},{"name":"Lumiar","native":null,"lat":"38.76527778","lon":"-9.15861111"},{"name":"Maçainhas","native":null,"lat":"40.53666667","lon":"-7.30250000"},{"name":"Maçal do Chão","native":null,"lat":"40.69171000","lon":"-7.29178000"},{"name":"Maceira","native":null,"lat":"40.68555556","lon":"-7.47166667"},{"name":"Maçussa","native":null,"lat":"39.19472222","lon":"-8.86722222"},{"name":"Madalena","native":null,"lat":"38.71000000","lon":"-9.13472222"},{"name":"Mafra","native":null,"lat":"38.93333333","lon":"-9.33333333"},{"name":"Malcata","native":null,"lat":"40.29990000","lon":"-7.06147000"},{"name":"Malhada Sorda","native":null,"lat":"40.53638889","lon":"-6.91444444"},{"name":"Malpartida","native":null,"lat":"40.76000000","lon":"-6.86666667"},{"name":"Malveira","native":null,"lat":"38.93059000","lon":"-9.26165000"},{"name":"Mangualde da Serra","native":null,"lat":"40.46638889","lon":"-7.62166667"},{"name":"Manigoto","native":null,"lat":"40.70833333","lon":"-7.07583333"},{"name":"Manique do Intendente","native":null,"lat":"39.22111111","lon":"-8.89361111"},{"name":"Manteigas","native":null,"lat":"40.40000000","lon":"-7.53333333"},{"name":"Manteigas (São Pedro)","native":null,"lat":"40.36611111","lon":"-7.54611111"},{"name":"Marialva","native":null,"lat":"40.91000000","lon":"-7.23166667"},{"name":"Marmeleiro","native":null,"lat":"40.46861111","lon":"-7.11416667"},{"name":"Marteleira","native":null,"lat":"39.21305556","lon":"-9.28333333"},{"name":"Mártires","native":null,"lat":"38.70861111","lon":"-9.14166667"},{"name":"Marvila","native":null,"lat":"38.74527778","lon":"-9.10416667"},{"name":"Massamá","native":null,"lat":"38.75564000","lon":"-9.28427000"},{"name":"Mata de Lobos","native":null,"lat":"40.91691000","lon":"-6.88804000"},{"name":"Matacães","native":null,"lat":"39.09277778","lon":"-9.21222222"},{"name":"Matança","native":null,"lat":"40.67888889","lon":"-7.52888889"},{"name":"Maxial","native":null,"lat":"39.14301000","lon":"-9.16898000"},{"name":"Meca","native":null,"lat":"39.08972222","lon":"-9.02555556"},{"name":"Mêda","native":null,"lat":"40.96666667","lon":"-7.26666667"},{"name":"Meios","native":null,"lat":"40.49361111","lon":"-7.35916667"},{"name":"Melo","native":null,"lat":"40.51944444","lon":"-7.53361111"},{"name":"Mem Martins","native":null,"lat":"38.79443000","lon":"-9.34284000"},{"name":"Mercês","native":null,"lat":"38.71611111","lon":"-9.14888889"},{"name":"Mesquitela","native":null,"lat":"40.58805556","lon":"-7.48944444"},{"name":"Milharado","native":null,"lat":"38.94722222","lon":"-9.19916667"},{"name":"Mina","native":null,"lat":"38.76166667","lon":"-9.23611111"},{"name":"Minhocal","native":null,"lat":"40.68944444","lon":"-7.34666667"},{"name":"Mira-Sintra","native":null,"lat":"38.78417000","lon":"-9.30148000"},{"name":"Miragaia","native":null,"lat":"39.23583333","lon":"-9.26500000"},{"name":"Miuzela","native":null,"lat":"40.51055556","lon":"-7.00500000"},{"name":"Mizarela","native":null,"lat":"40.55746000","lon":"-7.34107000"},{"name":"Moimenta da Serra","native":null,"lat":"40.47359000","lon":"-7.63839000"},{"name":"Moimentinha","native":null,"lat":"40.74555556","lon":"-7.22777778"},{"name":"Moita","native":null,"lat":"40.30000000","lon":"-7.19750000"},{"name":"Moita dos Ferreiros","native":null,"lat":"39.24825000","lon":"-9.22355000"},{"name":"Moledo","native":null,"lat":"39.28388889","lon":"-9.25722222"},{"name":"Monte Abraão","native":null,"lat":"38.75840000","lon":"-9.26527000"},{"name":"Monte Estoril","native":null,"lat":"38.70636000","lon":"-9.40595000"},{"name":"Monte Redondo","native":null,"lat":"39.11500000","lon":"-9.20444444"},{"name":"Montelavar","native":null,"lat":"38.86968000","lon":"-9.31581000"},{"name":"Moreira de Rei","native":null,"lat":"40.83915000","lon":"-7.32316000"},{"name":"Mós","native":null,"lat":"41.11306000","lon":"-7.19717000"},{"name":"Moscavide","native":null,"lat":"38.77929000","lon":"-9.10222000"},{"name":"Murça","native":null,"lat":"41.10055556","lon":"-7.23138889"},{"name":"Muxagata","native":null,"lat":"41.03611111","lon":"-7.15000000"},{"name":"Nabais","native":null,"lat":"40.52000000","lon":"-7.55555556"},{"name":"Nave","native":null,"lat":"40.39821000","lon":"-6.96030000"},{"name":"Nave de Haver","native":null,"lat":"40.52166667","lon":"-6.83416667"},{"name":"Nespereira","native":null,"lat":"40.51722222","lon":"-7.60972222"},{"name":"Nossa Senhora de Fátima","native":null,"lat":"38.73916667","lon":"-9.15083333"},{"name":"Numão","native":null,"lat":"41.09750000","lon":"-7.29111111"},{"name":"Odivelas","native":null,"lat":"38.80000000","lon":"-9.18333333"},{"name":"Odivelas Municipality","native":null,"lat":"38.79705000","lon":"-9.19108000"},{"name":"Oeiras","native":null,"lat":"38.69704444","lon":"-9.30165278"},{"name":"Oeiras e São Julião da Barra","native":null,"lat":"38.69722222","lon":"-9.30833333"},{"name":"Olhalvo","native":null,"lat":"39.09861111","lon":"-9.06388889"},{"name":"Olival de Basto","native":null,"lat":"38.79083333","lon":"-9.16722222"},{"name":"Olival do Basto","native":null,"lat":"38.79083333","lon":"-9.16611111"},{"name":"Ota","native":null,"lat":"39.11000000","lon":"-8.98972222"},{"name":"Outeiro da Cabeça","native":null,"lat":"39.19222222","lon":"-9.18222222"},{"name":"Outeiro de Gatos","native":null,"lat":"40.95222222","lon":"-7.30222222"},{"name":"Paço de Arcos","native":null,"lat":"38.69500000","lon":"-9.29361111"},{"name":"Paços da Serra","native":null,"lat":"40.45972222","lon":"-7.65055556"},{"name":"Painho","native":null,"lat":"39.30222222","lon":"-9.04944444"},{"name":"Pala","native":null,"lat":"40.76305556","lon":"-7.15111111"},{"name":"Palhais","native":null,"lat":"40.81666667","lon":"-7.43000000"},{"name":"Panoias de Cima","native":null,"lat":"40.49777778","lon":"-7.23277778"},{"name":"Parada","native":null,"lat":"40.53972222","lon":"-7.03777778"},{"name":"Paranhos","native":null,"lat":"40.48635000","lon":"-7.79454000"},{"name":"Parede","native":null,"lat":"38.69328000","lon":"-9.35695000"},{"name":"Pega","native":null,"lat":"40.42861111","lon":"-7.14444444"},{"name":"Pena","native":null,"lat":"38.72138889","lon":"-9.14000000"},{"name":"Pena Lobo","native":null,"lat":"40.39277778","lon":"-7.20388889"},{"name":"Pena Verde","native":null,"lat":"40.72833333","lon":"-7.50527778"},{"name":"Penha de Águia","native":null,"lat":"40.86636000","lon":"-7.06814000"},{"name":"Penha de França","native":null,"lat":"38.73000000","lon":"-9.13166667"},{"name":"Pêra do Moço","native":null,"lat":"40.61305556","lon":"-7.20972222"},{"name":"Peral","native":null,"lat":"39.26166667","lon":"-9.07444444"},{"name":"Pereiro","native":null,"lat":"40.73500000","lon":"-7.01305556"},{"name":"Pereiro de Palhacana","native":null,"lat":"39.04277778","lon":"-9.10888889"},{"name":"Pêro Moniz","native":null,"lat":"39.22138889","lon":"-9.12361111"},{"name":"Pero Pinheiro","native":null,"lat":"38.83990000","lon":"-9.32066000"},{"name":"Peva","native":null,"lat":"40.66472222","lon":"-6.99083333"},{"name":"Pinhanços","native":null,"lat":"40.46638889","lon":"-7.68305556"},{"name":"Pinheiro","native":null,"lat":"40.80083333","lon":"-7.59833333"},{"name":"Pinhel","native":null,"lat":"40.78333333","lon":"-7.06666667"},{"name":"Pínzio","native":null,"lat":"40.60250000","lon":"-7.06527778"},{"name":"Poço do Canto","native":null,"lat":"40.99944444","lon":"-7.26833333"},{"name":"Pomares","native":null,"lat":"40.64305556","lon":"-7.13805556"},{"name":"Ponte do Rol","native":null,"lat":"39.09277778","lon":"-9.31916667"},{"name":"Pontinha","native":null,"lat":"38.77700000","lon":"-9.20377000"},{"name":"Portela","native":null,"lat":"38.78277778","lon":"-9.11111111"},{"name":"Porto da Carne","native":null,"lat":"40.60527778","lon":"-7.29222222"},{"name":"Porto Salvo","native":null,"lat":"38.71722222","lon":"-9.29916667"},{"name":"Pousada","native":null,"lat":"40.54722222","lon":"-7.12611111"},{"name":"Pousafoles do Bispo","native":null,"lat":"40.41222222","lon":"-7.17916667"},{"name":"Póvoa de Santa Iria","native":null,"lat":"38.86111111","lon":"-9.06444444"},{"name":"Póvoa de Santo Adrião","native":null,"lat":"38.80016000","lon":"-9.16395000"},{"name":"Póvoa do Concelho","native":null,"lat":"40.75972222","lon":"-7.26638889"},{"name":"Prados","native":null,"lat":"40.56138889","lon":"-7.37666667"},{"name":"Prazeres","native":null,"lat":"38.70888889","lon":"-9.16888889"},{"name":"Prior Velho","native":null,"lat":"38.79194444","lon":"-9.12083333"},{"name":"Prova","native":null,"lat":"40.91250000","lon":"-7.34194444"},{"name":"Quadrazais","native":null,"lat":"40.32472222","lon":"-6.99833333"},{"name":"Queijas","native":null,"lat":"38.72236000","lon":"-9.26593000"},{"name":"Queiriz","native":null,"lat":"40.73596000","lon":"-7.44999000"},{"name":"Queluz","native":null,"lat":"38.75657000","lon":"-9.25451000"},{"name":"Quintã de Pêro Martins","native":null,"lat":"40.88194444","lon":"-7.08305556"},{"name":"Quintas de São Bartolomeu","native":null,"lat":"40.37138889","lon":"-7.09861111"},{"name":"Rabaçal","native":null,"lat":"40.86250000","lon":"-7.24941000"},{"name":"Ramada","native":null,"lat":"38.80361111","lon":"-9.19111111"},{"name":"Ramalhal","native":null,"lat":"39.14472222","lon":"-9.23222222"},{"name":"Ramela","native":null,"lat":"40.47777778","lon":"-7.25888889"},{"name":"Ranhados","native":null,"lat":"40.99527778","lon":"-7.32944444"},{"name":"Rapa","native":null,"lat":"40.58416667","lon":"-7.34555556"},{"name":"Rapoula do Côa","native":null,"lat":"40.42111111","lon":"-7.04750000"},{"name":"Ratoeira","native":null,"lat":"40.64027778","lon":"-7.35361111"},{"name":"Reboleira","native":null,"lat":"38.75083333","lon":"-9.23027778"},{"name":"Reboleiro","native":null,"lat":"40.83250000","lon":"-7.41888889"},{"name":"Rebolosa","native":null,"lat":"40.42361111","lon":"-6.91111111"},{"name":"Reguengo Grande","native":null,"lat":"39.28722222","lon":"-9.21472222"},{"name":"Reigada","native":null,"lat":"40.80444444","lon":"-6.94805556"},{"name":"Rendo","native":null,"lat":"40.37972222","lon":"-7.04444444"},{"name":"Ribafria","native":null,"lat":"39.06194444","lon":"-9.09472222"},{"name":"Ribamar","native":null,"lat":"39.20250000","lon":"-9.33250000"},{"name":"Ribamondego","native":null,"lat":"40.56805556","lon":"-7.58138889"},{"name":"Ribeira Dos Carinhos","native":null,"lat":"40.62138889","lon":"-7.14222222"},{"name":"Rio de Mel","native":null,"lat":"40.80777778","lon":"-7.39361111"},{"name":"Rio de Mouro","native":null,"lat":"38.76889000","lon":"-9.33273000"},{"name":"Rio Torto","native":null,"lat":"40.50916667","lon":"-7.65694444"},{"name":"Rochoso","native":null,"lat":"40.51638889","lon":"-7.09333333"},{"name":"Runa","native":null,"lat":"39.06527778","lon":"-9.20888889"},{"name":"Ruvina","native":null,"lat":"40.41500000","lon":"-7.01055556"},{"name":"Sabugal","native":null,"lat":"40.35000000","lon":"-7.08333333"},{"name":"Sabugueiro","native":null,"lat":"40.40194444","lon":"-7.63972222"},{"name":"Sacavém","native":null,"lat":"38.79442000","lon":"-9.10533000"},{"name":"Sacramento","native":null,"lat":"38.71222222","lon":"-9.14000000"},{"name":"Safurdão","native":null,"lat":"40.63694444","lon":"-7.06888889"},{"name":"Salgueirais","native":null,"lat":"40.57445000","lon":"-7.42247000"},{"name":"Sameice","native":null,"lat":"40.43444444","lon":"-7.77611111"},{"name":"Sameiro","native":null,"lat":"40.40916667","lon":"-7.49000000"},{"name":"Sandomil","native":null,"lat":"40.35805556","lon":"-7.78277778"},{"name":"Santa Bárbara","native":null,"lat":"39.21000000","lon":"-9.31388889"},{"name":"Santa Catarina","native":null,"lat":"38.71138889","lon":"-9.14805556"},{"name":"Santa Comba","native":null,"lat":"40.45055556","lon":"-7.71472222"},{"name":"Santa Engrácia","native":null,"lat":"38.71916667","lon":"-9.11972222"},{"name":"Santa Eufémia","native":null,"lat":"40.79833333","lon":"-7.18083333"},{"name":"Santa Eulália","native":null,"lat":"40.41439000","lon":"-7.78717000"},{"name":"Santa Iria da Azóia","native":null,"lat":"38.84629000","lon":"-9.08748000"},{"name":"Santa Iria de Azoia","native":null,"lat":"38.84638889","lon":"-9.08805556"},{"name":"Santa Isabel","native":null,"lat":"38.71861111","lon":"-9.15833333"},{"name":"Santa Justa","native":null,"lat":"38.71555556","lon":"-9.13638889"},{"name":"Santa Maria","native":null,"lat":"40.42388889","lon":"-7.52138889"},{"name":"Santa Maria de Belém","native":null,"lat":"38.69911000","lon":"-9.20867000"},{"name":"Santa Maria do Castelo e São Miguel","native":null,"lat":"39.10864000","lon":"-9.23907000"},{"name":"Santa Maria dos Olivais","native":null,"lat":"38.76989000","lon":"-9.12073000"},{"name":"Santa Maria e São Miguel","native":null,"lat":"38.80083333","lon":"-9.37944444"},{"name":"Santa Marinha","native":null,"lat":"40.45027778","lon":"-7.66333333"},{"name":"Santana da Azinha","native":null,"lat":"40.47361111","lon":"-7.20916667"},{"name":"Santiago","native":null,"lat":"40.42388889","lon":"-7.72916667"},{"name":"Santiago dos Velhos","native":null,"lat":"38.94166667","lon":"-9.10361111"},{"name":"Santo Antão do Tojal","native":null,"lat":"38.85361111","lon":"-9.14305556"},{"name":"Santo António dos Cavaleiros","native":null,"lat":"38.81166667","lon":"-9.16111111"},{"name":"Santo Condestável","native":null,"lat":"38.71527778","lon":"-9.16694444"},{"name":"Santo Estêvão","native":null,"lat":"39.04222222","lon":"-9.01583333"},{"name":"Santo Estêvão das Galés","native":null,"lat":"38.89008000","lon":"-9.25066000"},{"name":"Santo Isidoro","native":null,"lat":"38.99361111","lon":"-9.39861111"},{"name":"Santo Quintino","native":null,"lat":"39.00611111","lon":"-9.14972222"},{"name":"Santos-o-Velho","native":null,"lat":"38.70694444","lon":"-9.15638889"},{"name":"São Bartolomeu","native":null,"lat":"39.27511000","lon":"-9.27885000"},{"name":"São Bartolomeu dos Galegos","native":null,"lat":"39.27583333","lon":"-9.27944444"},{"name":"São Brás","native":null,"lat":"38.76750000","lon":"-9.23305556"},{"name":"São Cristóvão e São Lourenço","native":null,"lat":"38.71277778","lon":"-9.13555556"},{"name":"São Domingos de Benfica","native":null,"lat":"38.74361111","lon":"-9.17000000"},{"name":"São Domingos de Rana","native":null,"lat":"38.70123000","lon":"-9.32760000"},{"name":"São Francisco Xavier","native":null,"lat":"38.70722222","lon":"-9.21722222"},{"name":"São João","native":null,"lat":"38.72888889","lon":"-9.12277778"},{"name":"São João da Talha","native":null,"lat":"38.82583333","lon":"-9.09222222"},{"name":"São João das Lampas","native":null,"lat":"38.87000000","lon":"-9.42111111"},{"name":"São João de Brito","native":null,"lat":"38.75500000","lon":"-9.13777778"},{"name":"São João de Deus","native":null,"lat":"38.74027778","lon":"-9.13777778"},{"name":"São João Dos Montes","native":null,"lat":"38.95166000","lon":"-9.05449000"},{"name":"São Jorge de Arroios","native":null,"lat":"38.72888889","lon":"-9.13888889"},{"name":"São José","native":null,"lat":"38.71805556","lon":"-9.14250000"},{"name":"São Julião","native":null,"lat":"40.48757000","lon":"-7.59498000"},{"name":"São Julião do Tojal","native":null,"lat":"38.85805556","lon":"-9.13555556"},{"name":"São Mamede","native":null,"lat":"38.72023000","lon":"-9.15298000"},{"name":"São Marcos","native":null,"lat":"38.75624000","lon":"-9.29731000"},{"name":"São Martinho","native":null,"lat":"40.44305556","lon":"-7.67194444"},{"name":"São Miguel","native":null,"lat":"38.71111111","lon":"-9.12944444"},{"name":"São Miguel da Guarda","native":null,"lat":"40.55555556","lon":"-7.24611111"},{"name":"São Miguel de Alcainça","native":null,"lat":"38.92111111","lon":"-9.29583333"},{"name":"São Nicolau","native":null,"lat":"38.70750000","lon":"-9.13666667"},{"name":"São Paio","native":null,"lat":"40.51527778","lon":"-7.58222222"},{"name":"São Paulo","native":null,"lat":"38.70760000","lon":"-9.14707000"},{"name":"São Pedro","native":null,"lat":"40.63222222","lon":"-7.38138889"},{"name":"São Pedro da Cadeira","native":null,"lat":"39.06972222","lon":"-9.37166667"},{"name":"São Pedro de Penaferrim","native":null,"lat":"38.76947000","lon":"-9.38963000"},{"name":"São Pedro de Rio Seco","native":null,"lat":"40.66194444","lon":"-6.83916667"},{"name":"São Romão","native":null,"lat":"40.40194444","lon":"-7.71694444"},{"name":"São Sebastião da Pedreira","native":null,"lat":"38.73083333","lon":"-9.14916667"},{"name":"São Vicente","native":null,"lat":"40.53979000","lon":"-7.23536000"},{"name":"São Vicente de Fora","native":null,"lat":"38.71583333","lon":"-9.12416667"},{"name":"Sapataria","native":null,"lat":"38.97188000","lon":"-9.20195000"},{"name":"Sazes da Beira","native":null,"lat":"40.34888889","lon":"-7.73527778"},{"name":"Sé","native":null,"lat":"40.53861111","lon":"-7.26916667"},{"name":"Sebadelhe","native":null,"lat":"41.05222222","lon":"-7.26972222"},{"name":"Sebadelhe da Serra","native":null,"lat":"40.87111111","lon":"-7.39833333"},{"name":"Seia","native":null,"lat":"40.42027778","lon":"-7.70333333"},{"name":"Seixas","native":null,"lat":"41.11196000","lon":"-7.25251000"},{"name":"Seixo do Côa","native":null,"lat":"40.46305556","lon":"-7.02666667"},{"name":"Sequeira","native":null,"lat":"40.55361111","lon":"-7.22583333"},{"name":"Sequeiros","native":null,"lat":"40.83714000","lon":"-7.49803000"},{"name":"Silveira","native":null,"lat":"39.11111111","lon":"-9.36416667"},{"name":"Sintra","native":null,"lat":"38.79736111","lon":"-9.39041667"},{"name":"Sintra (town)","native":null,"lat":"38.81439000","lon":"-9.38370000"},{"name":"Sobral da Abelheira","native":null,"lat":"38.99833333","lon":"-9.32916667"},{"name":"Sobral da Serra","native":null,"lat":"40.61916667","lon":"-7.27972222"},{"name":"Sobral de Monte Agraço","native":null,"lat":"39.01666667","lon":"-9.15000000"},{"name":"Sobral Pichorro","native":null,"lat":"40.69073000","lon":"-7.45598000"},{"name":"Sobralinho","native":null,"lat":"38.91750000","lon":"-9.02611111"},{"name":"Socorro","native":null,"lat":"38.71666667","lon":"-9.13444444"},{"name":"Sortelha","native":null,"lat":"40.33138889","lon":"-7.21138889"},{"name":"Souro Pires","native":null,"lat":"40.74500000","lon":"-7.12472222"},{"name":"Souto","native":null,"lat":"40.35666667","lon":"-6.95833333"},{"name":"Souto de Aguiar da Beira","native":null,"lat":"40.81075000","lon":"-7.49244000"},{"name":"Souto Maior","native":null,"lat":"40.79686000","lon":"-7.31410000"},{"name":"Tamanhos","native":null,"lat":"40.76166667","lon":"-7.31555556"},{"name":"Teixeira","native":null,"lat":"40.25333333","lon":"-7.74166667"},{"name":"Terrenho","native":null,"lat":"40.86611111","lon":"-7.35416667"},{"name":"Terrugem","native":null,"lat":"38.85111111","lon":"-9.37472222"},{"name":"Torre do Terrenho","native":null,"lat":"40.88888889","lon":"-7.35944444"},{"name":"Torres","native":null,"lat":"40.74833333","lon":"-7.31916667"},{"name":"Torres Vedras","native":null,"lat":"39.08333333","lon":"-9.26666667"},{"name":"Torrozelo","native":null,"lat":"40.38611111","lon":"-7.76027778"},{"name":"Touça","native":null,"lat":"41.04722222","lon":"-7.23388889"},{"name":"Tourais","native":null,"lat":"40.47138889","lon":"-7.75083333"},{"name":"Trancoso","native":null,"lat":"40.78330000","lon":"-7.35000000"},{"name":"Travancinha","native":null,"lat":"40.42234000","lon":"-7.82175000"},{"name":"Triana","native":null,"lat":"39.06988000","lon":"-8.98660000"},{"name":"Trinta","native":null,"lat":"40.50444444","lon":"-7.35527778"},{"name":"Turcifal","native":null,"lat":"39.03578000","lon":"-9.26017000"},{"name":"Unhos","native":null,"lat":"38.82583333","lon":"-9.12138889"},{"name":"Valbom","native":null,"lat":"40.78055556","lon":"-7.12888889"},{"name":"Valdujo","native":null,"lat":"40.84500000","lon":"-7.26694444"},{"name":"Vale da Mula","native":null,"lat":"40.70361111","lon":"-6.82361111"},{"name":"Vale de Amoreira","native":null,"lat":"40.41416667","lon":"-7.44138889"},{"name":"Vale de Azares","native":null,"lat":"40.60492000","lon":"-7.36421000"},{"name":"Vale de Espinho","native":null,"lat":"40.29694444","lon":"-6.95055556"},{"name":"Vale de Estrela","native":null,"lat":"40.49944444","lon":"-7.30777778"},{"name":"Vale do Paraíso","native":null,"lat":"39.11555556","lon":"-8.88583333"},{"name":"Vale do Seixo","native":null,"lat":"40.79291000","lon":"-7.27266000"},{"name":"Vale Flor","native":null,"lat":"40.91277778","lon":"-7.28222222"},{"name":"Valezim","native":null,"lat":"40.35889000","lon":"-7.70831000"},{"name":"Valhelhas","native":null,"lat":"40.40722222","lon":"-7.40305556"},{"name":"Valverde","native":null,"lat":"40.78416667","lon":"-7.52194444"},{"name":"Várzea de Meruge","native":null,"lat":"40.39527778","lon":"-7.78361111"},{"name":"Vascoveiro","native":null,"lat":"40.73416667","lon":"-7.06972222"},{"name":"Vela","native":null,"lat":"40.43585000","lon":"-7.30369000"},{"name":"Velosa","native":null,"lat":"40.65250000","lon":"-7.29000000"},{"name":"Venda do Pinheiro","native":null,"lat":"38.92527778","lon":"-9.23222222"},{"name":"Venda Nova","native":null,"lat":"38.75422000","lon":"-9.21452000"},{"name":"Venteira","native":null,"lat":"38.75944444","lon":"-9.24111111"},{"name":"Ventosa","native":null,"lat":"39.12694444","lon":"-9.08416667"},{"name":"Vermelha","native":null,"lat":"39.27277778","lon":"-9.10555556"},{"name":"Vermiosa","native":null,"lat":"40.82722222","lon":"-6.87750000"},{"name":"Vialonga","native":null,"lat":"38.87094000","lon":"-9.06823000"},{"name":"Vide","native":null,"lat":"40.29444444","lon":"-7.78416667"},{"name":"Vide Entre Vinhas","native":null,"lat":"40.59722222","lon":"-7.40416667"},{"name":"Videmonte","native":null,"lat":"40.51388889","lon":"-7.39000000"},{"name":"Vila Boa","native":null,"lat":"40.38305556","lon":"-7.00388889"},{"name":"Vila Boa do Mondego","native":null,"lat":"40.62694444","lon":"-7.43777778"},{"name":"Vila Cortês da Serra","native":null,"lat":"40.55083333","lon":"-7.52944444"},{"name":"Vila Cortês do Mondego","native":null,"lat":"40.60593000","lon":"-7.31236000"},{"name":"Vila Cova à Coelheira","native":null,"lat":"40.38333333","lon":"-7.73416667"},{"name":"Vila do Touro","native":null,"lat":"40.41638889","lon":"-7.10555556"},{"name":"Vila Fernando","native":null,"lat":"40.49472222","lon":"-7.15444444"},{"name":"Vila Franca da Serra","native":null,"lat":"40.58722222","lon":"-7.53944444"},{"name":"Vila Franca das Naves","native":null,"lat":"40.72392000","lon":"-7.26206000"},{"name":"Vila Franca de Xira","native":null,"lat":"38.95000000","lon":"-8.98333333"},{"name":"Vila Franca do Deão","native":null,"lat":"40.65277778","lon":"-7.24222222"},{"name":"Vila Franca do Rosário","native":null,"lat":"38.97472222","lon":"-9.25611111"},{"name":"Vila Garcia","native":null,"lat":"40.79414000","lon":"-7.23318000"},{"name":"Vila Nova da Rainha","native":null,"lat":"39.03722222","lon":"-8.93361111"},{"name":"Vila Nova de Foz Côa","native":null,"lat":"41.08333333","lon":"-7.13333333"},{"name":"Vila Nova de São Pedro","native":null,"lat":"39.21980000","lon":"-8.84037000"},{"name":"Vila Nova de Tazem","native":null,"lat":"40.50250000","lon":"-7.70305556"},{"name":"Vila Ruiva","native":null,"lat":"40.56944444","lon":"-7.51416667"},{"name":"Vila Soeiro do Chão","native":null,"lat":"40.61036000","lon":"-7.48202000"},{"name":"Vila Verde","native":null,"lat":"39.15489000","lon":"-9.11512000"},{"name":"Vila Verde dos Francos","native":null,"lat":"39.15444444","lon":"-9.11333333"},{"name":"Vilar","native":null,"lat":"39.18671000","lon":"-9.10687000"},{"name":"Vilar de Amargo","native":null,"lat":"40.94636000","lon":"-7.00157000"},{"name":"Vilar Formoso","native":null,"lat":"40.61382000","lon":"-6.83493000"},{"name":"Vilar Maior","native":null,"lat":"40.48473000","lon":"-6.91999000"},{"name":"Vilar Torpim","native":null,"lat":"40.82555556","lon":"-6.95194444"},{"name":"Vilares","native":null,"lat":"40.72062000","lon":"-7.28348000"},{"name":"Vimeiro","native":null,"lat":"39.17777778","lon":"-9.31777778"},{"name":"Vinhó","native":null,"lat":"40.49583333","lon":"-7.62694444"}]},{"name":"Leiria","native":null,"cities":[{"name":"A dos Francos","native":null,"lat":"39.32272000","lon":"-9.04743000"},{"name":"Alcobaça","native":null,"lat":"39.55223000","lon":"-8.97749000"},{"name":"Alfeizerão","native":null,"lat":"39.49971000","lon":"-9.10341000"},{"name":"Aljubarrota","native":null,"lat":"39.56715000","lon":"-8.92925000"},{"name":"Alvaiázere","native":null,"lat":"39.81951000","lon":"-8.38858000"},{"name":"Alvorninha","native":null,"lat":"39.38224000","lon":"-9.03674000"},{"name":"Amor","native":null,"lat":"39.80404000","lon":"-8.85984000"},{"name":"Ansião","native":null,"lat":"39.93424000","lon":"-8.42045000"},{"name":"Atouguia da Baleia","native":null,"lat":"39.33814000","lon":"-9.32630000"},{"name":"Batalha","native":null,"lat":"39.66025000","lon":"-8.82475000"},{"name":"Benedita","native":null,"lat":"39.42470000","lon":"-8.96996000"},{"name":"Bombarral","native":null,"lat":"39.26723000","lon":"-9.15795000"},{"name":"Caldas da Rainha","native":null,"lat":"39.40326000","lon":"-9.13839000"},{"name":"Caranguejeira","native":null,"lat":"39.74619000","lon":"-8.70740000"},{"name":"Castanheira de Pêra","native":null,"lat":"40.00717000","lon":"-8.21048000"},{"name":"Cela","native":null,"lat":"39.54075000","lon":"-9.03449000"},{"name":"Famalicão","native":null,"lat":"39.53642000","lon":"-9.08308000"},{"name":"Ferrel","native":null,"lat":"39.36398000","lon":"-9.31541000"},{"name":"Figueiró Dos Vinhos","native":null,"lat":"39.90617000","lon":"-8.27753000"},{"name":"Foz do Arelho","native":null,"lat":"39.43672000","lon":"-9.21374000"},{"name":"Leiria","native":null,"lat":"39.74362000","lon":"-8.80705000"},{"name":"Louriçal","native":null,"lat":"40.00390000","lon":"-8.73736000"},{"name":"Maceira","native":null,"lat":"39.68853000","lon":"-8.89423000"},{"name":"Marinha Grande","native":null,"lat":"39.77681000","lon":"-8.95005000"},{"name":"Mira","native":null,"lat":"39.54315000","lon":"-8.71505000"},{"name":"Monte Real","native":null,"lat":"39.85210000","lon":"-8.86349000"},{"name":"Monte Redondo","native":null,"lat":"39.89930000","lon":"-8.83171000"},{"name":"Nadadouro","native":null,"lat":"39.41927000","lon":"-9.19091000"},{"name":"Nazaré","native":null,"lat":"39.59965000","lon":"-9.07162000"},{"name":"Óbidos","native":null,"lat":"39.35854000","lon":"-9.17603000"},{"name":"Pataias","native":null,"lat":"39.66978000","lon":"-8.99580000"},{"name":"Pedrógão Grande","native":null,"lat":"39.92682000","lon":"-8.20093000"},{"name":"Peniche","native":null,"lat":"39.35580000","lon":"-9.38112000"},{"name":"Pombal","native":null,"lat":"39.90735000","lon":"-8.66949000"},{"name":"Porto de Mós","native":null,"lat":"39.60191000","lon":"-8.81839000"},{"name":"Salir de Matos","native":null,"lat":"39.43186000","lon":"-9.09479000"},{"name":"Santa Catarina da Serra","native":null,"lat":"39.67960000","lon":"-8.68679000"},{"name":"São Martinho do Porto","native":null,"lat":"39.51444000","lon":"-9.13111000"},{"name":"Serra de El-Rei","native":null,"lat":"39.33291000","lon":"-9.26843000"},{"name":"Souto da Carpalhosa","native":null,"lat":"39.84867000","lon":"-8.83506000"},{"name":"Turquel","native":null,"lat":"39.46411000","lon":"-8.97743000"},{"name":"Valado de Frades","native":null,"lat":"39.58432000","lon":"-9.02290000"},{"name":"Vestiaria","native":null,"lat":"39.55271000","lon":"-8.99790000"},{"name":"Vidais","native":null,"lat":"39.36886000","lon":"-9.04916000"},{"name":"Vieira de Leiria","native":null,"lat":"39.86945000","lon":"-8.93238000"}]},{"name":"Lisbon","native":null,"cities":[{"name":"A dos Cunhados","native":null,"lat":"39.15237000","lon":"-9.29720000"},{"name":"Abrigada","native":null,"lat":"39.14416000","lon":"-9.01853000"},{"name":"Alcabideche","native":null,"lat":"38.73366000","lon":"-9.40928000"},{"name":"Alcoentre","native":null,"lat":"39.20857000","lon":"-8.95953000"},{"name":"Alenquer","native":null,"lat":"39.05315000","lon":"-9.00928000"},{"name":"Alfragide","native":null,"lat":"38.73203000","lon":"-9.21920000"},{"name":"Algés","native":null,"lat":"38.70245000","lon":"-9.22936000"},{"name":"Algueirão","native":null,"lat":"38.79764000","lon":"-9.34370000"},{"name":"Alhandra","native":null,"lat":"38.92732000","lon":"-9.00864000"},{"name":"Almargem","native":null,"lat":"38.84485000","lon":"-9.27315000"},{"name":"Alvalade","native":null,"lat":"38.75328000","lon":"-9.14397000"},{"name":"Amadora","native":null,"lat":"38.75382000","lon":"-9.23083000"},{"name":"Apelação","native":null,"lat":"38.81387000","lon":"-9.13225000"},{"name":"Arranhó","native":null,"lat":"38.95378000","lon":"-9.13465000"},{"name":"Arruda dos Vinhos","native":null,"lat":"38.97172000","lon":"-9.08807000"},{"name":"Aveiras de Cima","native":null,"lat":"39.13796000","lon":"-8.89932000"},{"name":"Azambuja","native":null,"lat":"39.07029000","lon":"-8.86822000"},{"name":"Barcarena","native":null,"lat":"38.73245000","lon":"-9.28000000"},{"name":"Beato António","native":null,"lat":"38.73327000","lon":"-9.10335000"},{"name":"Belas","native":null,"lat":"38.77670000","lon":"-9.26353000"},{"name":"Benfica","native":null,"lat":"38.75087000","lon":"-9.20282000"},{"name":"Bobadela","native":null,"lat":"38.80774000","lon":"-9.09925000"},{"name":"Bucelas","native":null,"lat":"38.90193000","lon":"-9.11885000"},{"name":"Cabanas de Torres","native":null,"lat":"39.15581000","lon":"-9.06588000"},{"name":"Cacém","native":null,"lat":"38.76698000","lon":"-9.29793000"},{"name":"Cadafais","native":null,"lat":"39.00461000","lon":"-9.00419000"},{"name":"Cadaval","native":null,"lat":"39.24621000","lon":"-9.06738000"},{"name":"Camarate","native":null,"lat":"38.80358000","lon":"-9.12809000"},{"name":"Campelos","native":null,"lat":"39.19678000","lon":"-9.23519000"},{"name":"Caneças","native":null,"lat":"38.81321000","lon":"-9.22679000"},{"name":"Carcavelos","native":null,"lat":"38.69105000","lon":"-9.32215000"},{"name":"Carnaxide","native":null,"lat":"38.72706000","lon":"-9.24671000"},{"name":"Carregado","native":null,"lat":"39.02362000","lon":"-8.97692000"},{"name":"Cascais","native":null,"lat":"38.69681000","lon":"-9.42147000"},{"name":"Castanheira do Ribatejo","native":null,"lat":"38.99298000","lon":"-8.97346000"},{"name":"Caxias","native":null,"lat":"38.70314000","lon":"-9.27666000"},{"name":"Charneca","native":null,"lat":"38.78351000","lon":"-9.14348000"},{"name":"Colares","native":null,"lat":"38.79921000","lon":"-9.44691000"},{"name":"Ericeira","native":null,"lat":"38.96275000","lon":"-9.41563000"},{"name":"Estoril","native":null,"lat":"38.70571000","lon":"-9.39773000"},{"name":"Famões","native":null,"lat":"38.78804000","lon":"-9.21033000"},{"name":"Fontanelas","native":null,"lat":"38.84806000","lon":"-9.43942000"},{"name":"Linda-a-Velha","native":null,"lat":"38.71446000","lon":"-9.24220000"},{"name":"Lisbon","native":null,"lat":"38.72635000","lon":"-9.14843000"},{"name":"Loures","native":null,"lat":"38.83091000","lon":"-9.16845000"},{"name":"Lourinhã","native":null,"lat":"39.24745000","lon":"-9.31194000"},{"name":"Mafra","native":null,"lat":"38.94107000","lon":"-9.32636000"},{"name":"Malveira","native":null,"lat":"38.93213000","lon":"-9.25779000"},{"name":"Massamá","native":null,"lat":"38.75279000","lon":"-9.28110000"},{"name":"Meca","native":null,"lat":"39.08178000","lon":"-9.03459000"},{"name":"Mem Martins","native":null,"lat":"38.79443000","lon":"-9.34284000"},{"name":"Milharado","native":null,"lat":"38.94732000","lon":"-9.19914000"},{"name":"Moita dos Ferreiros","native":null,"lat":"39.24825000","lon":"-9.22355000"},{"name":"Monte Estoril","native":null,"lat":"38.70636000","lon":"-9.40595000"},{"name":"Moscavide e Portela","native":null,"lat":"38.77929000","lon":"-9.10222000"},{"name":"Odivelas","native":null,"lat":"38.79269000","lon":"-9.18380000"},{"name":"Oeiras","native":null,"lat":"38.71371000","lon":"-9.26832000"},{"name":"Olivais","native":null,"lat":"38.76994000","lon":"-9.10674000"},{"name":"Olival do Basto","native":null,"lat":"38.79079000","lon":"-9.16621000"},{"name":"Ota","native":null,"lat":"39.11199000","lon":"-8.99105000"},{"name":"Paço de Arcos","native":null,"lat":"38.69569000","lon":"-9.29143000"},{"name":"Parede","native":null,"lat":"38.69282000","lon":"-9.35412000"},{"name":"Pero Pinheiro","native":null,"lat":"38.85783000","lon":"-9.32352000"},{"name":"Pontinha","native":null,"lat":"38.76771000","lon":"-9.19935000"},{"name":"Porto Salvo","native":null,"lat":"38.72293000","lon":"-9.30473000"},{"name":"Póvoa de Santa Iria","native":null,"lat":"38.86101000","lon":"-9.06453000"},{"name":"Póvoa de Santo Adrião","native":null,"lat":"38.80000000","lon":"-9.16667000"},{"name":"Prior Velho","native":null,"lat":"38.79174000","lon":"-9.12119000"},{"name":"Queijas","native":null,"lat":"38.71925000","lon":"-9.26255000"},{"name":"Queluz","native":null,"lat":"38.75657000","lon":"-9.25451000"},{"name":"Ramada","native":null,"lat":"38.80368000","lon":"-9.18770000"},{"name":"Rio de Mouro","native":null,"lat":"38.76613000","lon":"-9.32804000"},{"name":"Sacavém","native":null,"lat":"38.79202000","lon":"-9.10801000"},{"name":"Santa Iria da Azóia","native":null,"lat":"38.84110000","lon":"-9.09908000"},{"name":"Santo Antão do Tojal","native":null,"lat":"38.85151000","lon":"-9.13975000"},{"name":"Santo Isidoro","native":null,"lat":"38.99593000","lon":"-9.39940000"},{"name":"Santos-o-Velho","native":null,"lat":"38.70690000","lon":"-9.15611000"},{"name":"São Bartolomeu","native":null,"lat":"39.27511000","lon":"-9.27885000"},{"name":"São Domingos de Rana","native":null,"lat":"38.70194000","lon":"-9.34083000"},{"name":"São João da Talha","native":null,"lat":"38.82378000","lon":"-9.09719000"},{"name":"São João das Lampas","native":null,"lat":"38.87376000","lon":"-9.39842000"},{"name":"São João dos Montes","native":null,"lat":"38.93944000","lon":"-9.01892000"},{"name":"São Pedro da Cadeira","native":null,"lat":"39.06983000","lon":"-9.37174000"},{"name":"Silveira","native":null,"lat":"39.11120000","lon":"-9.36430000"},{"name":"Sintra","native":null,"lat":"38.81439000","lon":"-9.38370000"},{"name":"Sobral de Monte Agraço","native":null,"lat":"39.01958000","lon":"-9.15081000"},{"name":"Sobralinho","native":null,"lat":"38.91703000","lon":"-9.02656000"},{"name":"Terrugem","native":null,"lat":"38.70647000","lon":"-9.28693000"},{"name":"Torres Vedras","native":null,"lat":"39.09109000","lon":"-9.25860000"},{"name":"Unhos","native":null,"lat":"38.81958000","lon":"-9.12007000"},{"name":"Venda do Pinheiro","native":null,"lat":"38.92365000","lon":"-9.23178000"},{"name":"Ventosa","native":null,"lat":"39.12696000","lon":"-9.08423000"},{"name":"Vialonga","native":null,"lat":"38.87206000","lon":"-9.07805000"},{"name":"Vila Franca de Xira","native":null,"lat":"38.92137000","lon":"-9.03220000"},{"name":"Vila Verde","native":null,"lat":"39.15489000","lon":"-9.11512000"},{"name":"Vimeiro","native":null,"lat":"39.17768000","lon":"-9.31702000"}]},{"name":"Madeira","native":null,"cities":[{"name":"Água de Pena","native":null,"lat":"32.70143000","lon":"-16.77874000"},{"name":"Arco da Calheta","native":null,"lat":"32.71502000","lon":"-17.14974000"},{"name":"Boaventura","native":null,"lat":"32.81846000","lon":"-16.97268000"},{"name":"Calheta","native":null,"lat":"32.71667000","lon":"-17.18333000"},{"name":"Camacha","native":null,"lat":"32.67919000","lon":"-16.84462000"},{"name":"Câmara de Lobos","native":null,"lat":"32.65043000","lon":"-16.97718000"},{"name":"Campanário","native":null,"lat":"32.66578000","lon":"-17.03576000"},{"name":"Canhas","native":null,"lat":"32.69465000","lon":"-17.09867000"},{"name":"Caniçal","native":null,"lat":"32.73834000","lon":"-16.73836000"},{"name":"Caniço","native":null,"lat":"32.65078000","lon":"-16.83749000"},{"name":"Curral das Freiras","native":null,"lat":"32.72029000","lon":"-16.96993000"},{"name":"Estreito da Calheta","native":null,"lat":"32.73704000","lon":"-17.18674000"},{"name":"Faial","native":null,"lat":"32.78333000","lon":"-16.85000000"},{"name":"Fajã da Ovelha","native":null,"lat":"32.77457000","lon":"-17.23412000"},{"name":"Funchal","native":null,"lat":"32.66568000","lon":"-16.92547000"},{"name":"Machico","native":null,"lat":"32.71620000","lon":"-16.76758000"},{"name":"Nossa Senhora do Monte","native":null,"lat":"32.66667000","lon":"-16.90000000"},{"name":"Ponta do Sol","native":null,"lat":"32.67980000","lon":"-17.10000000"},{"name":"Porto da Cruz","native":null,"lat":"32.76667000","lon":"-16.83333000"},{"name":"Porto Moniz","native":null,"lat":"32.86681000","lon":"-17.16667000"},{"name":"Porto Santo","native":null,"lat":"33.07145000","lon":"-16.34304000"},{"name":"Ribeira Brava","native":null,"lat":"32.67483000","lon":"-17.06288000"},{"name":"Santa Cruz","native":null,"lat":"32.68806000","lon":"-16.79388000"},{"name":"Santana","native":null,"lat":"32.80000000","lon":"-16.88333000"},{"name":"São Jorge","native":null,"lat":"32.81667000","lon":"-16.90000000"},{"name":"São Martinho","native":null,"lat":"32.64480000","lon":"-16.93843000"},{"name":"São Roque","native":null,"lat":"32.66667000","lon":"-16.91667000"},{"name":"São Vicente","native":null,"lat":"32.79673000","lon":"-17.04323000"}]},{"name":"Portalegre","native":null,"cities":[{"name":"Alter do Chão","native":null,"lat":"39.23098000","lon":"-7.74430000"},{"name":"Arronches","native":null,"lat":"39.12242000","lon":"-7.28619000"},{"name":"Atalaia","native":null,"lat":"39.45551000","lon":"-7.87295000"},{"name":"Avis","native":null,"lat":"39.06448000","lon":"-7.89560000"},{"name":"Campo Maior","native":null,"lat":"39.02935000","lon":"-7.06479000"},{"name":"Castelo de Vide","native":null,"lat":"39.41624000","lon":"-7.45680000"},{"name":"Crato","native":null,"lat":"39.28657000","lon":"-7.64408000"},{"name":"Elvas","native":null,"lat":"38.88150000","lon":"-7.16282000"},{"name":"Fronteira","native":null,"lat":"39.07179000","lon":"-7.61052000"},{"name":"Gavião","native":null,"lat":"39.44462000","lon":"-7.89532000"},{"name":"Marvão","native":null,"lat":"39.39377000","lon":"-7.37663000"},{"name":"Monforte","native":null,"lat":"39.04960000","lon":"-7.44428000"},{"name":"Montargil","native":null,"lat":"39.07771000","lon":"-8.17044000"},{"name":"Nisa","native":null,"lat":"39.51828000","lon":"-7.67496000"},{"name":"Ponte de Sor","native":null,"lat":"39.21441000","lon":"-8.05420000"},{"name":"Portalegre","native":null,"lat":"39.29740000","lon":"-7.41538000"},{"name":"Santo André","native":null,"lat":"39.05532000","lon":"-8.24414000"},{"name":"Sousel","native":null,"lat":"38.96685000","lon":"-7.71788000"},{"name":"Vale da Amoreira","native":null,"lat":"39.06969000","lon":"-7.69849000"}]},{"name":"Porto","native":null,"cities":[{"name":"Água Longa","native":null,"lat":"41.24972000","lon":"-8.49285000"},{"name":"Águas Santas","native":null,"lat":"41.21017000","lon":"-8.57599000"},{"name":"Aguçadoura","native":null,"lat":"41.43116000","lon":"-8.77844000"},{"name":"Alfena","native":null,"lat":"41.23671000","lon":"-8.52454000"},{"name":"Alpendurada","native":null,"lat":"41.08944000","lon":"-8.24643000"},{"name":"Amarante","native":null,"lat":"41.27271000","lon":"-8.08245000"},{"name":"Amorim","native":null,"lat":"41.40503000","lon":"-8.75046000"},{"name":"Anta","native":null,"lat":"41.26634000","lon":"-8.62844000"},{"name":"Arcozelo","native":null,"lat":"41.06187000","lon":"-8.63192000"},{"name":"Argivai","native":null,"lat":"41.37744000","lon":"-8.72987000"},{"name":"Árvore","native":null,"lat":"41.33922000","lon":"-8.71806000"},{"name":"Aver-o-Mar","native":null,"lat":"41.40607000","lon":"-8.77958000"},{"name":"Aves","native":null,"lat":"41.37034000","lon":"-8.41010000"},{"name":"Avintes","native":null,"lat":"41.10711000","lon":"-8.55131000"},{"name":"Azenha","native":null,"lat":"41.07651000","lon":"-8.62468000"},{"name":"Baguim do Monte","native":null,"lat":"41.19203000","lon":"-8.54118000"},{"name":"Baião","native":null,"lat":"41.16384000","lon":"-8.03581000"},{"name":"Balazar","native":null,"lat":"41.40435000","lon":"-8.62386000"},{"name":"Baltar","native":null,"lat":"41.19272000","lon":"-8.38768000"},{"name":"Barrosas","native":null,"lat":"41.35534000","lon":"-8.29943000"},{"name":"Beiriz de Baixo","native":null,"lat":"41.39727000","lon":"-8.72385000"},{"name":"Bougado","native":null,"lat":"41.33979000","lon":"-8.55180000"},{"name":"Campo","native":null,"lat":"41.18516000","lon":"-8.46493000"},{"name":"Canelas","native":null,"lat":"41.08333000","lon":"-8.60000000"},{"name":"Canidelo","native":null,"lat":"41.12314000","lon":"-8.64654000"},{"name":"Carvalhosa","native":null,"lat":"41.30057000","lon":"-8.36080000"},{"name":"Castelões de Cepeda","native":null,"lat":"41.20265000","lon":"-8.33516000"},{"name":"Ermesinde","native":null,"lat":"41.21653000","lon":"-8.55318000"},{"name":"Estela","native":null,"lat":"41.44944000","lon":"-8.75166000"},{"name":"Fânzeres","native":null,"lat":"41.16754000","lon":"-8.52981000"},{"name":"Felgueiras","native":null,"lat":"41.34774000","lon":"-8.20808000"},{"name":"Ferreira","native":null,"lat":"41.26718000","lon":"-8.34434000"},{"name":"Figueiró","native":null,"lat":"41.29922000","lon":"-8.16779000"},{"name":"Foz do Douro","native":null,"lat":"41.15119000","lon":"-8.67125000"},{"name":"Foz do Sousa","native":null,"lat":"41.09668000","lon":"-8.50184000"},{"name":"Frazão","native":null,"lat":"41.25866000","lon":"-8.40014000"},{"name":"Freamunde","native":null,"lat":"41.28835000","lon":"-8.33533000"},{"name":"Gandra","native":null,"lat":"41.20116000","lon":"-8.43376000"},{"name":"Gemunde","native":null,"lat":"41.26766000","lon":"-8.64515000"},{"name":"Gondomar","native":null,"lat":"41.12015000","lon":"-8.49595000"},{"name":"Grijó","native":null,"lat":"41.02836000","lon":"-8.58017000"},{"name":"Guifões","native":null,"lat":"41.19748000","lon":"-8.66899000"},{"name":"Gulpilhares","native":null,"lat":"41.08292000","lon":"-8.62679000"},{"name":"Jovim","native":null,"lat":"41.11102000","lon":"-8.51903000"},{"name":"Lavra","native":null,"lat":"41.25935000","lon":"-8.71849000"},{"name":"Leça da Palmeira","native":null,"lat":"41.19100000","lon":"-8.70027000"},{"name":"Leça do Bailio","native":null,"lat":"41.21201000","lon":"-8.63422000"},{"name":"Lordelo","native":null,"lat":"41.23451000","lon":"-8.40297000"},{"name":"Lousada","native":null,"lat":"41.28355000","lon":"-8.27437000"},{"name":"Lustosa","native":null,"lat":"41.34081000","lon":"-8.31715000"},{"name":"Madalena","native":null,"lat":"41.21616000","lon":"-8.33451000"},{"name":"Maia","native":null,"lat":"41.24254000","lon":"-8.60257000"},{"name":"Marco de Canaveses","native":null,"lat":"41.15545000","lon":"-8.16954000"},{"name":"Marco de Canavezes","native":null,"lat":"41.18389000","lon":"-8.14864000"},{"name":"Margaride","native":null,"lat":"41.36478000","lon":"-8.19999000"},{"name":"Matosinhos","native":null,"lat":"41.18207000","lon":"-8.68908000"},{"name":"Meinedo","native":null,"lat":"41.24827000","lon":"-8.25807000"},{"name":"Melres","native":null,"lat":"41.06989000","lon":"-8.40091000"},{"name":"Milheirós","native":null,"lat":"41.21478000","lon":"-8.58837000"},{"name":"Mindelo","native":null,"lat":"41.31527000","lon":"-8.72124000"},{"name":"Moreira","native":null,"lat":"41.05600000","lon":"-8.38939000"},{"name":"Negrelos","native":null,"lat":"41.34946000","lon":"-8.40145000"},{"name":"Nogueira","native":null,"lat":"41.24246000","lon":"-8.58685000"},{"name":"Olival","native":null,"lat":"41.05024000","lon":"-8.54416000"},{"name":"Oliveira do Douro","native":null,"lat":"41.12466000","lon":"-8.58463000"},{"name":"Paços de Ferreira","native":null,"lat":"41.28964000","lon":"-8.37584000"},{"name":"Paredes","native":null,"lat":"41.20501000","lon":"-8.37506000"},{"name":"Pedroso","native":null,"lat":"41.41103000","lon":"-8.74897000"},{"name":"Pedrouços","native":null,"lat":"41.18880000","lon":"-8.58624000"},{"name":"Penafiel","native":null,"lat":"41.20931000","lon":"-8.26996000"},{"name":"Perafita","native":null,"lat":"41.18252000","lon":"-8.25450000"},{"name":"Perozinho","native":null,"lat":"41.06513000","lon":"-8.58531000"},{"name":"Porto","native":null,"lat":"41.14961000","lon":"-8.61099000"},{"name":"Póvoa de Varzim","native":null,"lat":"41.38344000","lon":"-8.76364000"},{"name":"Rebordões","native":null,"lat":"41.35509000","lon":"-8.42355000"},{"name":"Rebordosa","native":null,"lat":"41.22405000","lon":"-8.40669000"},{"name":"Recarei","native":null,"lat":"41.15356000","lon":"-8.41178000"},{"name":"Rio Mau","native":null,"lat":"41.40422000","lon":"-8.67994000"},{"name":"Rio Tinto","native":null,"lat":"41.17872000","lon":"-8.55953000"},{"name":"Sandim","native":null,"lat":"41.03508000","lon":"-8.50700000"},{"name":"Santa Cruz do Bispo","native":null,"lat":"41.21462000","lon":"-8.67406000"},{"name":"Santo Izidoro","native":null,"lat":"41.21083000","lon":"-8.14224000"},{"name":"Santo Tirso","native":null,"lat":"41.33014000","lon":"-8.43827000"},{"name":"São Félix da Marinha","native":null,"lat":"41.03555000","lon":"-8.62259000"},{"name":"São Mamede de Infesta","native":null,"lat":"41.19183000","lon":"-8.61105000"},{"name":"São Miguel do Couto","native":null,"lat":"41.33167000","lon":"-8.46185000"},{"name":"São Pedro da Cova","native":null,"lat":"41.14331000","lon":"-8.50033000"},{"name":"São Romão do Coronado","native":null,"lat":"41.28544000","lon":"-8.56320000"},{"name":"Senhora da Hora","native":null,"lat":"41.18641000","lon":"-8.65172000"},{"name":"Sermonde","native":null,"lat":"41.04712000","lon":"-8.58449000"},{"name":"Seroa","native":null,"lat":"41.26511000","lon":"-8.42892000"},{"name":"Serzedo","native":null,"lat":"41.05105000","lon":"-8.61605000"},{"name":"Sobrado","native":null,"lat":"41.21041000","lon":"-8.45488000"},{"name":"Telões","native":null,"lat":"41.31054000","lon":"-8.11101000"},{"name":"Trofa","native":null,"lat":"41.30646000","lon":"-8.57640000"},{"name":"Vairão","native":null,"lat":"41.33290000","lon":"-8.66657000"},{"name":"Valadares","native":null,"lat":"41.14737000","lon":"-7.98120000"},{"name":"Valbom","native":null,"lat":"41.12921000","lon":"-8.56199000"},{"name":"Valongo","native":null,"lat":"41.20797000","lon":"-8.50086000"},{"name":"Vila do Conde","native":null,"lat":"41.35326000","lon":"-8.74516000"},{"name":"Vila Meã","native":null,"lat":"41.25116000","lon":"-8.18397000"},{"name":"Vila Nova da Telha","native":null,"lat":"41.07170000","lon":"-8.64146000"},{"name":"Vila Nova de Gaia","native":null,"lat":"41.12401000","lon":"-8.61241000"},{"name":"Vilar de Andorinho","native":null,"lat":"41.10574000","lon":"-8.58622000"},{"name":"Vilar do Paraíso","native":null,"lat":"41.08974000","lon":"-8.62110000"},{"name":"Vilarinho","native":null,"lat":"41.35955000","lon":"-8.33123000"},{"name":"Vizela","native":null,"lat":"41.38242000","lon":"-8.24887000"}]},{"name":"Santarém","native":null,"cities":[{"name":"Abrantes","native":null,"lat":"39.46667000","lon":"-8.20000000"},{"name":"Alcanede","native":null,"lat":"39.41501000","lon":"-8.82189000"},{"name":"Alcanena","native":null,"lat":"39.45900000","lon":"-8.66892000"},{"name":"Alcanhões","native":null,"lat":"39.29603000","lon":"-8.65847000"},{"name":"Alferrarede","native":null,"lat":"39.48333000","lon":"-8.16667000"},{"name":"Almeirim","native":null,"lat":"39.20837000","lon":"-8.62635000"},{"name":"Alpiarça","native":null,"lat":"39.25712000","lon":"-8.58187000"},{"name":"Amiães de Baixo","native":null,"lat":"39.44296000","lon":"-8.73358000"},{"name":"Azinhaga","native":null,"lat":"39.34877000","lon":"-8.53005000"},{"name":"Bemfica","native":null,"lat":"39.14325000","lon":"-8.68717000"},{"name":"Benavente","native":null,"lat":"38.90800000","lon":"-8.76898000"},{"name":"Cartaxo","native":null,"lat":"39.15377000","lon":"-8.81373000"},{"name":"Chamusca","native":null,"lat":"39.29900000","lon":"-8.39933000"},{"name":"Constância","native":null,"lat":"39.45718000","lon":"-8.30368000"},{"name":"Coruche","native":null,"lat":"38.95950000","lon":"-8.52745000"},{"name":"Entroncamento","native":null,"lat":"39.46667000","lon":"-8.46667000"},{"name":"Fátima","native":null,"lat":"39.62071000","lon":"-8.65237000"},{"name":"Fazendas de Almeirim","native":null,"lat":"39.17553000","lon":"-8.56927000"},{"name":"Ferreira do Zêzere","native":null,"lat":"39.72303000","lon":"-8.31661000"},{"name":"Golegã","native":null,"lat":"39.38683000","lon":"-8.50591000"},{"name":"Mação","native":null,"lat":"39.59331000","lon":"-7.99772000"},{"name":"Madalena","native":null,"lat":"39.57133000","lon":"-8.44635000"},{"name":"Marinhais","native":null,"lat":"39.04730000","lon":"-8.70236000"},{"name":"Minde","native":null,"lat":"39.51631000","lon":"-8.68799000"},{"name":"Monsanto","native":null,"lat":"39.46203000","lon":"-8.71180000"},{"name":"Montalvinho","native":null,"lat":"39.48333000","lon":"-8.30000000"},{"name":"Montalvo","native":null,"lat":"39.48333000","lon":"-8.30000000"},{"name":"Ourém","native":null,"lat":"39.66179000","lon":"-8.57895000"},{"name":"Paialvo","native":null,"lat":"39.56399000","lon":"-8.46835000"},{"name":"Pego","native":null,"lat":"39.46146000","lon":"-8.14955000"},{"name":"Pinheiro Grande","native":null,"lat":"39.39212000","lon":"-8.43410000"},{"name":"Poceirão","native":null,"lat":"38.83095000","lon":"-8.79365000"},{"name":"Pontével","native":null,"lat":"39.14945000","lon":"-8.83880000"},{"name":"Praia do Ribatejo","native":null,"lat":"39.46667000","lon":"-8.35000000"},{"name":"Riachos","native":null,"lat":"39.44472000","lon":"-8.51420000"},{"name":"Rio Maior","native":null,"lat":"39.34288000","lon":"-8.93806000"},{"name":"Salvaterra de Magos","native":null,"lat":"39.04482000","lon":"-8.68903000"},{"name":"Samora Correia","native":null,"lat":"38.93709000","lon":"-8.87178000"},{"name":"Santa Margarida da Coutada","native":null,"lat":"39.45000000","lon":"-8.31667000"},{"name":"Santarém","native":null,"lat":"39.23333000","lon":"-8.68333000"},{"name":"São Miguel de Rio Torto","native":null,"lat":"39.43333000","lon":"-8.21667000"},{"name":"São Vicente do Paul","native":null,"lat":"39.34946000","lon":"-8.62221000"},{"name":"Sardoal","native":null,"lat":"39.55643000","lon":"-8.14323000"},{"name":"Tomar","native":null,"lat":"39.60199000","lon":"-8.40924000"},{"name":"Torres Novas","native":null,"lat":"39.49160000","lon":"-8.54796000"},{"name":"Tramagal","native":null,"lat":"39.45000000","lon":"-8.25000000"},{"name":"Vale de Figueira","native":null,"lat":"39.30569000","lon":"-8.62876000"},{"name":"Vale de Santarém","native":null,"lat":"39.19052000","lon":"-8.72735000"},{"name":"Vila Chã de Ourique","native":null,"lat":"39.17219000","lon":"-8.76658000"},{"name":"Vila Nova da Barquinha","native":null,"lat":"39.46081000","lon":"-8.43588000"}]},{"name":"Setúbal","native":null,"cities":[{"name":"Alcácer do Sal","native":null,"lat":"38.37326000","lon":"-8.51444000"},{"name":"Alcochete","native":null,"lat":"38.73827000","lon":"-8.97936000"},{"name":"Aldeia de Paio Pires","native":null,"lat":"38.61667000","lon":"-9.08333000"},{"name":"Alhos Vedros","native":null,"lat":"38.65486000","lon":"-9.02368000"},{"name":"Almada","native":null,"lat":"38.67902000","lon":"-9.15690000"},{"name":"Amora","native":null,"lat":"38.62961000","lon":"-9.11557000"},{"name":"Arrentela","native":null,"lat":"38.62500000","lon":"-9.10151000"},{"name":"Azeitão","native":null,"lat":"38.51919000","lon":"-9.01390000"},{"name":"Barreiro","native":null,"lat":"38.66314000","lon":"-9.07240000"},{"name":"Cacilhas","native":null,"lat":"38.68638000","lon":"-9.14938000"},{"name":"Caparica","native":null,"lat":"38.66179000","lon":"-9.20032000"},{"name":"Cercal","native":null,"lat":"37.80129000","lon":"-8.67400000"},{"name":"Charneca de Caparica","native":null,"lat":"38.62032000","lon":"-9.19426000"},{"name":"Comporta","native":null,"lat":"38.38059000","lon":"-8.78608000"},{"name":"Corroios","native":null,"lat":"38.64004000","lon":"-9.15080000"},{"name":"Costa de Caparica","native":null,"lat":"38.64458000","lon":"-9.23556000"},{"name":"Grândola","native":null,"lat":"38.18999000","lon":"-8.61197000"},{"name":"Laranjeira","native":null,"lat":"38.65599000","lon":"-9.15376000"},{"name":"Lavradio","native":null,"lat":"38.66808000","lon":"-9.05204000"},{"name":"Moita","native":null,"lat":"38.65854000","lon":"-9.01040000"},{"name":"Montijo","native":null,"lat":"38.72990000","lon":"-8.69364000"},{"name":"Palmela","native":null,"lat":"38.56902000","lon":"-8.90126000"},{"name":"Piedade","native":null,"lat":"38.67005000","lon":"-9.15852000"},{"name":"Pinhal Novo","native":null,"lat":"38.63106000","lon":"-8.91376000"},{"name":"Porto Covo","native":null,"lat":"37.85256000","lon":"-8.79018000"},{"name":"Pragal","native":null,"lat":"38.67459000","lon":"-9.16981000"},{"name":"Quinta do Anjo","native":null,"lat":"38.56753000","lon":"-8.94228000"},{"name":"Quinta Do Conde","native":null,"lat":"38.56528000","lon":"-9.04316000"},{"name":"Rosairinho","native":null,"lat":"38.67734000","lon":"-9.00836000"},{"name":"Samouco","native":null,"lat":"38.72035000","lon":"-9.00471000"},{"name":"Santiago do Cacém","native":null,"lat":"38.02502000","lon":"-8.67577000"},{"name":"Santo André","native":null,"lat":"38.06078000","lon":"-8.78220000"},{"name":"Santo António da Charneca","native":null,"lat":"38.62561000","lon":"-9.03043000"},{"name":"Sarilhos Pequenos","native":null,"lat":"38.68176000","lon":"-8.98231000"},{"name":"Seixal","native":null,"lat":"38.61173000","lon":"-9.10371000"},{"name":"Sesimbra","native":null,"lat":"38.49486000","lon":"-9.12011000"},{"name":"Setúbal","native":null,"lat":"38.52440000","lon":"-8.88820000"},{"name":"Sines","native":null,"lat":"37.95622000","lon":"-8.86979000"},{"name":"Sobreda","native":null,"lat":"38.64961000","lon":"-9.18977000"},{"name":"Trafaria","native":null,"lat":"38.67222000","lon":"-9.23268000"}]},{"name":"Viana do Castelo","native":null,"cities":[{"name":"Arcos de Valdevez","native":null,"lat":"41.84668000","lon":"-8.41905000"},{"name":"Caminha","native":null,"lat":"41.84647000","lon":"-8.80133000"},{"name":"Melgaço","native":null,"lat":"42.08067000","lon":"-8.24844000"},{"name":"Monção","native":null,"lat":"42.07892000","lon":"-8.48076000"},{"name":"Paredes de Coura","native":null,"lat":"41.90995000","lon":"-8.57034000"},{"name":"Ponte da Barca","native":null,"lat":"41.80669000","lon":"-8.31014000"},{"name":"Ponte de Lima","native":null,"lat":"41.74682000","lon":"-8.57637000"},{"name":"Valença","native":null,"lat":"42.02821000","lon":"-8.63388000"},{"name":"Viana do Castelo","native":null,"lat":"41.69371000","lon":"-8.83456000"}]},{"name":"Vila Real","native":null,"cities":[{"name":"Alijó","native":null,"lat":"41.28447000","lon":"-7.48545000"},{"name":"Boticas","native":null,"lat":"41.68939000","lon":"-7.66914000"},{"name":"Chaves","native":null,"lat":"41.73961000","lon":"-7.45030000"},{"name":"Favaios","native":null,"lat":"41.26876000","lon":"-7.50465000"},{"name":"Godim","native":null,"lat":"41.17104000","lon":"-7.80303000"},{"name":"Mesão Frio","native":null,"lat":"41.16190000","lon":"-7.87284000"},{"name":"Mondim de Basto","native":null,"lat":"41.41347000","lon":"-7.95479000"},{"name":"Montalegre","native":null,"lat":"41.83180000","lon":"-7.78999000"},{"name":"Murça","native":null,"lat":"41.41825000","lon":"-7.45121000"},{"name":"Peso da Régua","native":null,"lat":"41.19157000","lon":"-7.83668000"},{"name":"Ribeira de Pena","native":null,"lat":"41.51021000","lon":"-7.79673000"},{"name":"Sabrosa","native":null,"lat":"41.26702000","lon":"-7.57601000"},{"name":"Santa Cruz","native":null,"lat":"41.76007000","lon":"-7.46834000"},{"name":"Santa Marta de Penaguião","native":null,"lat":"41.20991000","lon":"-7.78386000"},{"name":"Sobreira","native":null,"lat":"41.52371000","lon":"-7.80234000"},{"name":"Valpaços","native":null,"lat":"41.62082000","lon":"-7.33607000"},{"name":"Vila Pouca de Aguiar","native":null,"lat":"41.52079000","lon":"-7.63671000"},{"name":"Vila Real","native":null,"lat":"41.30021000","lon":"-7.73985000"},{"name":"Vilela","native":null,"lat":"41.22511000","lon":"-7.60338000"}]},{"name":"Viseu","native":null,"cities":[{"name":"Abraveses","native":null,"lat":"40.68137000","lon":"-7.92102000"},{"name":"Armamar","native":null,"lat":"41.09718000","lon":"-7.68553000"},{"name":"Cabanas de Viriato","native":null,"lat":"40.47662000","lon":"-7.97445000"},{"name":"Campo","native":null,"lat":"40.71086000","lon":"-7.91445000"},{"name":"Campo de Besteiros","native":null,"lat":"40.55655000","lon":"-8.13432000"},{"name":"Canas de Senhorim","native":null,"lat":"40.50012000","lon":"-7.89874000"},{"name":"Carregal do Sal","native":null,"lat":"40.45007000","lon":"-7.99819000"},{"name":"Castro Daire","native":null,"lat":"40.92279000","lon":"-7.93878000"},{"name":"Cinfães","native":null,"lat":"41.03986000","lon":"-8.11218000"},{"name":"Ervedosa do Douro","native":null,"lat":"41.16626000","lon":"-7.47305000"},{"name":"Lamego","native":null,"lat":"41.10229000","lon":"-7.81025000"},{"name":"Mangualde","native":null,"lat":"40.60425000","lon":"-7.76115000"},{"name":"Moimenta da Beira","native":null,"lat":"40.97134000","lon":"-7.62959000"},{"name":"Mortágua","native":null,"lat":"40.39434000","lon":"-8.25811000"},