[{"state":"Aimeliik","name":"Ngchemiangel","lat":"7.44613000","lon":"134.47678000"},
{"state":"Airai","name":"Ngetkib","lat":"7.36451000","lon":"134.51484000"},
{"state":"Angaur","name":"Angaur State","lat":"6.90601000","lon":"134.12997000"},
{"state":"Hatohobei","name":"Tobi Village","lat":"3.00488000","lon":"131.12168000"},
{"state":"Kayangel","name":"Kayangel","lat":"8.08228000","lon":"134.71725000"},
{"state":"Koror","name":"Koror","lat":"7.33978000","lon":"134.47326000"},
{"state":"Koror","name":"Koror Town","lat":"7.34257000","lon":"134.47888000"},
{"state":"Melekeok","name":"Melekeok Village","lat":"7.49567000","lon":"134.63671000"},
{"state":"Ngaraard","name":"Ulimang","lat":"7.62416000","lon":"134.64208000"},
{"state":"Ngarchelong","name":"Mengellang","lat":"7.69570000","lon":"134.63054000"},
{"state":"Ngardmau","name":"Ngardmau","lat":"7.60986000","lon":"134.57440000"},
{"state":"Ngchesar","name":"Ngchesar Hamlet","lat":"7.46932000","lon":"134.60991000"},
{"state":"Ngeremlengui","name":"Imeong Hamlet","lat":"7.53134000","lon":"134.52713000"},
{"state":"Ngiwal","name":"Ngerkeai","lat":"7.55456000","lon":"134.63612000"},
{"state":"Peleliu","name":"Kloulklubed","lat":"7.04192000","lon":"134.25561000"},
{"state":"Sonsorol","name":"Sonsorol Village","lat":"5.32608000","lon":"132.21943000"}]