[{"state":"Alto Paraguay Department","name":"Capitán Pablo Lagerenza","lat":"-19.91667000","lon":"-60.78333000"},
{"state":"Alto Paraguay Department","name":"Fuerte Olimpo","lat":"-21.04153000","lon":"-57.87377000"},
{"state":"Alto Paraná Department","name":"Cedrales","lat":"-25.65668000","lon":"-54.72272000"},
{"state":"Alto Paraná Department","name":"Ciudad del Este","lat":"-25.50972000","lon":"-54.61111000"},
{"state":"Alto Paraná Department","name":"Colonia Minga Porá","lat":"-24.86667000","lon":"-54.90000000"},
{"state":"Alto Paraná Department","name":"Doctor Juan León Mallorquín","lat":"-25.43053000","lon":"-55.25412000"},
{"state":"Alto Paraná Department","name":"Itakyry","lat":"-24.98611000","lon":"-55.14963000"},
{"state":"Alto Paraná Department","name":"Naranjal","lat":"-25.96667000","lon":"-55.18333000"},
{"state":"Alto Paraná Department","name":"Presidente Franco","lat":"-25.56384000","lon":"-54.61097000"},
{"state":"Alto Paraná Department","name":"San Alberto","lat":"-24.96667000","lon":"-54.90000000"},
{"state":"Alto Paraná Department","name":"Santa Rita","lat":"-25.78333000","lon":"-55.06667000"},
{"state":"Alto Paraná Department","name":"Yguazú","lat":"-25.46187000","lon":"-55.00007000"},
{"state":"Amambay Department","name":"Bella Vista","lat":"-22.13333000","lon":"-56.51667000"},
{"state":"Amambay Department","name":"Capitán Bado","lat":"-23.26667000","lon":"-55.53333000"},
{"state":"Amambay Department","name":"Pedro Juan Caballero","lat":"-22.54722000","lon":"-55.73333000"},
{"state":"Boquerón Department","name":"Colonia Menno","lat":"-22.36667000","lon":"-59.81667000"},
{"state":"Boquerón Department","name":"Colonia Neuland","lat":"-22.66667000","lon":"-60.11667000"},
{"state":"Boquerón Department","name":"Filadelfia","lat":"-22.33936000","lon":"-60.03157000"},
{"state":"Caaguazú","name":"Caaguazú","lat":"-25.47104000","lon":"-56.01603000"},
{"state":"Caaguazú","name":"Carayaó","lat":"-25.19750000","lon":"-56.39878000"},
{"state":"Caaguazú","name":"Cecilio Baez","lat":"-25.07158000","lon":"-56.24386000"},
{"state":"Caaguazú","name":"Colonia General Alfredo Stroessner","lat":"-25.36395000","lon":"-55.70690000"},
{"state":"Caaguazú","name":"Coronel Oviedo","lat":"-25.44444000","lon":"-56.44028000"},
{"state":"Caaguazú","name":"Doctor Juan Manuel Frutos","lat":"-25.38380000","lon":"-55.83215000"},
{"state":"Caaguazú","name":"Mbutuý","lat":"-24.97518000","lon":"-56.30927000"},
{"state":"Caaguazú","name":"Repatriación","lat":"-25.53333000","lon":"-55.95000000"},
{"state":"Caaguazú","name":"San Joaquín","lat":"-25.02853000","lon":"-56.04280000"},
{"state":"Caaguazú","name":"San José","lat":"-25.53333000","lon":"-56.73333000"},
{"state":"Caaguazú","name":"Yhú","lat":"-25.05784000","lon":"-55.92267000"},
{"state":"Caazapá","name":"Abaí","lat":"-26.03333000","lon":"-55.93333000"},
{"state":"Caazapá","name":"Buena Vista","lat":"-26.18387000","lon":"-56.08171000"},
{"state":"Caazapá","name":"Caazapá","lat":"-26.19583000","lon":"-56.36806000"},
{"state":"Caazapá","name":"General Higinio Morínigo","lat":"-25.95000000","lon":"-55.91667000"},
{"state":"Caazapá","name":"San Juan Nepomuceno","lat":"-26.11229000","lon":"-55.93861000"},
{"state":"Caazapá","name":"Yegros","lat":"-26.45000000","lon":"-56.40000000"},
{"state":"Caazapá","name":"Yuty","lat":"-26.61471000","lon":"-56.24607000"},
{"state":"Canindeyú","name":"Colonia Catuete","lat":"-24.13333000","lon":"-54.61667000"},
{"state":"Canindeyú","name":"Corpus Christi","lat":"-24.08040000","lon":"-54.93933000"},
{"state":"Canindeyú","name":"La Paloma","lat":"-24.12957000","lon":"-54.61376000"},
{"state":"Canindeyú","name":"Nueva Esperanza","lat":"-24.50760000","lon":"-54.85510000"},
{"state":"Canindeyú","name":"Salto del Guairá","lat":"-24.06250000","lon":"-54.30694000"},
{"state":"Canindeyú","name":"San Isidro de Curuguaty","lat":"-24.47184000","lon":"-55.69227000"},
{"state":"Canindeyú","name":"Ygatimi","lat":"-24.12371000","lon":"-55.64418000"},
{"state":"Central Department","name":"Areguá","lat":"-25.31250000","lon":"-57.38472000"},
{"state":"Central Department","name":"Capiatá","lat":"-25.35520000","lon":"-57.44545000"},
{"state":"Central Department","name":"Fernando de la Mora","lat":"-25.33860000","lon":"-57.52167000"},
{"state":"Central Department","name":"Guarambaré","lat":"-25.49096000","lon":"-57.45567000"},
{"state":"Central Department","name":"Itá","lat":"-25.50054000","lon":"-57.36717000"},
{"state":"Central Department","name":"Itauguá","lat":"-25.39258000","lon":"-57.35421000"},
{"state":"Central Department","name":"Lambaré","lat":"-25.34682000","lon":"-57.60647000"},
{"state":"Central Department","name":"Limpio","lat":"-25.16611000","lon":"-57.48562000"},
{"state":"Central Department","name":"Mariano Roque Alonso","lat":"-25.20791000","lon":"-57.53202000"},
{"state":"Central Department","name":"Nemby","lat":"-25.39490000","lon":"-57.53574000"},
{"state":"Central Department","name":"Nueva Italia","lat":"-25.61080000","lon":"-57.46563000"},
{"state":"Central Department","name":"San Antonio","lat":"-25.42126000","lon":"-57.54725000"},
{"state":"Central Department","name":"San Lorenzo","lat":"-25.33968000","lon":"-57.50879000"},
{"state":"Central Department","name":"Villa Elisa","lat":"-25.36760000","lon":"-57.59274000"},
{"state":"Central Department","name":"Ypacarai","lat":"-25.40777000","lon":"-57.28889000"},
{"state":"Concepción Department","name":"Belén","lat":"-23.46611000","lon":"-57.26194000"},
{"state":"Concepción Department","name":"Concepción","lat":"-23.39985000","lon":"-57.43236000"},
{"state":"Concepción Department","name":"Horqueta","lat":"-23.34278000","lon":"-57.05972000"},
{"state":"Cordillera Department","name":"Altos","lat":"-25.26263000","lon":"-57.25443000"},
{"state":"Cordillera Department","name":"Arroyos y Esteros","lat":"-25.05478000","lon":"-57.09873000"},
{"state":"Cordillera Department","name":"Atyrá","lat":"-25.27876000","lon":"-57.17192000"},
{"state":"Cordillera Department","name":"Caacupé","lat":"-25.38575000","lon":"-57.14217000"},
{"state":"Cordillera Department","name":"Caraguatay","lat":"-25.23844000","lon":"-56.82693000"},
{"state":"Cordillera Department","name":"Emboscada","lat":"-25.15000000","lon":"-57.35000000"},
{"state":"Cordillera Department","name":"Eusebio Ayala","lat":"-25.38276000","lon":"-56.96088000"},
{"state":"Cordillera Department","name":"Isla Pucú","lat":"-25.30853000","lon":"-56.89986000"},
{"state":"Cordillera Department","name":"Itacurubí de la Cordillera","lat":"-25.46158000","lon":"-56.85333000"},
{"state":"Cordillera Department","name":"Piribebuy","lat":"-25.46498000","lon":"-57.04183000"},
{"state":"Cordillera Department","name":"San Bernardino","lat":"-25.31067000","lon":"-57.29628000"},
{"state":"Cordillera Department","name":"Santa Elena","lat":"-25.41327000","lon":"-56.79708000"},
{"state":"Cordillera Department","name":"Tobatí","lat":"-25.26111000","lon":"-57.08329000"},
{"state":"Guairá Department","name":"Colonia Mauricio José Troche","lat":"-25.56667000","lon":"-56.28333000"},
{"state":"Guairá Department","name":"Coronel Martínez","lat":"-25.75862000","lon":"-56.61677000"},
{"state":"Guairá Department","name":"Independencia","lat":"-25.69100000","lon":"-56.26781000"},
{"state":"Guairá Department","name":"Itapé","lat":"-25.85172000","lon":"-56.61385000"},
{"state":"Guairá Department","name":"Iturbe","lat":"-26.05508000","lon":"-56.48463000"},
{"state":"Guairá Department","name":"Mbocayaty","lat":"-25.71938000","lon":"-56.42179000"},
{"state":"Guairá Department","name":"Natalicio Talavera","lat":"-25.63333000","lon":"-56.30000000"},
{"state":"Guairá Department","name":"Villarrica","lat":"-25.74946000","lon":"-56.43518000"},
{"state":"Itapúa","name":"Arquitecto Tomás Romero Pereira","lat":"-26.48333000","lon":"-55.25000000"},
{"state":"Itapúa","name":"Bella Vista","lat":"-27.05000000","lon":"-55.55000000"},
{"state":"Itapúa","name":"Capitán Miranda","lat":"-27.20000000","lon":"-55.80000000"},
{"state":"Itapúa","name":"Carmen del Paraná","lat":"-27.22232000","lon":"-56.15243000"},
{"state":"Itapúa","name":"Colonia Carlos Antonio López","lat":"-26.39853000","lon":"-54.75690000"},
{"state":"Itapúa","name":"Colonia San Lorenzo","lat":"-26.49324000","lon":"-54.79989000"},
{"state":"Itapúa","name":"Edelira","lat":"-26.76734000","lon":"-55.27872000"},
{"state":"Itapúa","name":"Encarnación","lat":"-27.33056000","lon":"-55.86667000"},
{"state":"Itapúa","name":"Fram","lat":"-26.98333000","lon":"-55.88333000"},
{"state":"Itapúa","name":"General Artigas","lat":"-26.93522000","lon":"-56.22168000"},
{"state":"Itapúa","name":"General Delgado","lat":"-27.09046000","lon":"-56.52474000"},
{"state":"Itapúa","name":"Hohenau","lat":"-27.07315000","lon":"-55.64247000"},
{"state":"Itapúa","name":"Jesús","lat":"-27.05598000","lon":"-55.74130000"},
{"state":"Itapúa","name":"Natalio","lat":"-26.75702000","lon":"-55.13777000"},
{"state":"Itapúa","name":"Obligado","lat":"-27.03333000","lon":"-55.63333000"},
{"state":"Itapúa","name":"Pirapó","lat":"-26.86012000","lon":"-55.54357000"},
{"state":"Itapúa","name":"Puerto Mayor Otaño","lat":"-26.40000000","lon":"-54.70000000"},
{"state":"Itapúa","name":"San Cosme y Damián","lat":"-27.31741000","lon":"-56.33087000"},
{"state":"Itapúa","name":"San Juan del Paraná","lat":"-27.30168000","lon":"-55.96509000"},
{"state":"Itapúa","name":"San Pedro del Paraná","lat":"-26.83268000","lon":"-56.20575000"},
{"state":"Itapúa","name":"Trinidad","lat":"-27.11667000","lon":"-55.78333000"},
{"state":"Misiones Department","name":"Juan de Ayolas","lat":"-27.38662000","lon":"-56.84724000"},
{"state":"Misiones Department","name":"San Juan Bautista","lat":"-26.66944000","lon":"-57.14583000"},
{"state":"Misiones Department","name":"San Miguel","lat":"-26.50000000","lon":"-57.05000000"},
{"state":"Misiones Department","name":"San Patricio","lat":"-26.96667000","lon":"-56.81667000"},
{"state":"Misiones Department","name":"Santa María","lat":"-26.78333000","lon":"-56.93333000"},
{"state":"Misiones Department","name":"Santa Rosa Misiones","lat":"-26.88730000","lon":"-56.84905000"},
{"state":"Misiones Department","name":"Santiago","lat":"-27.14310000","lon":"-56.76803000"},
{"state":"Misiones Department","name":"Villa Florida","lat":"-26.38333000","lon":"-57.15000000"},
{"state":"Ñeembucú Department","name":"Cerrito","lat":"-27.34215000","lon":"-57.64119000"},
{"state":"Ñeembucú Department","name":"General José Eduvigis Díaz","lat":"-27.20136000","lon":"-58.36740000"},
{"state":"Ñeembucú Department","name":"Pilar","lat":"-26.85874000","lon":"-58.30639000"},
{"state":"Paraguarí Department","name":"Acahay","lat":"-25.91667000","lon":"-57.15000000"},
{"state":"Paraguarí Department","name":"Caapucú","lat":"-26.23523000","lon":"-57.18212000"},
{"state":"Paraguarí Department","name":"Carapeguá","lat":"-25.80000000","lon":"-57.23333000"},
{"state":"Paraguarí Department","name":"La Colmena","lat":"-25.88627000","lon":"-56.84084000"},
{"state":"Paraguarí Department","name":"Mbuyapey","lat":"-26.21921000","lon":"-56.75777000"},
{"state":"Paraguarí Department","name":"Paraguarí","lat":"-25.62083000","lon":"-57.14722000"},
{"state":"Paraguarí Department","name":"Pirayú","lat":"-25.48406000","lon":"-57.23490000"},
{"state":"Paraguarí Department","name":"Quiindy","lat":"-25.97606000","lon":"-57.23353000"},
{"state":"Paraguarí Department","name":"Sapucaí","lat":"-25.66652000","lon":"-56.95215000"},
{"state":"Paraguarí Department","name":"Yaguarón","lat":"-25.56139000","lon":"-57.28343000"},
{"state":"Paraguarí Department","name":"Ybycuí","lat":"-26.01667000","lon":"-57.05000000"},
{"state":"Presidente Hayes Department","name":"Benjamín Aceval","lat":"-24.96667000","lon":"-57.56667000"},
{"state":"Presidente Hayes Department","name":"Nanawua","lat":"-25.27930000","lon":"-57.70307000"},
{"state":"Presidente Hayes Department","name":"Villa Hayes","lat":"-25.09306000","lon":"-57.52361000"},
{"state":"San Pedro Department","name":"Antequera","lat":"-24.08526000","lon":"-57.20221000"},
{"state":"San Pedro Department","name":"Capiíbary","lat":"-24.80000000","lon":"-56.03333000"},
{"state":"San Pedro Department","name":"Colonia Nueva Germania","lat":"-23.91137000","lon":"-56.70091000"},
{"state":"San Pedro Department","name":"General Elizardo Aquino","lat":"-24.44417000","lon":"-56.90061000"},
{"state":"San Pedro Department","name":"Guayaybi","lat":"-24.53333000","lon":"-56.43333000"},
{"state":"San Pedro Department","name":"Itacurubí del Rosario","lat":"-24.53541000","lon":"-56.82352000"},
{"state":"San Pedro Department","name":"Lima","lat":"-23.88327000","lon":"-56.48217000"},
{"state":"San Pedro Department","name":"Puerto Rosario","lat":"-24.44127000","lon":"-57.14272000"},
{"state":"San Pedro Department","name":"San Pedro de Ycuamandiyú","lat":"-24.08534000","lon":"-57.08745000"},
{"state":"San Pedro Department","name":"Tacuatí","lat":"-23.45000000","lon":"-56.58333000"},
{"state":"San Pedro Department","name":"Unión","lat":"-24.80790000","lon":"-56.52148000"},
{"state":"San Pedro Department","name":"Yataity del Norte","lat":"-24.83333000","lon":"-56.35000000"}]