[{"state":"Central Banat District","name":"Aranđelovac","lat":"44.30694000","lon":"20.56000000"},
{"state":"Central Banat District","name":"Arilje","lat":"43.75306000","lon":"20.09556000"},
{"state":"Central Banat District","name":"Badovinci","lat":"44.78534000","lon":"19.37146000"},
{"state":"Central Banat District","name":"Bajina Bašta","lat":"43.97083000","lon":"19.56750000"},
{"state":"Central Banat District","name":"Banovo Polje","lat":"44.91040000","lon":"19.44916000"},
{"state":"Central Banat District","name":"Barič","lat":"44.65070000","lon":"20.25941000"},
{"state":"Central Banat District","name":"Bečmen","lat":"44.77983000","lon":"20.20577000"},
{"state":"Central Banat District","name":"Belgrade","lat":"44.80401000","lon":"20.46513000"},
{"state":"Central Banat District","name":"Belotić","lat":"44.81782000","lon":"19.54801000"},
{"state":"Central Banat District","name":"Biljača","lat":"42.35518000","lon":"21.74781000"},
{"state":"Central Banat District","name":"Bogatić","lat":"44.83750000","lon":"19.48056000"},
{"state":"Central Banat District","name":"Bogosavac","lat":"44.71799000","lon":"19.59533000"},
{"state":"Central Banat District","name":"Boljevci","lat":"44.72355000","lon":"20.22348000"},
{"state":"Central Banat District","name":"Bor","lat":"44.36667000","lon":"22.25000000"},
{"state":"Central Banat District","name":"Brdarica","lat":"44.55376000","lon":"19.77150000"},
{"state":"Central Banat District","name":"Bukor","lat":"44.49523000","lon":"19.57116000"},
{"state":"Central Banat District","name":"Čačak","lat":"43.89139000","lon":"20.34972000"},
{"state":"Central Banat District","name":"Čajetina","lat":"43.74977000","lon":"19.71273000"},
{"state":"Central Banat District","name":"Ćićevac","lat":"43.71882000","lon":"21.44085000"},
{"state":"Central Banat District","name":"Čokešina","lat":"44.65319000","lon":"19.39016000"},
{"state":"Central Banat District","name":"Crna Bara","lat":"44.87374000","lon":"19.39480000"},
{"state":"Central Banat District","name":"Ćuprija","lat":"43.92750000","lon":"21.37000000"},
{"state":"Central Banat District","name":"Dobanovci","lat":"44.82631000","lon":"20.22487000"},
{"state":"Central Banat District","name":"Dobrić","lat":"44.70224000","lon":"19.57931000"},
{"state":"Central Banat District","name":"Donji Dobrić","lat":"44.61183000","lon":"19.33109000"},
{"state":"Central Banat District","name":"Donji Milanovac","lat":"44.46593000","lon":"22.15170000"},
{"state":"Central Banat District","name":"Draginje","lat":"44.53302000","lon":"19.76250000"},
{"state":"Central Banat District","name":"Drenovac","lat":"44.86649000","lon":"19.70943000"},
{"state":"Central Banat District","name":"Dublje","lat":"44.80117000","lon":"19.50902000"},
{"state":"Central Banat District","name":"Duboka","lat":"44.52223000","lon":"21.76030000"},
{"state":"Central Banat District","name":"Ðurići","lat":"43.82533000","lon":"19.41233000"},
{"state":"Central Banat District","name":"Glušci","lat":"44.89021000","lon":"19.54913000"},
{"state":"Central Banat District","name":"Golubac","lat":"44.65296000","lon":"21.63199000"},
{"state":"Central Banat District","name":"Gornja Bukovica","lat":"44.33987000","lon":"19.81368000"},
{"state":"Central Banat District","name":"Gornji Milanovac","lat":"44.02603000","lon":"20.46152000"},
{"state":"Central Banat District","name":"Grabovac","lat":"44.60049000","lon":"20.08539000"},
{"state":"Central Banat District","name":"Jablanica","lat":"42.99528000","lon":"21.91778000"},
{"state":"Central Banat District","name":"Jadranska Lešnica","lat":"44.59730000","lon":"19.35209000"},
{"state":"Central Banat District","name":"Jagodina","lat":"43.97713000","lon":"21.26121000"},
{"state":"Central Banat District","name":"Jarebice","lat":"44.53995000","lon":"19.42418000"},
{"state":"Central Banat District","name":"Jelenča","lat":"44.72700000","lon":"19.73500000"},
{"state":"Central Banat District","name":"Jevremovac","lat":"44.72172000","lon":"19.66364000"},
{"state":"Central Banat District","name":"Joševa","lat":"44.58772000","lon":"19.40967000"},
{"state":"Central Banat District","name":"Kamenica","lat":"44.34300000","lon":"19.72333000"},
{"state":"Central Banat District","name":"Klenje","lat":"44.80794000","lon":"19.43508000"},
{"state":"Central Banat District","name":"Knjazevac","lat":"43.56634000","lon":"22.25701000"},
{"state":"Central Banat District","name":"Kolubara","lat":"44.26333000","lon":"19.88750000"},
{"state":"Central Banat District","name":"Kozjak","lat":"44.58727000","lon":"19.28412000"},
{"state":"Central Banat District","name":"Kragujevac","lat":"44.01667000","lon":"20.91667000"},
{"state":"Central Banat District","name":"Kraljevo","lat":"43.72583000","lon":"20.68944000"},
{"state":"Central Banat District","name":"Krivaja","lat":"44.55021000","lon":"19.59153000"},
{"state":"Central Banat District","name":"Krupanj","lat":"44.36556000","lon":"19.36194000"},
{"state":"Central Banat District","name":"Kruševac","lat":"43.58000000","lon":"21.33389000"},
{"state":"Central Banat District","name":"Lagja e Poshtme","lat":"42.38853000","lon":"21.72971000"},
{"state":"Central Banat District","name":"Lapovo","lat":"44.18424000","lon":"21.09727000"},
{"state":"Central Banat District","name":"Lazarevac","lat":"44.38534000","lon":"20.25570000"},
{"state":"Central Banat District","name":"Leskovac","lat":"42.99806000","lon":"21.94611000"},
{"state":"Central Banat District","name":"Lešnica","lat":"44.65250000","lon":"19.31000000"},
{"state":"Central Banat District","name":"Lipnički Šor","lat":"44.58058000","lon":"19.26572000"},
{"state":"Central Banat District","name":"Lipolist","lat":"44.69783000","lon":"19.50101000"},
{"state":"Central Banat District","name":"Ljig","lat":"44.23007000","lon":"20.23819000"},
{"state":"Central Banat District","name":"Ljubovija","lat":"44.18944000","lon":"19.37667000"},
{"state":"Central Banat District","name":"Lugavčina","lat":"44.52314000","lon":"21.07083000"},
{"state":"Central Banat District","name":"Mačva","lat":"44.61472000","lon":"19.47222000"},
{"state":"Central Banat District","name":"Majdanpek","lat":"44.42771000","lon":"21.94596000"},
{"state":"Central Banat District","name":"Majur","lat":"44.77105000","lon":"19.65512000"},
{"state":"Central Banat District","name":"Mala Moštanica","lat":"44.63834000","lon":"20.30600000"},
{"state":"Central Banat District","name":"Mali Zvornik","lat":"44.37344000","lon":"19.10651000"},
{"state":"Central Banat District","name":"Metković","lat":"44.85617000","lon":"19.54654000"},
{"state":"Central Banat District","name":"Miratovac","lat":"42.25846000","lon":"21.66456000"},
{"state":"Central Banat District","name":"Morava","lat":"43.80389000","lon":"20.17806000"},
{"state":"Central Banat District","name":"Negotin","lat":"44.22639000","lon":"22.53083000"},
{"state":"Central Banat District","name":"Niš","lat":"43.32472000","lon":"21.90333000"},
{"state":"Central Banat District","name":"Nišava","lat":"43.32306000","lon":"21.89444000"},
{"state":"Central Banat District","name":"Novi Pazar","lat":"43.13667000","lon":"20.51222000"},
{"state":"Central Banat District","name":"Novo Selo","lat":"44.67041000","lon":"19.34495000"},
{"state":"Central Banat District","name":"Obrenovac","lat":"44.65486000","lon":"20.20017000"},
{"state":"Central Banat District","name":"Osečina","lat":"44.37306000","lon":"19.60139000"},
{"state":"Central Banat District","name":"Osječenik","lat":"43.14528000","lon":"19.85889000"},
{"state":"Central Banat District","name":"Ostružnica","lat":"44.72769000","lon":"20.31845000"},
{"state":"Central Banat District","name":"Ovča","lat":"44.88349000","lon":"20.53336000"},
{"state":"Central Banat District","name":"Paraćin","lat":"43.86083000","lon":"21.40778000"},
{"state":"Central Banat District","name":"Pčinja","lat":"42.56278000","lon":"21.88250000"},
{"state":"Central Banat District","name":"Petkovica","lat":"44.66627000","lon":"19.43923000"},
{"state":"Central Banat District","name":"Pirot","lat":"43.17528000","lon":"22.59278000"},
{"state":"Central Banat District","name":"Pocerski Pričinović","lat":"44.72222000","lon":"19.70722000"},
{"state":"Central Banat District","name":"Podunavlje District","lat":"44.48417000","lon":"20.91167000"},
{"state":"Central Banat District","name":"Pomoravlje","lat":"43.93667000","lon":"21.40222000"},
{"state":"Central Banat District","name":"Požarevac","lat":"44.62133000","lon":"21.18782000"},
{"state":"Central Banat District","name":"Priboj","lat":"43.58306000","lon":"19.52519000"},
{"state":"Central Banat District","name":"Prijepolje","lat":"43.38996000","lon":"19.64870000"},
{"state":"Central Banat District","name":"Prislonica","lat":"43.95223000","lon":"20.43521000"},
{"state":"Central Banat District","name":"Prnjavor","lat":"44.70061000","lon":"19.38695000"},
{"state":"Central Banat District","name":"Prokuplje","lat":"43.23417000","lon":"21.58806000"},
{"state":"Central Banat District","name":"Radenka","lat":"44.58345000","lon":"21.76469000"},
{"state":"Central Banat District","name":"Radovnica","lat":"42.43364000","lon":"22.22861000"},
{"state":"Central Banat District","name":"Rajince","lat":"42.37870000","lon":"21.69591000"},
{"state":"Central Banat District","name":"Rasina","lat":"43.55917000","lon":"21.21472000"},
{"state":"Central Banat District","name":"Raška","lat":"43.26694000","lon":"20.65278000"},
{"state":"Central Banat District","name":"Ribari","lat":"44.70961000","lon":"19.42472000"},
{"state":"Central Banat District","name":"Rumska","lat":"44.57261000","lon":"19.58988000"},
{"state":"Central Banat District","name":"Rušanj","lat":"44.68477000","lon":"20.44993000"},
{"state":"Central Banat District","name":"Šabac","lat":"44.74667000","lon":"19.69000000"},
{"state":"Central Banat District","name":"Salaš Crnobarski","lat":"44.82843000","lon":"19.39437000"},
{"state":"Central Banat District","name":"Samoljica","lat":"42.38445000","lon":"21.73708000"},
{"state":"Central Banat District","name":"Ševarice","lat":"44.86704000","lon":"19.66006000"},
{"state":"Central Banat District","name":"Ševica","lat":"44.50883000","lon":"21.72296000"},
{"state":"Central Banat District","name":"Sinošević","lat":"44.61503000","lon":"19.63601000"},
{"state":"Central Banat District","name":"Sjenica","lat":"43.27306000","lon":"19.99944000"},
{"state":"Central Banat District","name":"Smederevo","lat":"44.66436000","lon":"20.92763000"},
{"state":"Central Banat District","name":"Smederevska Palanka","lat":"44.36548000","lon":"20.95885000"},
{"state":"Central Banat District","name":"Sokolovica","lat":"43.21528000","lon":"20.31556000"},
{"state":"Central Banat District","name":"Sokolovo Brdo","lat":"43.13694000","lon":"19.80556000"},
{"state":"Central Banat District","name":"Sremčica","lat":"44.67653000","lon":"20.39232000"},
{"state":"Central Banat District","name":"Stepojevac","lat":"44.51278000","lon":"20.29500000"},
{"state":"Central Banat District","name":"Štitar","lat":"44.79415000","lon":"19.59529000"},
{"state":"Central Banat District","name":"Stubline","lat":"44.57476000","lon":"20.13477000"},
{"state":"Central Banat District","name":"Šumadija","lat":"44.00222000","lon":"20.91778000"},
{"state":"Central Banat District","name":"Sumulicë","lat":"42.38682000","lon":"21.73400000"},
{"state":"Central Banat District","name":"Surčin","lat":"44.79306000","lon":"20.28028000"},
{"state":"Central Banat District","name":"Tabanović","lat":"44.82018000","lon":"19.64128000"},
{"state":"Central Banat District","name":"Toplica","lat":"43.14194000","lon":"21.27806000"},
{"state":"Central Banat District","name":"Tršić","lat":"44.49502000","lon":"19.26490000"},
{"state":"Central Banat District","name":"Trstenik","lat":"43.61694000","lon":"21.00250000"},
{"state":"Central Banat District","name":"Turija","lat":"44.52273000","lon":"21.63945000"},
{"state":"Central Banat District","name":"Tutin","lat":"42.99028000","lon":"20.33139000"},
{"state":"Central Banat District","name":"Ugrinovci","lat":"44.87635000","lon":"20.18763000"},
{"state":"Central Banat District","name":"Umka","lat":"44.67806000","lon":"20.30472000"},
{"state":"Central Banat District","name":"Užice","lat":"43.85861000","lon":"19.84878000"},
{"state":"Central Banat District","name":"Uzveće","lat":"44.87861000","lon":"19.60356000"},
{"state":"Central Banat District","name":"Valjevo","lat":"44.27513000","lon":"19.89821000"},
{"state":"Central Banat District","name":"Varna","lat":"44.67914000","lon":"19.65150000"},
{"state":"Central Banat District","name":"Velika Moštanica","lat":"44.66486000","lon":"20.35395000"},
{"state":"Central Banat District","name":"Vladimirci","lat":"44.61472000","lon":"19.78528000"},
{"state":"Central Banat District","name":"Vranić","lat":"44.60237000","lon":"20.32872000"},
{"state":"Central Banat District","name":"Vranje","lat":"42.55139000","lon":"21.90028000"},
{"state":"Central Banat District","name":"Vrnjačka Banja","lat":"43.62725000","lon":"20.89634000"},
{"state":"Central Banat District","name":"Zaječar","lat":"43.69917000","lon":"21.98778000"},
{"state":"Central Banat District","name":"Zemun","lat":"44.84580000","lon":"20.40116000"},
{"state":"Central Banat District","name":"Zlatibor","lat":"43.72900000","lon":"19.70029000"},
{"state":"Central Banat District","name":"Zminjak","lat":"44.75711000","lon":"19.47070000"},
{"state":"Central Banat District","name":"Žujince","lat":"42.31568000","lon":"21.70212000"},
{"state":"Central Banat District","name":"Zvečka","lat":"44.64025000","lon":"20.16432000"},
{"state":"Vojvodina","name":"Adorjan","lat":"46.00333000","lon":"20.04007000"},
{"state":"Vojvodina","name":"Aleksandrovo","lat":"45.63755000","lon":"20.59288000"},
{"state":"Vojvodina","name":"Alibunar","lat":"45.08083000","lon":"20.96583000"},
{"state":"Vojvodina","name":"Apatin","lat":"45.67260000","lon":"18.97800000"},
{"state":"Vojvodina","name":"Aradac","lat":"45.38346000","lon":"20.30137000"},
{"state":"Vojvodina","name":"Bačka Palanka","lat":"45.24966000","lon":"19.39664000"},
{"state":"Vojvodina","name":"Bačka Topola","lat":"45.81516000","lon":"19.63180000"},
{"state":"Vojvodina","name":"Bački Breg","lat":"45.92034000","lon":"18.92944000"},
{"state":"Vojvodina","name":"Bački Petrovac","lat":"45.36056000","lon":"19.59167000"},
{"state":"Vojvodina","name":"Bačko Gradište","lat":"45.53271000","lon":"20.03082000"},
{"state":"Vojvodina","name":"Bačko Petrovo Selo","lat":"45.70681000","lon":"20.07928000"},
{"state":"Vojvodina","name":"Banatska Topola","lat":"45.67248000","lon":"20.46530000"},
{"state":"Vojvodina","name":"Banatski Despotovac","lat":"45.36606000","lon":"20.66407000"},
{"state":"Vojvodina","name":"Banatski Dvor","lat":"45.51866000","lon":"20.51146000"},
{"state":"Vojvodina","name":"Banatski Karlovac","lat":"45.04987000","lon":"21.01800000"},
{"state":"Vojvodina","name":"Banatsko Karađorđevo","lat":"45.58693000","lon":"20.56421000"},
{"state":"Vojvodina","name":"Banatsko Veliko Selo","lat":"45.81961000","lon":"20.60772000"},
{"state":"Vojvodina","name":"Baranda","lat":"45.08459000","lon":"20.44264000"},
{"state":"Vojvodina","name":"Barice","lat":"45.18189000","lon":"21.08279000"},
{"state":"Vojvodina","name":"Bašaid","lat":"45.64102000","lon":"20.41434000"},
{"state":"Vojvodina","name":"Bečej","lat":"45.61632000","lon":"20.03331000"},
{"state":"Vojvodina","name":"Bela Crkva","lat":"44.89750000","lon":"21.41722000"},
{"state":"Vojvodina","name":"Belegiš","lat":"45.01920000","lon":"20.33323000"},
{"state":"Vojvodina","name":"Belo Blato","lat":"45.27278000","lon":"20.37500000"},
{"state":"Vojvodina","name":"Beška","lat":"45.13092000","lon":"20.06698000"},
{"state":"Vojvodina","name":"Bočar","lat":"45.76994000","lon":"20.28390000"},
{"state":"Vojvodina","name":"Bogojevo","lat":"45.53015000","lon":"19.13022000"},
{"state":"Vojvodina","name":"Boka","lat":"45.35540000","lon":"20.82987000"},
{"state":"Vojvodina","name":"Bosut","lat":"44.92977000","lon":"19.36086000"},
{"state":"Vojvodina","name":"Botoš","lat":"45.30837000","lon":"20.63514000"},
{"state":"Vojvodina","name":"Buđanovci","lat":"44.89388000","lon":"19.86344000"},
{"state":"Vojvodina","name":"Čelarevo","lat":"45.26999000","lon":"19.52484000"},
{"state":"Vojvodina","name":"Čenta","lat":"45.10814000","lon":"20.38947000"},
{"state":"Vojvodina","name":"Čestereg","lat":"45.56361000","lon":"20.53194000"},
{"state":"Vojvodina","name":"Čoka","lat":"45.94250000","lon":"20.14333000"},
{"state":"Vojvodina","name":"Čortanovci","lat":"45.15460000","lon":"20.01851000"},
{"state":"Vojvodina","name":"Crepaja","lat":"45.00984000","lon":"20.63702000"},
{"state":"Vojvodina","name":"Čurug","lat":"45.47221000","lon":"20.06861000"},
{"state":"Vojvodina","name":"Debeljača","lat":"45.07070000","lon":"20.60153000"},
{"state":"Vojvodina","name":"Despotovo","lat":"45.45983000","lon":"19.52653000"},
{"state":"Vojvodina","name":"Dobrica","lat":"45.21339000","lon":"20.84995000"},
{"state":"Vojvodina","name":"Doroslovo","lat":"45.60699000","lon":"19.18868000"},
{"state":"Vojvodina","name":"Ðurđevo","lat":"45.32591000","lon":"20.06532000"},
{"state":"Vojvodina","name":"Ečka","lat":"45.32328000","lon":"20.44294000"},
{"state":"Vojvodina","name":"Elemir","lat":"45.44263000","lon":"20.30003000"},
{"state":"Vojvodina","name":"Farkaždin","lat":"45.19172000","lon":"20.47239000"},
{"state":"Vojvodina","name":"Gakovo","lat":"45.90078000","lon":"19.06138000"},
{"state":"Vojvodina","name":"Gardinovci","lat":"45.20359000","lon":"20.13558000"},
{"state":"Vojvodina","name":"Gložan","lat":"45.27954000","lon":"19.56838000"},
{"state":"Vojvodina","name":"Golubinci","lat":"44.98533000","lon":"20.06339000"},
{"state":"Vojvodina","name":"Gornji Breg","lat":"45.91995000","lon":"20.01766000"},
{"state":"Vojvodina","name":"Grabovci","lat":"44.76496000","lon":"19.84489000"},
{"state":"Vojvodina","name":"Gudurica","lat":"45.16816000","lon":"21.44264000"},
{"state":"Vojvodina","name":"Hajdučica","lat":"45.25010000","lon":"20.96016000"},
{"state":"Vojvodina","name":"Hetin","lat":"45.66202000","lon":"20.79138000"},
{"state":"Vojvodina","name":"Hrtkovci","lat":"44.88155000","lon":"19.76374000"},
{"state":"Vojvodina","name":"Idvor","lat":"45.18895000","lon":"20.51442000"},
{"state":"Vojvodina","name":"Ilandža","lat":"45.16897000","lon":"20.92008000"},
{"state":"Vojvodina","name":"Inđija","lat":"45.04816000","lon":"20.08165000"},
{"state":"Vojvodina","name":"Irig","lat":"45.05230000","lon":"19.84448000"},
{"state":"Vojvodina","name":"Izbište","lat":"45.02253000","lon":"21.18388000"},
{"state":"Vojvodina","name":"Janošik","lat":"45.17141000","lon":"21.00658000"},
{"state":"Vojvodina","name":"Jarak","lat":"44.91843000","lon":"19.75477000"},
{"state":"Vojvodina","name":"Jarkovac","lat":"45.26985000","lon":"20.76078000"},
{"state":"Vojvodina","name":"Jaša Tomić","lat":"45.44725000","lon":"20.85546000"},
{"state":"Vojvodina","name":"Jazovo","lat":"45.89876000","lon":"20.22130000"},
{"state":"Vojvodina","name":"Jermenovci","lat":"45.18635000","lon":"21.04550000"},
{"state":"Vojvodina","name":"Kanjiža","lat":"46.06667000","lon":"20.05000000"},
{"state":"Vojvodina","name":"Kikinda","lat":"45.82972000","lon":"20.46528000"},
{"state":"Vojvodina","name":"Kisač","lat":"45.35421000","lon":"19.72975000"},
{"state":"Vojvodina","name":"Klek","lat":"45.42254000","lon":"20.48049000"},
{"state":"Vojvodina","name":"Klenak","lat":"44.78846000","lon":"19.71004000"},
{"state":"Vojvodina","name":"Knićanin","lat":"45.18675000","lon":"20.31900000"},
{"state":"Vojvodina","name":"Kolut","lat":"45.89292000","lon":"18.92760000"},
{"state":"Vojvodina","name":"Konak","lat":"45.31575000","lon":"20.91468000"},
{"state":"Vojvodina","name":"Kovačica","lat":"45.11167000","lon":"20.62139000"},
{"state":"Vojvodina","name":"Kovilj","lat":"45.23422000","lon":"20.02327000"},
{"state":"Vojvodina","name":"Kovin","lat":"44.74750000","lon":"20.97611000"},
{"state":"Vojvodina","name":"Kozjak","lat":"45.18264000","lon":"20.86381000"},
{"state":"Vojvodina","name":"Krajišnik","lat":"45.45283000","lon":"20.72976000"},
{"state":"Vojvodina","name":"Krčedin","lat":"45.13871000","lon":"20.13308000"},
{"state":"Vojvodina","name":"Kulpin","lat":"45.40240000","lon":"19.58814000"},
{"state":"Vojvodina","name":"Kumane","lat":"45.53946000","lon":"20.22902000"},
{"state":"Vojvodina","name":"Kupinovo","lat":"44.70708000","lon":"20.04959000"},
{"state":"Vojvodina","name":"Kupusina","lat":"45.73759000","lon":"19.01082000"},
{"state":"Vojvodina","name":"Kuštilj","lat":"45.03487000","lon":"21.37989000"},
{"state":"Vojvodina","name":"Lazarevo","lat":"45.38893000","lon":"20.53999000"},
{"state":"Vojvodina","name":"Ljukovo","lat":"45.02604000","lon":"20.02737000"},
{"state":"Vojvodina","name":"Lok","lat":"45.21583000","lon":"20.21222000"},
{"state":"Vojvodina","name":"Lokve","lat":"45.15198000","lon":"21.03073000"},
{"state":"Vojvodina","name":"Lukićevo","lat":"45.33815000","lon":"20.49895000"},
{"state":"Vojvodina","name":"Mačvanska Mitrovica","lat":"44.96739000","lon":"19.59314000"},
{"state":"Vojvodina","name":"Maglić","lat":"45.36248000","lon":"19.53211000"},
{"state":"Vojvodina","name":"Margita","lat":"45.21598000","lon":"21.17527000"},
{"state":"Vojvodina","name":"Međa","lat":"45.53815000","lon":"20.80677000"},
{"state":"Vojvodina","name":"Melenci","lat":"45.51680000","lon":"20.31961000"},
{"state":"Vojvodina","name":"Mihajlovo","lat":"45.47085000","lon":"20.41508000"},
{"state":"Vojvodina","name":"Mokrin","lat":"45.93362000","lon":"20.41215000"},
{"state":"Vojvodina","name":"Mol","lat":"45.76457000","lon":"20.13286000"},
{"state":"Vojvodina","name":"Mošorin","lat":"45.30196000","lon":"20.16919000"},
{"state":"Vojvodina","name":"Nakovo","lat":"45.87503000","lon":"20.56709000"},
{"state":"Vojvodina","name":"Neuzina","lat":"45.34460000","lon":"20.71418000"},
{"state":"Vojvodina","name":"Nikinci","lat":"44.85017000","lon":"19.82321000"},
{"state":"Vojvodina","name":"Nikolinci","lat":"45.05245000","lon":"21.06695000"},
{"state":"Vojvodina","name":"Nova Crnja","lat":"45.66833000","lon":"20.60500000"},
{"state":"Vojvodina","name":"Nova Pazova","lat":"44.94366000","lon":"20.21931000"},
{"state":"Vojvodina","name":"Novi Banovci","lat":"44.95691000","lon":"20.28076000"},
{"state":"Vojvodina","name":"Novi Itebej","lat":"45.55918000","lon":"20.70030000"},
{"state":"Vojvodina","name":"Novi Karlovci","lat":"45.07636000","lon":"20.17948000"},
{"state":"Vojvodina","name":"Novi Kneževac","lat":"46.05000000","lon":"20.10000000"},
{"state":"Vojvodina","name":"Novi Kozarci","lat":"45.78241000","lon":"20.62289000"},
{"state":"Vojvodina","name":"Novi Sad","lat":"45.25167000","lon":"19.83694000"},
{"state":"Vojvodina","name":"Novi Slankamen","lat":"45.12554000","lon":"20.23914000"},
{"state":"Vojvodina","name":"Novo Miloševo","lat":"45.71916000","lon":"20.30364000"},
{"state":"Vojvodina","name":"Obrovac","lat":"45.32106000","lon":"19.35048000"},
{"state":"Vojvodina","name":"Opovo","lat":"45.05222000","lon":"20.43028000"},
{"state":"Vojvodina","name":"Orlovat","lat":"45.24171000","lon":"20.58089000"},
{"state":"Vojvodina","name":"Ostojićevo","lat":"45.88863000","lon":"20.16642000"},
{"state":"Vojvodina","name":"Padej","lat":"45.82756000","lon":"20.16279000"},
{"state":"Vojvodina","name":"Padina","lat":"45.11988000","lon":"20.72860000"},
{"state":"Vojvodina","name":"Pančevo","lat":"44.87177000","lon":"20.64167000"},
{"state":"Vojvodina","name":"Pavliš","lat":"45.10569000","lon":"21.23952000"},
{"state":"Vojvodina","name":"Pećinci","lat":"44.90889000","lon":"19.96639000"},
{"state":"Vojvodina","name":"Perlez","lat":"45.20813000","lon":"20.38197000"},
{"state":"Vojvodina","name":"Petrovaradin","lat":"45.24667000","lon":"19.87944000"},
{"state":"Vojvodina","name":"Plandište","lat":"45.22722000","lon":"21.12167000"},
{"state":"Vojvodina","name":"Platičevo","lat":"44.82213000","lon":"19.79487000"},
{"state":"Vojvodina","name":"Prigrevica","lat":"45.67636000","lon":"19.08809000"},
{"state":"Vojvodina","name":"Putinci","lat":"44.99259000","lon":"19.97102000"},
{"state":"Vojvodina","name":"Radenković","lat":"44.92191000","lon":"19.49543000"},
{"state":"Vojvodina","name":"Radojevo","lat":"45.74617000","lon":"20.78917000"},
{"state":"Vojvodina","name":"Ravni Topolovac","lat":"45.46082000","lon":"20.56939000"},
{"state":"Vojvodina","name":"Ravnje","lat":"44.94326000","lon":"19.42280000"},
{"state":"Vojvodina","name":"Ravno Selo","lat":"45.44967000","lon":"19.62097000"},
{"state":"Vojvodina","name":"Riđica","lat":"45.99088000","lon":"19.10635000"},
{"state":"Vojvodina","name":"Ruma","lat":"45.00806000","lon":"19.82222000"},
{"state":"Vojvodina","name":"Rumenka","lat":"45.29400000","lon":"19.74306000"},
{"state":"Vojvodina","name":"Rusko Selo","lat":"45.76291000","lon":"20.57117000"},
{"state":"Vojvodina","name":"Sajan","lat":"45.84227000","lon":"20.27815000"},
{"state":"Vojvodina","name":"Šajkaš","lat":"45.27315000","lon":"20.09051000"},
{"state":"Vojvodina","name":"Sakule","lat":"45.14667000","lon":"20.48619000"},
{"state":"Vojvodina","name":"Salaš Noćajski","lat":"44.94722000","lon":"19.58611000"},
{"state":"Vojvodina","name":"Samoš","lat":"45.20255000","lon":"20.77392000"},
{"state":"Vojvodina","name":"Sanad","lat":"45.97596000","lon":"20.10816000"},
{"state":"Vojvodina","name":"Šašinci","lat":"44.96514000","lon":"19.74151000"},
{"state":"Vojvodina","name":"Sečanj","lat":"45.36667000","lon":"20.77222000"},
{"state":"Vojvodina","name":"Sefkerin","lat":"45.00501000","lon":"20.48256000"},
{"state":"Vojvodina","name":"Seleuš","lat":"45.12770000","lon":"20.91461000"},
{"state":"Vojvodina","name":"Senta","lat":"45.92750000","lon":"20.07722000"},
{"state":"Vojvodina","name":"Šimanovci","lat":"44.87393000","lon":"20.09175000"},
{"state":"Vojvodina","name":"Sombor","lat":"45.77417000","lon":"19.11222000"},
{"state":"Vojvodina","name":"Sonta","lat":"45.59427000","lon":"19.09719000"},
{"state":"Vojvodina","name":"Sremska Mitrovica","lat":"44.97639000","lon":"19.61222000"},
{"state":"Vojvodina","name":"Sremski Karlovci","lat":"45.20285000","lon":"19.93373000"},
{"state":"Vojvodina","name":"Srpska Crnja","lat":"45.72538000","lon":"20.69008000"},
{"state":"Vojvodina","name":"Srpski Itebej","lat":"45.56715000","lon":"20.71350000"},
{"state":"Vojvodina","name":"Stajićevo","lat":"45.29489000","lon":"20.45845000"},
{"state":"Vojvodina","name":"Stanišić","lat":"45.93895000","lon":"19.16709000"},
{"state":"Vojvodina","name":"Stara Pazova","lat":"44.98500000","lon":"20.16083000"},
{"state":"Vojvodina","name":"Stari Banovci","lat":"44.98420000","lon":"20.28382000"},
{"state":"Vojvodina","name":"Stari Lec","lat":"45.28401000","lon":"20.96433000"},
{"state":"Vojvodina","name":"Stepanovićevo","lat":"45.41369000","lon":"19.70000000"},
{"state":"Vojvodina","name":"Subotica","lat":"46.10000000","lon":"19.66667000"},
{"state":"Vojvodina","name":"Surduk","lat":"45.07118000","lon":"20.32510000"},
{"state":"Vojvodina","name":"Sutjeska","lat":"45.38312000","lon":"20.69620000"},
{"state":"Vojvodina","name":"Taraš","lat":"45.46737000","lon":"20.19867000"},
{"state":"Vojvodina","name":"Tiszahegyes","lat":"45.82648000","lon":"20.31791000"},
{"state":"Vojvodina","name":"Titel","lat":"45.20611000","lon":"20.29444000"},
{"state":"Vojvodina","name":"Toba","lat":"45.68943000","lon":"20.55714000"},
{"state":"Vojvodina","name":"Tomaševac","lat":"45.26855000","lon":"20.62272000"},
{"state":"Vojvodina","name":"Torak","lat":"45.50928000","lon":"20.60900000"},
{"state":"Vojvodina","name":"Torda","lat":"45.58423000","lon":"20.45900000"},
{"state":"Vojvodina","name":"Uljma","lat":"45.04213000","lon":"21.15393000"},
{"state":"Vojvodina","name":"Uzdin","lat":"45.20512000","lon":"20.62342000"},
{"state":"Vojvodina","name":"Velika Greda","lat":"45.24376000","lon":"21.03498000"},
{"state":"Vojvodina","name":"Veliki Gaj","lat":"45.28849000","lon":"21.17057000"},
{"state":"Vojvodina","name":"Veliko Središte","lat":"45.17919000","lon":"21.40353000"},
{"state":"Vojvodina","name":"Veternik","lat":"45.25446000","lon":"19.75880000"},
{"state":"Vojvodina","name":"Vilovo","lat":"45.24859000","lon":"20.15521000"},
{"state":"Vojvodina","name":"Višnjićevo","lat":"44.96731000","lon":"19.28993000"},
{"state":"Vojvodina","name":"Vladimirovac","lat":"45.03122000","lon":"20.86566000"},
{"state":"Vojvodina","name":"Vlajkovac","lat":"45.07207000","lon":"21.19945000"},
{"state":"Vojvodina","name":"Vojka","lat":"44.93713000","lon":"20.15236000"},
{"state":"Vojvodina","name":"Vojvoda Stepa","lat":"45.68537000","lon":"20.65536000"},
{"state":"Vojvodina","name":"Vrbas","lat":"45.57139000","lon":"19.64083000"},
{"state":"Vojvodina","name":"Vrdnik","lat":"45.12174000","lon":"19.79227000"},
{"state":"Vojvodina","name":"Vršac","lat":"45.11667000","lon":"21.30361000"},
{"state":"Vojvodina","name":"Žabalj","lat":"45.37222000","lon":"20.06389000"},
{"state":"Vojvodina","name":"Žitište","lat":"45.48500000","lon":"20.54972000"},
{"state":"Vojvodina","name":"Zmajevo","lat":"45.45408000","lon":"19.69050000"},
{"state":"Vojvodina","name":"Zrenjanin","lat":"45.38361000","lon":"20.38194000"}]