[{"state":"Eastern Province","name":"Kibungo","lat":"-2.15970000","lon":"30.54270000"},
{"state":"Eastern Province","name":"Rwamagana","lat":"-1.94870000","lon":"30.43470000"},
{"state":"Kigali district","name":"Kigali","lat":"-1.94995000","lon":"30.05885000"},
{"state":"Northern Province","name":"Byumba","lat":"-1.57630000","lon":"30.06750000"},
{"state":"Northern Province","name":"Musanze","lat":"-1.49984000","lon":"29.63497000"},
{"state":"Southern Province","name":"Butare","lat":"-2.59667000","lon":"29.73944000"},
{"state":"Southern Province","name":"Eglise Catholique Centrale GIKO","lat":"-1.93653000","lon":"29.80610000"},
{"state":"Southern Province","name":"Gitarama","lat":"-2.07444000","lon":"29.75667000"},
{"state":"Southern Province","name":"Nzega","lat":"-2.47900000","lon":"29.55640000"},
{"state":"Western Province","name":"Cyangugu","lat":"-2.48460000","lon":"28.90750000"},
{"state":"Western Province","name":"Gisenyi","lat":"-1.70278000","lon":"29.25639000"},
{"state":"Western Province","name":"Kibuye","lat":"-2.06028000","lon":"29.34778000"}]