[{"state":"'Asir","name":"Abha","lat":"18.21639000","lon":"42.50528000"},
{"state":"'Asir","name":"Al Majāridah","lat":"19.12361000","lon":"41.91111000"},
{"state":"'Asir","name":"Al Qahab","lat":"18.92560000","lon":"41.95500000"},
{"state":"'Asir","name":"Khamis Mushait","lat":"18.30000000","lon":"42.73333000"},
{"state":"'Asir","name":"Ma`riyah","lat":"18.85000000","lon":"41.96670000"},
{"state":"'Asir","name":"Mifa","lat":"18.89170000","lon":"41.96330000"},
{"state":"'Asir","name":"Munayzir","lat":"18.94640000","lon":"41.91640000"},
{"state":"'Asir","name":"Tabālah","lat":"19.95000000","lon":"42.40000000"},
{"state":"Al Bahah","name":"Al Bahah","lat":"20.01288000","lon":"41.46767000"},
{"state":"Al Bahah","name":"Al Mindak","lat":"20.15880000","lon":"41.28337000"},
{"state":"Al Bahah","name":"Hajrah","lat":"20.23333333","lon":"41.05000000"},
{"state":"Al Jawf","name":"Al Isawiyah","lat":"30.71681000","lon":"37.97767000"},
{"state":"Al Jawf","name":"Al-Haditha","lat":"31.45601100","lon":"37.14814000"},
{"state":"Al Jawf","name":"Halat Ammar","lat":"29.15944444","lon":"36.07500000"},
{"state":"Al Jawf","name":"Qurayyat","lat":"31.33176000","lon":"37.34282000"},
{"state":"Al Jawf","name":"Sakakah","lat":"29.96974000","lon":"40.20641000"},
{"state":"Al Jawf","name":"Şuwayr","lat":"30.11713000","lon":"40.38925000"},
{"state":"Al Jawf","name":"Tabarjal","lat":"30.50000000","lon":"38.21670000"},
{"state":"Al Jawf","name":"Ţubarjal","lat":"30.49987000","lon":"38.21603000"},
{"state":"Al Madinah","name":"`Ajmiyah","lat":"24.21670000","lon":"38.50000000"},
{"state":"Al Madinah","name":"`Alya'","lat":"23.82360000","lon":"38.88330000"},
{"state":"Al Madinah","name":"`Ushash","lat":"23.50000000","lon":"38.91670000"},
{"state":"Al Madinah","name":"`Ushayrah","lat":"24.01860000","lon":"39.67310000"},
{"state":"Al Madinah","name":"Abū Shayţānah","lat":"23.86670000","lon":"38.36670000"},
{"state":"Al Madinah","name":"Abyar 'Ali","lat":"24.41666667","lon":"39.55000000"},
{"state":"Al Madinah","name":"Ad Dulu`","lat":"24.76670000","lon":"39.53330000"},
{"state":"Al Madinah","name":"Al `Awali","lat":"24.45000000","lon":"39.61670000"},
{"state":"Al Madinah","name":"Al `Uqul","lat":"24.50000000","lon":"39.81670000"},
{"state":"Al Madinah","name":"Al Akhal","lat":"23.31560000","lon":"39.85940000"},
{"state":"Al Madinah","name":"Al Bardiyah","lat":"24.04390000","lon":"39.60610000"},
{"state":"Al Madinah","name":"Al Biqa'","lat":"24.38861111","lon":"38.59888889"},
{"state":"Al Madinah","name":"Al Bustan","lat":"23.27830000","lon":"39.24280000"},
{"state":"Al Madinah","name":"Al Faqirah","lat":"23.42170000","lon":"39.70970000"},
{"state":"Al Madinah","name":"Al Furaysh","lat":"24.22000000","lon":"39.28140000"},
{"state":"Al Madinah","name":"Al Jabriyah","lat":"24.25000000","lon":"38.51670000"},
{"state":"Al Madinah","name":"Al Jissah","lat":"23.33330000","lon":"40.30000000"},
{"state":"Al Madinah","name":"Al Kharma'","lat":"23.90000000","lon":"38.90000000"},
{"state":"Al Madinah","name":"Al Malbanah","lat":"23.18330000","lon":"39.51670000"},
{"state":"Al Madinah","name":"Al Mufrihat","lat":"24.35000000","lon":"39.41670000"},
{"state":"Al Madinah","name":"Al Multasa","lat":"24.08330000","lon":"38.15000000"},
{"state":"Al Madinah","name":"Al Musayjid","lat":"24.08330000","lon":"39.10000000"},
{"state":"Al Madinah","name":"Al Wuday","lat":"24.17890000","lon":"39.54810000"},
{"state":"Al Madinah","name":"Al-Jafr","lat":"25.41666667","lon":"49.61666667"},
{"state":"Al Madinah","name":"Al-Ula","lat":"26.60853000","lon":"37.92316000"},
{"state":"Al Madinah","name":"As Sadayir","lat":"24.25000000","lon":"39.18330000"},
{"state":"Al Madinah","name":"As Safra'","lat":"24.01277778","lon":"38.92277778"},
{"state":"Al Madinah","name":"As Sumariyah","lat":"24.92140000","lon":"39.61780000"},
{"state":"Al Madinah","name":"As Suwayriqiyah","lat":"23.35000000","lon":"40.31670000"},
{"state":"Al Madinah","name":"Ash Shufayyah","lat":"23.81670000","lon":"39.15000000"},
{"state":"Al Madinah","name":"Asira","lat":"24.33330000","lon":"38.63330000"},
{"state":"Al Madinah","name":"Baq`a'","lat":"24.21666667","lon":"38.71666667"},
{"state":"Al Madinah","name":"Bartiyah","lat":"24.28330000","lon":"38.58330000"},
{"state":"Al Madinah","name":"Bi'r al Mashi","lat":"24.21666667","lon":"39.55000000"},
{"state":"Al Madinah","name":"Birkah","lat":"23.82030000","lon":"38.85970000"},
{"state":"Al Madinah","name":"Far`","lat":"23.81670000","lon":"38.86670000"},
{"state":"Al Madinah","name":"Fiji","lat":"24.26666667","lon":"38.56666667"},
{"state":"Al Madinah","name":"Harthiyah","lat":"24.25000000","lon":"38.55000000"},
{"state":"Al Madinah","name":"Haylat Radi al Baham","lat":"24.08390000","lon":"39.72500000"},
{"state":"Al Madinah","name":"Husayniyah","lat":"23.86666667","lon":"38.90000000"},
{"state":"Al Madinah","name":"Jadidah","lat":"23.81670000","lon":"38.83330000"},
{"state":"Al Madinah","name":"Khayf Fadil","lat":"24.26670000","lon":"38.56670000"},
{"state":"Al Madinah","name":"Madsus","lat":"24.35000000","lon":"38.55000000"},
{"state":"Al Madinah","name":"Mahattat al Hafah","lat":"23.75000000","lon":"39.30000000"},
{"state":"Al Madinah","name":"Maqrah","lat":"24.41670000","lon":"38.70000000"},
{"state":"Al Madinah","name":"Maqshush","lat":"23.58330000","lon":"38.60000000"},
{"state":"Al Madinah","name":"Masahili","lat":"24.03330000","lon":"38.23330000"},
{"state":"Al Madinah","name":"Mawarah","lat":"24.20000000","lon":"38.43330000"},
{"state":"Al Madinah","name":"Medina","lat":"24.46861000","lon":"39.61417000"},
{"state":"Al Madinah","name":"Milhah","lat":"24.05000000","lon":"38.30000000"},
{"state":"Al Madinah","name":"Nujayl","lat":"24.26670000","lon":"38.65000000"},
{"state":"Al Madinah","name":"Qaba'","lat":"24.40000000","lon":"39.65000000"},
{"state":"Al Madinah","name":"Rayyis","lat":"23.56670000","lon":"38.60000000"},
{"state":"Al Madinah","name":"Sha`tha'","lat":"24.23333333","lon":"38.53333333"},
{"state":"Al Madinah","name":"Sidi Hamzah","lat":"24.50000000","lon":"39.61670000"},
{"state":"Al Madinah","name":"Suq Suwayq","lat":"24.36670000","lon":"38.45000000"},
{"state":"Al Madinah","name":"Suqubiya","lat":"24.23330000","lon":"38.50000000"},
{"state":"Al Madinah","name":"Suwadah","lat":"24.03330000","lon":"38.20000000"},
{"state":"Al Madinah","name":"Wasitah","lat":"23.88330000","lon":"38.90000000"},
{"state":"Al Madinah","name":"Yanbu","lat":"24.08954000","lon":"38.06180000"},
{"state":"Al-Qassim","name":"Adh Dhibiyah","lat":"26.02700000","lon":"43.15700000"},
{"state":"Al-Qassim","name":"Al Bukayrīyah","lat":"26.13915000","lon":"43.65782000"},
{"state":"Al-Qassim","name":"Al Fuwayliq","lat":"26.44360000","lon":"43.25164000"},
{"state":"Al-Qassim","name":"Al Mithnab","lat":"25.86012000","lon":"44.22228000"},
{"state":"Al-Qassim","name":"Al Thybiyah","lat":"26.02700000","lon":"43.15700000"},
{"state":"Al-Qassim","name":"Ar Rass","lat":"25.86944000","lon":"43.49730000"},
{"state":"Al-Qassim","name":"Buraidah","lat":"26.33333333","lon":"43.96666667"},
{"state":"Al-Qassim","name":"Buraydah","lat":"26.32599000","lon":"43.97497000"},
{"state":"Al-Qassim","name":"Dukhnah","lat":"25.35621000","lon":"43.62268000"},
{"state":"Al-Qassim","name":"Qiba","lat":"27.40285000","lon":"44.32770000"},
{"state":"Al-Qassim","name":"Tanūmah","lat":"27.10000000","lon":"44.13333000"},
{"state":"Al-Qassim","name":"Wed Alnkil","lat":"25.42670000","lon":"42.83430000"},
{"state":"Eastern Province","name":"Abqaiq","lat":"25.93402000","lon":"49.66880000"},
{"state":"Eastern Province","name":"Al Awjām","lat":"26.56324000","lon":"49.94331000"},
{"state":"Eastern Province","name":"Al Baţţālīyah","lat":"25.43333000","lon":"49.63333000"},
{"state":"Eastern Province","name":"Al Hufūf","lat":"25.36467000","lon":"49.58764000"},
{"state":"Eastern Province","name":"Al Jafr","lat":"25.37736000","lon":"49.72154000"},
{"state":"Eastern Province","name":"Al Jubayl","lat":"27.01740000","lon":"49.62251000"},
{"state":"Eastern Province","name":"Al Khafjī","lat":"28.43905000","lon":"48.49132000"},
{"state":"Eastern Province","name":"Al Markaz","lat":"25.40000000","lon":"49.73333000"},
{"state":"Eastern Province","name":"Al Mubarraz","lat":"25.40768000","lon":"49.59028000"},
{"state":"Eastern Province","name":"Al Munayzilah","lat":"25.38333000","lon":"49.66667000"},
{"state":"Eastern Province","name":"Al Muţayrifī","lat":"25.47878000","lon":"49.55824000"},
{"state":"Eastern Province","name":"Al Qārah","lat":"25.41667000","lon":"49.66667000"},
{"state":"Eastern Province","name":"Al Qaţīf","lat":"26.56542000","lon":"50.00890000"},
{"state":"Eastern Province","name":"Al Qurayn","lat":"25.48333000","lon":"49.60000000"},
{"state":"Eastern Province","name":"Al Ubaylah","lat":"21.98417000","lon":"50.93966000"},
{"state":"Eastern Province","name":"Al-Awamiyah","lat":"26.58333300","lon":"49.98333300"},
{"state":"Eastern Province","name":"Al-Awjam","lat":"26.55830000","lon":"49.95030000"},
{"state":"Eastern Province","name":"Al-Mubarraz","lat":"25.44160000","lon":"49.66420000"},
{"state":"Eastern Province","name":"As Saffānīyah","lat":"27.97083000","lon":"48.73000000"},
{"state":"Eastern Province","name":"Aţ Ţaraf","lat":"25.36232000","lon":"49.72757000"},
{"state":"Eastern Province","name":"At Tūbī","lat":"26.55778000","lon":"49.99167000"},
{"state":"Eastern Province","name":"Dammam","lat":"26.43442000","lon":"50.10326000"},
{"state":"Eastern Province","name":"Dhahran","lat":"26.28864000","lon":"50.11396000"},
{"state":"Eastern Province","name":"Ha'il ","lat":"27.51666667","lon":"41.68333333"},
{"state":"Eastern Province","name":"Hafar Al-Batin","lat":"28.43279000","lon":"45.97077000"},
{"state":"Eastern Province","name":"Haradh","lat":"24.14555556","lon":"49.06527778"},
{"state":"Eastern Province","name":"Julayjilah","lat":"25.50000000","lon":"49.60000000"},
{"state":"Eastern Province","name":"Khobar","lat":"26.27944000","lon":"50.20833000"},
{"state":"Eastern Province","name":"Mulayjah","lat":"27.27103000","lon":"48.42419000"},
{"state":"Eastern Province","name":"Nariyah","lat":"27.46990000","lon":"48.48440000"},
{"state":"Eastern Province","name":"Qaisumah","lat":"28.31117000","lon":"46.12729000"},
{"state":"Eastern Province","name":"Raḩīmah","lat":"26.70791000","lon":"50.06194000"},
{"state":"Eastern Province","name":"Şafwá","lat":"26.64970000","lon":"49.95522000"},
{"state":"Eastern Province","name":"Sayhāt","lat":"26.47500000","lon":"50.04166667"},
{"state":"Eastern Province","name":"Tārūt","lat":"26.57330000","lon":"50.04028000"},
{"state":"Eastern Province","name":"Udhailiyah","lat":"25.13330000","lon":"49.30000000"},
{"state":"Eastern Province","name":"Umm as Sāhik","lat":"26.65361000","lon":"49.91639000"},
{"state":"Eastern Province","name":"Uqair","lat":"25.64310000","lon":"50.21440000"},
{"state":"Ha'il","name":"Jubbah","lat":"28.00620000","lon":"40.94160000"},
{"state":"Ha'il","name":"Mawqaq","lat":"27.38398000","lon":"41.17635000"},
{"state":"Ha'il","name":"Qufar","lat":"27.41534000","lon":"41.61903000"},
{"state":"Ha'il","name":"Simira","lat":"26.49418000","lon":"42.12494000"},
{"state":"Jizan","name":"Abū ‘Arīsh","lat":"16.96887000","lon":"42.83251000"},
{"state":"Jizan","name":"Abu Radif","lat":"16.61860000","lon":"43.13110000"},
{"state":"Jizan","name":"Ad Darb","lat":"17.72285000","lon":"42.25261000"},
{"state":"Jizan","name":"Ad Dur`iyah","lat":"16.58420000","lon":"42.84310000"},
{"state":"Jizan","name":"Adh Dhagharir","lat":"16.67780000","lon":"42.95920000"},
{"state":"Jizan","name":"Al `Ulayin","lat":"17.15000000","lon":"43.17080000"},
{"state":"Jizan","name":"Al `Usaylah","lat":"16.92030000","lon":"42.73530000"},
{"state":"Jizan","name":"Al Badawi","lat":"16.63330000","lon":"42.86500000"},
{"state":"Jizan","name":"Al Hadrur","lat":"16.54360000","lon":"42.86720000"},
{"state":"Jizan","name":"Al Hanashah","lat":"16.55810000","lon":"42.76530000"},
{"state":"Jizan","name":"Al Harani","lat":"16.77500000","lon":"42.90970000"},
{"state":"Jizan","name":"Al Hasamah","lat":"16.68333333","lon":"42.92694444"},
{"state":"Jizan","name":"Al Hijfar","lat":"16.54440000","lon":"42.84720000"},
{"state":"Jizan","name":"Al Jadi","lat":"16.64500000","lon":"42.99470000"},
{"state":"Jizan","name":"Al Jarādīyah","lat":"16.57946000","lon":"42.91240000"},
{"state":"Jizan","name":"Al Jawah","lat":"16.95670000","lon":"43.02970000"},
{"state":"Jizan","name":"Al Jirbah","lat":"16.92640000","lon":"42.88610000"},
{"state":"Jizan","name":"Al Karbus","lat":"16.87330000","lon":"42.63170000"},
{"state":"Jizan","name":"Al Kawahilah","lat":"16.96140000","lon":"42.67250000"},
{"state":"Jizan","name":"Al Khadra' Jizan","lat":"16.58583333","lon":"42.96333333"},
{"state":"Jizan","name":"Al Kharabah Jizan","lat":"16.75580000","lon":"42.95470000"},
{"state":"Jizan","name":"Al Kharadilah","lat":"16.92720000","lon":"42.62640000"},
{"state":"Jizan","name":"Al Khashabiyah","lat":"16.94030000","lon":"42.64310000"},
{"state":"Jizan","name":"Al Khubah","lat":"16.78860000","lon":"43.22190000"},
{"state":"Jizan","name":"Al Kirs","lat":"16.57720000","lon":"42.94750000"},
{"state":"Jizan","name":"Al Luqiyah","lat":"16.66060000","lon":"43.04000000"},
{"state":"Jizan","name":"Al Ma`ayin","lat":"16.61080000","lon":"43.14720000"},
{"state":"Jizan","name":"Al Madaya","lat":"16.76970000","lon":"42.73110000"},
{"state":"Jizan","name":"Al Mali","lat":"16.79530000","lon":"42.95360000"},
{"state":"Jizan","name":"Al Mayasam","lat":"16.94780000","lon":"42.72110000"},
{"state":"Jizan","name":"Al Qa'im","lat":"16.71944444","lon":"42.97666667"},
{"state":"Jizan","name":"Al Quful","lat":"16.67330000","lon":"43.07890000"},
{"state":"Jizan","name":"Al Qurayb","lat":"16.97500000","lon":"42.72530000"},
{"state":"Jizan","name":"Al Quwah","lat":"16.79940000","lon":"43.22500000"},
{"state":"Jizan","name":"Al Wasili","lat":"16.94690000","lon":"42.69030000"},
{"state":"Jizan","name":"An Najamiyah","lat":"16.56470000","lon":"42.94390000"},
{"state":"Jizan","name":"Ar Rukubah","lat":"16.62220000","lon":"42.96750000"},
{"state":"Jizan","name":"Ash Shuqayq","lat":"17.70305556","lon":"42.02944444"},
{"state":"Jizan","name":"Bakhshat Yamani","lat":"16.89860000","lon":"42.59890000"},
{"state":"Jizan","name":"Farasān","lat":"16.70222000","lon":"42.11833000"},
{"state":"Jizan","name":"Ghawiyah","lat":"16.56500000","lon":"43.11080000"},
{"state":"Jizan","name":"Hamayyah","lat":"16.98940000","lon":"43.16030000"},
{"state":"Jizan","name":"Hamdah","lat":"16.76190000","lon":"42.92220000"},
{"state":"Jizan","name":"Jizan","lat":"16.88917000","lon":"42.55111000"},
{"state":"Jizan","name":"Juha Saudi Arabia","lat":"16.66940000","lon":"42.89220000"},
{"state":"Jizan","name":"Ka`lul","lat":"16.89750000","lon":"42.84670000"},
{"state":"Jizan","name":"Khabath Sa`id","lat":"16.99780000","lon":"42.73220000"},
{"state":"Jizan","name":"Khalfah","lat":"16.55470000","lon":"43.08940000"},
{"state":"Jizan","name":"Khatib Saudi Arabia","lat":"16.89610000","lon":"41.85750000"},
{"state":"Jizan","name":"Khumsiyah","lat":"16.77140000","lon":"42.80190000"},
{"state":"Jizan","name":"Khushaym","lat":"16.88000000","lon":"43.13720000"},
{"state":"Jizan","name":"Mahatah","lat":"16.83330000","lon":"43.16670000"},
{"state":"Jizan","name":"Malgocta","lat":"16.99777778","lon":"42.67388889"},
{"state":"Jizan","name":"Mislīyah","lat":"17.45988000","lon":"42.55720000"},
{"state":"Jizan","name":"Mizhirah","lat":"16.82611000","lon":"42.73333000"},
{"state":"Jizan","name":"Mukambal","lat":"16.59360000","lon":"43.03280000"},
{"state":"Jizan","name":"Mundaraq","lat":"16.75420000","lon":"43.14890000"},
{"state":"Jizan","name":"Muwassam","lat":"16.41670000","lon":"42.82580000"},
{"state":"Jizan","name":"Qitabir","lat":"17.33330000","lon":"43.25000000"},
{"state":"Jizan","name":"Quwayda'","lat":"16.73333333","lon":"42.89027778"},
{"state":"Jizan","name":"Rahwan","lat":"16.83330000","lon":"43.21670000"},
{"state":"Jizan","name":"Rawkhah","lat":"16.94780000","lon":"42.79330000"},
{"state":"Jizan","name":"Şabyā","lat":"17.14950000","lon":"42.62537000"},
{"state":"Jizan","name":"Sadiliyah","lat":"16.92640000","lon":"42.83000000"},
{"state":"Jizan","name":"Salamah","lat":"16.97530000","lon":"42.75640000"},
{"state":"Jizan","name":"Şāmitah","lat":"16.59601000","lon":"42.94435000"},
{"state":"Makkah","name":"Abu `Urwah","lat":"21.65000000","lon":"39.70000000"},
{"state":"Makkah","name":"Abu Hisani","lat":"21.73060000","lon":"39.78330000"},
{"state":"Makkah","name":"Abu Qirfah","lat":"21.76670000","lon":"39.68330000"},
{"state":"Makkah","name":"Abu Shu`ayb","lat":"21.58330000","lon":"39.70000000"},
{"state":"Makkah","name":"Ad Dabbah","lat":"21.71670000","lon":"39.83330000"},
{"state":"Makkah","name":"Ad Dawh","lat":"21.77220000","lon":"39.70140000"},
{"state":"Makkah","name":"Ad Dur","lat":"21.81670000","lon":"39.76670000"},
{"state":"Makkah","name":"Al Ābār","lat":"21.09810000","lon":"39.91030000"},
{"state":"Makkah","name":"Al Adl","lat":"21.44361000","lon":"39.85611000"},
{"state":"Makkah","name":"Al Ashraf","lat":"21.52360000","lon":"39.61670000"},
{"state":"Makkah","name":"Al Balad","lat":"21.48780000","lon":"39.19360000"},
{"state":"Makkah","name":"Al Barabir","lat":"21.52030000","lon":"39.63250000"},
{"state":"Makkah","name":"Al Bi'ar","lat":"22.64972222","lon":"39.67027778"},
{"state":"Makkah","name":"Al Birk","lat":"18.21631000","lon":"41.53593000"},
{"state":"Makkah","name":"Al Buraykah","lat":"21.78610000","lon":"39.71670000"},
{"state":"Makkah","name":"Al Fawwarah","lat":"21.83280000","lon":"40.16110000"},
{"state":"Makkah","name":"Al Faydah","lat":"21.98440000","lon":"39.38470000"},
{"state":"Makkah","name":"Al Fazz","lat":"21.98330000","lon":"39.52220000"},
{"state":"Makkah","name":"Al Gharith","lat":"21.60000000","lon":"41.88330000"},
{"state":"Makkah","name":"Al Ghassalah","lat":"21.45000000","lon":"39.86670000"},
{"state":"Makkah","name":"Al Ghulah","lat":"21.95000000","lon":"39.31670000"},
{"state":"Makkah","name":"Al Hadā","lat":"21.36753000","lon":"40.28694000"},
{"state":"Makkah","name":"Al Halaqah","lat":"21.35000000","lon":"40.45000000"},
{"state":"Makkah","name":"Al Hamimah","lat":"21.51670000","lon":"39.63330000"},
{"state":"Makkah","name":"Al Harra' Makkah","lat":"21.95000000","lon":"39.48333333"},
{"state":"Makkah","name":"Al Hawiyah","lat":"21.42415000","lon":"40.49303000"},
{"state":"Makkah","name":"Al Iskan","lat":"21.40000000","lon":"39.78330000"},
{"state":"Makkah","name":"Al Jadidah","lat":"21.67030000","lon":"40.12640000"},
{"state":"Makkah","name":"Al Jami`ah","lat":"21.46670000","lon":"39.25000000"},
{"state":"Makkah","name":"Al Jid`","lat":"21.93330000","lon":"39.58330000"},
{"state":"Makkah","name":"Al Ju`ranah","lat":"21.56670000","lon":"39.95000000"},
{"state":"Makkah","name":"Al Jumūm","lat":"21.61694000","lon":"39.69806000"},
{"state":"Makkah","name":"Al Khadra' Makkah","lat":"21.46777778","lon":"39.90472222"},
{"state":"Makkah","name":"Al Khalas","lat":"21.70000000","lon":"39.80000000"},
{"state":"Makkah","name":"Al Khamrah","lat":"22.43330000","lon":"39.46670000"},
{"state":"Makkah","name":"Al Khaydar","lat":"21.46940000","lon":"40.63060000"},
{"state":"Makkah","name":"Al Khayf","lat":"21.68330000","lon":"39.73330000"},
{"state":"Makkah","name":"Al Khulasah","lat":"21.68330000","lon":"39.91670000"},
{"state":"Makkah","name":"Al Kidwah","lat":"21.78330000","lon":"39.68330000"},
{"state":"Makkah","name":"Al Kura`","lat":"21.80000000","lon":"39.13330000"},
{"state":"Makkah","name":"Al Ma`rash","lat":"21.13330000","lon":"40.60000000"},
{"state":"Makkah","name":"Al Madiq Makkah","lat":"21.67580000","lon":"40.13080000"},
{"state":"Makkah","name":"Al Maghal","lat":"21.96670000","lon":"39.55000000"},
{"state":"Makkah","name":"Al Mahjar","lat":"21.43330000","lon":"39.20000000"},
{"state":"Makkah","name":"Al Maqrah","lat":"21.26670000","lon":"39.95000000"},
{"state":"Makkah","name":"Al Masarrah","lat":"21.36670000","lon":"40.46670000"},
{"state":"Makkah","name":"Al Masfalah","lat":"21.41670000","lon":"39.81670000"},
{"state":"Makkah","name":"Al Mashayikh","lat":"21.35000000","lon":"40.33330000"},
{"state":"Makkah","name":"Al Mathnah","lat":"21.26666667","lon":"40.38333333"},
{"state":"Makkah","name":"Al Mubarak","lat":"21.70000000","lon":"39.90000000"},
{"state":"Makkah","name":"Al Mudawwarah","lat":"21.26670000","lon":"39.96670000"},
{"state":"Makkah","name":"Al Mulayha'","lat":"21.80000000","lon":"40.35000000"},
{"state":"Makkah","name":"Al Mundassah","lat":"21.63330000","lon":"39.74860000"},
{"state":"Makkah","name":"Al Muqayti`","lat":"21.54860000","lon":"39.78610000"},
{"state":"Makkah","name":"Al Muqr","lat":"22.00000000","lon":"39.38330000"},
{"state":"Makkah","name":"Al Muwayh","lat":"22.43333000","lon":"41.75829000"},
{"state":"Makkah","name":"Al Qadimah","lat":"22.35000000","lon":"39.15000000"},
{"state":"Makkah","name":"Al Qararah","lat":"21.42890000","lon":"39.82810000"},
{"state":"Makkah","name":"Al Qaryat","lat":"21.46670000","lon":"39.20000000"},
{"state":"Makkah","name":"Al Qawba`iyah","lat":"21.66670000","lon":"39.98330000"},
{"state":"Makkah","name":"Al Qirshan","lat":"21.56670000","lon":"39.70000000"},
{"state":"Makkah","name":"Al Qu`tubah","lat":"21.93330000","lon":"40.36670000"},
{"state":"Makkah","name":"Al Qufayf","lat":"21.83330000","lon":"40.45000000"},
{"state":"Makkah","name":"Al Qushashiyah","lat":"21.43330000","lon":"39.83330000"},
{"state":"Makkah","name":"Al Ukhaydir","lat":"21.93330000","lon":"40.01670000"},
{"state":"Makkah","name":"Al Waht","lat":"21.23330000","lon":"40.35000000"},
{"state":"Makkah","name":"Ar Rabwah as Sufla","lat":"21.95530000","lon":"39.43670000"},
{"state":"Makkah","name":"Ar Rafah","lat":"21.51670000","lon":"40.20000000"},
{"state":"Makkah","name":"Ar Rawdah ash Shamaliyah","lat":"21.73330000","lon":"39.96670000"},
{"state":"Makkah","name":"Ar Rudaymah","lat":"21.76670000","lon":"39.68330000"},
{"state":"Makkah","name":"Arya`","lat":"21.08560000","lon":"40.62390000"},
{"state":"Makkah","name":"As Sadr","lat":"21.51890000","lon":"40.19750000"},
{"state":"Makkah","name":"As Samd ash Shamali","lat":"21.67500000","lon":"39.75000000"},
{"state":"Makkah","name":"As Sayl al Kabir","lat":"21.62640000","lon":"40.41530000"},
{"state":"Makkah","name":"As Sayl as Saghir","lat":"21.50640000","lon":"40.48220000"},
{"state":"Makkah","name":"As Sifyani","lat":"21.47560000","lon":"39.84310000"},
{"state":"Makkah","name":"As Sudayrah Makkah","lat":"21.36190000","lon":"40.85470000"},
{"state":"Makkah","name":"As Suwadah","lat":"21.13390000","lon":"40.51170000"},
{"state":"Makkah","name":"Ash Shafā","lat":"21.07210000","lon":"40.31185000"},
{"state":"Makkah","name":"Ash Shajwah","lat":"21.66440000","lon":"40.01140000"},
{"state":"Makkah","name":"Ash Shamiyah","lat":"21.84110000","lon":"39.52440000"},
{"state":"Makkah","name":"Ash Shara'i`","lat":"21.46305556","lon":"39.94611111"},
{"state":"Makkah","name":"Ash Shaybi","lat":"21.69580000","lon":"39.94170000"},
{"state":"Makkah","name":"Ash Shi`b","lat":"21.96890000","lon":"39.48610000"},
{"state":"Makkah","name":"Ash Shishah","lat":"21.35030000","lon":"39.89190000"},
{"state":"Makkah","name":"Ash Shumaysi","lat":"21.58330000","lon":"39.68330000"},
{"state":"Makkah","name":"Ash Shuwaybit","lat":"21.37970000","lon":"40.51940000"},
{"state":"Makkah","name":"At Tan`im","lat":"21.48250000","lon":"39.80500000"},
{"state":"Makkah","name":"At Tarfa'","lat":"21.70638889","lon":"39.87138889"},
{"state":"Makkah","name":"At Turqi","lat":"21.94920000","lon":"39.41310000"},
{"state":"Makkah","name":"Az Zaymah","lat":"21.61860000","lon":"40.11330000"},
{"state":"Makkah","name":"Az Zilal","lat":"21.48890000","lon":"39.59420000"},
{"state":"Makkah","name":"Az Zughbah","lat":"21.71670000","lon":"39.94580000"},
{"state":"Makkah","name":"Az Zurra`","lat":"21.91060000","lon":"39.40000000"},
{"state":"Makkah","name":"Az Zuwayb","lat":"21.91670000","lon":"39.96940000"},
{"state":"Makkah","name":"Bahrat al Qadimah","lat":"21.41330000","lon":"39.49390000"},
{"state":"Makkah","name":"Bahwil","lat":"22.42940000","lon":"39.42940000"},
{"state":"Makkah","name":"Baranah","lat":"21.55420000","lon":"39.82220000"},
{"state":"Makkah","name":"Barzah","lat":"21.98000000","lon":"39.67560000"},
{"state":"Makkah","name":"Bashm","lat":"21.48220000","lon":"39.82080000"},
{"state":"Makkah","name":"Buraykah","lat":"22.34440000","lon":"39.32000000"},
{"state":"Makkah","name":"Burayman","lat":"21.63750000","lon":"39.22640000"},
{"state":"Makkah","name":"CITY GHRAN","lat":"21.97380000","lon":"39.36820000"},
{"state":"Makkah","name":"Dabyah","lat":"22.42470000","lon":"39.44610000"},
{"state":"Makkah","name":"Dahaban","lat":"21.93333333","lon":"39.11666667"},
{"state":"Makkah","name":"Dughaybjah","lat":"22.59030000","lon":"41.35970000"},
{"state":"Makkah","name":"Fayd","lat":"21.91720000","lon":"39.38830000"},
{"state":"Makkah","name":"Ghran","lat":"21.98027000","lon":"39.36521000"},
{"state":"Makkah","name":"Hadda'","lat":"21.45027778","lon":"39.55444444"},
{"state":"Makkah","name":"Haddat ash Sham","lat":"21.79670000","lon":"39.68330000"},
{"state":"Makkah","name":"Hadhah","lat":"21.65250000","lon":"40.01420000"},
{"state":"Makkah","name":"Hajur","lat":"23.01780000","lon":"39.73030000"},
{"state":"Makkah","name":"Halamah","lat":"21.95420000","lon":"39.70280000"},
{"state":"Makkah","name":"Husnah","lat":"21.80000000","lon":"39.59166667"},
{"state":"Makkah","name":"Jarwal","lat":"21.43330000","lon":"39.81670000"},
{"state":"Makkah","name":"Jeddah","lat":"21.54238000","lon":"39.19797000"},
{"state":"Makkah","name":"Julayyil","lat":"21.95830000","lon":"39.75830000"},
{"state":"Makkah","name":"Khumrah","lat":"21.37280000","lon":"39.22610000"},
{"state":"Makkah","name":"Kulakh","lat":"21.29640000","lon":"40.79690000"},
{"state":"Makkah","name":"Madrakah","lat":"21.97970000","lon":"39.98750000"},
{"state":"Makkah","name":"Mafruq","lat":"21.52220000","lon":"40.17940000"},
{"state":"Makkah","name":"Malakan","lat":"21.21580000","lon":"39.95030000"},
{"state":"Makkah","name":"Mashajji","lat":"21.73890000","lon":"39.96670000"},
{"state":"Makkah","name":"Masihat Mahd al Hayl","lat":"21.94170000","lon":"39.88610000"},
{"state":"Makkah","name":"Maskar","lat":"21.75000000","lon":"40.31640000"},
{"state":"Makkah","name":"Matiyah","lat":"21.54170000","lon":"39.81940000"},
{"state":"Makkah","name":"Mecca","lat":"21.42664000","lon":"39.82563000"},
{"state":"Makkah","name":"Mina","lat":"21.41333333","lon":"39.89333333"},
{"state":"Makkah","name":"Murshidiyah","lat":"21.48890000","lon":"39.79440000"},
{"state":"Makkah","name":"Mushrif","lat":"22.62920000","lon":"41.35670000"},
{"state":"Makkah","name":"Nughayshiyah","lat":"21.21670000","lon":"40.75000000"},
{"state":"Makkah","name":"Nuzlat al Faqin","lat":"22.00000000","lon":"39.41670000"},
{"state":"Makkah","name":"Qiya","lat":"21.06670000","lon":"41.01670000"},
{"state":"Makkah","name":"Quwayzah","lat":"21.49030000","lon":"39.27670000"},
{"state":"Makkah","name":"Rābigh","lat":"22.79856000","lon":"39.03493000"},
{"state":"Makkah","name":"Rabwah Ghran","lat":"21.98330000","lon":"39.41670000"},
{"state":"Makkah","name":"Raqiyah","lat":"21.76670000","lon":"40.35000000"},
{"state":"Makkah","name":"Sabuhah","lat":"21.58330000","lon":"40.11670000"},
{"state":"Makkah","name":"Shi`b `amir","lat":"21.43330000","lon":"39.83330000"},
{"state":"Makkah","name":"Shira`ayn","lat":"21.28330000","lon":"40.78330000"},
{"state":"Makkah","name":"Sulaym","lat":"22.58330000","lon":"39.63330000"},
{"state":"Makkah","name":"Sumaymah","lat":"21.25000000","lon":"39.16670000"},
{"state":"Makkah","name":"Suways","lat":"21.95000000","lon":"39.96670000"},
{"state":"Makkah","name":"Ta'if","lat":"21.27028000","lon":"40.41583000"},
{"state":"Makkah","name":"Tharwah","lat":"21.51670000","lon":"39.61670000"},
{"state":"Makkah","name":"Thuwal","lat":"22.28333333","lon":"39.10000000"},
{"state":"Makkah","name":"Turabah","lat":"21.21406000","lon":"41.63310000"},
{"state":"Makkah","name":"Usfan","lat":"21.92306000","lon":"39.35594000"},
{"state":"Makkah","name":"Wadi al Jalil","lat":"21.46670000","lon":"39.85000000"},
{"state":"Najran","name":"Najrān","lat":"17.49326000","lon":"44.12766000"},
{"state":"Northern Borders","name":"Arar","lat":"30.97531000","lon":"41.03808000"},
{"state":"Northern Borders","name":"Nisab","lat":"29.19274000","lon":"44.71598000"},
{"state":"Northern Borders","name":"Turaif","lat":"31.67252000","lon":"38.66374000"},
{"state":"Northern Borders","name":"Umm Radamah","lat":"28.67985000","lon":"44.69549000"},
{"state":"Riyadh","name":"Ad Dawādimī","lat":"24.50772000","lon":"44.39237000"},
{"state":"Riyadh","name":"Ad Dilam","lat":"23.99104000","lon":"47.16181000"},
{"state":"Riyadh","name":"Afif","lat":"23.90650000","lon":"42.91724000"},
{"state":"Riyadh","name":"Ain AlBaraha","lat":"24.75806000","lon":"43.77389000"},
{"state":"Riyadh","name":"Al Arţāwīyah","lat":"26.50387000","lon":"45.34813000"},
{"state":"Riyadh","name":"Al Bir","lat":"25.30000000","lon":"45.96670000"},
{"state":"Riyadh","name":"Al Hair","lat":"24.39072000","lon":"46.98677000"},
{"state":"Riyadh","name":"Al Jurayfah","lat":"25.52932000","lon":"45.25644000"},
{"state":"Riyadh","name":"Al Kharj","lat":"24.15541000","lon":"47.33457000"},
{"state":"Riyadh","name":"Ar Rayn","lat":"23.54995000","lon":"45.50463000"},
{"state":"Riyadh","name":"As Salamiyah","lat":"24.20154000","lon":"47.28872000"},
{"state":"Riyadh","name":"As Sulayyil","lat":"20.46067000","lon":"45.57792000"},
{"state":"Riyadh","name":"Az Zulfī","lat":"26.29945000","lon":"44.81542000"},
{"state":"Riyadh","name":"Dawadmi","lat":"24.50772000","lon":"44.39237000"},
{"state":"Riyadh","name":"Diriyah","lat":"24.75187000","lon":"46.53874000"},
{"state":"Riyadh","name":"Harmah","lat":"25.91666667","lon":"45.33333333"},
{"state":"Riyadh","name":"Jalajil","lat":"25.66666667","lon":"45.45000000"},
{"state":"Riyadh","name":"Layla","lat":"22.28330000","lon":"46.73330000"},
{"state":"Riyadh","name":"Manfuha","lat":"24.59611111","lon":"46.72722222"},
{"state":"Riyadh","name":"Marāt","lat":"25.07064000","lon":"45.45775000"},
{"state":"Riyadh","name":"Najan","lat":"24.07746000","lon":"47.16590000"},
{"state":"Riyadh","name":"Riyadh","lat":"24.68773000","lon":"46.72185000"},
{"state":"Riyadh","name":"Sājir","lat":"25.18251000","lon":"44.59964000"},
{"state":"Riyadh","name":"shokhaibٍ","lat":"24.49023000","lon":"46.26871000"},
{"state":"Riyadh","name":"Tumayr","lat":"25.70347000","lon":"45.86835000"},
{"state":"Tabuk","name":"Al Wajh","lat":"26.24551000","lon":"36.45249000"},
{"state":"Tabuk","name":"Duba","lat":"27.35134000","lon":"35.69014000"},
{"state":"Tabuk","name":"Tabuk","lat":"28.39980000","lon":"36.57151000"},
{"state":"Tabuk","name":"Umm Lajj","lat":"25.02126000","lon":"37.26850000"}]