[{"name":"Al Jazirah","native":null,"cities":[{"name":"Al Hasaheisa","native":null,"lat":"14.75264000","lon":"33.29836000"},{"name":"Al Hilāliyya","native":null,"lat":"14.93980000","lon":"33.23400000"},{"name":"Al Kiremit al ‘Arakiyyīn","native":null,"lat":"14.34760000","lon":"32.94370000"},{"name":"Al Manāqil","native":null,"lat":"14.24590000","lon":"32.98910000"},{"name":"Al Masallamiyya","native":null,"lat":"14.57480000","lon":"33.33730000"},{"name":"Wad Medani","native":null,"lat":"14.40118000","lon":"33.51989000"},{"name":"Wad Rāwah","native":null,"lat":"15.16028000","lon":"33.13972000"}]},{"name":"Al Qadarif","native":null,"cities":[{"name":"Al Ḩawātah","native":null,"lat":"13.41667000","lon":"34.63333000"},{"name":"Al Qadarif","native":null,"lat":"14.03493000","lon":"35.38344000"},{"name":"Doka","native":null,"lat":"13.51667000","lon":"35.76667000"}]},{"name":"Blue Nile","native":null,"cities":[{"name":"Ad-Damazin","native":null,"lat":"11.78910000","lon":"34.35920000"},{"name":"Ar Ruseris","native":null,"lat":"11.86590000","lon":"34.38690000"},{"name":"Kurmuk","native":null,"lat":"10.55000000","lon":"34.28333000"}]},{"name":"Central Darfur","native":null,"cities":[{"name":"Zalingei","native":null,"lat":"12.90918000","lon":"23.47058000"}]},{"name":"East Darfur","native":null,"cities":[{"name":"El Daein","native":null,"lat":"11.46186000","lon":"26.12583000"}]},{"name":"Kassala","native":null,"cities":[{"name":"Aroma","native":null,"lat":"15.81667000","lon":"36.13333000"},{"name":"Kassala","native":null,"lat":"15.45099000","lon":"36.39998000"},{"name":"Wagar","native":null,"lat":"16.15250000","lon":"36.20320000"}]},{"name":"Khartoum","native":null,"cities":[{"name":"Khartoum","native":null,"lat":"15.55177000","lon":"32.53241000"},{"name":"Omdurman","native":null,"lat":"15.64453000","lon":"32.47773000"}]},{"name":"North Darfur","native":null,"cities":[{"name":"El Fasher","native":null,"lat":"13.62793000","lon":"25.34936000"},{"name":"Kutum","native":null,"lat":"14.20000000","lon":"24.66667000"},{"name":"Umm Kaddadah","native":null,"lat":"13.60169000","lon":"26.68759000"}]},{"name":"North Kordofan","native":null,"cities":[{"name":"Ar Rahad","native":null,"lat":"12.71667000","lon":"30.65000000"},{"name":"Bārah","native":null,"lat":"13.70000000","lon":"30.36667000"},{"name":"El Obeid","native":null,"lat":"13.18421000","lon":"30.21669000"},{"name":"Umm Ruwaba","native":null,"lat":"12.90610000","lon":"31.21580000"}]},{"name":"Northern","native":null,"cities":[{"name":"Ad Dabbah","native":null,"lat":"18.05000000","lon":"30.95000000"},{"name":"Argo","native":null,"lat":"19.51667000","lon":"30.41667000"},{"name":"Dongola","native":null,"lat":"19.18163000","lon":"30.47689000"},{"name":"Karmah an Nuzul","native":null,"lat":"19.63333000","lon":"30.41667000"},{"name":"Kuraymah","native":null,"lat":"18.55000000","lon":"31.85000000"},{"name":"Merowe","native":null,"lat":"18.47036000","lon":"31.81126000"}]},{"name":"Red Sea","native":null,"cities":[{"name":"Gebeit","native":null,"lat":"21.06667000","lon":"36.31667000"},{"name":"Port Sudan","native":null,"lat":"19.61745000","lon":"37.21644000"},{"name":"Sawākin","native":null,"lat":"19.10590000","lon":"37.33210000"},{"name":"Tokār","native":null,"lat":"18.42540000","lon":"37.72900000"}]},{"name":"River Nile","native":null,"cities":[{"name":"Atbara","native":null,"lat":"17.70217000","lon":"33.98638000"},{"name":"Berber","native":null,"lat":"18.02158000","lon":"33.98299000"},{"name":"Ed Damer","native":null,"lat":"17.59898000","lon":"33.97205000"},{"name":"El Bauga","native":null,"lat":"18.26197000","lon":"33.90812000"},{"name":"El Matama","native":null,"lat":"16.70950000","lon":"33.35650000"},{"name":"Shendi","native":null,"lat":"16.69150000","lon":"33.43410000"}]},{"name":"Sennar","native":null,"cities":[{"name":"Ad Dindar","native":null,"lat":"13.20000000","lon":"34.16667000"},{"name":"As Sūkī","native":null,"lat":"13.31667000","lon":"33.88333000"},{"name":"Jalqani","native":null,"lat":"12.44860000","lon":"34.21860000"},{"name":"Kināna","native":null,"lat":"14.03610000","lon":"33.17120000"},{"name":"Maiurno","native":null,"lat":"13.41667000","lon":"33.66667000"},{"name":"Singa","native":null,"lat":"13.14830000","lon":"33.93117000"},{"name":"Sinnar","native":null,"lat":"13.56907000","lon":"33.56718000"}]},{"name":"South Darfur","native":null,"cities":[{"name":"Gereida","native":null,"lat":"11.27543000","lon":"25.14026000"},{"name":"Nyala","native":null,"lat":"12.04888000","lon":"24.88069000"}]},{"name":"South Kordofan","native":null,"cities":[{"name":"Abu Jibeha","native":null,"lat":"11.45620000","lon":"31.22850000"},{"name":"Al Fūlah","native":null,"lat":"11.73292000","lon":"28.35786000"},{"name":"Dilling","native":null,"lat":"12.05000000","lon":"29.65000000"},{"name":"Kadugli","native":null,"lat":"11.01111000","lon":"29.71833000"},{"name":"Talodi","native":null,"lat":"10.63246000","lon":"30.37970000"}]},{"name":"West Darfur","native":null,"cities":[{"name":"Geneina","native":null,"lat":"13.45262000","lon":"22.44725000"}]},{"name":"West Kordofan","native":null,"cities":[{"name":"Abū Zabad","native":null,"lat":"12.35000000","lon":"29.25000000"},{"name":"Al Lagowa","native":null,"lat":"11.40000000","lon":"29.13333000"},{"name":"Al Mijlad","native":null,"lat":"11.03333000","lon":"27.73333000"},{"name":"An Nuhūd","native":null,"lat":"12.70000000","lon":"28.43333000"}]},{"name":"White Nile","native":null,"cities":[{"name":"Ad Douiem","native":null,"lat":"14.00120000","lon":"32.31160000"},{"name":"Al Kawa","native":null,"lat":"13.74630000","lon":"32.49960000"},{"name":"Al Qiţena","native":null,"lat":"14.86480000","lon":"32.36680000"},{"name":"Kosti","native":null,"lat":"13.16290000","lon":"32.66347000"},{"name":"Marabba","native":null,"lat":"12.35000000","lon":"32.18333000"},{"name":"Rabak","native":null,"lat":"13.18087000","lon":"32.73999000"},{"name":"Tandaltī","native":null,"lat":"13.01667000","lon":"31.86667000"},{"name":"Um Jar Al Gharbiyya","native":null,"lat":"13.80130000","lon":"32.40780000"},{"name":"Wad az Zāki","native":null,"lat":"14.46190000","lon":"32.20650000"}]}]