[{"state":"Al Jazirah","name":"Al Hasaheisa","lat":"14.75264000","lon":"33.29836000"},
{"state":"Al Jazirah","name":"Al Hilāliyya","lat":"14.93980000","lon":"33.23400000"},
{"state":"Al Jazirah","name":"Al Kiremit al ‘Arakiyyīn","lat":"14.34760000","lon":"32.94370000"},
{"state":"Al Jazirah","name":"Al Manāqil","lat":"14.24590000","lon":"32.98910000"},
{"state":"Al Jazirah","name":"Al Masallamiyya","lat":"14.57480000","lon":"33.33730000"},
{"state":"Al Jazirah","name":"Wad Medani","lat":"14.40118000","lon":"33.51989000"},
{"state":"Al Jazirah","name":"Wad Rāwah","lat":"15.16028000","lon":"33.13972000"},
{"state":"Al Qadarif","name":"Al Ḩawātah","lat":"13.41667000","lon":"34.63333000"},
{"state":"Al Qadarif","name":"Al Qadarif","lat":"14.03493000","lon":"35.38344000"},
{"state":"Al Qadarif","name":"Doka","lat":"13.51667000","lon":"35.76667000"},
{"state":"Blue Nile","name":"Ad-Damazin","lat":"11.78910000","lon":"34.35920000"},
{"state":"Blue Nile","name":"Ar Ruseris","lat":"11.86590000","lon":"34.38690000"},
{"state":"Blue Nile","name":"Kurmuk","lat":"10.55000000","lon":"34.28333000"},
{"state":"Central Darfur","name":"Zalingei","lat":"12.90918000","lon":"23.47058000"},
{"state":"East Darfur","name":"El Daein","lat":"11.46186000","lon":"26.12583000"},
{"state":"Kassala","name":"Aroma","lat":"15.81667000","lon":"36.13333000"},
{"state":"Kassala","name":"Kassala","lat":"15.45099000","lon":"36.39998000"},
{"state":"Kassala","name":"Wagar","lat":"16.15250000","lon":"36.20320000"},
{"state":"Khartoum","name":"Khartoum","lat":"15.55177000","lon":"32.53241000"},
{"state":"Khartoum","name":"Omdurman","lat":"15.64453000","lon":"32.47773000"},
{"state":"North Darfur","name":"El Fasher","lat":"13.62793000","lon":"25.34936000"},
{"state":"North Darfur","name":"Kutum","lat":"14.20000000","lon":"24.66667000"},
{"state":"North Darfur","name":"Umm Kaddadah","lat":"13.60169000","lon":"26.68759000"},
{"state":"North Kordofan","name":"Ar Rahad","lat":"12.71667000","lon":"30.65000000"},
{"state":"North Kordofan","name":"Bārah","lat":"13.70000000","lon":"30.36667000"},
{"state":"North Kordofan","name":"El Obeid","lat":"13.18421000","lon":"30.21669000"},
{"state":"North Kordofan","name":"Umm Ruwaba","lat":"12.90610000","lon":"31.21580000"},
{"state":"Northern","name":"Ad Dabbah","lat":"18.05000000","lon":"30.95000000"},
{"state":"Northern","name":"Argo","lat":"19.51667000","lon":"30.41667000"},
{"state":"Northern","name":"Dongola","lat":"19.18163000","lon":"30.47689000"},
{"state":"Northern","name":"Karmah an Nuzul","lat":"19.63333000","lon":"30.41667000"},
{"state":"Northern","name":"Kuraymah","lat":"18.55000000","lon":"31.85000000"},
{"state":"Northern","name":"Merowe","lat":"18.47036000","lon":"31.81126000"},
{"state":"Red Sea","name":"Gebeit","lat":"21.06667000","lon":"36.31667000"},
{"state":"Red Sea","name":"Port Sudan","lat":"19.61745000","lon":"37.21644000"},
{"state":"Red Sea","name":"Sawākin","lat":"19.10590000","lon":"37.33210000"},
{"state":"Red Sea","name":"Tokār","lat":"18.42540000","lon":"37.72900000"},
{"state":"River Nile","name":"Atbara","lat":"17.70217000","lon":"33.98638000"},
{"state":"River Nile","name":"Berber","lat":"18.02158000","lon":"33.98299000"},
{"state":"River Nile","name":"Ed Damer","lat":"17.59898000","lon":"33.97205000"},
{"state":"River Nile","name":"El Bauga","lat":"18.26197000","lon":"33.90812000"},
{"state":"River Nile","name":"El Matama","lat":"16.70950000","lon":"33.35650000"},
{"state":"River Nile","name":"Shendi","lat":"16.69150000","lon":"33.43410000"},
{"state":"Sennar","name":"Ad Dindar","lat":"13.20000000","lon":"34.16667000"},
{"state":"Sennar","name":"As Sūkī","lat":"13.31667000","lon":"33.88333000"},
{"state":"Sennar","name":"Jalqani","lat":"12.44860000","lon":"34.21860000"},
{"state":"Sennar","name":"Kināna","lat":"14.03610000","lon":"33.17120000"},
{"state":"Sennar","name":"Maiurno","lat":"13.41667000","lon":"33.66667000"},
{"state":"Sennar","name":"Singa","lat":"13.14830000","lon":"33.93117000"},
{"state":"Sennar","name":"Sinnar","lat":"13.56907000","lon":"33.56718000"},
{"state":"South Darfur","name":"Gereida","lat":"11.27543000","lon":"25.14026000"},
{"state":"South Darfur","name":"Nyala","lat":"12.04888000","lon":"24.88069000"},
{"state":"South Kordofan","name":"Abu Jibeha","lat":"11.45620000","lon":"31.22850000"},
{"state":"South Kordofan","name":"Al Fūlah","lat":"11.73292000","lon":"28.35786000"},
{"state":"South Kordofan","name":"Dilling","lat":"12.05000000","lon":"29.65000000"},
{"state":"South Kordofan","name":"Kadugli","lat":"11.01111000","lon":"29.71833000"},
{"state":"South Kordofan","name":"Talodi","lat":"10.63246000","lon":"30.37970000"},
{"state":"West Darfur","name":"Geneina","lat":"13.45262000","lon":"22.44725000"},
{"state":"West Kordofan","name":"Abū Zabad","lat":"12.35000000","lon":"29.25000000"},
{"state":"West Kordofan","name":"Al Lagowa","lat":"11.40000000","lon":"29.13333000"},
{"state":"West Kordofan","name":"Al Mijlad","lat":"11.03333000","lon":"27.73333000"},
{"state":"West Kordofan","name":"An Nuhūd","lat":"12.70000000","lon":"28.43333000"},
{"state":"White Nile","name":"Ad Douiem","lat":"14.00120000","lon":"32.31160000"},
{"state":"White Nile","name":"Al Kawa","lat":"13.74630000","lon":"32.49960000"},
{"state":"White Nile","name":"Al Qiţena","lat":"14.86480000","lon":"32.36680000"},
{"state":"White Nile","name":"Kosti","lat":"13.16290000","lon":"32.66347000"},
{"state":"White Nile","name":"Marabba","lat":"12.35000000","lon":"32.18333000"},
{"state":"White Nile","name":"Rabak","lat":"13.18087000","lon":"32.73999000"},
{"state":"White Nile","name":"Tandaltī","lat":"13.01667000","lon":"31.86667000"},
{"state":"White Nile","name":"Um Jar Al Gharbiyya","lat":"13.80130000","lon":"32.40780000"},
{"state":"White Nile","name":"Wad az Zāki","lat":"14.46190000","lon":"32.20650000"}]