[{"state":"Blekinge","name":"Bräkne-Hoby","lat":"56.23333000","lon":"15.11667000"},
{"state":"Blekinge","name":"Hällevik","lat":"56.01667000","lon":"14.70000000"},
{"state":"Blekinge","name":"Hasslö","lat":"56.11667000","lon":"15.48333000"},
{"state":"Blekinge","name":"Jämjö","lat":"56.19187000","lon":"15.84115000"},
{"state":"Blekinge","name":"Jämshög","lat":"56.23333000","lon":"14.51667000"},
{"state":"Blekinge","name":"Kallinge","lat":"56.24841000","lon":"15.28721000"},
{"state":"Blekinge","name":"Karlshamn","lat":"56.17060000","lon":"14.86188000"},
{"state":"Blekinge","name":"Karlskrona","lat":"56.16156000","lon":"15.58661000"},
{"state":"Blekinge","name":"Mjällby","lat":"56.05000000","lon":"14.68333000"},
{"state":"Blekinge","name":"Mörrum","lat":"56.19281000","lon":"14.74739000"},
{"state":"Blekinge","name":"Nättraby","lat":"56.20000000","lon":"15.51667000"},
{"state":"Blekinge","name":"Olofström","lat":"56.27730000","lon":"14.53402000"},
{"state":"Blekinge","name":"Rödeby","lat":"56.26078000","lon":"15.62143000"},
{"state":"Blekinge","name":"Ronneby","lat":"56.20999000","lon":"15.27602000"},
{"state":"Blekinge","name":"Sölvesborg","lat":"56.05205000","lon":"14.57525000"},
{"state":"Blekinge","name":"Sturkö","lat":"56.08333000","lon":"15.70000000"},
{"state":"Blekinge","name":"Svängsta","lat":"56.26667000","lon":"14.76667000"},
{"state":"Dalarna County","name":"Abborrberget","lat":"60.15000000","lon":"14.80000000"},
{"state":"Dalarna County","name":"Älvdalen","lat":"61.22774000","lon":"14.03935000"},
{"state":"Dalarna County","name":"Avesta","lat":"60.14274000","lon":"16.16295000"},
{"state":"Dalarna County","name":"Bjursås","lat":"60.73726000","lon":"15.45291000"},
{"state":"Dalarna County","name":"Borlänge","lat":"60.48580000","lon":"15.43714000"},
{"state":"Dalarna County","name":"Brunna","lat":"60.26255000","lon":"16.01034000"},
{"state":"Dalarna County","name":"Djurås","lat":"60.56061000","lon":"15.13281000"},
{"state":"Dalarna County","name":"Enbacka","lat":"60.40993000","lon":"15.59575000"},
{"state":"Dalarna County","name":"Falun","lat":"60.60357000","lon":"15.62597000"},
{"state":"Dalarna County","name":"Gagnef","lat":"60.59856000","lon":"15.07745000"},
{"state":"Dalarna County","name":"Grängesberg","lat":"60.07465000","lon":"15.00784000"},
{"state":"Dalarna County","name":"Grycksbo","lat":"60.68751000","lon":"15.48507000"},
{"state":"Dalarna County","name":"Hedemora","lat":"60.27973000","lon":"15.98855000"},
{"state":"Dalarna County","name":"Horndal","lat":"60.30000000","lon":"16.41667000"},
{"state":"Dalarna County","name":"Insjön","lat":"60.67688000","lon":"15.09487000"},
{"state":"Dalarna County","name":"Järna","lat":"60.53333000","lon":"14.36667000"},
{"state":"Dalarna County","name":"Krylbo","lat":"60.13333000","lon":"16.21667000"},
{"state":"Dalarna County","name":"Långshyttan","lat":"60.45238000","lon":"16.03831000"},
{"state":"Dalarna County","name":"Leksand","lat":"60.73030000","lon":"14.99994000"},
{"state":"Dalarna County","name":"Ludvika","lat":"60.14959000","lon":"15.18776000"},
{"state":"Dalarna County","name":"Malung","lat":"60.68329000","lon":"13.71542000"},
{"state":"Dalarna County","name":"Mockfjärd","lat":"60.50000000","lon":"14.96667000"},
{"state":"Dalarna County","name":"Mora","lat":"61.00704000","lon":"14.54316000"},
{"state":"Dalarna County","name":"Nyhammar","lat":"60.28333000","lon":"14.96667000"},
{"state":"Dalarna County","name":"Ornäs","lat":"60.50944000","lon":"15.54128000"},
{"state":"Dalarna County","name":"Orsa","lat":"61.12034000","lon":"14.61550000"},
{"state":"Dalarna County","name":"Rättvik","lat":"60.88632000","lon":"15.11787000"},
{"state":"Dalarna County","name":"Romme","lat":"60.43333000","lon":"15.50000000"},
{"state":"Dalarna County","name":"Säter","lat":"60.34778000","lon":"15.75051000"},
{"state":"Dalarna County","name":"Siljansnäs","lat":"60.78333000","lon":"14.85000000"},
{"state":"Dalarna County","name":"Smedby","lat":"60.70000000","lon":"15.05000000"},
{"state":"Dalarna County","name":"Smedjebacken","lat":"60.14181000","lon":"15.41416000"},
{"state":"Dalarna County","name":"Svärdsjö","lat":"60.74022000","lon":"15.90173000"},
{"state":"Dalarna County","name":"Vansbro","lat":"60.50893000","lon":"14.22458000"},
{"state":"Dalarna County","name":"Vikarbyn","lat":"60.91667000","lon":"15.01667000"},
{"state":"Gävleborg County","name":"Alfta","lat":"61.34675000","lon":"16.07499000"},
{"state":"Gävleborg County","name":"Arbrå","lat":"61.46667000","lon":"16.38333000"},
{"state":"Gävleborg County","name":"Årsunda","lat":"60.51644000","lon":"16.73436000"},
{"state":"Gävleborg County","name":"Bergby","lat":"60.92931000","lon":"17.04194000"},
{"state":"Gävleborg County","name":"Bergsjö","lat":"61.98253000","lon":"17.06368000"},
{"state":"Gävleborg County","name":"Bollnäs","lat":"61.34817000","lon":"16.39464000"},
{"state":"Gävleborg County","name":"Delsbo","lat":"61.80104000","lon":"16.55571000"},
{"state":"Gävleborg County","name":"Edsbyn","lat":"61.37692000","lon":"15.81747000"},
{"state":"Gävleborg County","name":"Färila","lat":"61.80011000","lon":"15.84422000"},
{"state":"Gävleborg County","name":"Forsbacka","lat":"60.61667000","lon":"16.88333000"},
{"state":"Gävleborg County","name":"Gävle","lat":"60.67452000","lon":"17.14174000"},
{"state":"Gävleborg County","name":"Gnarp","lat":"62.04874000","lon":"17.25858000"},
{"state":"Gävleborg County","name":"Hedesunda","lat":"60.40000000","lon":"17.00000000"},
{"state":"Gävleborg County","name":"Hofors","lat":"60.54573000","lon":"16.28668000"},
{"state":"Gävleborg County","name":"Hudiksvall","lat":"61.72744000","lon":"17.10558000"},
{"state":"Gävleborg County","name":"Iggesund","lat":"61.64219000","lon":"17.07477000"},
{"state":"Gävleborg County","name":"Järbo","lat":"60.71667000","lon":"16.60000000"},
{"state":"Gävleborg County","name":"Järvsö","lat":"61.71667000","lon":"16.16667000"},
{"state":"Gävleborg County","name":"Kilafors","lat":"61.23333000","lon":"16.56667000"},
{"state":"Gävleborg County","name":"Ljusdal","lat":"61.82883000","lon":"16.09126000"},
{"state":"Gävleborg County","name":"Ljusne","lat":"61.21170000","lon":"17.12790000"},
{"state":"Gävleborg County","name":"Ockelbo","lat":"60.89120000","lon":"16.71846000"},
{"state":"Gävleborg County","name":"Sandarne","lat":"61.25893000","lon":"17.15284000"},
{"state":"Gävleborg County","name":"Sandviken","lat":"60.61667000","lon":"16.76667000"},
{"state":"Gävleborg County","name":"Söderhamn","lat":"61.30373000","lon":"17.05921000"},
{"state":"Gävleborg County","name":"Sörforsa","lat":"61.73333000","lon":"16.98333000"},
{"state":"Gävleborg County","name":"Storvik","lat":"60.58333000","lon":"16.53333000"},
{"state":"Gävleborg County","name":"Valbo","lat":"60.65000000","lon":"17.03333000"},
{"state":"Gotland County","name":"Gotland","lat":"57.50000000","lon":"18.50000000"},
{"state":"Gotland County","name":"Hemse","lat":"57.23788000","lon":"18.37443000"},
{"state":"Gotland County","name":"Klintehamn","lat":"57.38667000","lon":"18.20371000"},
{"state":"Gotland County","name":"Vibble","lat":"57.60452000","lon":"18.25601000"},
{"state":"Gotland County","name":"Visby","lat":"57.64089000","lon":"18.29602000"},
{"state":"Halland County","name":"Åled","lat":"56.75000000","lon":"12.93333000"},
{"state":"Halland County","name":"Åsa","lat":"57.35000000","lon":"12.11667000"},
{"state":"Halland County","name":"Bua","lat":"57.23780000","lon":"12.12187000"},
{"state":"Halland County","name":"Falkenberg","lat":"56.90552000","lon":"12.49118000"},
{"state":"Halland County","name":"Fjärås kyrkby","lat":"57.45913000","lon":"12.17508000"},
{"state":"Halland County","name":"Frillesås","lat":"57.31667000","lon":"12.16667000"},
{"state":"Halland County","name":"Frösakull","lat":"56.68333000","lon":"12.73333000"},
{"state":"Halland County","name":"Fyllinge","lat":"56.65000000","lon":"12.91667000"},
{"state":"Halland County","name":"Getinge","lat":"56.81667000","lon":"12.73333000"},
{"state":"Halland County","name":"Glommen","lat":"56.93333000","lon":"12.35000000"},
{"state":"Halland County","name":"Gullbrandstorp","lat":"56.70000000","lon":"12.73333000"},
{"state":"Halland County","name":"Halmstad","lat":"56.67446000","lon":"12.85676000"},
{"state":"Halland County","name":"Harplinge","lat":"56.74491000","lon":"12.72758000"},
{"state":"Halland County","name":"Haverdal","lat":"56.72222000","lon":"12.67194000"},
{"state":"Halland County","name":"Hyltebruk","lat":"56.99892000","lon":"13.23958000"},
{"state":"Halland County","name":"Knäred","lat":"56.51861000","lon":"13.32423000"},
{"state":"Halland County","name":"Kungsbacka","lat":"57.48719000","lon":"12.07612000"},
{"state":"Halland County","name":"Laholm","lat":"56.51207000","lon":"13.04371000"},
{"state":"Halland County","name":"Mellbystrand","lat":"56.48561000","lon":"12.93958000"},
{"state":"Halland County","name":"Mjällby","lat":"56.68333000","lon":"12.76667000"},
{"state":"Halland County","name":"Onsala","lat":"57.42531000","lon":"12.02903000"},
{"state":"Halland County","name":"Oskarström","lat":"56.80000000","lon":"12.96667000"},
{"state":"Halland County","name":"Särö","lat":"57.50577000","lon":"11.93210000"},
{"state":"Halland County","name":"Skrea","lat":"56.88333000","lon":"12.56667000"},
{"state":"Halland County","name":"Steninge","lat":"56.76900000","lon":"12.63034000"},
{"state":"Halland County","name":"Torup","lat":"56.95663000","lon":"13.07725000"},
{"state":"Halland County","name":"Träslövsläge","lat":"57.05417000","lon":"12.27899000"},
{"state":"Halland County","name":"Trönninge","lat":"56.61667000","lon":"12.93333000"},
{"state":"Halland County","name":"Tvååker","lat":"57.04147000","lon":"12.39950000"},
{"state":"Halland County","name":"Vallda","lat":"57.47750000","lon":"12.00139000"},
{"state":"Halland County","name":"Varberg","lat":"57.10557000","lon":"12.25078000"},
{"state":"Halland County","name":"Västra Hagen","lat":"57.42444000","lon":"11.93583000"},
{"state":"Halland County","name":"Veddige","lat":"57.26591000","lon":"12.33220000"},
{"state":"Halland County","name":"Veinge","lat":"56.55000000","lon":"13.06667000"},
{"state":"Jönköping County","name":"Anderstorp","lat":"57.28333000","lon":"13.63333000"},
{"state":"Jönköping County","name":"Aneby","lat":"57.83895000","lon":"14.81016000"},
{"state":"Jönköping County","name":"Bankeryd","lat":"57.86021000","lon":"14.12400000"},
{"state":"Jönköping County","name":"Bodafors","lat":"57.50000000","lon":"14.70000000"},
{"state":"Jönköping County","name":"Bor","lat":"57.11667000","lon":"14.16667000"},
{"state":"Jönköping County","name":"Bredaryd","lat":"57.17343000","lon":"13.73789000"},
{"state":"Jönköping County","name":"Ekenässjön","lat":"57.49175000","lon":"15.02226000"},
{"state":"Jönköping County","name":"Eksjö","lat":"57.66643000","lon":"14.97205000"},
{"state":"Jönköping County","name":"Forserum","lat":"57.70000000","lon":"14.46667000"},
{"state":"Jönköping County","name":"Forsheda","lat":"57.16415000","lon":"13.83016000"},
{"state":"Jönköping County","name":"Gislaved","lat":"57.30440000","lon":"13.54078000"},
{"state":"Jönköping County","name":"Gnosjö","lat":"57.35850000","lon":"13.73686000"},
{"state":"Jönköping County","name":"Gränna","lat":"58.01667000","lon":"14.46667000"},
{"state":"Jönköping County","name":"Habo","lat":"57.91185000","lon":"14.07444000"},
{"state":"Jönköping County","name":"Hestra","lat":"57.44232000","lon":"13.59575000"},
{"state":"Jönköping County","name":"Hillerstorp","lat":"57.31293000","lon":"13.88437000"},
{"state":"Jönköping County","name":"Huskvarna","lat":"57.78596000","lon":"14.30214000"},
{"state":"Jönköping County","name":"Jönköping","lat":"57.78145000","lon":"14.15618000"},
{"state":"Jönköping County","name":"Kaxholmen","lat":"57.85345000","lon":"14.30457000"},
{"state":"Jönköping County","name":"Landsbro","lat":"57.36667000","lon":"14.90000000"},
{"state":"Jönköping County","name":"Malmbäck","lat":"57.57667000","lon":"14.46170000"},
{"state":"Jönköping County","name":"Mariannelund","lat":"57.61667000","lon":"15.56667000"},
{"state":"Jönköping County","name":"Marieholm","lat":"57.38333000","lon":"13.85000000"},
{"state":"Jönköping County","name":"Mullsjö","lat":"57.91710000","lon":"13.87831000"},
{"state":"Jönköping County","name":"Nässjö","lat":"57.65307000","lon":"14.69676000"},
{"state":"Jönköping County","name":"Odensjö","lat":"57.71667000","lon":"14.16667000"},
{"state":"Jönköping County","name":"Reftele","lat":"57.17467000","lon":"13.59498000"},
{"state":"Jönköping County","name":"Rydaholm","lat":"56.98388000","lon":"14.30849000"},
{"state":"Jönköping County","name":"Sävsjö","lat":"57.40327000","lon":"14.66244000"},
{"state":"Jönköping County","name":"Skillingaryd","lat":"57.43044000","lon":"14.09383000"},
{"state":"Jönköping County","name":"Smålandsstenar","lat":"57.16241000","lon":"13.41212000"},
{"state":"Jönköping County","name":"Stockaryd","lat":"57.31737000","lon":"14.59341000"},
{"state":"Jönköping County","name":"Taberg","lat":"57.67722000","lon":"14.08876000"},
{"state":"Jönköping County","name":"Tenhult","lat":"57.70761000","lon":"14.32205000"},
{"state":"Jönköping County","name":"Tranås","lat":"58.03717000","lon":"14.97820000"},
{"state":"Jönköping County","name":"Vaggeryd","lat":"57.49807000","lon":"14.14842000"},
{"state":"Jönköping County","name":"Värnamo","lat":"57.18604000","lon":"14.04001000"},
{"state":"Jönköping County","name":"Vetlanda","lat":"57.42887000","lon":"15.07762000"},
{"state":"Jönköping County","name":"Vrigstad","lat":"57.35000000","lon":"14.46667000"},
{"state":"Kalmar County","name":"Ankarsrum","lat":"57.69896000","lon":"16.33407000"},
{"state":"Kalmar County","name":"Bergkvara","lat":"56.39063000","lon":"16.07274000"},
{"state":"Kalmar County","name":"Blomstermåla","lat":"56.98333000","lon":"16.33333000"},
{"state":"Kalmar County","name":"Borgholm","lat":"56.87930000","lon":"16.65634000"},
{"state":"Kalmar County","name":"Emmaboda","lat":"56.63268000","lon":"15.53648000"},
{"state":"Kalmar County","name":"Färjestaden","lat":"56.64990000","lon":"16.46859000"},
{"state":"Kalmar County","name":"Gamleby","lat":"57.89485000","lon":"16.40508000"},
{"state":"Kalmar County","name":"Gunnebo","lat":"57.71667000","lon":"16.53333000"},
{"state":"Kalmar County","name":"Högsby","lat":"57.16597000","lon":"16.02562000"},
{"state":"Kalmar County","name":"Hultsfred","lat":"57.48815000","lon":"15.84357000"},
{"state":"Kalmar County","name":"Kalmar","lat":"56.66157000","lon":"16.36163000"},
{"state":"Kalmar County","name":"Kristdala","lat":"57.40070000","lon":"16.20496000"},
{"state":"Kalmar County","name":"Lindsdal","lat":"56.73333000","lon":"16.30000000"},
{"state":"Kalmar County","name":"Ljungbyholm","lat":"56.63333000","lon":"16.16667000"},
{"state":"Kalmar County","name":"Målilla","lat":"57.38773000","lon":"15.80675000"},
{"state":"Kalmar County","name":"Mönsterås","lat":"57.04134000","lon":"16.44463000"},
{"state":"Kalmar County","name":"Mörbylånga","lat":"56.52480000","lon":"16.37877000"},
{"state":"Kalmar County","name":"Nybro","lat":"56.74461000","lon":"15.90714000"},
{"state":"Kalmar County","name":"Oskarshamn","lat":"57.26455000","lon":"16.44837000"},
{"state":"Kalmar County","name":"Överum","lat":"57.98856000","lon":"16.31390000"},
{"state":"Kalmar County","name":"Påskallavik","lat":"57.16667000","lon":"16.45000000"},
{"state":"Kalmar County","name":"Rinkabyholm","lat":"56.64972000","lon":"16.26667000"},
{"state":"Kalmar County","name":"Smedby","lat":"56.67413000","lon":"16.24320000"},
{"state":"Kalmar County","name":"Södra Sandby","lat":"56.56667000","lon":"16.61667000"},
{"state":"Kalmar County","name":"Södra Vi","lat":"57.73993000","lon":"15.79391000"},
{"state":"Kalmar County","name":"Storebro","lat":"57.58333000","lon":"15.85000000"},
{"state":"Kalmar County","name":"Timmernabben","lat":"56.96667000","lon":"16.43333000"},
{"state":"Kalmar County","name":"Torsås","lat":"56.41251000","lon":"15.99844000"},
{"state":"Kalmar County","name":"Trekanten","lat":"56.70000000","lon":"16.11667000"},
{"state":"Kalmar County","name":"Västervik","lat":"57.75840000","lon":"16.63733000"},
{"state":"Kalmar County","name":"Vimmerby","lat":"57.66588000","lon":"15.85515000"},
{"state":"Kalmar County","name":"Virserum","lat":"57.31667000","lon":"15.58333000"},
{"state":"Kronoberg County","name":"Älmhult","lat":"56.55146000","lon":"14.13827000"},
{"state":"Kronoberg County","name":"Alvesta","lat":"56.89935000","lon":"14.55559000"},
{"state":"Kronoberg County","name":"Åseda","lat":"57.17010000","lon":"15.34430000"},
{"state":"Kronoberg County","name":"Braås","lat":"57.06667000","lon":"15.05000000"},
{"state":"Kronoberg County","name":"Gemla","lat":"56.86753000","lon":"14.64379000"},
{"state":"Kronoberg County","name":"Hovmantorp","lat":"56.78685000","lon":"15.14023000"},
{"state":"Kronoberg County","name":"Ingelstad","lat":"56.75000000","lon":"14.91667000"},
{"state":"Kronoberg County","name":"Lagan","lat":"56.91667000","lon":"13.98333000"},
{"state":"Kronoberg County","name":"Lammhult","lat":"57.16667000","lon":"14.58333000"},
{"state":"Kronoberg County","name":"Lenhovda","lat":"57.00000000","lon":"15.28333000"},
{"state":"Kronoberg County","name":"Lessebo","lat":"56.75185000","lon":"15.26969000"},
{"state":"Kronoberg County","name":"Ljungby","lat":"56.83324000","lon":"13.94082000"},
{"state":"Kronoberg County","name":"Markaryd","lat":"56.46135000","lon":"13.59644000"},
{"state":"Kronoberg County","name":"Moheda","lat":"57.00000000","lon":"14.56667000"},
{"state":"Kronoberg County","name":"Rottne","lat":"57.01667000","lon":"14.90000000"},
{"state":"Kronoberg County","name":"Ryd","lat":"56.46667000","lon":"14.68333000"},
{"state":"Kronoberg County","name":"Strömsnäsbruk","lat":"56.55000000","lon":"13.71667000"},
{"state":"Kronoberg County","name":"Tingsryd","lat":"56.52470000","lon":"14.97902000"},
{"state":"Kronoberg County","name":"Växjö","lat":"56.87767000","lon":"14.80906000"},
{"state":"Kronoberg County","name":"Vislanda","lat":"56.78333000","lon":"14.45000000"},
{"state":"Norrbotten County","name":"Älvsbyn","lat":"65.67624000","lon":"21.00162000"},
{"state":"Norrbotten County","name":"Arjeplog","lat":"66.05173000","lon":"17.88606000"},
{"state":"Norrbotten County","name":"Arvidsjaur","lat":"65.59033000","lon":"19.16682000"},
{"state":"Norrbotten County","name":"Bergnäset","lat":"65.57791000","lon":"22.10844000"},
{"state":"Norrbotten County","name":"Bergsviken","lat":"65.30000000","lon":"21.38333000"},
{"state":"Norrbotten County","name":"Björkskatan","lat":"65.61373000","lon":"22.17702000"},
{"state":"Norrbotten County","name":"Boden","lat":"65.82518000","lon":"21.68864000"},
{"state":"Norrbotten County","name":"Gällivare","lat":"67.13387000","lon":"20.65278000"},
{"state":"Norrbotten County","name":"Gammelstad","lat":"65.63931000","lon":"22.01145000"},
{"state":"Norrbotten County","name":"Haparanda","lat":"65.83549000","lon":"24.13676000"},
{"state":"Norrbotten County","name":"Hortlax","lat":"65.28188000","lon":"21.40544000"},
{"state":"Norrbotten County","name":"Jokkmokk","lat":"66.60665000","lon":"19.82324000"},
{"state":"Norrbotten County","name":"Kalix","lat":"65.85298000","lon":"23.15645000"},
{"state":"Norrbotten County","name":"Kiruna","lat":"67.85572000","lon":"20.22513000"},
{"state":"Norrbotten County","name":"Luleå","lat":"65.58415000","lon":"22.15465000"},
{"state":"Norrbotten County","name":"Malmberget","lat":"67.17529000","lon":"20.65495000"},
{"state":"Norrbotten County","name":"Marielund","lat":"65.85307000","lon":"24.10486000"},
{"state":"Norrbotten County","name":"Norrfjärden","lat":"65.41805000","lon":"21.50151000"},
{"state":"Norrbotten County","name":"Överkalix","lat":"66.32754000","lon":"22.84414000"},
{"state":"Norrbotten County","name":"Övertorneå","lat":"66.38778000","lon":"23.65425000"},
{"state":"Norrbotten County","name":"Pajala","lat":"67.21284000","lon":"23.36607000"},
{"state":"Norrbotten County","name":"Piteå","lat":"65.31717000","lon":"21.47944000"},
{"state":"Norrbotten County","name":"Råneå","lat":"65.85482000","lon":"22.29126000"},
{"state":"Norrbotten County","name":"Roknäs","lat":"65.35000000","lon":"21.20000000"},
{"state":"Norrbotten County","name":"Rolfs","lat":"65.85000000","lon":"23.11667000"},
{"state":"Norrbotten County","name":"Rosvik","lat":"65.43333000","lon":"21.70000000"},
{"state":"Norrbotten County","name":"Sävast","lat":"65.77002000","lon":"21.73113000"},
{"state":"Norrbotten County","name":"Södra Sunderbyn","lat":"65.65983000","lon":"21.94004000"},
{"state":"Norrbotten County","name":"Töre","lat":"65.91243000","lon":"22.65128000"},
{"state":"Örebro County","name":"Åsbro","lat":"59.00000000","lon":"15.05000000"},
{"state":"Örebro County","name":"Askersund","lat":"58.87988000","lon":"14.90230000"},
{"state":"Örebro County","name":"Degerfors","lat":"59.23797000","lon":"14.43077000"},
{"state":"Örebro County","name":"Ekeby-Almby","lat":"59.26000000","lon":"15.33000000"},
{"state":"Örebro County","name":"Fellingsbro","lat":"59.43333000","lon":"15.58333000"},
{"state":"Örebro County","name":"Fjugesta","lat":"59.17375000","lon":"14.87227000"},
{"state":"Örebro County","name":"Frövi","lat":"59.46667000","lon":"15.36667000"},
{"state":"Örebro County","name":"Garphyttan","lat":"59.30429000","lon":"14.94623000"},
{"state":"Örebro County","name":"Hällabrottet","lat":"59.11667000","lon":"15.20000000"},
{"state":"Örebro County","name":"Hällefors","lat":"59.78388000","lon":"14.52197000"},
{"state":"Örebro County","name":"Hallsberg","lat":"59.06463000","lon":"15.10993000"},
{"state":"Örebro County","name":"Hovsta","lat":"59.35000000","lon":"15.21667000"},
{"state":"Örebro County","name":"Karlskoga","lat":"59.32667000","lon":"14.52386000"},
{"state":"Örebro County","name":"Kopparberg","lat":"59.87597000","lon":"14.99436000"},
{"state":"Örebro County","name":"Kumla","lat":"59.12770000","lon":"15.14341000"},
{"state":"Örebro County","name":"Laxå","lat":"58.98630000","lon":"14.61904000"},
{"state":"Örebro County","name":"Lindesberg","lat":"59.59202000","lon":"15.23040000"},
{"state":"Örebro County","name":"Nora","lat":"59.51926000","lon":"15.03979000"},
{"state":"Örebro County","name":"Odensbacken","lat":"59.16667000","lon":"15.53333000"},
{"state":"Örebro County","name":"Örebro","lat":"59.27412000","lon":"15.20660000"},
{"state":"Örebro County","name":"Pålsboda","lat":"59.06565000","lon":"15.33747000"},
{"state":"Örebro County","name":"Sköllersta","lat":"59.13738000","lon":"15.33940000"},
{"state":"Örebro County","name":"Storå","lat":"59.71409000","lon":"15.13169000"},
{"state":"Örebro County","name":"Vintrosa","lat":"59.25000000","lon":"14.95000000"},
{"state":"Östergötland County","name":"Åby","lat":"58.66667000","lon":"16.18333000"},
{"state":"Östergötland County","name":"Åtvidaberg","lat":"58.20152000","lon":"15.99770000"},
{"state":"Östergötland County","name":"Berg","lat":"58.48831000","lon":"15.52969000"},
{"state":"Östergötland County","name":"Borensberg","lat":"58.56667000","lon":"15.28333000"},
{"state":"Östergötland County","name":"Boxholm","lat":"58.19719000","lon":"15.05376000"},
{"state":"Östergötland County","name":"Ekängen","lat":"58.46667000","lon":"15.63333000"},
{"state":"Östergötland County","name":"Finspång","lat":"58.70578000","lon":"15.76739000"},
{"state":"Östergötland County","name":"Grebo","lat":"58.30145000","lon":"15.87085000"},
{"state":"Östergötland County","name":"Gusum","lat":"58.26880000","lon":"16.49894000"},
{"state":"Östergötland County","name":"Herrestad","lat":"58.38333000","lon":"14.80000000"},
{"state":"Östergötland County","name":"Jursla","lat":"58.66667000","lon":"16.18333000"},
{"state":"Östergötland County","name":"Kimstad","lat":"58.54967000","lon":"15.96296000"},
{"state":"Östergötland County","name":"Kisa","lat":"57.98781000","lon":"15.63303000"},
{"state":"Östergötland County","name":"Krokek","lat":"58.67231000","lon":"16.36741000"},
{"state":"Östergötland County","name":"Lindö","lat":"58.61667000","lon":"16.25000000"},
{"state":"Östergötland County","name":"Linghem","lat":"58.43333000","lon":"15.78333000"},
{"state":"Östergötland County","name":"Linköping","lat":"58.41086000","lon":"15.62157000"},
{"state":"Östergötland County","name":"Ljungsbro","lat":"58.51667000","lon":"15.50000000"},
{"state":"Östergötland County","name":"Malmslätt","lat":"58.41102000","lon":"15.51647000"},
{"state":"Östergötland County","name":"Mantorp","lat":"58.35000000","lon":"15.28333000"},
{"state":"Östergötland County","name":"Mjölby","lat":"58.32595000","lon":"15.12365000"},
{"state":"Östergötland County","name":"Motala","lat":"58.53706000","lon":"15.03649000"},
{"state":"Östergötland County","name":"Norrköping","lat":"58.59419000","lon":"16.18260000"},
{"state":"Östergötland County","name":"Ödeshög","lat":"58.22949000","lon":"14.65294000"},
{"state":"Östergötland County","name":"Österbymo","lat":"57.82465000","lon":"15.27357000"},
{"state":"Östergötland County","name":"Rimforsa","lat":"58.13624000","lon":"15.68650000"},
{"state":"Östergötland County","name":"Ryd","lat":"58.66667000","lon":"15.08333000"},
{"state":"Östergötland County","name":"Skänninge","lat":"58.39427000","lon":"15.08659000"},
{"state":"Östergötland County","name":"Skärblacka","lat":"58.56667000","lon":"15.90000000"},
{"state":"Östergötland County","name":"Söderköping","lat":"58.48057000","lon":"16.32221000"},
{"state":"Östergötland County","name":"Stenstorp","lat":"58.48333000","lon":"15.06667000"},
{"state":"Östergötland County","name":"Sturefors","lat":"58.33333000","lon":"15.73333000"},
{"state":"Östergötland County","name":"Svärtinge","lat":"58.65507000","lon":"16.02823000"},
{"state":"Östergötland County","name":"Tallboda","lat":"58.42521000","lon":"15.68154000"},
{"state":"Östergötland County","name":"Vadstena","lat":"58.44863000","lon":"14.88969000"},
{"state":"Östergötland County","name":"Valdemarsvik","lat":"58.20310000","lon":"16.60225000"},
{"state":"Östergötland County","name":"Vikingstad","lat":"58.38304000","lon":"15.43201000"},
{"state":"Skåne County","name":"Åhus","lat":"55.91667000","lon":"14.28333000"},
{"state":"Skåne County","name":"Åkarp","lat":"55.65396000","lon":"13.11107000"},
{"state":"Skåne County","name":"Anderslöv","lat":"55.43836000","lon":"13.31966000"},
{"state":"Skåne County","name":"Ängelholm","lat":"56.24280000","lon":"12.86219000"},
{"state":"Skåne County","name":"Arlöv","lat":"55.63248000","lon":"13.07141000"},
{"state":"Skåne County","name":"Asmundtorp","lat":"55.88333000","lon":"12.93333000"},
{"state":"Skåne County","name":"Åstorp","lat":"56.13566000","lon":"12.94430000"},
{"state":"Skåne County","name":"Bara","lat":"55.58155000","lon":"13.17862000"},
{"state":"Skåne County","name":"Bårslöv","lat":"56.00910000","lon":"12.80580000"},
{"state":"Skåne County","name":"Båstad","lat":"56.42689000","lon":"12.85339000"},
{"state":"Skåne County","name":"Billeberga","lat":"55.88333000","lon":"13.00000000"},
{"state":"Skåne County","name":"Billesholm","lat":"56.05000000","lon":"13.00000000"},
{"state":"Skåne County","name":"Bjärnum","lat":"56.29032000","lon":"13.71128000"},
{"state":"Skåne County","name":"Bjärred","lat":"55.71667000","lon":"13.01667000"},
{"state":"Skåne County","name":"Bjuv","lat":"56.08372000","lon":"12.91914000"},
{"state":"Skåne County","name":"Blentarp","lat":"55.58333000","lon":"13.60000000"},
{"state":"Skåne County","name":"Broby","lat":"56.25521000","lon":"14.07797000"},
{"state":"Skåne County","name":"Bromölla","lat":"56.07551000","lon":"14.46958000"},
{"state":"Skåne County","name":"Bunkeflostrand","lat":"55.54478000","lon":"12.92375000"},
{"state":"Skåne County","name":"Dalby","lat":"55.66655000","lon":"13.34976000"},
{"state":"Skåne County","name":"Degeberga","lat":"55.83333000","lon":"14.08333000"},
{"state":"Skåne County","name":"Ekeby","lat":"56.00000000","lon":"12.96667000"},
{"state":"Skåne County","name":"Eslöv","lat":"55.83928000","lon":"13.30393000"},
{"state":"Skåne County","name":"Färlöv","lat":"56.06667000","lon":"14.08333000"},
{"state":"Skåne County","name":"Fjälkinge","lat":"56.04364000","lon":"14.27562000"},
{"state":"Skåne County","name":"Förslöv","lat":"56.35000000","lon":"12.81667000"},
{"state":"Skåne County","name":"Furulund","lat":"55.77380000","lon":"13.09022000"},
{"state":"Skåne County","name":"Gantofta","lat":"55.98729000","lon":"12.80482000"},
{"state":"Skåne County","name":"Gärsnäs","lat":"55.54949000","lon":"14.17923000"},
{"state":"Skåne County","name":"Genarp","lat":"55.59907000","lon":"13.39820000"},
{"state":"Skåne County","name":"Glimåkra","lat":"56.30000000","lon":"14.13333000"},
{"state":"Skåne County","name":"Glumslöv","lat":"55.94091000","lon":"12.80929000"},
{"state":"Skåne County","name":"Häljarp","lat":"55.85000000","lon":"12.91667000"},
{"state":"Skåne County","name":"Hammar","lat":"56.01667000","lon":"14.21667000"},
{"state":"Skåne County","name":"Hanaskog","lat":"56.16061000","lon":"14.09307000"},
{"state":"Skåne County","name":"Hässleholm","lat":"56.15905000","lon":"13.76638000"},
{"state":"Skåne County","name":"Hästveda","lat":"56.28468000","lon":"13.93547000"},
{"state":"Skåne County","name":"Helsingborg","lat":"56.05648000","lon":"12.78718000"},
{"state":"Skåne County","name":"Hittarp","lat":"56.10000000","lon":"12.63333000"},
{"state":"Skåne County","name":"Hjärnarp","lat":"56.31667000","lon":"12.91667000"},
{"state":"Skåne County","name":"Hjärup","lat":"55.66880000","lon":"13.13931000"},
{"state":"Skåne County","name":"Hofterup","lat":"55.80485000","lon":"12.97970000"},
{"state":"Skåne County","name":"Höganäs","lat":"56.19971000","lon":"12.55795000"},
{"state":"Skåne County","name":"Hököpinge","lat":"55.49411000","lon":"13.00782000"},
{"state":"Skåne County","name":"Höllviken","lat":"55.40982000","lon":"12.95580000"},
{"state":"Skåne County","name":"Höör","lat":"55.93444000","lon":"13.53850000"},
{"state":"Skåne County","name":"Hörby","lat":"55.85238000","lon":"13.66094000"},
{"state":"Skåne County","name":"Hyllinge","lat":"56.10000000","lon":"12.85000000"},
{"state":"Skåne County","name":"Jonstorp","lat":"56.23380000","lon":"12.67184000"},
{"state":"Skåne County","name":"Kågeröd","lat":"55.99976000","lon":"13.08795000"},
{"state":"Skåne County","name":"Kävlinge","lat":"55.79188000","lon":"13.11021000"},
{"state":"Skåne County","name":"Klågerup","lat":"55.59416000","lon":"13.24574000"},
{"state":"Skåne County","name":"Klippan","lat":"56.13559000","lon":"13.13086000"},
{"state":"Skåne County","name":"Knislinge","lat":"56.18333000","lon":"14.08333000"},
{"state":"Skåne County","name":"Köpingebro","lat":"55.45526000","lon":"13.93453000"},
{"state":"Skåne County","name":"Kristianstad","lat":"56.03129000","lon":"14.15242000"},
{"state":"Skåne County","name":"Kvidinge","lat":"56.13386000","lon":"13.04678000"},
{"state":"Skåne County","name":"Landskrona","lat":"55.88620000","lon":"12.85880000"},
{"state":"Skåne County","name":"Ljungbyhed","lat":"56.07437000","lon":"13.24010000"},
{"state":"Skåne County","name":"Ljunghusen","lat":"55.39793000","lon":"12.92486000"},
{"state":"Skåne County","name":"Löberöd","lat":"55.77610000","lon":"13.52414000"},
{"state":"Skåne County","name":"Löddeköpinge","lat":"55.76667000","lon":"13.01667000"},
{"state":"Skåne County","name":"Lomma","lat":"55.67244000","lon":"13.06849000"},
{"state":"Skåne County","name":"Lönsboda","lat":"56.40000000","lon":"14.31667000"},
{"state":"Skåne County","name":"Lund","lat":"55.70584000","lon":"13.19321000"},
{"state":"Skåne County","name":"Malmö","lat":"55.60587000","lon":"13.00073000"},
{"state":"Skåne County","name":"Marieholm","lat":"55.86667000","lon":"13.15000000"},
{"state":"Skåne County","name":"Mörarp","lat":"56.05749000","lon":"12.88018000"},
{"state":"Skåne County","name":"Munka-Ljungby","lat":"56.25000000","lon":"12.96667000"},
{"state":"Skåne County","name":"Näsum","lat":"56.17693000","lon":"14.49706000"},
{"state":"Skåne County","name":"Norra Åsum","lat":"55.98333000","lon":"14.15000000"},
{"state":"Skåne County","name":"Ödåkra","lat":"56.10412000","lon":"12.74770000"},
{"state":"Skåne County","name":"Önnestad","lat":"56.05747000","lon":"14.02233000"},
{"state":"Skåne County","name":"Örkelljunga","lat":"56.28338000","lon":"13.27773000"},
{"state":"Skåne County","name":"Osby","lat":"56.38165000","lon":"13.99364000"},
{"state":"Skåne County","name":"Östra Ljungby","lat":"56.19601000","lon":"13.09199000"},
{"state":"Skåne County","name":"Oxie","lat":"55.54014000","lon":"13.09605000"},
{"state":"Skåne County","name":"Påarp","lat":"56.03333000","lon":"12.81667000"},
{"state":"Skåne County","name":"Perstorp","lat":"56.13829000","lon":"13.39476000"},
{"state":"Skåne County","name":"Rydebäck","lat":"55.96667000","lon":"12.76667000"},
{"state":"Skåne County","name":"Rydsgård","lat":"55.47285000","lon":"13.58829000"},
{"state":"Skåne County","name":"Sätofta","lat":"55.91667000","lon":"13.55000000"},
{"state":"Skåne County","name":"Saxtorpsskogen","lat":"55.83208000","lon":"12.94429000"},
{"state":"Skåne County","name":"Sibbhult","lat":"56.26667000","lon":"14.20000000"},
{"state":"Skåne County","name":"Simrishamn","lat":"55.55653000","lon":"14.35037000"},
{"state":"Skåne County","name":"Sjöbo","lat":"55.63135000","lon":"13.70622000"},
{"state":"Skåne County","name":"Skanör med Falsterbo","lat":"55.40000000","lon":"12.85000000"},
{"state":"Skåne County","name":"Skåre","lat":"55.38333000","lon":"13.05000000"},
{"state":"Skåne County","name":"Skegrie","lat":"55.40633000","lon":"13.07693000"},
{"state":"Skåne County","name":"Skivarp","lat":"55.41667000","lon":"13.56667000"},
{"state":"Skåne County","name":"Skurup","lat":"55.47839000","lon":"13.50186000"},
{"state":"Skåne County","name":"Smygehamn","lat":"55.34337000","lon":"13.36989000"},
{"state":"Skåne County","name":"Södra Sandby","lat":"55.71677000","lon":"13.34659000"},
{"state":"Skåne County","name":"Sösdala","lat":"56.03992000","lon":"13.67811000"},
{"state":"Skåne County","name":"Staffanstorp","lat":"55.64277000","lon":"13.20638000"},
{"state":"Skåne County","name":"Stångby","lat":"55.75030000","lon":"13.19797000"},
{"state":"Skåne County","name":"Stehag","lat":"55.90188000","lon":"13.39577000"},
{"state":"Skåne County","name":"Strövelstorp","lat":"56.16979000","lon":"12.83925000"},
{"state":"Skåne County","name":"Svalöv","lat":"55.91340000","lon":"13.10762000"},
{"state":"Skåne County","name":"Svedala","lat":"55.50788000","lon":"13.23515000"},
{"state":"Skåne County","name":"Teckomatorp","lat":"55.86667000","lon":"13.08333000"},
{"state":"Skåne County","name":"Tollarp","lat":"55.93333000","lon":"13.98333000"},
{"state":"Skåne County","name":"Tollarp1","lat":"56.16667000","lon":"14.28333000"},
{"state":"Skåne County","name":"Tomelilla","lat":"55.54293000","lon":"13.95460000"},
{"state":"Skåne County","name":"Torekov","lat":"56.42500000","lon":"12.63333000"},
{"state":"Skåne County","name":"Tormestorp","lat":"56.11350000","lon":"13.74516000"},
{"state":"Skåne County","name":"Trelleborg","lat":"55.37514000","lon":"13.15691000"},
{"state":"Skåne County","name":"Tygelsjö","lat":"55.51667000","lon":"13.00000000"},
{"state":"Skåne County","name":"Tyringe","lat":"56.16037000","lon":"13.59811000"},
{"state":"Skåne County","name":"Valje","lat":"56.06279000","lon":"14.54388000"},
{"state":"Skåne County","name":"Veberöd","lat":"55.63333000","lon":"13.48333000"},
{"state":"Skåne County","name":"Vejbystrand","lat":"56.31778000","lon":"12.76722000"},
{"state":"Skåne County","name":"Vellinge","lat":"55.47124000","lon":"13.01971000"},
{"state":"Skåne County","name":"Viken","lat":"56.15063000","lon":"12.57429000"},
{"state":"Skåne County","name":"Vinslöv","lat":"56.10000000","lon":"13.91667000"},
{"state":"Skåne County","name":"Vittsjö","lat":"56.34366000","lon":"13.66081000"},
{"state":"Skåne County","name":"Ystad","lat":"55.42966000","lon":"13.82041000"},
{"state":"Södermanland County","name":"Åkers Styckebruk","lat":"59.25000000","lon":"17.08333000"},
{"state":"Södermanland County","name":"Ärla","lat":"59.27983000","lon":"16.67896000"},
{"state":"Södermanland County","name":"Arnö","lat":"58.72675000","lon":"17.02322000"},
{"state":"Södermanland County","name":"Bara","lat":"58.68333000","lon":"17.06667000"},
{"state":"Södermanland County","name":"Eskilstuna","lat":"59.36661000","lon":"16.50770000"},
{"state":"Södermanland County","name":"Flen","lat":"59.05834000","lon":"16.58781000"},
{"state":"Södermanland County","name":"Gnesta","lat":"59.04751000","lon":"17.31191000"},
{"state":"Södermanland County","name":"Hällbybrunn","lat":"59.39152000","lon":"16.42229000"},
{"state":"Södermanland County","name":"Hälleforsnäs","lat":"59.15208000","lon":"16.49700000"},
{"state":"Södermanland County","name":"Katrineholm","lat":"58.99587000","lon":"16.20721000"},
{"state":"Södermanland County","name":"Kvicksund","lat":"59.45099000","lon":"16.32131000"},
{"state":"Södermanland County","name":"Malmköping","lat":"59.13333000","lon":"16.73333000"},
{"state":"Södermanland County","name":"Mariefred","lat":"59.25963000","lon":"17.22300000"},
{"state":"Södermanland County","name":"Nyköping","lat":"58.75300000","lon":"17.00788000"},
{"state":"Södermanland County","name":"Olstorp","lat":"58.81667000","lon":"16.63333000"},
{"state":"Södermanland County","name":"Oxelösund","lat":"58.67057000","lon":"17.10152000"},
{"state":"Södermanland County","name":"Skogstorp","lat":"59.32472000","lon":"16.48284000"},
{"state":"Södermanland County","name":"Stallarholmen","lat":"59.36667000","lon":"17.20000000"},
{"state":"Södermanland County","name":"Stigtomta","lat":"58.80000000","lon":"16.78333000"},
{"state":"Södermanland County","name":"Strängnäs","lat":"59.37741000","lon":"17.03119000"},
{"state":"Södermanland County","name":"Svalsta","lat":"58.74273000","lon":"16.86978000"},
{"state":"Södermanland County","name":"Torshälla","lat":"59.41667000","lon":"16.46667000"},
{"state":"Södermanland County","name":"Trosa","lat":"58.89621000","lon":"17.54812000"},
{"state":"Södermanland County","name":"Vagnhärad","lat":"58.94587000","lon":"17.48757000"},
{"state":"Södermanland County","name":"Valla","lat":"59.01667000","lon":"16.38333000"},
{"state":"Södermanland County","name":"Vingåker","lat":"59.04330000","lon":"15.87374000"},
{"state":"Stockholm County","name":"Akalla","lat":"59.41465000","lon":"17.91398000"},
{"state":"Stockholm County","name":"Åkersberga","lat":"59.47944000","lon":"18.29967000"},
{"state":"Stockholm County","name":"Alby","lat":"59.23350000","lon":"17.85380000"},
{"state":"Stockholm County","name":"Älmsta","lat":"59.96667000","lon":"18.80000000"},
{"state":"Stockholm County","name":"Älta","lat":"59.26667000","lon":"18.18333000"},
{"state":"Stockholm County","name":"Arnö","lat":"60.11667000","lon":"18.63333000"},
{"state":"Stockholm County","name":"Årsta","lat":"59.29780000","lon":"18.05140000"},
{"state":"Stockholm County","name":"Bergshamra","lat":"59.38083000","lon":"18.03427000"},
{"state":"Stockholm County","name":"Bollmora","lat":"59.24196000","lon":"18.22762000"},
{"state":"Stockholm County","name":"Boo","lat":"59.33333000","lon":"18.28333000"},
{"state":"Stockholm County","name":"Brevik","lat":"59.35000000","lon":"18.20000000"},
{"state":"Stockholm County","name":"Bro","lat":"59.51667000","lon":"17.63333000"},
{"state":"Stockholm County","name":"Bromma","lat":"59.34000000","lon":"17.94000000"},
{"state":"Stockholm County","name":"Brunn","lat":"59.28000000","lon":"18.43000000"},
{"state":"Stockholm County","name":"Brunna","lat":"59.51667000","lon":"17.75000000"},
{"state":"Stockholm County","name":"Dalarö","lat":"59.13306000","lon":"18.40639000"},
{"state":"Stockholm County","name":"Djurö","lat":"59.32653000","lon":"18.71152000"},
{"state":"Stockholm County","name":"Djursholm","lat":"59.39926000","lon":"18.05619000"},
{"state":"Stockholm County","name":"Ekerö","lat":"59.29100000","lon":"17.81212000"},
{"state":"Stockholm County","name":"Enebyberg","lat":"59.43333000","lon":"18.05000000"},
{"state":"Stockholm County","name":"Eriksberg","lat":"59.24241000","lon":"17.81631000"},
{"state":"Stockholm County","name":"Fisksätra","lat":"59.29153000","lon":"18.25490000"},
{"state":"Stockholm County","name":"Fittja","lat":"59.24868000","lon":"17.85991000"},
{"state":"Stockholm County","name":"Gamla Stan","lat":"59.32627000","lon":"18.07251000"},
{"state":"Stockholm County","name":"Gustavsberg","lat":"59.32684000","lon":"18.38975000"},
{"state":"Stockholm County","name":"Hallstavik","lat":"60.05000000","lon":"18.60000000"},
{"state":"Stockholm County","name":"Handen","lat":"59.16809000","lon":"18.13796000"},
{"state":"Stockholm County","name":"Haninge","lat":"59.16775000","lon":"18.14478000"},
{"state":"Stockholm County","name":"Hemmesta","lat":"59.32273000","lon":"18.48675000"},
{"state":"Stockholm County","name":"Hölö","lat":"59.01667000","lon":"17.53333000"},
{"state":"Stockholm County","name":"Huddinge","lat":"59.23705000","lon":"17.98192000"},
{"state":"Stockholm County","name":"Jakobsberg","lat":"59.42268000","lon":"17.83508000"},
{"state":"Stockholm County","name":"Järna","lat":"59.09165000","lon":"17.56615000"},
{"state":"Stockholm County","name":"Jordbro","lat":"59.14972000","lon":"18.11667000"},
{"state":"Stockholm County","name":"Kista","lat":"59.40316000","lon":"17.94479000"},
{"state":"Stockholm County","name":"Kopparmora","lat":"59.33306000","lon":"18.58306000"},
{"state":"Stockholm County","name":"Kummelnäs","lat":"59.35000000","lon":"18.28333000"},
{"state":"Stockholm County","name":"Kungsängen","lat":"59.47857000","lon":"17.74834000"},
{"state":"Stockholm County","name":"Kungsholmen","lat":"59.33183000","lon":"18.04118000"},
{"state":"Stockholm County","name":"Långvik","lat":"59.24583000","lon":"18.51667000"},
{"state":"Stockholm County","name":"Lidingö","lat":"59.36303000","lon":"18.15096000"},
{"state":"Stockholm County","name":"Lindholmen","lat":"59.58333000","lon":"18.10000000"},
{"state":"Stockholm County","name":"Märsta","lat":"59.62157000","lon":"17.85476000"},
{"state":"Stockholm County","name":"Mölnbo","lat":"59.05000000","lon":"17.41667000"},
{"state":"Stockholm County","name":"Mörtnäs","lat":"59.31862000","lon":"18.44312000"},
{"state":"Stockholm County","name":"Nacka","lat":"59.31053000","lon":"18.16372000"},
{"state":"Stockholm County","name":"Norrtälje","lat":"59.75799000","lon":"18.70496000"},
{"state":"Stockholm County","name":"Nykvarn","lat":"59.80000000","lon":"18.30000000"},
{"state":"Stockholm County","name":"Nynäshamn","lat":"58.90337000","lon":"17.94793000"},
{"state":"Stockholm County","name":"Ösmo","lat":"58.98333000","lon":"17.90000000"},
{"state":"Stockholm County","name":"Östermalm","lat":"59.33879000","lon":"18.08487000"},
{"state":"Stockholm County","name":"Pershagen","lat":"59.15494000","lon":"17.65340000"},
{"state":"Stockholm County","name":"Råsunda","lat":"59.36588000","lon":"17.99569000"},
{"state":"Stockholm County","name":"Resarö","lat":"59.42910000","lon":"18.33386000"},
{"state":"Stockholm County","name":"Rimbo","lat":"59.75000000","lon":"18.36667000"},
{"state":"Stockholm County","name":"Rindö","lat":"59.39688000","lon":"18.39434000"},
{"state":"Stockholm County","name":"Rönninge","lat":"59.20000000","lon":"17.73333000"},
{"state":"Stockholm County","name":"Rosersberg","lat":"59.58333000","lon":"17.88333000"},
{"state":"Stockholm County","name":"Saltsjöbaden","lat":"59.28333000","lon":"18.30000000"},
{"state":"Stockholm County","name":"Segeltorp","lat":"59.27597000","lon":"17.93072000"},
{"state":"Stockholm County","name":"Sigtuna","lat":"59.61731000","lon":"17.72361000"},
{"state":"Stockholm County","name":"Skänninge","lat":"59.93333000","lon":"18.48333000"},
{"state":"Stockholm County","name":"Södermalm","lat":"59.31278000","lon":"18.07577000"},
{"state":"Stockholm County","name":"Södertälje","lat":"59.19554000","lon":"17.62525000"},
{"state":"Stockholm County","name":"Sollentuna","lat":"59.42804000","lon":"17.95093000"},
{"state":"Stockholm County","name":"Solna","lat":"59.36004000","lon":"18.00086000"},
{"state":"Stockholm County","name":"Stavsnäs","lat":"59.28333000","lon":"18.68333000"},
{"state":"Stockholm County","name":"Stenhamra","lat":"59.33440000","lon":"17.68842000"},
{"state":"Stockholm County","name":"Stockholm","lat":"59.33258000","lon":"18.06490000"},
{"state":"Stockholm County","name":"Strömma","lat":"59.28333000","lon":"18.53333000"},
{"state":"Stockholm County","name":"Sundbyberg","lat":"59.36128000","lon":"17.97114000"},
{"state":"Stockholm County","name":"Tensta","lat":"59.39390000","lon":"17.90111000"},
{"state":"Stockholm County","name":"Tullinge","lat":"59.20000000","lon":"17.90000000"},
{"state":"Stockholm County","name":"Tumba","lat":"59.19858000","lon":"17.83317000"},
{"state":"Stockholm County","name":"Upplands Väsby","lat":"59.51839000","lon":"17.91128000"},
{"state":"Stockholm County","name":"Vallentuna","lat":"59.53436000","lon":"18.07758000"},
{"state":"Stockholm County","name":"Vårby","lat":"59.26671000","lon":"17.88407000"},
{"state":"Stockholm County","name":"Vårsta","lat":"59.16528000","lon":"17.79722000"},
{"state":"Stockholm County","name":"Vasastan","lat":"59.34571000","lon":"18.04985000"},
{"state":"Stockholm County","name":"Vaxholm","lat":"59.40225000","lon":"18.35317000"},
{"state":"Uppsala County","name":"Alsike","lat":"59.75324000","lon":"17.77331000"},
{"state":"Uppsala County","name":"Alunda","lat":"60.26667000","lon":"18.40000000"},
{"state":"Uppsala County","name":"Älvkarleby","lat":"60.57081000","lon":"17.44895000"},
{"state":"Uppsala County","name":"Anneberg","lat":"60.24167000","lon":"18.41667000"},
{"state":"Uppsala County","name":"Bälinge","lat":"59.95000000","lon":"17.53333000"},
{"state":"Uppsala County","name":"Bålsta","lat":"59.56710000","lon":"17.52781000"},
{"state":"Uppsala County","name":"Björklinge","lat":"60.03004000","lon":"17.55203000"},
{"state":"Uppsala County","name":"Enköping","lat":"59.63607000","lon":"17.07768000"},
{"state":"Uppsala County","name":"Gamla Uppsala","lat":"59.89817000","lon":"17.63386000"},
{"state":"Uppsala County","name":"Gimo","lat":"60.17304000","lon":"18.18507000"},
{"state":"Uppsala County","name":"Grillby","lat":"59.62603000","lon":"17.25787000"},
{"state":"Uppsala County","name":"Heby","lat":"59.93815000","lon":"16.86217000"},
{"state":"Uppsala County","name":"Irsta","lat":"59.70000000","lon":"16.93333000"},
{"state":"Uppsala County","name":"Karlholmsbruk","lat":"60.52091000","lon":"17.63152000"},
{"state":"Uppsala County","name":"Knivsta","lat":"59.72564000","lon":"17.78753000"},
{"state":"Uppsala County","name":"Lövstalöt","lat":"59.95740000","lon":"17.57826000"},
{"state":"Uppsala County","name":"Marieberg","lat":"60.23333000","lon":"18.50000000"},
{"state":"Uppsala County","name":"Morgongåva","lat":"59.93395000","lon":"16.96353000"},
{"state":"Uppsala County","name":"Örbyhus","lat":"60.22407000","lon":"17.70138000"},
{"state":"Uppsala County","name":"Öregrund","lat":"60.33333000","lon":"18.43333000"},
{"state":"Uppsala County","name":"Örsundsbro","lat":"59.73333000","lon":"17.30000000"},
{"state":"Uppsala County","name":"Österbybruk","lat":"60.20000000","lon":"17.90000000"},
{"state":"Uppsala County","name":"Östervåla","lat":"60.18333000","lon":"17.18333000"},
{"state":"Uppsala County","name":"Östhammar","lat":"60.25909000","lon":"18.37408000"},
{"state":"Uppsala County","name":"Sävja","lat":"59.81872000","lon":"17.69958000"},
{"state":"Uppsala County","name":"Skutskär","lat":"60.62507000","lon":"17.41552000"},
{"state":"Uppsala County","name":"Söderfors","lat":"60.38333000","lon":"17.23333000"},
{"state":"Uppsala County","name":"Storvreta","lat":"59.95933000","lon":"17.70588000"},
{"state":"Uppsala County","name":"Tärnsjö","lat":"60.15000000","lon":"16.93333000"},
{"state":"Uppsala County","name":"Tierp","lat":"60.34269000","lon":"17.51812000"},
{"state":"Uppsala County","name":"Uppsala","lat":"59.85882000","lon":"17.63889000"},
{"state":"Uppsala County","name":"Vattholma","lat":"60.01667000","lon":"17.73333000"},
{"state":"Värmland County","name":"Åmotfors","lat":"59.76191000","lon":"12.36211000"},
{"state":"Värmland County","name":"Årjäng","lat":"59.39217000","lon":"12.13336000"},
{"state":"Värmland County","name":"Arvika","lat":"59.65528000","lon":"12.58518000"},
{"state":"Värmland County","name":"Björneborg","lat":"59.24122000","lon":"14.24942000"},
{"state":"Värmland County","name":"Charlottenberg","lat":"59.88422000","lon":"12.30398000"},
{"state":"Värmland County","name":"Deje","lat":"59.60300000","lon":"13.47200000"},
{"state":"Värmland County","name":"Ekshärad","lat":"60.17275000","lon":"13.49647000"},
{"state":"Värmland County","name":"Filipstad","lat":"59.71236000","lon":"14.16831000"},
{"state":"Värmland County","name":"Forshaga","lat":"59.52541000","lon":"13.48127000"},
{"state":"Värmland County","name":"Grums","lat":"59.35141000","lon":"13.11105000"},
{"state":"Värmland County","name":"Hagfors","lat":"60.02378000","lon":"13.67214000"},
{"state":"Värmland County","name":"Karlstad","lat":"59.37930000","lon":"13.50357000"},
{"state":"Värmland County","name":"Kil","lat":"59.50234000","lon":"13.31277000"},
{"state":"Värmland County","name":"Kristinehamn","lat":"59.30978000","lon":"14.10808000"},
{"state":"Värmland County","name":"Molkom","lat":"59.60057000","lon":"13.72115000"},
{"state":"Värmland County","name":"Munkfors","lat":"59.83856000","lon":"13.54361000"},
{"state":"Värmland County","name":"Råtorp","lat":"59.40197000","lon":"13.49144000"},
{"state":"Värmland County","name":"Säffle","lat":"59.13229000","lon":"12.92888000"},
{"state":"Värmland County","name":"Skåre","lat":"59.43333000","lon":"13.43333000"},
{"state":"Värmland County","name":"Skattkärr","lat":"59.41208000","lon":"13.67078000"},
{"state":"Värmland County","name":"Skoghall","lat":"59.32324000","lon":"13.46552000"},
{"state":"Värmland County","name":"Slottsbron","lat":"59.32270000","lon":"13.10268000"},
{"state":"Värmland County","name":"Storfors","lat":"59.53183000","lon":"14.27201000"},
{"state":"Värmland County","name":"Sunne","lat":"59.83764000","lon":"13.14302000"},
{"state":"Värmland County","name":"Töcksfors","lat":"59.50816000","lon":"11.84431000"},
{"state":"Värmland County","name":"Torsby","lat":"60.13527000","lon":"13.00820000"},
{"state":"Värmland County","name":"Vålberg","lat":"59.39145000","lon":"13.18633000"},
{"state":"Västerbotten County","name":"Åsele","lat":"64.16026000","lon":"17.34762000"},
{"state":"Västerbotten County","name":"Backa","lat":"64.98333000","lon":"21.06667000"},
{"state":"Västerbotten County","name":"Bjurholm","lat":"63.93027000","lon":"19.21369000"},
{"state":"Västerbotten County","name":"Boliden","lat":"64.86667000","lon":"20.38333000"},
{"state":"Västerbotten County","name":"Bureå","lat":"64.61667000","lon":"21.20000000"},
{"state":"Västerbotten County","name":"Burträsk","lat":"64.51667000","lon":"20.65000000"},
{"state":"Västerbotten County","name":"Byske","lat":"64.95258000","lon":"21.20580000"},
{"state":"Västerbotten County","name":"Dorotea","lat":"64.26185000","lon":"16.41306000"},
{"state":"Västerbotten County","name":"Ersmark","lat":"63.88333000","lon":"20.31667000"},
{"state":"Västerbotten County","name":"Forsbacka","lat":"64.76667000","lon":"20.50000000"},
{"state":"Västerbotten County","name":"Holmsund","lat":"63.70602000","lon":"20.36409000"},
{"state":"Västerbotten County","name":"Hörnefors","lat":"63.62312000","lon":"19.90856000"},
{"state":"Västerbotten County","name":"Insjön","lat":"64.40000000","lon":"17.48333000"},
{"state":"Västerbotten County","name":"Kåge","lat":"64.83571000","lon":"20.98453000"},
{"state":"Västerbotten County","name":"Långsele","lat":"64.81667000","lon":"20.25000000"},
{"state":"Västerbotten County","name":"Lycksele","lat":"64.59537000","lon":"18.67351000"},
{"state":"Västerbotten County","name":"Malå","lat":"65.18501000","lon":"18.74243000"},
{"state":"Västerbotten County","name":"Nordmaling","lat":"63.56852000","lon":"19.50244000"},
{"state":"Västerbotten County","name":"Norsjö","lat":"64.91206000","lon":"19.48153000"},
{"state":"Västerbotten County","name":"Obbola","lat":"63.70000000","lon":"20.31667000"},
{"state":"Västerbotten County","name":"Röbäck","lat":"63.80879000","lon":"20.18901000"},
{"state":"Västerbotten County","name":"Robertsfors","lat":"64.19324000","lon":"20.84806000"},
{"state":"Västerbotten County","name":"Sävar","lat":"63.90383000","lon":"20.55014000"},
{"state":"Västerbotten County","name":"Skellefteå","lat":"64.75067000","lon":"20.95279000"},
{"state":"Västerbotten County","name":"Skelleftehamn","lat":"64.68333000","lon":"21.23333000"},
{"state":"Västerbotten County","name":"Söderfors","lat":"64.81667000","lon":"18.05000000"},
{"state":"Västerbotten County","name":"Sorsele","lat":"65.53484000","lon":"17.53702000"},
{"state":"Västerbotten County","name":"Storuman","lat":"65.09590000","lon":"17.11731000"},
{"state":"Västerbotten County","name":"Storvik","lat":"65.15000000","lon":"20.73333000"},
{"state":"Västerbotten County","name":"Täfteå","lat":"63.83970000","lon":"20.47857000"},
{"state":"Västerbotten County","name":"Umeå","lat":"63.82842000","lon":"20.25972000"},
{"state":"Västerbotten County","name":"Ursviken","lat":"64.71261000","lon":"21.16580000"},
{"state":"Västerbotten County","name":"Vännäs","lat":"63.90676000","lon":"19.75712000"},
{"state":"Västerbotten County","name":"Vännäsby","lat":"63.91564000","lon":"19.82438000"},
{"state":"Västerbotten County","name":"Viken","lat":"64.72587000","lon":"20.91548000"},
{"state":"Västerbotten County","name":"Vilhelmina","lat":"64.62417000","lon":"16.65596000"},
{"state":"Västerbotten County","name":"Vindeln","lat":"64.20175000","lon":"19.71945000"},
{"state":"Västernorrland County","name":"Ånge","lat":"62.52495000","lon":"15.65904000"},
{"state":"Västernorrland County","name":"Ås","lat":"63.36667000","lon":"16.58333000"},
{"state":"Västernorrland County","name":"Bergeforsen","lat":"62.53074000","lon":"17.38123000"},
{"state":"Västernorrland County","name":"Bjästa","lat":"63.20000000","lon":"18.50000000"},
{"state":"Västernorrland County","name":"Bollstabruk","lat":"62.99777000","lon":"17.67348000"},
{"state":"Västernorrland County","name":"Bredbyn","lat":"63.44655000","lon":"18.11019000"},
{"state":"Västernorrland County","name":"Fränsta","lat":"62.49855000","lon":"16.17016000"},
{"state":"Västernorrland County","name":"Härnösand","lat":"62.63228000","lon":"17.93794000"},
{"state":"Västernorrland County","name":"Husum","lat":"63.33333000","lon":"19.16667000"},
{"state":"Västernorrland County","name":"Johannedal","lat":"62.43424000","lon":"17.37273000"},
{"state":"Västernorrland County","name":"Köpmanholmen","lat":"63.16667000","lon":"18.56667000"},
{"state":"Västernorrland County","name":"Kramfors","lat":"62.93161000","lon":"17.77646000"},
{"state":"Västernorrland County","name":"Kvissleby","lat":"62.29361000","lon":"17.37500000"},
{"state":"Västernorrland County","name":"Långsele","lat":"63.18333000","lon":"17.06667000"},
{"state":"Västernorrland County","name":"Matfors","lat":"62.34864000","lon":"17.03173000"},
{"state":"Västernorrland County","name":"Njurundabommen","lat":"62.26339000","lon":"17.38354000"},
{"state":"Västernorrland County","name":"Nolby","lat":"62.28750000","lon":"17.36917000"},
{"state":"Västernorrland County","name":"Örnsköldsvik","lat":"63.29091000","lon":"18.71525000"},
{"state":"Västernorrland County","name":"Skottsund","lat":"62.29056000","lon":"17.38694000"},
{"state":"Västernorrland County","name":"Sollefteå","lat":"63.16667000","lon":"17.26667000"},
{"state":"Västernorrland County","name":"Söråker","lat":"62.50561000","lon":"17.51032000"},
{"state":"Västernorrland County","name":"Stockvik","lat":"62.33667000","lon":"17.36583000"},
{"state":"Västernorrland County","name":"Sundsbruk","lat":"62.45806000","lon":"17.34889000"},
{"state":"Västernorrland County","name":"Sundsvall","lat":"62.39129000","lon":"17.30630000"},
{"state":"Västernorrland County","name":"Timrå","lat":"62.48654000","lon":"17.32613000"},
{"state":"Västernorrland County","name":"Vi","lat":"62.43333000","lon":"17.41667000"},
{"state":"Västmanland County","name":"Arboga","lat":"59.39387000","lon":"15.83882000"},
{"state":"Västmanland County","name":"Barkarö","lat":"59.54935000","lon":"16.50740000"},
{"state":"Västmanland County","name":"Dingtuna","lat":"59.57279000","lon":"16.38722000"},
{"state":"Västmanland County","name":"Enhagen-Ekbacken","lat":"59.56543000","lon":"16.53045000"},
{"state":"Västmanland County","name":"Fagersta","lat":"60.00418000","lon":"15.79316000"},
{"state":"Västmanland County","name":"Hallstahammar","lat":"59.61395000","lon":"16.22846000"},
{"state":"Västmanland County","name":"Hökåsen","lat":"59.66667000","lon":"16.58333000"},
{"state":"Västmanland County","name":"Irsta","lat":"59.60000000","lon":"16.70000000"},
{"state":"Västmanland County","name":"Kolbäck","lat":"59.56516000","lon":"16.23037000"},
{"state":"Västmanland County","name":"Kolsva","lat":"59.60000000","lon":"15.83333000"},
{"state":"Västmanland County","name":"Köping","lat":"59.51404000","lon":"15.99255000"},
{"state":"Västmanland County","name":"Kungsör","lat":"59.42245000","lon":"16.09656000"},
{"state":"Västmanland County","name":"Norberg","lat":"60.06505000","lon":"15.92366000"},
{"state":"Västmanland County","name":"Ramnäs","lat":"59.76667000","lon":"16.20000000"},
{"state":"Västmanland County","name":"Sala","lat":"59.91993000","lon":"16.60655000"},
{"state":"Västmanland County","name":"Skinnskatteberg","lat":"59.83028000","lon":"15.69337000"},
{"state":"Västmanland County","name":"Skultuna","lat":"59.71667000","lon":"16.41667000"},
{"state":"Västmanland County","name":"Surahammar","lat":"59.70725000","lon":"16.22188000"},
{"state":"Västmanland County","name":"Tillberga","lat":"59.68333000","lon":"16.61667000"},
{"state":"Västmanland County","name":"Västerås","lat":"59.64914000","lon":"16.56445000"},
{"state":"Västra Götaland County","name":"Åkarp","lat":"58.23333000","lon":"13.65000000"},
{"state":"Västra Götaland County","name":"Alafors","lat":"57.92579000","lon":"12.07835000"},
{"state":"Västra Götaland County","name":"Alingsås","lat":"57.93033000","lon":"12.53345000"},
{"state":"Västra Götaland County","name":"Älvängen","lat":"57.95872000","lon":"12.12350000"},
{"state":"Västra Götaland County","name":"Åmål","lat":"59.05100000","lon":"12.70492000"},
{"state":"Västra Götaland County","name":"Andalen","lat":"57.70039000","lon":"11.76136000"},
{"state":"Västra Götaland County","name":"Anderstorp","lat":"58.88333000","lon":"14.28333000"},
{"state":"Västra Götaland County","name":"Angered","lat":"57.78628000","lon":"12.09852000"},
{"state":"Västra Götaland County","name":"Annelund","lat":"57.98843000","lon":"13.07483000"},
{"state":"Västra Götaland County","name":"Axvall","lat":"58.38333000","lon":"13.56667000"},
{"state":"Västra Götaland County","name":"Bengtsfors","lat":"59.02912000","lon":"12.23207000"},
{"state":"Västra Götaland County","name":"Billdal","lat":"57.56667000","lon":"11.93333000"},
{"state":"Västra Götaland County","name":"Billingsfors","lat":"58.98333000","lon":"12.25000000"},
{"state":"Västra Götaland County","name":"Björboholm","lat":"57.87096000","lon":"12.32546000"},
{"state":"Västra Götaland County","name":"Björkö","lat":"57.73221000","lon":"11.67916000"},
{"state":"Västra Götaland County","name":"Björlanda","lat":"57.76667000","lon":"11.83333000"},
{"state":"Västra Götaland County","name":"Bollebygd","lat":"57.66866000","lon":"12.57272000"},
{"state":"Västra Götaland County","name":"Borås","lat":"57.73783000","lon":"12.94076000"},
{"state":"Västra Götaland County","name":"Brålanda","lat":"58.56344000","lon":"12.34923000"},
{"state":"Västra Götaland County","name":"Brastad","lat":"58.38333000","lon":"11.48333000"},
{"state":"Västra Götaland County","name":"Dals Långed","lat":"58.92555000","lon":"12.30865000"},
{"state":"Västra Götaland County","name":"Dalsjöfors","lat":"57.71667000","lon":"13.08333000"},
{"state":"Västra Götaland County","name":"Diseröd","lat":"57.92636000","lon":"12.02598000"},
{"state":"Västra Götaland County","name":"Donsö","lat":"57.60000000","lon":"11.79917000"},
{"state":"Västra Götaland County","name":"Ed","lat":"58.91247000","lon":"11.93308000"},
{"state":"Västra Götaland County","name":"Ellös","lat":"58.18333000","lon":"11.46667000"},
{"state":"Västra Götaland County","name":"Eriksbo","lat":"57.77141000","lon":"12.04183000"},
{"state":"Västra Götaland County","name":"Falköping","lat":"58.17347000","lon":"13.55068000"},
{"state":"Västra Götaland County","name":"Färgelanda","lat":"58.56816000","lon":"11.99235000"},
{"state":"Västra Götaland County","name":"Floby","lat":"58.13333000","lon":"13.33333000"},
{"state":"Västra Götaland County","name":"Fristad","lat":"57.82483000","lon":"13.01064000"},
{"state":"Västra Götaland County","name":"Fritsla","lat":"57.55655000","lon":"12.78457000"},
{"state":"Västra Götaland County","name":"Furulund","lat":"57.71667000","lon":"12.13333000"},
{"state":"Västra Götaland County","name":"Gånghester","lat":"57.70000000","lon":"13.01667000"},
{"state":"Västra Götaland County","name":"Gårdsten","lat":"57.80480000","lon":"12.02883000"},
{"state":"Västra Götaland County","name":"Göta","lat":"58.10617000","lon":"12.15254000"},
{"state":"Västra Götaland County","name":"Göteborg","lat":"57.70716000","lon":"11.96679000"},
{"state":"Västra Götaland County","name":"Göteborgs stad","lat":"57.72288000","lon":"11.94577000"},
{"state":"Västra Götaland County","name":"Götene","lat":"58.52824000","lon":"13.49458000"},
{"state":"Västra Götaland County","name":"Gråbo","lat":"57.83625000","lon":"12.29954000"},
{"state":"Västra Götaland County","name":"Grästorp","lat":"58.33219000","lon":"12.68122000"},
{"state":"Västra Götaland County","name":"Grebbestad","lat":"58.70248000","lon":"11.25738000"},
{"state":"Västra Götaland County","name":"Gullspång","lat":"58.98615000","lon":"14.09644000"},
{"state":"Västra Götaland County","name":"Hammarkullen","lat":"57.78049000","lon":"12.03604000"},
{"state":"Västra Götaland County","name":"Henån","lat":"58.23848000","lon":"11.67598000"},
{"state":"Västra Götaland County","name":"Herrljunga","lat":"58.07739000","lon":"13.02662000"},
{"state":"Västra Götaland County","name":"Hindås","lat":"57.70338000","lon":"12.44657000"},
{"state":"Västra Götaland County","name":"Hjo","lat":"58.30133000","lon":"14.28784000"},
{"state":"Västra Götaland County","name":"Hjuvik","lat":"57.70167000","lon":"11.71639000"},
{"state":"Västra Götaland County","name":"Hönö","lat":"57.68972000","lon":"11.64972000"},
{"state":"Västra Götaland County","name":"Horred","lat":"57.35475000","lon":"12.47777000"},
{"state":"Västra Götaland County","name":"Hova","lat":"58.85363000","lon":"14.21914000"},
{"state":"Västra Götaland County","name":"Höviksnäs","lat":"58.03333000","lon":"11.76667000"},
{"state":"Västra Götaland County","name":"Hunnebostrand","lat":"58.44127000","lon":"11.30320000"},
{"state":"Västra Götaland County","name":"Ingared","lat":"57.85989000","lon":"12.45161000"},
{"state":"Västra Götaland County","name":"Jonstorp","lat":"58.00000000","lon":"12.71667000"},
{"state":"Västra Götaland County","name":"Jörlanda","lat":"57.98630000","lon":"11.82943000"},
{"state":"Västra Götaland County","name":"Källby","lat":"58.50999000","lon":"13.30582000"},
{"state":"Västra Götaland County","name":"Kållered","lat":"57.60992000","lon":"12.05106000"},
{"state":"Västra Götaland County","name":"Karlsborg","lat":"58.53724000","lon":"14.50470000"},
{"state":"Västra Götaland County","name":"Kinna","lat":"57.50728000","lon":"12.69463000"},
{"state":"Västra Götaland County","name":"Kode","lat":"57.94263000","lon":"11.85051000"},
{"state":"Västra Götaland County","name":"Kungälv","lat":"57.87096000","lon":"11.98054000"},
{"state":"Västra Götaland County","name":"Kungshamn","lat":"58.36305000","lon":"11.25938000"},
{"state":"Västra Götaland County","name":"Kvänum","lat":"58.30000000","lon":"13.18333000"},
{"state":"Västra Götaland County","name":"Landvetter","lat":"57.68665000","lon":"12.21169000"},
{"state":"Västra Götaland County","name":"Länghem","lat":"57.60000000","lon":"13.23333000"},
{"state":"Västra Götaland County","name":"Lerum","lat":"57.77051000","lon":"12.26904000"},
{"state":"Västra Götaland County","name":"Lidköping","lat":"58.50517000","lon":"13.15765000"},
{"state":"Västra Götaland County","name":"Lilla Edet","lat":"58.13333000","lon":"12.13333000"},
{"state":"Västra Götaland County","name":"Limmared","lat":"57.53592000","lon":"13.35566000"},
{"state":"Västra Götaland County","name":"Lindome","lat":"57.56667000","lon":"12.08333000"},
{"state":"Västra Götaland County","name":"Ljungskile","lat":"58.22452000","lon":"11.92014000"},
{"state":"Västra Götaland County","name":"Lödöse","lat":"58.02994000","lon":"12.15934000"},
{"state":"Västra Götaland County","name":"Lövgärdet","lat":"57.81555000","lon":"12.03861000"},
{"state":"Västra Götaland County","name":"Lysekil","lat":"58.27429000","lon":"11.43576000"},
{"state":"Västra Götaland County","name":"Majorna","lat":"57.69195000","lon":"11.91605000"},
{"state":"Västra Götaland County","name":"Mariestad","lat":"58.70971000","lon":"13.82367000"},
{"state":"Västra Götaland County","name":"Mellerud","lat":"58.69979000","lon":"12.45312000"},
{"state":"Västra Götaland County","name":"Mölltorp","lat":"58.50000000","lon":"14.40000000"},
{"state":"Västra Götaland County","name":"Mölndal","lat":"57.65540000","lon":"12.01378000"},
{"state":"Västra Götaland County","name":"Mölnlycke","lat":"57.65893000","lon":"12.11792000"},
{"state":"Västra Götaland County","name":"Munkedal","lat":"58.46634000","lon":"11.67345000"},
{"state":"Västra Götaland County","name":"Myggenäs","lat":"58.06176000","lon":"11.74936000"},
{"state":"Västra Götaland County","name":"Nolvik","lat":"57.77500000","lon":"11.83333000"},
{"state":"Västra Götaland County","name":"Nossebro","lat":"58.18808000","lon":"12.71599000"},
{"state":"Västra Götaland County","name":"Öckerö","lat":"57.70814000","lon":"11.65585000"},
{"state":"Västra Götaland County","name":"Ödsmål","lat":"58.10000000","lon":"11.85000000"},
{"state":"Västra Götaland County","name":"Öjersjö","lat":"57.69882000","lon":"12.13448000"},
{"state":"Västra Götaland County","name":"Olofstorp","lat":"57.80444000","lon":"12.17131000"},
{"state":"Västra Götaland County","name":"Olstorp","lat":"57.82277000","lon":"12.27696000"},
{"state":"Västra Götaland County","name":"Orust","lat":"58.18025000","lon":"11.63419000"},
{"state":"Västra Götaland County","name":"Partille","lat":"57.73950000","lon":"12.10642000"},
{"state":"Västra Götaland County","name":"Rannebergen","lat":"57.80236000","lon":"12.07131000"},
{"state":"Västra Götaland County","name":"Rävlanda","lat":"57.65338000","lon":"12.49791000"},
{"state":"Västra Götaland County","name":"Rönnäng","lat":"57.93333000","lon":"11.58333000"},
{"state":"Västra Götaland County","name":"Sålanda","lat":"57.98333000","lon":"12.21667000"},
{"state":"Västra Götaland County","name":"Sandared","lat":"57.70992000","lon":"12.79238000"},
{"state":"Västra Götaland County","name":"Sätila","lat":"57.54172000","lon":"12.43429000"},
{"state":"Västra Götaland County","name":"Sjömarken","lat":"57.71533000","lon":"12.83495000"},
{"state":"Västra Götaland County","name":"Sjuntorp","lat":"58.20000000","lon":"12.21667000"},
{"state":"Västra Götaland County","name":"Skara","lat":"58.38659000","lon":"13.43836000"},
{"state":"Västra Götaland County","name":"Skärhamn","lat":"57.98665000","lon":"11.55742000"},
{"state":"Västra Götaland County","name":"Skepplanda","lat":"57.98333000","lon":"12.20000000"},
{"state":"Västra Götaland County","name":"Skövde","lat":"58.39118000","lon":"13.84506000"},
{"state":"Västra Götaland County","name":"Skultorp","lat":"58.35000000","lon":"13.83333000"},
{"state":"Västra Götaland County","name":"Smögen","lat":"58.35593000","lon":"11.22411000"},
{"state":"Västra Götaland County","name":"Sollebrunn","lat":"58.11667000","lon":"12.53333000"},
{"state":"Västra Götaland County","name":"Stenkullen","lat":"57.79476000","lon":"12.31688000"},
{"state":"Västra Götaland County","name":"Stenstorp","lat":"58.27254000","lon":"13.71454000"},
{"state":"Västra Götaland County","name":"Stenungsund","lat":"58.07046000","lon":"11.81810000"},
{"state":"Västra Götaland County","name":"Stöpen","lat":"58.47802000","lon":"13.86611000"},
{"state":"Västra Götaland County","name":"Stora Höga","lat":"58.01667000","lon":"11.83333000"},
{"state":"Västra Götaland County","name":"Strömstad","lat":"58.93945000","lon":"11.17120000"},
{"state":"Västra Götaland County","name":"Styrsö","lat":"57.61639000","lon":"11.78556000"},
{"state":"Västra Götaland County","name":"Surte","lat":"57.82533000","lon":"12.01604000"},
{"state":"Västra Götaland County","name":"Svanesund","lat":"58.14292000","lon":"11.81821000"},
{"state":"Västra Götaland County","name":"Svenljunga","lat":"57.49551000","lon":"13.11078000"},
{"state":"Västra Götaland County","name":"Tanumshede","lat":"58.72385000","lon":"11.32587000"},
{"state":"Västra Götaland County","name":"Tibro","lat":"58.42453000","lon":"14.16162000"},
{"state":"Västra Götaland County","name":"Tidaholm","lat":"58.18035000","lon":"13.95824000"},
{"state":"Västra Götaland County","name":"Tjuvkil","lat":"57.90000000","lon":"11.73333000"},
{"state":"Västra Götaland County","name":"Töreboda","lat":"58.70739000","lon":"14.12597000"},
{"state":"Västra Götaland County","name":"Torslanda","lat":"57.72432000","lon":"11.77013000"},
{"state":"Västra Götaland County","name":"Tranemo","lat":"57.48333000","lon":"13.35000000"},
{"state":"Västra Götaland County","name":"Trollhättan","lat":"58.21208000","lon":"12.35033000"},
{"state":"Västra Götaland County","name":"Uddevalla","lat":"58.34784000","lon":"11.94240000"},
{"state":"Västra Götaland County","name":"Ulricehamn","lat":"57.79159000","lon":"13.41422000"},
{"state":"Västra Götaland County","name":"Vänersborg","lat":"58.38075000","lon":"12.32340000"},
{"state":"Västra Götaland County","name":"Vara","lat":"58.26234000","lon":"12.95413000"},
{"state":"Västra Götaland County","name":"Vårgårda","lat":"58.03706000","lon":"12.80907000"},
{"state":"Västra Götaland County","name":"Vargön","lat":"58.35599000","lon":"12.39060000"},
{"state":"Västra Götaland County","name":"Västra Frölunda","lat":"57.64667000","lon":"11.92944000"},
{"state":"Västra Götaland County","name":"Vinninga","lat":"58.45000000","lon":"13.26667000"},
{"state":"Västra Götaland County","name":"Viskafors","lat":"57.62941000","lon":"12.84890000"}]