[{"state":"Ajdovščina Municipality","name":"Ajdovščina","lat":"45.88601000","lon":"13.90946000"},
{"state":"Ajdovščina Municipality","name":"Cirkulane","lat":"46.34408000","lon":"15.99472000"},
{"state":"Ajdovščina Municipality","name":"Lokavec","lat":"45.90167000","lon":"13.87972000"},
{"state":"Ankaran Municipality","name":"Ankaran","lat":"45.57861000","lon":"13.73611000"},
{"state":"Beltinci Municipality","name":"Beltinci","lat":"46.60528000","lon":"16.24056000"},
{"state":"Beltinci Municipality","name":"Gančani","lat":"46.63250000","lon":"16.25111000"},
{"state":"Beltinci Municipality","name":"Lipovci","lat":"46.62833000","lon":"16.22806000"},
{"state":"Beltinci Municipality","name":"Zgornje Gorje","lat":"46.37962000","lon":"14.06937000"},
{"state":"Benedikt Municipality","name":"Benedikt","lat":"46.60861000","lon":"15.88833000"},
{"state":"Bistrica ob Sotli Municipality","name":"Bistrica ob Sotli","lat":"46.05889000","lon":"15.66417000"},
{"state":"Bled Municipality","name":"Bled","lat":"46.36917000","lon":"14.11361000"},
{"state":"Bled Municipality","name":"Kostanjevica na Krki","lat":"45.84611000","lon":"15.42222000"},
{"state":"Bled Municipality","name":"Zasip","lat":"46.39284000","lon":"14.10869000"},
{"state":"Bloke Municipality","name":"Nova Vas","lat":"45.77167000","lon":"14.50583000"},
{"state":"Bohinj Municipality","name":"Bohinjska Bistrica","lat":"46.27216000","lon":"13.95350000"},
{"state":"Bohinj Municipality","name":"Dragomer","lat":"46.01667000","lon":"14.38333000"},
{"state":"Bohinj Municipality","name":"Log pri Brezovici","lat":"46.01667000","lon":"14.36667000"},
{"state":"Borovnica Municipality","name":"Borovnica","lat":"45.91583000","lon":"14.36306000"},
{"state":"Borovnica Municipality","name":"Makole","lat":"46.31722000","lon":"15.66722000"},
{"state":"Bovec Municipality","name":"Bovec","lat":"46.33808000","lon":"13.55245000"},
{"state":"Bovec Municipality","name":"Mirna","lat":"45.95528000","lon":"15.06194000"},
{"state":"Braslovče Municipality","name":"Braslovče","lat":"46.28972000","lon":"15.03889000"},
{"state":"Brda Municipality","name":"Dobrovo","lat":"45.99639000","lon":"13.52639000"},
{"state":"Brda Municipality","name":"Mokronog","lat":"45.93417000","lon":"15.14083000"},
{"state":"Brežice Municipality","name":"Brežice","lat":"45.90333000","lon":"15.59111000"},
{"state":"Brežice Municipality","name":"Poljčane","lat":"46.31194000","lon":"15.57917000"},
{"state":"Brezovica Municipality","name":"Brezovica pri Ljubljani","lat":"46.03333000","lon":"14.40000000"},
{"state":"Brezovica Municipality","name":"Notranje Gorice","lat":"45.98750000","lon":"14.39889000"},
{"state":"Brezovica Municipality","name":"Opština Ljubljana-Vič-Rudnik","lat":"46.03333000","lon":"14.41667000"},
{"state":"Brezovica Municipality","name":"Rečica ob Savinji","lat":"46.31667000","lon":"14.91667000"},
{"state":"Brezovica Municipality","name":"Vnanje Gorice","lat":"46.00722000","lon":"14.42194000"},
{"state":"Cankova Municipality","name":"Cankova","lat":"46.72083000","lon":"16.02250000"},
{"state":"Cerklje na Gorenjskem Municipality","name":"Cerklje na Gorenjskem","lat":"46.25417000","lon":"14.48861000"},
{"state":"Cerknica Municipality","name":"Cerknica","lat":"45.79306000","lon":"14.36250000"},
{"state":"Cerknica Municipality","name":"Rakek","lat":"45.81333000","lon":"14.31111000"},
{"state":"Cerkno Municipality","name":"Cerkno","lat":"46.12556000","lon":"13.98167000"},
{"state":"Cerkvenjak Municipality","name":"Cerkvenjak","lat":"46.57056000","lon":"15.94361000"},
{"state":"City Municipality of Celje","name":"Celje","lat":"46.23092000","lon":"15.26044000"},
{"state":"City Municipality of Celje","name":"Ljubečna","lat":"46.25567000","lon":"15.32430000"},
{"state":"City Municipality of Celje","name":"Trnovlje pri Celju","lat":"46.25667000","lon":"15.29528000"},
{"state":"City Municipality of Novo Mesto","name":"Novo Mesto","lat":"45.80397000","lon":"15.16886000"},
{"state":"Črenšovci Municipality","name":"Črenšovci","lat":"46.55794000","lon":"16.30410000"},
{"state":"Črna na Koroškem Municipality","name":"Črna na Koroškem","lat":"46.47045000","lon":"14.85009000"},
{"state":"Črnomelj Municipality","name":"Črnomelj","lat":"45.57111000","lon":"15.18889000"},
{"state":"Destrnik Municipality","name":"Destrnik","lat":"46.49254000","lon":"15.87893000"},
{"state":"Divača Municipality","name":"Divača","lat":"45.68472000","lon":"13.97028000"},
{"state":"Dobje Municipality","name":"Dobje pri Planini","lat":"46.13747000","lon":"15.39412000"},
{"state":"Dobrepolje Municipality","name":"Videm","lat":"45.85000000","lon":"14.69417000"},
{"state":"Dobrna Municipality","name":"Dobrna","lat":"46.33750000","lon":"15.22639000"},
{"state":"Dobrova–Polhov Gradec Municipality","name":"Dobrova","lat":"46.04580000","lon":"14.39186000"},
{"state":"Dobrovnik Municipality","name":"Dobrovnik","lat":"46.65139000","lon":"16.35250000"},
{"state":"Dol pri Ljubljani Municipality","name":"Dol pri Ljubljani","lat":"46.08861000","lon":"14.60083000"},
{"state":"Dolenjske Toplice Municipality","name":"Dolenjske Toplice","lat":"45.75657000","lon":"15.05917000"},
{"state":"Domžale Municipality","name":"Dob","lat":"46.15194000","lon":"14.62861000"},
{"state":"Domžale Municipality","name":"Domžale","lat":"46.13774000","lon":"14.59371000"},
{"state":"Domžale Municipality","name":"Radomlje","lat":"46.17361000","lon":"14.61222000"},
{"state":"Domžale Municipality","name":"Vir","lat":"46.15325000","lon":"14.60741000"},
{"state":"Dornava Municipality","name":"Dornava","lat":"46.43667000","lon":"15.95361000"},
{"state":"Dravograd Municipality","name":"Dravograd","lat":"46.58806000","lon":"15.01917000"},
{"state":"Duplek Municipality","name":"Spodnji Duplek","lat":"46.50306000","lon":"15.74528000"},
{"state":"Duplek Municipality","name":"Zgornji Duplek","lat":"46.51361000","lon":"15.72083000"},
{"state":"Gorenja Vas–Poljane Municipality","name":"Gorenja Vas","lat":"46.10722000","lon":"14.14806000"},
{"state":"Gorišnica Municipality","name":"Gorišnica","lat":"46.41472000","lon":"16.01389000"},
{"state":"Gornja Radgona Municipality","name":"Gornja Radgona","lat":"46.67333000","lon":"15.99222000"},
{"state":"Gornji Grad Municipality","name":"Gornji Grad","lat":"46.29528000","lon":"14.80833000"},
{"state":"Gornji Petrovci Municipality","name":"Gornji Petrovci","lat":"46.80528000","lon":"16.22250000"},
{"state":"Grad Municipality","name":"Grad","lat":"46.80000000","lon":"16.10000000"},
{"state":"Grosuplje Municipality","name":"Grosuplje","lat":"45.95556000","lon":"14.65889000"},
{"state":"Grosuplje Municipality","name":"Šmarje-Sap","lat":"45.97618000","lon":"14.61177000"},
{"state":"Hajdina Municipality","name":"Spodnja Hajdina","lat":"46.40889000","lon":"15.84694000"},
{"state":"Hoče–Slivnica Municipality","name":"Hotinja Vas","lat":"46.46667000","lon":"15.66667000"},
{"state":"Hoče–Slivnica Municipality","name":"Radizel","lat":"46.47444000","lon":"15.65583000"},
{"state":"Hoče–Slivnica Municipality","name":"Rogoza","lat":"46.50000000","lon":"15.68333000"},
{"state":"Hoče–Slivnica Municipality","name":"Spodnje Hoče","lat":"46.50000000","lon":"15.65000000"},
{"state":"Hodoš Municipality","name":"Hodoš","lat":"46.82333000","lon":"16.33417000"},
{"state":"Horjul Municipality","name":"Horjul","lat":"46.02361000","lon":"14.29917000"},
{"state":"Hrastnik Municipality","name":"Dol pri Hrastniku","lat":"46.14194000","lon":"15.11278000"},
{"state":"Hrastnik Municipality","name":"Hrastnik","lat":"46.14611000","lon":"15.08139000"},
{"state":"Hrpelje–Kozina Municipality","name":"Kozina","lat":"45.61000000","lon":"13.93556000"},
{"state":"Idrija Municipality","name":"Idrija","lat":"46.00278000","lon":"14.03056000"},
{"state":"Idrija Municipality","name":"Spodnja Idrija","lat":"46.03194000","lon":"14.02722000"},
{"state":"Ig Municipality","name":"Ig","lat":"45.96028000","lon":"14.52889000"},
{"state":"Ivančna Gorica Municipality","name":"Ivančna Gorica","lat":"45.93833000","lon":"14.80444000"},
{"state":"Ivančna Gorica Municipality","name":"Šentvid pri Stični","lat":"45.95004000","lon":"14.84344000"},
{"state":"Izola Municipality","name":"Izola","lat":"45.53694000","lon":"13.66194000"},
{"state":"Izola Municipality","name":"Jagodje","lat":"45.52845000","lon":"13.64721000"},
{"state":"Jesenice Municipality","name":"Hrušica","lat":"46.44500000","lon":"14.01778000"},
{"state":"Jesenice Municipality","name":"Jesenice","lat":"46.43056000","lon":"14.06694000"},
{"state":"Jesenice Municipality","name":"Koroška Bela","lat":"46.44913000","lon":"14.11135000"},
{"state":"Jesenice Municipality","name":"Slovenski Javornik","lat":"46.42611000","lon":"14.08722000"},
{"state":"Jezersko Municipality","name":"Zgornje Jezersko","lat":"46.39410000","lon":"14.50659000"},
{"state":"Juršinci Municipality","name":"Juršinci","lat":"46.48472000","lon":"15.97139000"},
{"state":"Kamnik Municipality","name":"Kamnik","lat":"46.22587000","lon":"14.61207000"},
{"state":"Kamnik Municipality","name":"Mekinje","lat":"46.23333000","lon":"14.61667000"},
{"state":"Kamnik Municipality","name":"Šmarca","lat":"46.19333000","lon":"14.59667000"},
{"state":"Kanal ob Soči Municipality","name":"Deskle","lat":"46.05307000","lon":"13.61382000"},
{"state":"Kanal ob Soči Municipality","name":"Kanal","lat":"46.08861000","lon":"13.63972000"},
{"state":"Kidričevo Municipality","name":"Kidričevo","lat":"46.40361000","lon":"15.79111000"},
{"state":"Kobarid Municipality","name":"Kobarid","lat":"46.24761000","lon":"13.57907000"},
{"state":"Kobilje Municipality","name":"Kobilje","lat":"46.68472000","lon":"16.39778000"},
{"state":"Kočevje Municipality","name":"Kočevje","lat":"45.64333000","lon":"14.86333000"},
{"state":"Komen Municipality","name":"Komen","lat":"45.81528000","lon":"13.74833000"},
{"state":"Komenda Municipality","name":"Komenda","lat":"46.20484000","lon":"14.53839000"},
{"state":"Komenda Municipality","name":"Moste","lat":"46.19500000","lon":"14.55139000"},
{"state":"Koper City Municipality","name":"Dekani","lat":"45.54972000","lon":"13.81361000"},
{"state":"Koper City Municipality","name":"Hrvatini","lat":"45.58278000","lon":"13.75667000"},
{"state":"Koper City Municipality","name":"Koper","lat":"45.54694000","lon":"13.72944000"},
{"state":"Koper City Municipality","name":"Pobegi","lat":"45.53944000","lon":"13.79611000"},
{"state":"Koper City Municipality","name":"Prade","lat":"45.54003000","lon":"13.77607000"},
{"state":"Koper City Municipality","name":"Spodnje Škofije","lat":"45.57167000","lon":"13.79250000"},
{"state":"Koper City Municipality","name":"Sv. Anton","lat":"45.52583000","lon":"13.83194000"},
{"state":"Kostel Municipality","name":"Kostel","lat":"45.50842000","lon":"14.91005000"},
{"state":"Kozje Municipality","name":"Kozje","lat":"46.07500000","lon":"15.56028000"},
{"state":"Kranj City Municipality","name":"Britof","lat":"46.26024000","lon":"14.39037000"},
{"state":"Kranj City Municipality","name":"Golnik","lat":"46.33333000","lon":"14.33333000"},
{"state":"Kranj City Municipality","name":"Kokrica","lat":"46.27028000","lon":"14.36111000"},
{"state":"Kranj City Municipality","name":"Kranj","lat":"46.23887000","lon":"14.35561000"},
{"state":"Kranj City Municipality","name":"Mlaka pri Kranju","lat":"46.28333000","lon":"14.35000000"},
{"state":"Kranj City Municipality","name":"Zgornje Bitnje","lat":"46.22000000","lon":"14.33667000"},
{"state":"Kranjska Gora Municipality","name":"Kranjska Gora","lat":"46.45689000","lon":"13.77824000"},
{"state":"Kranjska Gora Municipality","name":"Mojstrana","lat":"46.42383000","lon":"13.87520000"},
{"state":"Križevci Municipality","name":"Križevci pri Ljutomeru","lat":"46.56833000","lon":"16.13861000"},
{"state":"Kungota","name":"Zgornja Kungota","lat":"46.63917000","lon":"15.61556000"},
{"state":"Kuzma Municipality","name":"Kuzma","lat":"46.83694000","lon":"16.08333000"},
{"state":"Laško Municipality","name":"Laško","lat":"46.15463000","lon":"15.23555000"},
{"state":"Lenart Municipality","name":"Lenart v Slov. Goricah","lat":"46.57611000","lon":"15.83139000"},
{"state":"Lendava Municipality","name":"Lendava","lat":"46.56494000","lon":"16.45091000"},
{"state":"Litija Municipality","name":"Litija","lat":"46.05861000","lon":"14.82250000"},
{"state":"Ljubljana City Municipality","name":"Dravlje District","lat":"46.07290000","lon":"14.44741000"},
{"state":"Ljubljana City Municipality","name":"Jarše District","lat":"46.07345000","lon":"14.55431000"},
{"state":"Ljubljana City Municipality","name":"Ljubljana","lat":"46.05108000","lon":"14.50513000"},
{"state":"Ljubljana City Municipality","name":"Opčina Ljubljana-Bežigrad","lat":"46.08333000","lon":"14.53333000"},
{"state":"Ljubljana City Municipality","name":"Opština Ljubljana-Center","lat":"46.05000000","lon":"14.53333000"},
{"state":"Ljubljana City Municipality","name":"Opština Ljubljana-Moste-Polje","lat":"46.06667000","lon":"14.61667000"},
{"state":"Ljubljana City Municipality","name":"Rožnik District","lat":"46.05999000","lon":"14.46779000"},
{"state":"Ljubljana City Municipality","name":"Šentvid District","lat":"46.10559000","lon":"14.43329000"},
{"state":"Ljubljana City Municipality","name":"Sostro District","lat":"46.04341000","lon":"14.67293000"},
{"state":"Ljubljana City Municipality","name":"Trnovo District","lat":"46.02412000","lon":"14.48891000"},
{"state":"Ljubljana City Municipality","name":"Vič District","lat":"46.00779000","lon":"14.46968000"},
{"state":"Ljubno Municipality","name":"Ljubno ob Savinji","lat":"46.34358000","lon":"14.83377000"},
{"state":"Ljutomer Municipality","name":"Ljutomer","lat":"46.52083000","lon":"16.19750000"},
{"state":"Logatec Municipality","name":"Logatec","lat":"45.91444000","lon":"14.22583000"},
{"state":"Loška Dolina Municipality","name":"Leskova Dolina","lat":"45.62139000","lon":"14.46056000"},
{"state":"Loški Potok Municipality","name":"Hrib-Loški Potok","lat":"45.70688000","lon":"14.61674000"},
{"state":"Lovrenc na Pohorju Municipality","name":"Lovrenc na Pohorju","lat":"46.54056000","lon":"15.39306000"},
{"state":"Luče Municipality","name":"Luče","lat":"46.35611000","lon":"14.74667000"},
{"state":"Lukovica Municipality","name":"Lukovica pri Domžalah","lat":"46.16988000","lon":"14.69179000"},
{"state":"Majšperk Municipality","name":"Majšperk","lat":"46.35167000","lon":"15.73361000"},
{"state":"Maribor City Municipality","name":"Bresternica","lat":"46.56972000","lon":"15.57500000"},
{"state":"Maribor City Municipality","name":"Kamnica","lat":"46.57444000","lon":"15.61417000"},
{"state":"Maribor City Municipality","name":"Limbuš","lat":"46.55361000","lon":"15.58361000"},
{"state":"Maribor City Municipality","name":"Maribor","lat":"46.55472000","lon":"15.64667000"},
{"state":"Maribor City Municipality","name":"Pekre","lat":"46.54722000","lon":"15.59556000"},
{"state":"Maribor City Municipality","name":"Razvanje","lat":"46.51444000","lon":"15.63611000"},
{"state":"Markovci Municipality","name":"Markovci","lat":"46.39557000","lon":"15.92831000"},
{"state":"Medvode Municipality","name":"Medvode","lat":"46.14220000","lon":"14.41114000"},
{"state":"Medvode Municipality","name":"Opština [historical] Ljubljana-Šiška","lat":"46.16667000","lon":"14.43333000"},
{"state":"Medvode Municipality","name":"Zgornje Pirniče","lat":"46.14251000","lon":"14.43158000"},
{"state":"Mengeš Municipality","name":"Mengeš","lat":"46.16694000","lon":"14.57500000"},
{"state":"Mengeš Municipality","name":"Preserje pri Radomljah","lat":"46.16911000","lon":"14.59698000"},
{"state":"Metlika Municipality","name":"Metlika","lat":"45.64722000","lon":"15.31417000"},
{"state":"Mežica Municipality","name":"Mežica","lat":"46.52139000","lon":"14.85444000"},
{"state":"Miklavž na Dravskem Polju Municipality","name":"Miklavž na Dravskem Polju","lat":"46.50583000","lon":"15.69722000"},
{"state":"Miren–Kostanjevica Municipality","name":"Bilje","lat":"45.89444000","lon":"13.63222000"},
{"state":"Miren–Kostanjevica Municipality","name":"Miren","lat":"45.89556000","lon":"13.60750000"},
{"state":"Mirna Peč Municipality","name":"Mirna Peč","lat":"45.86028000","lon":"15.08333000"},
{"state":"Mislinja Municipality","name":"Mislinja","lat":"46.44141000","lon":"15.20027000"},
{"state":"Moravče Municipality","name":"Moravče","lat":"46.13694000","lon":"14.74500000"},
{"state":"Moravske Toplice Municipality","name":"Moravske Toplice","lat":"46.68313000","lon":"16.22080000"},
{"state":"Mozirje Municipality","name":"Mozirje","lat":"46.33944000","lon":"14.96333000"},
{"state":"Municipality of Apače","name":"Apače","lat":"46.69722000","lon":"15.91056000"},
{"state":"Municipality of Ilirska Bistrica","name":"Ilirska Bistrica","lat":"45.56757000","lon":"14.24571000"},
{"state":"Municipality of Krško","name":"Krško","lat":"45.95915000","lon":"15.49167000"},
{"state":"Municipality of Krško","name":"Leskovec pri Krškem","lat":"45.93566000","lon":"15.47184000"},
{"state":"Municipality of Krško","name":"Senovo","lat":"46.02361000","lon":"15.47694000"},
{"state":"Municipality of Škofljica","name":"Lavrica","lat":"46.00002000","lon":"14.55730000"},
{"state":"Municipality of Škofljica","name":"Škofljica","lat":"45.98333000","lon":"14.57667000"},
{"state":"Murska Sobota City Municipality","name":"Bakovci","lat":"46.61889000","lon":"16.15028000"},
{"state":"Murska Sobota City Municipality","name":"Černelavci","lat":"46.66667000","lon":"16.13333000"},
{"state":"Murska Sobota City Municipality","name":"Krog","lat":"46.63806000","lon":"16.14139000"},
{"state":"Murska Sobota City Municipality","name":"Murska Sobota","lat":"46.66250000","lon":"16.16639000"},
{"state":"Murska Sobota City Municipality","name":"Rakičan","lat":"46.65167000","lon":"16.20417000"},
{"state":"Muta Municipality","name":"Muta","lat":"46.61139000","lon":"15.16611000"},
{"state":"Naklo Municipality","name":"Naklo","lat":"46.27278000","lon":"14.31722000"},
{"state":"Nazarje Municipality","name":"Nazarje","lat":"46.31757000","lon":"14.94674000"},
{"state":"Nova Gorica City Municipality","name":"Kromberk","lat":"45.96083000","lon":"13.66556000"},
{"state":"Nova Gorica City Municipality","name":"Nova Gorica","lat":"45.95604000","lon":"13.64837000"},
{"state":"Nova Gorica City Municipality","name":"Prvačina","lat":"45.89000000","lon":"13.71806000"},
{"state":"Nova Gorica City Municipality","name":"Šempas","lat":"45.93028000","lon":"13.74361000"},
{"state":"Nova Gorica City Municipality","name":"Solkan","lat":"45.97139000","lon":"13.64944000"},
{"state":"Odranci Municipality","name":"Odranci","lat":"46.58667000","lon":"16.28028000"},
{"state":"Oplotnica","name":"Oplotnica","lat":"46.38778000","lon":"15.44667000"},
{"state":"Ormož Municipality","name":"Ormož","lat":"46.41139000","lon":"16.15444000"},
{"state":"Osilnica Municipality","name":"Osilnica","lat":"45.52914000","lon":"14.69838000"},
{"state":"Pesnica Municipality","name":"Pesnica pri Mariboru","lat":"46.60694000","lon":"15.67667000"},
{"state":"Piran Municipality","name":"Lucija","lat":"45.50526000","lon":"13.60240000"},
{"state":"Piran Municipality","name":"Piran","lat":"45.52778000","lon":"13.57056000"},
{"state":"Piran Municipality","name":"Portorož","lat":"45.51429000","lon":"13.59206000"},
{"state":"Piran Municipality","name":"Seča","lat":"45.49584000","lon":"13.61466000"},
{"state":"Pivka Municipality","name":"Pivka","lat":"45.68292000","lon":"14.19588000"},
{"state":"Podčetrtek Municipality","name":"Podčetrtek","lat":"46.15694000","lon":"15.59861000"},
{"state":"Podlehnik Municipality","name":"Podlehnik","lat":"46.33528000","lon":"15.88000000"},
{"state":"Podvelka Municipality","name":"Podvelka","lat":"46.58694000","lon":"15.33056000"},
{"state":"Polzela Municipality","name":"Polzela","lat":"46.28333000","lon":"15.06667000"},
{"state":"Postojna Municipality","name":"Postojna","lat":"45.77435000","lon":"14.21528000"},
{"state":"Prebold Municipality","name":"Prebold","lat":"46.23694000","lon":"15.09250000"},
{"state":"Preddvor Municipality","name":"Preddvor","lat":"46.30250000","lon":"14.42306000"},
{"state":"Prevalje Municipality","name":"Prevalje","lat":"46.54694000","lon":"14.92083000"},
{"state":"Ptuj City Municipality","name":"Ptuj","lat":"46.42005000","lon":"15.87018000"},
{"state":"Puconci Municipality","name":"Puconci","lat":"46.70667000","lon":"16.15639000"},
{"state":"Rače–Fram Municipality","name":"Fram","lat":"46.45600000","lon":"15.63007000"},
{"state":"Rače–Fram Municipality","name":"Morje","lat":"46.44444000","lon":"15.62139000"},
{"state":"Rače–Fram Municipality","name":"Rače","lat":"46.45194000","lon":"15.68139000"},
{"state":"Radeče Municipality","name":"Radeče","lat":"46.06806000","lon":"15.18389000"},
{"state":"Radenci Municipality","name":"Radenci","lat":"46.64201000","lon":"16.03781000"},
{"state":"Radlje ob Dravi Municipality","name":"Radlje ob Dravi","lat":"46.61417000","lon":"15.22639000"},
{"state":"Radovljica Municipality","name":"Lesce","lat":"46.36111000","lon":"14.15778000"},
{"state":"Radovljica Municipality","name":"Radovljica","lat":"46.34444000","lon":"14.17444000"},
{"state":"Ravne na Koroškem Municipality","name":"Kotlje","lat":"46.52139000","lon":"14.98694000"},
{"state":"Ravne na Koroškem Municipality","name":"Ravne na Koroškem","lat":"46.54306000","lon":"14.96917000"},
{"state":"Razkrižje Municipality","name":"Razkrižje","lat":"46.52167000","lon":"16.28111000"},
{"state":"Renče–Vogrsko Municipality","name":"Renče","lat":"45.89000000","lon":"13.66861000"},
{"state":"Renče–Vogrsko Municipality","name":"Volčja Draga","lat":"45.90694000","lon":"13.67750000"},
{"state":"Ribnica Municipality","name":"Ribnica","lat":"45.73861000","lon":"14.72750000"},
{"state":"Ribnica na Pohorju Municipality","name":"Ribnica na Pohorju","lat":"46.53500000","lon":"15.27278000"},
{"state":"Rogaška Slatina Municipality","name":"Rogaška Slatina","lat":"46.23750000","lon":"15.63972000"},
{"state":"Rogašovci Municipality","name":"Rogašovci","lat":"46.80000000","lon":"16.03333000"},
{"state":"Rogatec Municipality","name":"Rogatec","lat":"46.22944000","lon":"15.70028000"},
{"state":"Ruše Municipality","name":"Bistrica ob Dravi","lat":"46.55419000","lon":"15.54855000"},
{"state":"Ruše Municipality","name":"Ruše","lat":"46.53944000","lon":"15.51583000"},
{"state":"Šalovci Municipality","name":"Šalovci","lat":"46.82500000","lon":"16.29806000"},
{"state":"Selnica ob Dravi Municipality","name":"Selnica ob Dravi","lat":"46.55000000","lon":"15.49500000"},
{"state":"Semič Municipality","name":"Semič","lat":"45.64611000","lon":"15.18222000"},
{"state":"Šempeter–Vrtojba Municipality","name":"Rožna Dolina","lat":"45.94194000","lon":"13.66779000"},
{"state":"Šempeter–Vrtojba Municipality","name":"Šempeter pri Gorici","lat":"45.92750000","lon":"13.64111000"},
{"state":"Šempeter–Vrtojba Municipality","name":"Vrtojba","lat":"45.91250000","lon":"13.63417000"},
{"state":"Šenčur Municipality","name":"Hrastje","lat":"46.21667000","lon":"14.40000000"},
{"state":"Šenčur Municipality","name":"Šenčur","lat":"46.24556000","lon":"14.41972000"},
{"state":"Šentilj Municipality","name":"Selnica ob Muri","lat":"46.68333000","lon":"15.70000000"},
{"state":"Šentilj Municipality","name":"Šentilj v Slov. Goricah","lat":"46.68167000","lon":"15.64806000"},
{"state":"Šentjernej Municipality","name":"Šentjernej","lat":"45.84000000","lon":"15.33611000"},
{"state":"Šentjur Municipality","name":"Šentjur","lat":"46.21722000","lon":"15.39750000"},
{"state":"Šentrupert Municipality","name":"Šentrupert","lat":"45.97778000","lon":"15.09556000"},
{"state":"Sevnica Municipality","name":"Sevnica","lat":"46.00778000","lon":"15.31556000"},
{"state":"Sežana Municipality","name":"Sežana","lat":"45.70924000","lon":"13.87333000"},
{"state":"Škocjan Municipality","name":"Škocjan","lat":"45.90667000","lon":"15.29139000"},
{"state":"Škofja Loka Municipality","name":"Škofja Loka","lat":"46.16551000","lon":"14.30626000"},
{"state":"Škofja Loka Municipality","name":"Sv. Duh","lat":"46.18333000","lon":"14.33333000"},
{"state":"Slovenj Gradec City Municipality","name":"Legen","lat":"46.50651000","lon":"15.14424000"},
{"state":"Slovenj Gradec City Municipality","name":"Pameče","lat":"46.53417000","lon":"15.07917000"},
{"state":"Slovenj Gradec City Municipality","name":"Slovenj Gradec","lat":"46.51028000","lon":"15.08056000"},
{"state":"Slovenj Gradec City Municipality","name":"Šmartno pri Slovenj Gradcu","lat":"46.48944000","lon":"15.10667000"},
{"state":"Slovenska Bistrica Municipality","name":"Pragersko","lat":"46.39667000","lon":"15.66000000"},
{"state":"Slovenska Bistrica Municipality","name":"Slovenska Bistrica","lat":"46.39278000","lon":"15.57444000"},
{"state":"Slovenska Bistrica Municipality","name":"Zgornja Polskava","lat":"46.42556000","lon":"15.61222000"},
{"state":"Slovenske Konjice Municipality","name":"Slovenske Konjice","lat":"46.33667000","lon":"15.42583000"},
{"state":"Šmarje pri Jelšah Municipality","name":"Šmarje pri Jelšah","lat":"46.22722000","lon":"15.51917000"},
{"state":"Šmarješke Toplice Municipality","name":"Šmarjeta","lat":"45.88333000","lon":"15.25000000"},
{"state":"Šmartno ob Paki Municipality","name":"Šmartno ob Paki","lat":"46.33333000","lon":"15.03333000"},
{"state":"Šmartno pri Litiji Municipality","name":"Šmartno pri Litiji","lat":"46.04444000","lon":"14.84417000"},
{"state":"Sodražica Municipality","name":"Sodražica","lat":"45.76111000","lon":"14.63556000"},
{"state":"Solčava Municipality","name":"Solčava","lat":"46.41944000","lon":"14.69361000"},
{"state":"Šoštanj Municipality","name":"Ravne","lat":"46.41413000","lon":"15.06087000"},
{"state":"Šoštanj Municipality","name":"Šoštanj","lat":"46.38000000","lon":"15.04861000"},
{"state":"Šoštanj Municipality","name":"Topolšica","lat":"46.40028000","lon":"15.02157000"},
{"state":"Središče ob Dravi","name":"Središče ob Dravi","lat":"46.39417000","lon":"16.26806000"},
{"state":"Starše Municipality","name":"Starše","lat":"46.46583000","lon":"15.76722000"},
{"state":"Štore Municipality","name":"Štore","lat":"46.22083000","lon":"15.31389000"},
{"state":"Straža Municipality","name":"Straža","lat":"45.78000000","lon":"15.07278000"},
{"state":"Sveta Ana Municipality","name":"Sv. Ana v Slov. Goricah","lat":"46.64917000","lon":"15.84417000"},
{"state":"Sveta Trojica v Slovenskih Goricah Municipality","name":"Sv. Trojica v Slov. Goricah","lat":"46.57667000","lon":"15.87694000"},
{"state":"Sveti Andraž v Slovenskih Goricah Municipality","name":"Vitomarci","lat":"46.52750000","lon":"15.93944000"},
{"state":"Sveti Jurij v Slovenskih Goricah Municipality","name":"Sveti Jurij ob Ščavnici","lat":"46.56950000","lon":"16.02347000"},
{"state":"Sveti Tomaž Municipality","name":"Sveti Tomaž","lat":"46.48417000","lon":"16.08361000"},
{"state":"Tabor Municipality","name":"Tabor","lat":"46.23611000","lon":"15.01833000"},
{"state":"Tišina Municipality","name":"Tišina","lat":"46.65806000","lon":"16.09167000"},
{"state":"Tolmin Municipality","name":"Tolmin","lat":"46.18304000","lon":"13.73321000"},
{"state":"Trbovlje Municipality","name":"Trbovlje","lat":"46.15500000","lon":"15.05333000"},
{"state":"Trebnje Municipality","name":"Trebnje","lat":"45.90417000","lon":"15.02167000"},
{"state":"Trnovska Vas Municipality","name":"Trnovska Vas","lat":"46.52019000","lon":"15.88657000"},
{"state":"Tržič Municipality","name":"Bistrica pri Tržiču","lat":"46.35472000","lon":"14.29167000"},
{"state":"Tržič Municipality","name":"Tržič","lat":"46.36357000","lon":"14.31046000"},
{"state":"Trzin Municipality","name":"Črnuče District","lat":"46.11506000","lon":"14.55371000"},
{"state":"Trzin Municipality","name":"Trzin","lat":"46.13333000","lon":"14.56667000"},
{"state":"Turnišče Municipality","name":"Turnišče","lat":"46.62778000","lon":"16.32028000"},
{"state":"Velika Polana Municipality","name":"Velika Polana","lat":"46.57194000","lon":"16.34694000"},
{"state":"Velike Lašče Municipality","name":"Velike Lašče","lat":"45.83222000","lon":"14.63639000"},
{"state":"Veržej Municipality","name":"Veržej","lat":"46.58361000","lon":"16.16528000"},
{"state":"Videm Municipality","name":"Videm pri Ptuju","lat":"46.36861000","lon":"15.90639000"},
{"state":"Vipava Municipality","name":"Vipava","lat":"45.84667000","lon":"13.96306000"},
{"state":"Vitanje Municipality","name":"Vitanje","lat":"46.38167000","lon":"15.29583000"},
{"state":"Vodice Municipality","name":"Vodice","lat":"46.18987000","lon":"14.49492000"},
{"state":"Vojnik Municipality","name":"Vojnik","lat":"46.29333000","lon":"15.30333000"},
{"state":"Vransko Municipality","name":"Vransko","lat":"46.24389000","lon":"14.95139000"},
{"state":"Vrhnika Municipality","name":"Verd","lat":"45.95667000","lon":"14.30583000"},
{"state":"Vrhnika Municipality","name":"Vrhnika","lat":"45.96350000","lon":"14.29484000"},
{"state":"Vuzenica Municipality","name":"Vuzenica","lat":"46.59639000","lon":"15.16722000"},
{"state":"Zagorje ob Savi Municipality","name":"Izlake","lat":"46.15000000","lon":"14.95000000"},
{"state":"Zagorje ob Savi Municipality","name":"Kisovec","lat":"46.13911000","lon":"14.96295000"},
{"state":"Zagorje ob Savi Municipality","name":"Zagorje ob Savi","lat":"46.13179000","lon":"14.99694000"},
{"state":"Žalec Municipality","name":"Gotovlje","lat":"46.27418000","lon":"15.15186000"},
{"state":"Žalec Municipality","name":"Šempeter v Savinj. Dolini","lat":"46.25639000","lon":"15.12194000"},
{"state":"Žalec Municipality","name":"Zabukovica","lat":"46.21408000","lon":"15.15954000"},
{"state":"Žalec Municipality","name":"Žalec","lat":"46.25151000","lon":"15.16482000"},
{"state":"Zavrč Municipality","name":"Zavrč","lat":"46.39167000","lon":"16.04972000"},
{"state":"Železniki Municipality","name":"Železniki","lat":"46.22482000","lon":"14.17205000"},
{"state":"Žetale Municipality","name":"Žetale","lat":"46.27356000","lon":"15.82658000"},
{"state":"Žiri Municipality","name":"Žiri","lat":"46.04222000","lon":"14.10722000"},
{"state":"Žirovnica Municipality","name":"Žirovnica","lat":"46.40472000","lon":"14.14000000"},
{"state":"Zreče Municipality","name":"Zreče","lat":"46.38222000","lon":"15.37917000"},
{"state":"Žužemberk Municipality","name":"Žužemberk","lat":"45.83389000","lon":"14.92917000"}]