[{"state":"Banská Bystrica Region","name":"Banská Bystrica","lat":"48.73946000","lon":"19.15349000"},
{"state":"Banská Bystrica Region","name":"Banská Štiavnica","lat":"48.44858000","lon":"18.91003000"},
{"state":"Banská Bystrica Region","name":"Brezno","lat":"48.80431000","lon":"19.63631000"},
{"state":"Banská Bystrica Region","name":"Čierny Balog","lat":"48.74722000","lon":"19.65125000"},
{"state":"Banská Bystrica Region","name":"Detva","lat":"48.56082000","lon":"19.41954000"},
{"state":"Banská Bystrica Region","name":"Dudince","lat":"48.17135000","lon":"18.88782000"},
{"state":"Banská Bystrica Region","name":"Fiľakovo","lat":"48.26757000","lon":"19.82473000"},
{"state":"Banská Bystrica Region","name":"Hriňová","lat":"48.57787000","lon":"19.52574000"},
{"state":"Banská Bystrica Region","name":"HrochoťSlovakia","lat":"48.65567000","lon":"19.31284000"},
{"state":"Banská Bystrica Region","name":"Kováčová","lat":"48.60148000","lon":"19.10252000"},
{"state":"Banská Bystrica Region","name":"Kremnica","lat":"48.70519000","lon":"18.91834000"},
{"state":"Banská Bystrica Region","name":"Krupina","lat":"48.35540000","lon":"19.06474000"},
{"state":"Banská Bystrica Region","name":"Lučenec","lat":"48.33249000","lon":"19.66708000"},
{"state":"Banská Bystrica Region","name":"Nová Baňa","lat":"48.42305000","lon":"18.64037000"},
{"state":"Banská Bystrica Region","name":"Okres Banská Bystrica","lat":"48.73333000","lon":"19.15000000"},
{"state":"Banská Bystrica Region","name":"Okres Banská Štiavnica","lat":"48.44961000","lon":"18.90820000"},
{"state":"Banská Bystrica Region","name":"Okres Brezno","lat":"48.80000000","lon":"19.75000000"},
{"state":"Banská Bystrica Region","name":"Okres Detva","lat":"48.55985000","lon":"19.42044000"},
{"state":"Banská Bystrica Region","name":"Okres Krupina","lat":"48.35736000","lon":"19.06334000"},
{"state":"Banská Bystrica Region","name":"Okres Lučenec","lat":"48.33333000","lon":"19.66667000"},
{"state":"Banská Bystrica Region","name":"Okres Poltár","lat":"48.42895000","lon":"19.79488000"},
{"state":"Banská Bystrica Region","name":"Okres Revúca","lat":"48.68300000","lon":"20.11568000"},
{"state":"Banská Bystrica Region","name":"Okres Veľký Krtíš","lat":"48.20000000","lon":"19.35000000"},
{"state":"Banská Bystrica Region","name":"Okres Žarnovica","lat":"48.48438000","lon":"18.72076000"},
{"state":"Banská Bystrica Region","name":"Okres Žiar nad Hronom","lat":"48.58333000","lon":"18.86667000"},
{"state":"Banská Bystrica Region","name":"Okres Zvolen","lat":"48.58333000","lon":"19.13333000"},
{"state":"Banská Bystrica Region","name":"Poltár","lat":"48.43094000","lon":"19.79408000"},
{"state":"Banská Bystrica Region","name":"Revúca","lat":"48.68346000","lon":"20.11734000"},
{"state":"Banská Bystrica Region","name":"Rimavská Sobota","lat":"48.38284000","lon":"20.02239000"},
{"state":"Banská Bystrica Region","name":"Svätý Anton","lat":"48.41923000","lon":"18.94010000"},
{"state":"Banská Bystrica Region","name":"Tisovec","lat":"48.67738000","lon":"19.94364000"},
{"state":"Banská Bystrica Region","name":"Veľký Krtíš","lat":"48.21059000","lon":"19.35043000"},
{"state":"Banská Bystrica Region","name":"Žarnovica","lat":"48.48123000","lon":"18.71565000"},
{"state":"Banská Bystrica Region","name":"Žiar nad Hronom","lat":"48.59184000","lon":"18.84958000"},
{"state":"Banská Bystrica Region","name":"Zvolen","lat":"48.57442000","lon":"19.15324000"},
{"state":"Bratislava Region","name":"Bratislava","lat":"48.14816000","lon":"17.10674000"},
{"state":"Bratislava Region","name":"Bratislava - Vajnory","lat":"48.20563000","lon":"17.20759000"},
{"state":"Bratislava Region","name":"Dunajská Lužná","lat":"48.08347000","lon":"17.26072000"},
{"state":"Bratislava Region","name":"Ivanka pri Dunaji","lat":"48.18675000","lon":"17.25540000"},
{"state":"Bratislava Region","name":"Malacky","lat":"48.43604000","lon":"17.02188000"},
{"state":"Bratislava Region","name":"Marianka","lat":"48.24903000","lon":"17.06400000"},
{"state":"Bratislava Region","name":"Modra","lat":"48.33397000","lon":"17.30711000"},
{"state":"Bratislava Region","name":"Okres Bratislava I","lat":"48.14653000","lon":"17.10584000"},
{"state":"Bratislava Region","name":"Okres Bratislava II","lat":"48.15280000","lon":"17.17764000"},
{"state":"Bratislava Region","name":"Okres Bratislava III","lat":"48.18543000","lon":"17.13790000"},
{"state":"Bratislava Region","name":"Okres Bratislava IV","lat":"48.22787000","lon":"16.99722000"},
{"state":"Bratislava Region","name":"Okres Bratislava V","lat":"48.11122000","lon":"17.09444000"},
{"state":"Bratislava Region","name":"Okres Malacky","lat":"48.43458000","lon":"17.02166000"},
{"state":"Bratislava Region","name":"Okres Pezinok","lat":"48.28785000","lon":"17.26799000"},
{"state":"Bratislava Region","name":"Okres Senec","lat":"48.22187000","lon":"17.40328000"},
{"state":"Bratislava Region","name":"Pezinok","lat":"48.28986000","lon":"17.26664000"},
{"state":"Bratislava Region","name":"Senec","lat":"48.21951000","lon":"17.40043000"},
{"state":"Bratislava Region","name":"Stupava","lat":"48.27474000","lon":"17.03173000"},
{"state":"Bratislava Region","name":"Svätý Jur","lat":"48.25216000","lon":"17.21539000"},
{"state":"Bratislava Region","name":"Vinosady","lat":"48.31142000","lon":"17.29042000"},
{"state":"Košice Region","name":"Čierna nad Tisou","lat":"48.41704000","lon":"22.08865000"},
{"state":"Košice Region","name":"Dobšiná","lat":"48.82073000","lon":"20.36988000"},
{"state":"Košice Region","name":"Gelnica","lat":"48.85584000","lon":"20.93713000"},
{"state":"Košice Region","name":"Kavečany","lat":"48.77592000","lon":"21.20587000"},
{"state":"Košice Region","name":"Košice","lat":"48.71395000","lon":"21.25808000"},
{"state":"Košice Region","name":"Košice I","lat":"48.72914000","lon":"21.25004000"},
{"state":"Košice Region","name":"Košice II","lat":"48.69753000","lon":"21.22273000"},
{"state":"Košice Region","name":"Košice III","lat":"48.73242000","lon":"21.29047000"},
{"state":"Košice Region","name":"Košice IV","lat":"48.68691000","lon":"21.26570000"},
{"state":"Košice Region","name":"Krompachy","lat":"48.91447000","lon":"20.87514000"},
{"state":"Košice Region","name":"Medzev","lat":"48.70041000","lon":"20.89367000"},
{"state":"Košice Region","name":"Michalovce","lat":"48.75434000","lon":"21.91950000"},
{"state":"Košice Region","name":"Moldava nad Bodvou","lat":"48.61428000","lon":"20.99957000"},
{"state":"Košice Region","name":"Okres Gelnica","lat":"48.85207000","lon":"20.93385000"},
{"state":"Košice Region","name":"Okres Kosice-okolie","lat":"48.77897000","lon":"21.41373000"},
{"state":"Košice Region","name":"Okres Michalovce","lat":"48.75000000","lon":"21.93333000"},
{"state":"Košice Region","name":"Okres Rožňava","lat":"48.66667000","lon":"20.53333000"},
{"state":"Košice Region","name":"Okres Sobrance","lat":"48.74247000","lon":"22.18197000"},
{"state":"Košice Region","name":"Okres Spišská Nová Ves","lat":"48.95000000","lon":"20.56667000"},
{"state":"Košice Region","name":"Okres Trebišov","lat":"48.63333000","lon":"21.71667000"},
{"state":"Košice Region","name":"Rožňava","lat":"48.66009000","lon":"20.53758000"},
{"state":"Košice Region","name":"Sečovce","lat":"48.70074000","lon":"21.66104000"},
{"state":"Košice Region","name":"Sobrance","lat":"48.74455000","lon":"22.18136000"},
{"state":"Košice Region","name":"Spišská Nová Ves","lat":"48.94464000","lon":"20.56153000"},
{"state":"Košice Region","name":"Strážske","lat":"48.87350000","lon":"21.83668000"},
{"state":"Košice Region","name":"Trebišov","lat":"48.62858000","lon":"21.71954000"},
{"state":"Košice Region","name":"Vinné","lat":"48.80965000","lon":"21.96757000"},
{"state":"Košice Region","name":"Žehra","lat":"48.97960000","lon":"20.79170000"},
{"state":"Nitra Region","name":"Hurbanovo","lat":"47.86984000","lon":"18.19233000"},
{"state":"Nitra Region","name":"Kolárovo","lat":"47.92294000","lon":"17.98467000"},
{"state":"Nitra Region","name":"Komárno","lat":"47.76356000","lon":"18.12263000"},
{"state":"Nitra Region","name":"Levice","lat":"48.21563000","lon":"18.60705000"},
{"state":"Nitra Region","name":"Nitra","lat":"48.30763000","lon":"18.08453000"},
{"state":"Nitra Region","name":"Nové Zámky","lat":"47.98544000","lon":"18.16195000"},
{"state":"Nitra Region","name":"Okres Komárno","lat":"47.76667000","lon":"18.13333000"},
{"state":"Nitra Region","name":"Okres Levice","lat":"48.21667000","lon":"18.60000000"},
{"state":"Nitra Region","name":"Okres Nitra","lat":"48.31667000","lon":"18.08333000"},
{"state":"Nitra Region","name":"Okres Nové Zámky","lat":"47.98333000","lon":"18.16667000"},
{"state":"Nitra Region","name":"Okres Šaľa","lat":"48.14770000","lon":"17.87306000"},
{"state":"Nitra Region","name":"Okres Topoľčany","lat":"48.56667000","lon":"18.18333000"},
{"state":"Nitra Region","name":"Okres Zlaté Moravce","lat":"48.38294000","lon":"18.39842000"},
{"state":"Nitra Region","name":"Šahy","lat":"48.07408000","lon":"18.94946000"},
{"state":"Nitra Region","name":"Šaľa","lat":"48.15127000","lon":"17.88062000"},
{"state":"Nitra Region","name":"Štúrovo","lat":"47.79495000","lon":"18.71750000"},
{"state":"Nitra Region","name":"Šurany","lat":"48.08613000","lon":"18.18447000"},
{"state":"Nitra Region","name":"Svodín","lat":"47.91054000","lon":"18.49967000"},
{"state":"Nitra Region","name":"Tlmače","lat":"48.28926000","lon":"18.53152000"},
{"state":"Nitra Region","name":"Topoľčany","lat":"48.56361000","lon":"18.16712000"},
{"state":"Nitra Region","name":"Vráble","lat":"48.24371000","lon":"18.30846000"},
{"state":"Nitra Region","name":"Želiezovce","lat":"48.05075000","lon":"18.65421000"},
{"state":"Nitra Region","name":"Zlaté Moravce","lat":"48.38553000","lon":"18.40063000"},
{"state":"Prešov Region","name":"Bardejov","lat":"49.29175000","lon":"21.27271000"},
{"state":"Prešov Region","name":"Chlmec","lat":"48.88628000","lon":"21.93930000"},
{"state":"Prešov Region","name":"Giraltovce","lat":"49.11398000","lon":"21.51731000"},
{"state":"Prešov Region","name":"Humenné","lat":"48.93707000","lon":"21.91625000"},
{"state":"Prešov Region","name":"Kežmarok","lat":"49.13571000","lon":"20.43352000"},
{"state":"Prešov Region","name":"Levoča","lat":"49.02173000","lon":"20.59212000"},
{"state":"Prešov Region","name":"Lipany","lat":"49.15376000","lon":"20.96382000"},
{"state":"Prešov Region","name":"Ľubica","lat":"49.11667000","lon":"20.45000000"},
{"state":"Prešov Region","name":"Medzilaborce","lat":"49.27195000","lon":"21.90073000"},
{"state":"Prešov Region","name":"Nová Lesná","lat":"49.12253000","lon":"20.26737000"},
{"state":"Prešov Region","name":"Okres Bardejov","lat":"49.28333000","lon":"21.28333000"},
{"state":"Prešov Region","name":"Okres Humenné","lat":"48.93333000","lon":"21.91667000"},
{"state":"Prešov Region","name":"Okres Kežmarok","lat":"49.13593000","lon":"20.42929000"},
{"state":"Prešov Region","name":"Okres Levoča","lat":"49.01986000","lon":"20.57688000"},
{"state":"Prešov Region","name":"Okres Medzilaborce","lat":"49.27062000","lon":"21.90200000"},
{"state":"Prešov Region","name":"Okres Poprad","lat":"49.05000000","lon":"20.30000000"},
{"state":"Prešov Region","name":"Okres Prešov","lat":"49.00000000","lon":"21.25000000"},
{"state":"Prešov Region","name":"Okres Sabinov","lat":"49.10115000","lon":"21.09844000"},
{"state":"Prešov Region","name":"Okres Snina","lat":"48.98579000","lon":"22.15059000"},
{"state":"Prešov Region","name":"Okres Stará Ĺubovňa","lat":"49.30000000","lon":"20.70000000"},
{"state":"Prešov Region","name":"Okres Stropkov","lat":"49.20249000","lon":"21.65025000"},
{"state":"Prešov Region","name":"Okres Svidník","lat":"49.30000000","lon":"21.56667000"},
{"state":"Prešov Region","name":"Okres Vranov nad Topľou","lat":"48.90000000","lon":"21.68333000"},
{"state":"Prešov Region","name":"Podolínec","lat":"49.25869000","lon":"20.53600000"},
{"state":"Prešov Region","name":"Poprad","lat":"49.06144000","lon":"20.29798000"},
{"state":"Prešov Region","name":"Prešov","lat":"48.99839000","lon":"21.23393000"},
{"state":"Prešov Region","name":"Sabinov","lat":"49.10309000","lon":"21.09880000"},
{"state":"Prešov Region","name":"Snina","lat":"48.98857000","lon":"22.15099000"},
{"state":"Prešov Region","name":"Spišská Belá","lat":"49.18725000","lon":"20.45948000"},
{"state":"Prešov Region","name":"Spišské Podhradie","lat":"49.00088000","lon":"20.75307000"},
{"state":"Prešov Region","name":"Stará Ľubovňa","lat":"49.29859000","lon":"20.68620000"},
{"state":"Prešov Region","name":"Štrba","lat":"49.05913000","lon":"20.07975000"},
{"state":"Prešov Region","name":"Stropkov","lat":"49.20211000","lon":"21.65216000"},
{"state":"Prešov Region","name":"Svidník","lat":"49.30819000","lon":"21.57030000"},
{"state":"Prešov Region","name":"Svit","lat":"49.06014000","lon":"20.20695000"},
{"state":"Prešov Region","name":"Vranov nad Topľou","lat":"48.88836000","lon":"21.68479000"},
{"state":"Prešov Region","name":"Vrbov","lat":"49.08764000","lon":"20.42530000"},
{"state":"Prešov Region","name":"Vyšné Ružbachy","lat":"49.30387000","lon":"20.56558000"},
{"state":"Prešov Region","name":"Vysoké Tatry","lat":"49.13637000","lon":"20.24386000"},
{"state":"Prešov Region","name":"Ždiar","lat":"49.27100000","lon":"20.26239000"},
{"state":"Trenčín Region","name":"Bánovce nad Bebravou","lat":"48.72130000","lon":"18.25754000"},
{"state":"Trenčín Region","name":"Bojnice","lat":"48.78511000","lon":"18.58640000"},
{"state":"Trenčín Region","name":"Brezová pod Bradlom","lat":"48.66349000","lon":"17.53905000"},
{"state":"Trenčín Region","name":"Čachtice","lat":"48.71226000","lon":"17.78704000"},
{"state":"Trenčín Region","name":"Dubnica nad Váhom","lat":"48.95981000","lon":"18.16634000"},
{"state":"Trenčín Region","name":"Handlová","lat":"48.72760000","lon":"18.76012000"},
{"state":"Trenčín Region","name":"Ilava","lat":"48.99769000","lon":"18.23530000"},
{"state":"Trenčín Region","name":"Lehota pod Vtáčnikom","lat":"48.69138000","lon":"18.59944000"},
{"state":"Trenčín Region","name":"Myjava","lat":"48.75876000","lon":"17.56866000"},
{"state":"Trenčín Region","name":"Nemšová","lat":"48.96702000","lon":"18.11892000"},
{"state":"Trenčín Region","name":"Nová Dubnica","lat":"48.93479000","lon":"18.14632000"},
{"state":"Trenčín Region","name":"Nováky","lat":"48.71106000","lon":"18.53389000"},
{"state":"Trenčín Region","name":"Nové Mesto nad Váhom","lat":"48.75763000","lon":"17.83090000"},
{"state":"Trenčín Region","name":"Okres Bánovce nad Bebravou","lat":"48.71908000","lon":"18.25773000"},
{"state":"Trenčín Region","name":"Okres Ilava","lat":"48.99641000","lon":"18.23374000"},
{"state":"Trenčín Region","name":"Okres Myjava","lat":"48.75000000","lon":"17.58333000"},
{"state":"Trenčín Region","name":"Okres Nové Mesto nad Váhom","lat":"48.75466000","lon":"17.83506000"},
{"state":"Trenčín Region","name":"Okres Partizánske","lat":"48.62613000","lon":"18.37957000"},
{"state":"Trenčín Region","name":"Okres Považská Bystrica","lat":"49.11667000","lon":"18.45000000"},
{"state":"Trenčín Region","name":"Okres Prievidza","lat":"48.76667000","lon":"18.63333000"},
{"state":"Trenčín Region","name":"Okres Púchov","lat":"49.12406000","lon":"18.32477000"},
{"state":"Trenčín Region","name":"Okres Trenčín","lat":"48.89520000","lon":"18.04264000"},
{"state":"Trenčín Region","name":"Partizánske","lat":"48.62861000","lon":"18.38455000"},
{"state":"Trenčín Region","name":"Považská Bystrica","lat":"49.12153000","lon":"18.42169000"},
{"state":"Trenčín Region","name":"Prievidza","lat":"48.77446000","lon":"18.62750000"},
{"state":"Trenčín Region","name":"Púchov","lat":"49.12494000","lon":"18.32597000"},
{"state":"Trenčín Region","name":"Stará Turá","lat":"48.77721000","lon":"17.69433000"},
{"state":"Trenčín Region","name":"Trenčianske Teplice","lat":"48.91063000","lon":"18.16691000"},
{"state":"Trenčín Region","name":"Trenčín","lat":"48.89452000","lon":"18.04436000"},
{"state":"Trnava Region","name":"Dunajská Streda","lat":"47.99268000","lon":"17.61211000"},
{"state":"Trnava Region","name":"Gabčíkovo","lat":"47.89211000","lon":"17.57884000"},
{"state":"Trnava Region","name":"Galanta","lat":"48.19001000","lon":"17.72747000"},
{"state":"Trnava Region","name":"Gbely","lat":"48.71800000","lon":"17.11628000"},
{"state":"Trnava Region","name":"Hlohovec","lat":"48.43174000","lon":"17.80310000"},
{"state":"Trnava Region","name":"Holíč","lat":"48.81105000","lon":"17.16238000"},
{"state":"Trnava Region","name":"Leopoldov","lat":"48.44575000","lon":"17.76458000"},
{"state":"Trnava Region","name":"Okres Dunajská Streda","lat":"47.99635000","lon":"17.60937000"},
{"state":"Trnava Region","name":"Okres Galanta","lat":"48.20000000","lon":"17.71667000"},
{"state":"Trnava Region","name":"Okres Hlohovec","lat":"48.41667000","lon":"17.75000000"},
{"state":"Trnava Region","name":"Okres Piešťany","lat":"48.59064000","lon":"17.82679000"},
{"state":"Trnava Region","name":"Okres Senica","lat":"48.68333000","lon":"17.36667000"},
{"state":"Trnava Region","name":"Okres Skalica","lat":"48.75000000","lon":"17.16667000"},
{"state":"Trnava Region","name":"Okres Trnava","lat":"48.36667000","lon":"17.60000000"},
{"state":"Trnava Region","name":"Piešťany","lat":"48.59479000","lon":"17.82591000"},
{"state":"Trnava Region","name":"Šamorín","lat":"48.03015000","lon":"17.30972000"},
{"state":"Trnava Region","name":"Senica","lat":"48.67922000","lon":"17.36697000"},
{"state":"Trnava Region","name":"Skalica","lat":"48.84490000","lon":"17.22635000"},
{"state":"Trnava Region","name":"Sládkovičovo","lat":"48.20137000","lon":"17.63852000"},
{"state":"Trnava Region","name":"Smolenice","lat":"48.50478000","lon":"17.43067000"},
{"state":"Trnava Region","name":"Trnava","lat":"48.37741000","lon":"17.58723000"},
{"state":"Trnava Region","name":"Veľký Meder","lat":"47.85798000","lon":"17.76884000"},
{"state":"Trnava Region","name":"Vrbové","lat":"48.61973000","lon":"17.72260000"},
{"state":"Žilina Region","name":"Bytča","lat":"49.22404000","lon":"18.55878000"},
{"state":"Žilina Region","name":"Čadca","lat":"49.43503000","lon":"18.78895000"},
{"state":"Žilina Region","name":"Dolný Kubín","lat":"49.20983000","lon":"19.30341000"},
{"state":"Žilina Region","name":"Hybe","lat":"49.04439000","lon":"19.82895000"},
{"state":"Žilina Region","name":"Krasňany","lat":"49.21491000","lon":"18.88718000"},
{"state":"Žilina Region","name":"Kysucké Nové Mesto","lat":"49.30000000","lon":"18.78333000"},
{"state":"Žilina Region","name":"Liptovský Hrádok","lat":"49.03962000","lon":"19.72335000"},
{"state":"Žilina Region","name":"Liptovský Mikuláš","lat":"49.08061000","lon":"19.62218000"},
{"state":"Žilina Region","name":"Lúčky","lat":"49.12944000","lon":"19.40228000"},
{"state":"Žilina Region","name":"Martin","lat":"49.06651000","lon":"18.92399000"},
{"state":"Žilina Region","name":"Námestovo","lat":"49.40790000","lon":"19.48032000"},
{"state":"Žilina Region","name":"Nižná","lat":"49.31046000","lon":"19.52428000"},
{"state":"Žilina Region","name":"Okres Bytča","lat":"49.22267000","lon":"18.55844000"},
{"state":"Žilina Region","name":"Okres Čadca","lat":"49.43333000","lon":"18.78333000"},
{"state":"Žilina Region","name":"Okres Dolný Kubín","lat":"49.20000000","lon":"19.30000000"},
{"state":"Žilina Region","name":"Okres Kysucké Nové Mesto","lat":"49.30206000","lon":"18.78603000"},
{"state":"Žilina Region","name":"Okres Liptovský Mikuláš","lat":"49.08333000","lon":"19.61667000"},
{"state":"Žilina Region","name":"Okres Martin","lat":"49.06667000","lon":"18.93333000"},
{"state":"Žilina Region","name":"Okres Namestovo","lat":"49.40651000","lon":"19.47670000"},
{"state":"Žilina Region","name":"Okres Ružomberok","lat":"49.07494000","lon":"19.30083000"},
{"state":"Žilina Region","name":"Okres Turčianske Teplice","lat":"48.86283000","lon":"18.85759000"},
{"state":"Žilina Region","name":"Okres Tvrdošín","lat":"49.33421000","lon":"19.55461000"},
{"state":"Žilina Region","name":"Okres Žilina","lat":"49.22303000","lon":"18.74044000"},
{"state":"Žilina Region","name":"Oravská Lesná","lat":"49.36672000","lon":"19.18093000"},
{"state":"Žilina Region","name":"Oravský Podzámok","lat":"49.25939000","lon":"19.35690000"},
{"state":"Žilina Region","name":"Pribylina","lat":"49.09950000","lon":"19.79427000"},
{"state":"Žilina Region","name":"Rajec","lat":"49.08899000","lon":"18.64007000"},
{"state":"Žilina Region","name":"Ružomberok","lat":"49.07480000","lon":"19.30751000"},
{"state":"Žilina Region","name":"Terchová","lat":"49.25895000","lon":"19.02935000"},
{"state":"Žilina Region","name":"Trstená","lat":"49.36101000","lon":"19.61249000"},
{"state":"Žilina Region","name":"Turčianske Teplice","lat":"48.86225000","lon":"18.86048000"},
{"state":"Žilina Region","name":"Turzovka","lat":"49.40429000","lon":"18.62258000"},
{"state":"Žilina Region","name":"Tvrdošín","lat":"49.33700000","lon":"19.55600000"},
{"state":"Žilina Region","name":"Vrútky","lat":"49.11328000","lon":"18.91714000"},
{"state":"Žilina Region","name":"Žilina","lat":"49.22315000","lon":"18.73941000"}]