[{"state":"Eastern Province","name":"Barma","lat":"8.34959000","lon":"-11.33059000"},
{"state":"Eastern Province","name":"Blama","lat":"7.87481000","lon":"-11.34548000"},
{"state":"Eastern Province","name":"Boajibu","lat":"8.18763000","lon":"-11.34026000"},
{"state":"Eastern Province","name":"Buedu","lat":"8.27960000","lon":"-10.37135000"},
{"state":"Eastern Province","name":"Bunumbu","lat":"8.17421000","lon":"-10.86432000"},
{"state":"Eastern Province","name":"Daru","lat":"7.98976000","lon":"-10.84223000"},
{"state":"Eastern Province","name":"Giehun","lat":"7.88405000","lon":"-11.04908000"},
{"state":"Eastern Province","name":"Gorahun","lat":"7.46439000","lon":"-11.23952000"},
{"state":"Eastern Province","name":"Hangha","lat":"7.93974000","lon":"-11.14132000"},
{"state":"Eastern Province","name":"Jojoima","lat":"7.87815000","lon":"-10.78976000"},
{"state":"Eastern Province","name":"Kailahun","lat":"8.27890000","lon":"-10.57300000"},
{"state":"Eastern Province","name":"Kailahun District","lat":"8.10768000","lon":"-10.75146000"},
{"state":"Eastern Province","name":"Kayima","lat":"8.88790000","lon":"-11.15932000"},
{"state":"Eastern Province","name":"Kenema","lat":"7.87687000","lon":"-11.19025000"},
{"state":"Eastern Province","name":"Kenema District","lat":"7.95171000","lon":"-11.19004000"},
{"state":"Eastern Province","name":"Koidu","lat":"8.64387000","lon":"-10.97140000"},
{"state":"Eastern Province","name":"Kono District","lat":"8.70687000","lon":"-10.93368000"},
{"state":"Eastern Province","name":"Koyima","lat":"8.70552000","lon":"-11.02241000"},
{"state":"Eastern Province","name":"Manowa","lat":"8.17392000","lon":"-10.74834000"},
{"state":"Eastern Province","name":"Mobai","lat":"7.99343000","lon":"-10.75355000"},
{"state":"Eastern Province","name":"Motema","lat":"8.61427000","lon":"-11.01252000"},
{"state":"Eastern Province","name":"Panguma","lat":"8.18507000","lon":"-11.13290000"},
{"state":"Eastern Province","name":"Pendembu","lat":"8.09807000","lon":"-10.69429000"},
{"state":"Eastern Province","name":"Segbwema","lat":"7.99471000","lon":"-10.95020000"},
{"state":"Eastern Province","name":"Simbakoro","lat":"8.61243000","lon":"-11.00755000"},
{"state":"Eastern Province","name":"Tefeya","lat":"8.70395000","lon":"-11.21260000"},
{"state":"Eastern Province","name":"Tombodu","lat":"8.13526000","lon":"-10.61960000"},
{"state":"Eastern Province","name":"Tombu","lat":"8.53991000","lon":"-10.73132000"},
{"state":"Eastern Province","name":"Wima","lat":"8.30052000","lon":"-11.20455000"},
{"state":"Eastern Province","name":"Yengema","lat":"8.71441000","lon":"-11.17057000"},
{"state":"Northern Province","name":"Alikalia","lat":"9.15356000","lon":"-11.38712000"},
{"state":"Northern Province","name":"Bindi","lat":"9.91376000","lon":"-11.44669000"},
{"state":"Northern Province","name":"Binkolo","lat":"8.95225000","lon":"-11.98029000"},
{"state":"Northern Province","name":"Bombali District","lat":"9.28444000","lon":"-12.16449000"},
{"state":"Northern Province","name":"Bumbuna","lat":"9.04466000","lon":"-11.74576000"},
{"state":"Northern Province","name":"Gberia Fotombu","lat":"9.87852000","lon":"-11.16548000"},
{"state":"Northern Province","name":"Kabala","lat":"9.58893000","lon":"-11.55256000"},
{"state":"Northern Province","name":"Kamakwie","lat":"9.49689000","lon":"-12.24061000"},
{"state":"Northern Province","name":"Kambia","lat":"9.12504000","lon":"-12.91816000"},
{"state":"Northern Province","name":"Kassiri","lat":"8.93814000","lon":"-13.11541000"},
{"state":"Northern Province","name":"Koinadugu District","lat":"9.50991000","lon":"-11.34601000"},
{"state":"Northern Province","name":"Konakridee","lat":"8.69778000","lon":"-13.23917000"},
{"state":"Northern Province","name":"Kukuna","lat":"9.39841000","lon":"-12.66476000"},
{"state":"Northern Province","name":"Loma","lat":"9.75931000","lon":"-12.03383000"},
{"state":"Northern Province","name":"Lunsar","lat":"8.68439000","lon":"-12.53499000"},
{"state":"Northern Province","name":"Magburaka","lat":"8.72306000","lon":"-11.94880000"},
{"state":"Northern Province","name":"Makali","lat":"8.62964000","lon":"-11.66168000"},
{"state":"Northern Province","name":"Makeni","lat":"8.88605000","lon":"-12.04417000"},
{"state":"Northern Province","name":"Mambolo","lat":"8.91860000","lon":"-13.03674000"},
{"state":"Northern Province","name":"Mange","lat":"8.92262000","lon":"-12.85688000"},
{"state":"Northern Province","name":"Masaka","lat":"8.66492000","lon":"-11.80260000"},
{"state":"Northern Province","name":"Masingbi","lat":"8.78197000","lon":"-11.95171000"},
{"state":"Northern Province","name":"Masoyila","lat":"8.61119000","lon":"-13.19101000"},
{"state":"Northern Province","name":"Pepel","lat":"8.58611000","lon":"-13.05444000"},
{"state":"Northern Province","name":"Rokupr","lat":"8.67121000","lon":"-12.38497000"},
{"state":"Northern Province","name":"Sawkta","lat":"8.63230000","lon":"-13.20250000"},
{"state":"Northern Province","name":"Seidu","lat":"9.01801000","lon":"-10.59496000"},
{"state":"Northern Province","name":"Tintafor","lat":"8.62667000","lon":"-13.21500000"},
{"state":"Northern Province","name":"Tonkolili District","lat":"8.61885000","lon":"-11.84173000"},
{"state":"Northern Province","name":"Yonibana","lat":"8.44347000","lon":"-12.23929000"},
{"state":"Southern Province","name":"Baiima","lat":"8.10826000","lon":"-11.84772000"},
{"state":"Southern Province","name":"Baoma","lat":"7.99344000","lon":"-11.71468000"},
{"state":"Southern Province","name":"Bo","lat":"7.96472000","lon":"-11.73833000"},
{"state":"Southern Province","name":"Bo District","lat":"7.98877000","lon":"-11.67340000"},
{"state":"Southern Province","name":"Bomi","lat":"7.24611000","lon":"-11.52583000"},
{"state":"Southern Province","name":"Bonthe","lat":"7.52639000","lon":"-12.50500000"},
{"state":"Southern Province","name":"Bonthe District","lat":"7.51622000","lon":"-12.33591000"},
{"state":"Southern Province","name":"Bumpe","lat":"7.89209000","lon":"-11.90541000"},
{"state":"Southern Province","name":"Foindu","lat":"7.40906000","lon":"-11.54328000"},
{"state":"Southern Province","name":"Gandorhun","lat":"7.55502000","lon":"-11.69260000"},
{"state":"Southern Province","name":"Gbewebu","lat":"7.55091000","lon":"-11.60750000"},
{"state":"Southern Province","name":"Koribundu","lat":"7.70952000","lon":"-11.69354000"},
{"state":"Southern Province","name":"Largo","lat":"8.27903000","lon":"-12.15780000"},
{"state":"Southern Province","name":"Mamboma","lat":"8.08742000","lon":"-11.68841000"},
{"state":"Southern Province","name":"Mogbwemo","lat":"7.76237000","lon":"-12.30864000"},
{"state":"Southern Province","name":"Moyamba","lat":"8.15898000","lon":"-12.43168000"},
{"state":"Southern Province","name":"Moyamba District","lat":"8.06290000","lon":"-12.44401000"},
{"state":"Southern Province","name":"Palima","lat":"8.11996000","lon":"-11.50702000"},
{"state":"Southern Province","name":"Potoru","lat":"7.50596000","lon":"-11.47897000"},
{"state":"Southern Province","name":"Pujehun","lat":"7.35806000","lon":"-11.72083000"},
{"state":"Southern Province","name":"Pujehun District","lat":"7.31855000","lon":"-11.57920000"},
{"state":"Southern Province","name":"Rotifunk","lat":"8.22591000","lon":"-12.67760000"},
{"state":"Southern Province","name":"Serabu","lat":"7.79311000","lon":"-12.05294000"},
{"state":"Southern Province","name":"Sumbuya","lat":"7.64789000","lon":"-11.96060000"},
{"state":"Southern Province","name":"Tongole","lat":"7.45092000","lon":"-11.90071000"},
{"state":"Southern Province","name":"Zimmi","lat":"7.31356000","lon":"-11.30818000"},
{"state":"Western Area","name":"Freetown","lat":"8.48714000","lon":"-13.23560000"},
{"state":"Western Area","name":"Hastings","lat":"8.37994000","lon":"-13.13693000"},
{"state":"Western Area","name":"Kent","lat":"8.33333000","lon":"-13.06667000"},
{"state":"Western Area","name":"Waterloo","lat":"8.33890000","lon":"-13.07091000"}]