[{"state":"Dakar","name":"Dakar","lat":"14.69370000","lon":"-17.44406000"},
{"state":"Dakar","name":"Dakar Department","lat":"14.71403000","lon":"-17.45534000"},
{"state":"Dakar","name":"Guédiawaye Department","lat":"14.77610000","lon":"-17.39560000"},
{"state":"Dakar","name":"Mermoz Boabab","lat":"14.70649000","lon":"-17.47581000"},
{"state":"Dakar","name":"N’diareme limamoulaye","lat":"14.78148000","lon":"-17.38410000"},
{"state":"Dakar","name":"Pikine","lat":"14.76457000","lon":"-17.39071000"},
{"state":"Dakar","name":"Pikine Department","lat":"14.76515000","lon":"-17.35198000"},
{"state":"Dakar","name":"Rufisque Department","lat":"14.74339000","lon":"-17.19841000"},
{"state":"Diourbel Region","name":"Mbacké","lat":"14.80828000","lon":"-15.86454000"},
{"state":"Diourbel Region","name":"Mbaké","lat":"14.79032000","lon":"-15.90803000"},
{"state":"Diourbel Region","name":"Tiébo","lat":"14.63333000","lon":"-16.23333000"},
{"state":"Diourbel Region","name":"Touba","lat":"14.85000000","lon":"-15.88333000"},
{"state":"Fatick","name":"Diofior","lat":"14.18333000","lon":"-16.66667000"},
{"state":"Fatick","name":"Fatick Department","lat":"14.25909000","lon":"-16.49884000"},
{"state":"Fatick","name":"Foundiougne","lat":"14.13333000","lon":"-16.46667000"},
{"state":"Fatick","name":"Guinguinéo","lat":"14.26667000","lon":"-15.95000000"},
{"state":"Fatick","name":"Passi","lat":"13.98333000","lon":"-16.26667000"},
{"state":"Fatick","name":"Pourham","lat":"14.35000000","lon":"-16.41667000"},
{"state":"Fatick","name":"Sokone","lat":"13.88333000","lon":"-16.36667000"},
{"state":"Kaffrine","name":"Kaffrine","lat":"14.10594000","lon":"-15.55080000"},
{"state":"Kaffrine","name":"Koungheul","lat":"13.98333000","lon":"-14.80000000"},
{"state":"Kaolack","name":"Gandiaye","lat":"14.23333000","lon":"-16.26667000"},
{"state":"Kaolack","name":"Kaolack","lat":"14.15197000","lon":"-16.07259000"},
{"state":"Kaolack","name":"Ndofane","lat":"13.91667000","lon":"-15.93333000"},
{"state":"Kaolack","name":"Nioro du Rip","lat":"13.75000000","lon":"-15.80000000"},
{"state":"Kédougou","name":"Département de Salémata","lat":"12.59971000","lon":"-12.77619000"},
{"state":"Kédougou","name":"Kédougou","lat":"12.55561000","lon":"-12.18076000"},
{"state":"Kédougou","name":"Kédougou Department","lat":"12.81716000","lon":"-12.17834000"},
{"state":"Kédougou","name":"Saraya","lat":"13.00150000","lon":"-11.79627000"},
{"state":"Kolda","name":"Kolda","lat":"12.89390000","lon":"-14.94125000"},
{"state":"Kolda","name":"Kolda Department","lat":"12.88300000","lon":"-14.95000000"},
{"state":"Kolda","name":"Marsassoum","lat":"12.82750000","lon":"-15.98056000"},
{"state":"Kolda","name":"Vélingara","lat":"13.15000000","lon":"-14.11667000"},
{"state":"Louga","name":"Dara","lat":"15.34844000","lon":"-15.47993000"},
{"state":"Louga","name":"Guéoul","lat":"15.48333000","lon":"-16.35000000"},
{"state":"Louga","name":"Linguere Department","lat":"15.35900000","lon":"-15.15800000"},
{"state":"Louga","name":"Louga","lat":"15.61867000","lon":"-16.22436000"},
{"state":"Louga","name":"Ndibène Dahra","lat":"15.33380000","lon":"-15.47660000"},
{"state":"Matam","name":"Diawara","lat":"15.02196000","lon":"-12.54374000"},
{"state":"Matam","name":"Kanel","lat":"15.49160000","lon":"-13.17627000"},
{"state":"Matam","name":"Matam","lat":"15.65587000","lon":"-13.25544000"},
{"state":"Matam","name":"Matam Department","lat":"15.73191000","lon":"-13.63393000"},
{"state":"Matam","name":"Ouro Sogui","lat":"15.60588000","lon":"-13.32230000"},
{"state":"Matam","name":"Ranérou","lat":"15.30000000","lon":"-13.96667000"},
{"state":"Matam","name":"Sémé","lat":"15.19422000","lon":"-12.94482000"},
{"state":"Matam","name":"Waoundé","lat":"15.26367000","lon":"-12.86821000"},
{"state":"Saint-Louis","name":"Goléré","lat":"16.25575000","lon":"-14.10165000"},
{"state":"Saint-Louis","name":"Ndioum","lat":"16.51293000","lon":"-14.64706000"},
{"state":"Saint-Louis","name":"Polel Diaoubé","lat":"15.26667000","lon":"-13.00000000"},
{"state":"Saint-Louis","name":"Richard-Toll","lat":"16.46250000","lon":"-15.70083000"},
{"state":"Saint-Louis","name":"Rosso","lat":"16.42028000","lon":"-15.79834000"},
{"state":"Saint-Louis","name":"Saint-Louis","lat":"16.01793000","lon":"-16.48962000"},
{"state":"Sédhiou","name":"Goudomp Department","lat":"12.57778000","lon":"-15.87222000"},
{"state":"Sédhiou","name":"Sédhiou","lat":"12.70806000","lon":"-15.55694000"},
{"state":"Tambacounda Region","name":"Tambacounda","lat":"13.77073000","lon":"-13.66734000"},
{"state":"Tambacounda Region","name":"Tambacounda Department","lat":"13.60500000","lon":"-13.64700000"},
{"state":"Thiès Region","name":"Joal-Fadiout","lat":"14.16667000","lon":"-16.83333000"},
{"state":"Thiès Region","name":"Kayar","lat":"14.91893000","lon":"-17.11978000"},
{"state":"Thiès Region","name":"Khombole","lat":"14.76667000","lon":"-16.70000000"},
{"state":"Thiès Region","name":"Mbour","lat":"14.40569000","lon":"-16.85559000"},
{"state":"Thiès Region","name":"Mékhé","lat":"15.10970000","lon":"-16.62180000"},
{"state":"Thiès Region","name":"Nguékhokh","lat":"14.51255000","lon":"-17.00447000"},
{"state":"Thiès Region","name":"Pout","lat":"14.77099000","lon":"-17.06107000"},
{"state":"Thiès Region","name":"Thiès","lat":"14.73004000","lon":"-16.86974000"},
{"state":"Thiès Region","name":"Thiès Nones","lat":"14.78333000","lon":"-16.96667000"},
{"state":"Thiès Region","name":"Tiadiaye","lat":"14.41667000","lon":"-16.70000000"},
{"state":"Thiès Region","name":"Tivaouane","lat":"15.08519000","lon":"-16.71058000"},
{"state":"Thiès Region","name":"Warang","lat":"14.37349000","lon":"-16.94366000"},
{"state":"Ziguinchor","name":"Adéane","lat":"12.63000000","lon":"-16.01694000"},
{"state":"Ziguinchor","name":"Bignona","lat":"12.81028000","lon":"-16.22639000"},
{"state":"Ziguinchor","name":"Oussouye","lat":"12.48500000","lon":"-16.54694000"},
{"state":"Ziguinchor","name":"Tionk Essil","lat":"12.78556000","lon":"-16.52167000"},
{"state":"Ziguinchor","name":"Ziguinchor","lat":"12.56801000","lon":"-16.27326000"}]