[{"state":"Bakool","name":"Tayeeglow","lat":"4.01897000","lon":"44.51111000"},
{"state":"Bakool","name":"Waajid","lat":"3.80958000","lon":"43.24627000"},
{"state":"Bakool","name":"Xuddur","lat":"4.12129000","lon":"43.88945000"},
{"state":"Bakool","name":"Yeed","lat":"4.55000000","lon":"43.03333000"},
{"state":"Banaadir","name":"Mogadishu","lat":"2.03711000","lon":"45.34375000"},
{"state":"Bari","name":"Bandarbeyla","lat":"9.49420000","lon":"50.81220000"},
{"state":"Bari","name":"Bargaal","lat":"11.28636000","lon":"51.07730000"},
{"state":"Bari","name":"Bereeda","lat":"11.87037000","lon":"51.05795000"},
{"state":"Bari","name":"Bosaso","lat":"11.28421000","lon":"49.18158000"},
{"state":"Bari","name":"Caluula","lat":"11.96611000","lon":"50.75694000"},
{"state":"Bari","name":"Iskushuban","lat":"10.28370000","lon":"50.23000000"},
{"state":"Bari","name":"Qandala","lat":"11.47197000","lon":"49.87282000"},
{"state":"Bay","name":"Baidoa","lat":"3.11383000","lon":"43.64980000"},
{"state":"Bay","name":"Buurhakaba","lat":"2.80257000","lon":"44.07805000"},
{"state":"Galguduud","name":"Ceelbuur","lat":"4.68501000","lon":"46.61760000"},
{"state":"Galguduud","name":"Ceeldheer","lat":"3.84878000","lon":"47.18064000"},
{"state":"Galguduud","name":"Dhuusamarreeb","lat":"5.53597000","lon":"46.38666000"},
{"state":"Gedo","name":"Baardheere","lat":"2.34464000","lon":"42.27644000"},
{"state":"Gedo","name":"Garbahaarrey","lat":"3.32892000","lon":"42.22091000"},
{"state":"Gedo","name":"Luuq","lat":"3.80315000","lon":"42.54417000"},
{"state":"Hiran","name":"Beledweyne","lat":"4.73583000","lon":"45.20361000"},
{"state":"Hiran","name":"Buulobarde","lat":"3.85375000","lon":"45.56744000"},
{"state":"Hiran","name":"Jalalaqsi","lat":"3.37660000","lon":"45.59960000"},
{"state":"Lower Juba","name":"Buur Gaabo","lat":"-1.21917000","lon":"41.83725000"},
{"state":"Lower Juba","name":"Jamaame","lat":"0.06968000","lon":"42.74497000"},
{"state":"Lower Juba","name":"Kismayo","lat":"-0.35817000","lon":"42.54536000"},
{"state":"Lower Shebelle","name":"Afgooye","lat":"2.13810000","lon":"45.12120000"},
{"state":"Lower Shebelle","name":"Marka","lat":"1.71594000","lon":"44.77166000"},
{"state":"Lower Shebelle","name":"Qoryooley","lat":"1.78784000","lon":"44.52999000"},
{"state":"Lower Shebelle","name":"Wanlaweyn","lat":"2.61850000","lon":"44.89380000"},
{"state":"Middle Juba","name":"Dujuuma","lat":"1.25311000","lon":"42.57377000"},
{"state":"Middle Juba","name":"Jilib","lat":"0.48829000","lon":"42.78535000"},
{"state":"Middle Juba","name":"Saacow","lat":"1.62794000","lon":"42.44067000"},
{"state":"Middle Shebelle","name":"Cadale","lat":"2.76030000","lon":"46.32220000"},
{"state":"Middle Shebelle","name":"Jawhar","lat":"2.78087000","lon":"45.50048000"},
{"state":"Middle Shebelle","name":"Mahaddayweyne","lat":"2.97260000","lon":"45.53470000"},
{"state":"Mudug","name":"Gaalkacyo","lat":"6.76972000","lon":"47.43083000"},
{"state":"Mudug","name":"Hobyo","lat":"5.35050000","lon":"48.52680000"},
{"state":"Mudug","name":"Xarardheere","lat":"4.65440000","lon":"47.85750000"},
{"state":"Nugal","name":"Eyl","lat":"7.98030000","lon":"49.81640000"},
{"state":"Nugal","name":"Garoowe","lat":"8.40207000","lon":"48.48284000"},
{"state":"Sanaag Region","name":"Ceerigaabo","lat":"10.61616000","lon":"47.36795000"},
{"state":"Sanaag Region","name":"Las Khorey","lat":"11.15950000","lon":"48.19670000"},
{"state":"Togdheer Region","name":"Burao","lat":"9.52213000","lon":"45.53363000"},
{"state":"Togdheer Region","name":"Ceek","lat":"8.99907000","lon":"45.35824000"},
{"state":"Togdheer Region","name":"Oodweyne","lat":"9.40920000","lon":"45.06397000"}]