[{"state":"Brokopondo District","name":"Brokopondo","lat":"5.05594000","lon":"-54.98043000"},
{"state":"Brokopondo District","name":"Brownsweg","lat":"5.00435000","lon":"-55.15333000"},
{"state":"Commewijne District","name":"MariÃ«nburg","lat":"5.87722000","lon":"-55.04322000"},
{"state":"Commewijne District","name":"Nieuw Amsterdam","lat":"5.88573000","lon":"-55.08871000"},
{"state":"Coronie District","name":"Totness","lat":"5.87618000","lon":"-56.32572000"},
{"state":"Marowijne District","name":"Albina","lat":"5.49788000","lon":"-54.05522000"},
{"state":"Marowijne District","name":"Moengo","lat":"5.61411000","lon":"-54.40121000"},
{"state":"Nickerie District","name":"Nieuw Nickerie","lat":"5.92606000","lon":"-56.97297000"},
{"state":"Nickerie District","name":"Wageningen","lat":"5.76010000","lon":"-56.66523000"},
{"state":"Para District","name":"Onverwacht","lat":"5.58983000","lon":"-55.19462000"},
{"state":"Paramaribo District","name":"Paramaribo","lat":"5.86638000","lon":"-55.16682000"},
{"state":"Saramacca District","name":"Groningen","lat":"5.80000000","lon":"-55.46667000"},
{"state":"Wanica District","name":"Lelydorp","lat":"5.70000000","lon":"-55.23333000"}]