[{"state":"Ahuachapán Department","name":"Ahuachapán","lat":"13.92139000","lon":"-89.84500000"},
{"state":"Ahuachapán Department","name":"Atiquizaya","lat":"13.97694000","lon":"-89.75250000"},
{"state":"Ahuachapán Department","name":"Concepción de Ataco","lat":"13.87028000","lon":"-89.84861000"},
{"state":"Ahuachapán Department","name":"Guaymango","lat":"13.75028000","lon":"-89.84222000"},
{"state":"Ahuachapán Department","name":"Jujutla","lat":"13.78694000","lon":"-89.85722000"},
{"state":"Ahuachapán Department","name":"San Francisco Menéndez","lat":"13.84306000","lon":"-90.01583000"},
{"state":"Ahuachapán Department","name":"Tacuba","lat":"13.90111000","lon":"-89.92972000"},
{"state":"Cabañas Department","name":"Sensuntepeque","lat":"13.86667000","lon":"-88.63333000"},
{"state":"Cabañas Department","name":"Victoria","lat":"13.95000000","lon":"-88.63333000"},
{"state":"Chalatenango Department","name":"Chalatenango","lat":"14.03333000","lon":"-88.93333000"},
{"state":"Chalatenango Department","name":"Nueva Concepción","lat":"14.13333000","lon":"-89.30000000"},
{"state":"Cuscatlán Department","name":"Cojutepeque","lat":"13.71667000","lon":"-88.93333000"},
{"state":"Cuscatlán Department","name":"San Martín","lat":"13.78333000","lon":"-88.91667000"},
{"state":"Cuscatlán Department","name":"Suchitoto","lat":"13.93806000","lon":"-89.02778000"},
{"state":"Cuscatlán Department","name":"Tecoluca","lat":"13.78917000","lon":"-89.00528000"},
{"state":"Cuscatlán Department","name":"Tenancingo","lat":"13.83333000","lon":"-88.98333000"},
{"state":"La Libertad Department","name":"Antiguo Cuscatlán","lat":"13.66492000","lon":"-89.25319000"},
{"state":"La Libertad Department","name":"Ciudad Arce","lat":"13.84028000","lon":"-89.44722000"},
{"state":"La Libertad Department","name":"La Libertad","lat":"13.48833000","lon":"-89.32222000"},
{"state":"La Libertad Department","name":"Nuevo Cuscatlán","lat":"13.64861000","lon":"-89.26528000"},
{"state":"La Libertad Department","name":"Quezaltepeque","lat":"13.83124000","lon":"-89.27221000"},
{"state":"La Libertad Department","name":"San Juan Opico","lat":"13.87611000","lon":"-89.35972000"},
{"state":"La Libertad Department","name":"San Pablo Tacachico","lat":"13.97556000","lon":"-89.34000000"},
{"state":"La Libertad Department","name":"Santa Tecla","lat":"13.67694000","lon":"-89.27972000"},
{"state":"La Libertad Department","name":"Zaragoza","lat":"13.58944000","lon":"-89.28889000"},
{"state":"La Paz Department","name":"El Rosario","lat":"13.49778000","lon":"-89.02972000"},
{"state":"La Paz Department","name":"Olocuilta","lat":"13.56972000","lon":"-89.11722000"},
{"state":"La Paz Department","name":"San Pedro Masahuat","lat":"13.54361000","lon":"-89.03861000"},
{"state":"La Paz Department","name":"Santiago Nonualco","lat":"13.51667000","lon":"-88.95000000"},
{"state":"La Paz Department","name":"Zacatecoluca","lat":"13.50000000","lon":"-88.86667000"},
{"state":"La Unión Department","name":"Anamorós","lat":"13.74056000","lon":"-87.87361000"},
{"state":"La Unión Department","name":"Conchagua","lat":"13.30778000","lon":"-87.86472000"},
{"state":"La Unión Department","name":"Intipucá","lat":"13.19694000","lon":"-88.05444000"},
{"state":"La Unión Department","name":"La Unión","lat":"13.33694000","lon":"-87.84389000"},
{"state":"La Unión Department","name":"Nueva Esparta","lat":"13.78361000","lon":"-87.83861000"},
{"state":"La Unión Department","name":"Pasaquina","lat":"13.58444000","lon":"-87.84111000"},
{"state":"La Unión Department","name":"San Alejo","lat":"13.43139000","lon":"-87.96306000"},
{"state":"La Unión Department","name":"Santa Rosa de Lima","lat":"13.62472000","lon":"-87.89361000"},
{"state":"Morazán Department","name":"Cacaopera","lat":"13.76667000","lon":"-88.08333000"},
{"state":"Morazán Department","name":"Corinto","lat":"13.81083000","lon":"-87.97139000"},
{"state":"Morazán Department","name":"Guatajiagua","lat":"13.66667000","lon":"-88.20000000"},
{"state":"Morazán Department","name":"Jocoro","lat":"13.61667000","lon":"-88.01667000"},
{"state":"Morazán Department","name":"San Francisco","lat":"13.70000000","lon":"-88.10000000"},
{"state":"Morazán Department","name":"Sociedad","lat":"13.70000000","lon":"-88.01667000"},
{"state":"San Miguel Department","name":"Chapeltique","lat":"13.63333000","lon":"-88.26667000"},
{"state":"San Miguel Department","name":"Chinameca","lat":"13.50000000","lon":"-88.35000000"},
{"state":"San Miguel Department","name":"Chirilagua","lat":"13.22028000","lon":"-88.13861000"},
{"state":"San Miguel Department","name":"Ciudad Barrios","lat":"13.76667000","lon":"-88.26667000"},
{"state":"San Miguel Department","name":"El Tránsito","lat":"13.35000000","lon":"-88.35000000"},
{"state":"San Miguel Department","name":"Lolotique","lat":"13.55000000","lon":"-88.35000000"},
{"state":"San Miguel Department","name":"Moncagua","lat":"13.53333000","lon":"-88.25000000"},
{"state":"San Miguel Department","name":"Nueva Guadalupe","lat":"13.53333000","lon":"-88.35000000"},
{"state":"San Miguel Department","name":"San Miguel","lat":"13.48333000","lon":"-88.18333000"},
{"state":"San Miguel Department","name":"San Rafael Oriente","lat":"13.38333000","lon":"-88.35000000"},
{"state":"San Miguel Department","name":"Sesori","lat":"13.71667000","lon":"-88.36667000"},
{"state":"San Salvador Department","name":"Aguilares","lat":"13.95722000","lon":"-89.18972000"},
{"state":"San Salvador Department","name":"Apopa","lat":"13.80722000","lon":"-89.17917000"},
{"state":"San Salvador Department","name":"Ayutuxtepeque","lat":"13.74556000","lon":"-89.20639000"},
{"state":"San Salvador Department","name":"Cuscatancingo","lat":"13.73611000","lon":"-89.18139000"},
{"state":"San Salvador Department","name":"Delgado","lat":"13.72417000","lon":"-89.17028000"},
{"state":"San Salvador Department","name":"El Paisnal","lat":"13.97361000","lon":"-89.21861000"},
{"state":"San Salvador Department","name":"Guazapa","lat":"13.87694000","lon":"-89.17306000"},
{"state":"San Salvador Department","name":"Ilopango","lat":"13.70167000","lon":"-89.10944000"},
{"state":"San Salvador Department","name":"Mejicanos","lat":"13.74028000","lon":"-89.21306000"},
{"state":"San Salvador Department","name":"Panchimalco","lat":"13.61278000","lon":"-89.18000000"},
{"state":"San Salvador Department","name":"Rosario de Mora","lat":"13.57528000","lon":"-89.20889000"},
{"state":"San Salvador Department","name":"San Marcos","lat":"13.65889000","lon":"-89.18306000"},
{"state":"San Salvador Department","name":"San Salvador","lat":"13.68935000","lon":"-89.18718000"},
{"state":"San Salvador Department","name":"Santo Tomás","lat":"13.64083000","lon":"-89.13333000"},
{"state":"San Salvador Department","name":"Soyapango","lat":"13.71024000","lon":"-89.13989000"},
{"state":"San Salvador Department","name":"Tonacatepeque","lat":"13.78111000","lon":"-89.11861000"},
{"state":"San Vicente Department","name":"Apastepeque","lat":"13.66667000","lon":"-88.78333000"},
{"state":"San Vicente Department","name":"San Sebastián","lat":"13.73333000","lon":"-88.83333000"},
{"state":"San Vicente Department","name":"San Vicente","lat":"13.63333000","lon":"-88.80000000"},
{"state":"Santa Ana Department","name":"Candelaria de La Frontera","lat":"14.11667000","lon":"-89.65000000"},
{"state":"Santa Ana Department","name":"Chalchuapa","lat":"13.98667000","lon":"-89.68111000"},
{"state":"Santa Ana Department","name":"Coatepeque","lat":"13.92861000","lon":"-89.50417000"},
{"state":"Santa Ana Department","name":"El Congo","lat":"13.90889000","lon":"-89.49583000"},
{"state":"Santa Ana Department","name":"Metapán","lat":"14.33333000","lon":"-89.45000000"},
{"state":"Santa Ana Department","name":"Santa Ana","lat":"13.99417000","lon":"-89.55972000"},
{"state":"Santa Ana Department","name":"Texistepeque","lat":"14.13333000","lon":"-89.50000000"},
{"state":"Sonsonate Department","name":"Acajutla","lat":"13.59278000","lon":"-89.82750000"},
{"state":"Sonsonate Department","name":"Armenia","lat":"13.74361000","lon":"-89.49889000"},
{"state":"Sonsonate Department","name":"Izalco","lat":"13.74472000","lon":"-89.67306000"},
{"state":"Sonsonate Department","name":"Juayúa","lat":"13.84139000","lon":"-89.74556000"},
{"state":"Sonsonate Department","name":"Nahuizalco","lat":"13.77750000","lon":"-89.73667000"},
{"state":"Sonsonate Department","name":"San Antonio del Monte","lat":"13.71639000","lon":"-89.73833000"},
{"state":"Sonsonate Department","name":"Sonsonate","lat":"13.71889000","lon":"-89.72417000"},
{"state":"Sonsonate Department","name":"Sonzacate","lat":"13.73417000","lon":"-89.71472000"},
{"state":"Usulután Department","name":"Berlín","lat":"13.50000000","lon":"-88.53333000"},
{"state":"Usulután Department","name":"Concepción Batres","lat":"13.35000000","lon":"-88.36667000"},
{"state":"Usulután Department","name":"Jiquilisco","lat":"13.31667000","lon":"-88.58333000"},
{"state":"Usulután Department","name":"Jucuapa","lat":"13.51667000","lon":"-88.38333000"},
{"state":"Usulután Department","name":"Jucuarán","lat":"13.25389000","lon":"-88.24778000"},
{"state":"Usulután Department","name":"Ozatlán","lat":"13.38333000","lon":"-88.50000000"},
{"state":"Usulután Department","name":"Puerto El Triunfo","lat":"13.28333000","lon":"-88.55000000"},
{"state":"Usulután Department","name":"San Agustín","lat":"13.43333000","lon":"-88.60000000"},
{"state":"Usulután Department","name":"Santa Elena","lat":"13.38333000","lon":"-88.41667000"},
{"state":"Usulután Department","name":"Santiago de María","lat":"13.48333000","lon":"-88.46667000"},
{"state":"Usulután Department","name":"Usulután","lat":"13.35000000","lon":"-88.45000000"}]