[{"state":"Al-Hasakah","name":"Ad Darbāsīyah","lat":"37.07279000","lon":"40.65199000"},
{"state":"Al-Hasakah","name":"Al Ḩasakah","lat":"36.50237000","lon":"40.74772000"},
{"state":"Al-Hasakah","name":"Al Mālikīyah","lat":"37.17701000","lon":"42.14006000"},
{"state":"Al-Hasakah","name":"Al Qāmishlī","lat":"37.05215000","lon":"41.23142000"},
{"state":"Al-Hasakah","name":"Al-Malikiyah District","lat":"36.94113000","lon":"41.90157000"},
{"state":"Al-Hasakah","name":"Amude","lat":"37.10417000","lon":"40.93000000"},
{"state":"Al-Raqqah","name":"Al-Thawrah District","lat":"35.79843000","lon":"38.34550000"},
{"state":"Al-Raqqah","name":"Ar Raqqah","lat":"35.95283000","lon":"39.00788000"},
{"state":"Al-Raqqah","name":"Ar-Raqqah District","lat":"35.87204000","lon":"39.04706000"},
{"state":"Al-Raqqah","name":"Ath Thawrah","lat":"35.83758000","lon":"38.54828000"},
{"state":"Al-Raqqah","name":"Tall Abyaḑ","lat":"36.69648000","lon":"38.95382000"},
{"state":"Al-Raqqah","name":"Tell Abyad District","lat":"36.48280000","lon":"39.21360000"},
{"state":"Aleppo","name":"‘Afrīn","lat":"36.51194000","lon":"36.86954000"},
{"state":"Aleppo","name":"‘Ayn al ‘Arab","lat":"36.89095000","lon":"38.35347000"},
{"state":"Aleppo","name":"Afrin District","lat":"36.54891000","lon":"36.79295000"},
{"state":"Aleppo","name":"Al Atārib","lat":"36.13907000","lon":"36.82504000"},
{"state":"Aleppo","name":"Al Bāb","lat":"36.37051000","lon":"37.51570000"},
{"state":"Aleppo","name":"Al-Bab District","lat":"36.30946000","lon":"37.53277000"},
{"state":"Aleppo","name":"Aleppo","lat":"36.20124000","lon":"37.16117000"},
{"state":"Aleppo","name":"As Safīrah","lat":"36.07696000","lon":"37.37251000"},
{"state":"Aleppo","name":"Azaz District","lat":"36.49986000","lon":"37.18382000"},
{"state":"Aleppo","name":"Dayr Ḩāfir","lat":"36.15694000","lon":"37.70778000"},
{"state":"Aleppo","name":"I‘zāz","lat":"36.58662000","lon":"37.04628000"},
{"state":"Aleppo","name":"Jarābulus","lat":"36.81750000","lon":"38.01111000"},
{"state":"Aleppo","name":"Kafr Şaghīr","lat":"36.29264000","lon":"37.25590000"},
{"state":"Aleppo","name":"Khanāşir","lat":"35.78159000","lon":"37.49919000"},
{"state":"Aleppo","name":"Manbij","lat":"36.52815000","lon":"37.95495000"},
{"state":"Aleppo","name":"Manbij District","lat":"36.06687000","lon":"37.91735000"},
{"state":"Aleppo","name":"Mount Simeon District","lat":"35.99956000","lon":"37.08473000"},
{"state":"Aleppo","name":"Nubl","lat":"36.37867000","lon":"36.99294000"},
{"state":"Aleppo","name":"Şūrān","lat":"36.56579000","lon":"37.21270000"},
{"state":"Aleppo","name":"Tādif","lat":"36.34814000","lon":"37.53090000"},
{"state":"Aleppo","name":"Tall Rif‘at","lat":"36.47229000","lon":"37.09471000"},
{"state":"As-Suwayda","name":"As-Suwayda","lat":"32.70896000","lon":"36.56951000"},
{"state":"As-Suwayda","name":"As-Suwayda District","lat":"32.78127000","lon":"36.86502000"},
{"state":"As-Suwayda","name":"Şalākhid","lat":"32.87271000","lon":"36.57271000"},
{"state":"As-Suwayda","name":"Şalkhad","lat":"32.49200000","lon":"36.71114000"},
{"state":"As-Suwayda","name":"Salkhad District","lat":"32.51779000","lon":"36.91954000"},
{"state":"As-Suwayda","name":"Shahbā","lat":"32.85514000","lon":"36.62896000"},
{"state":"As-Suwayda","name":"Shahba District","lat":"33.04282000","lon":"36.72034000"},
{"state":"Damascus","name":"Damascus","lat":"33.51020000","lon":"36.29128000"},
{"state":"Daraa","name":"Al Ḩarāk","lat":"32.74932000","lon":"36.30994000"},
{"state":"Daraa","name":"Al Muzayrīb","lat":"32.71084000","lon":"36.02751000"},
{"state":"Daraa","name":"Al-Sanamayn District","lat":"33.12559000","lon":"36.27540000"},
{"state":"Daraa","name":"Aş Şanamayn","lat":"33.07186000","lon":"36.18316000"},
{"state":"Daraa","name":"Ash Shaykh Miskīn","lat":"32.82944000","lon":"36.15933000"},
{"state":"Daraa","name":"Buşrá ash Shām","lat":"32.52013000","lon":"36.48256000"},
{"state":"Daraa","name":"Dar‘ā","lat":"32.61889000","lon":"36.10213000"},
{"state":"Daraa","name":"Ghabāghib","lat":"33.18235000","lon":"36.22534000"},
{"state":"Daraa","name":"Inkhil","lat":"33.01809000","lon":"36.12828000"},
{"state":"Daraa","name":"Izra District","lat":"32.90121000","lon":"36.16144000"},
{"state":"Daraa","name":"Izra‘","lat":"32.87060000","lon":"36.25453000"},
{"state":"Daraa","name":"Jāsim","lat":"32.99233000","lon":"36.06018000"},
{"state":"Daraa","name":"Nawá","lat":"32.89044000","lon":"36.03990000"},
{"state":"Daraa","name":"Ţafas","lat":"32.73709000","lon":"36.06654000"},
{"state":"Daraa","name":"Tasīl","lat":"32.83395000","lon":"35.96973000"},
{"state":"Deir ez-Zor","name":"Al Mayādīn","lat":"35.01982000","lon":"40.45154000"},
{"state":"Deir ez-Zor","name":"Ālbū Kamāl","lat":"34.45226000","lon":"40.91854000"},
{"state":"Deir ez-Zor","name":"Deir ez-Zor","lat":"35.33588000","lon":"40.14084000"},
{"state":"Deir ez-Zor","name":"Hajīn","lat":"34.69508000","lon":"40.83138000"},
{"state":"Deir ez-Zor","name":"Subaykhān","lat":"34.85305000","lon":"40.59987000"},
{"state":"Hama","name":"Al-Salamiyah District","lat":"35.14398000","lon":"37.59235000"},
{"state":"Hama","name":"As Salamīyah","lat":"35.01127000","lon":"37.05324000"},
{"state":"Hama","name":"As Suqaylibīyah","lat":"35.36674000","lon":"36.39359000"},
{"state":"Hama","name":"Ḩalfāyā","lat":"35.26014000","lon":"36.60581000"},
{"state":"Hama","name":"Hama District","lat":"35.28577000","lon":"37.12626000"},
{"state":"Hama","name":"Ḩamāh","lat":"35.13179000","lon":"36.75783000"},
{"state":"Hama","name":"Kafr Zaytā","lat":"35.37425000","lon":"36.60330000"},
{"state":"Hama","name":"Maşyāf","lat":"35.06530000","lon":"36.34060000"},
{"state":"Hama","name":"Masyaf District","lat":"35.10335000","lon":"36.33920000"},
{"state":"Hama","name":"Mūrak","lat":"35.37615000","lon":"36.68970000"},
{"state":"Hama","name":"Souran","lat":"35.29193000","lon":"36.74848000"},
{"state":"Hama","name":"Tall Salḩab","lat":"35.25884000","lon":"36.38461000"},
{"state":"Hama","name":"Ţayyibat al Imām","lat":"35.26592000","lon":"36.71219000"},
{"state":"Hama","name":"Tremseh","lat":"35.27181000","lon":"36.50395000"},
{"state":"Homs","name":"Al Ghanţū","lat":"34.82202000","lon":"36.69613000"},
{"state":"Homs","name":"Al Qaryatayn","lat":"34.22956000","lon":"37.24066000"},
{"state":"Homs","name":"Al Quşayr","lat":"34.50780000","lon":"36.58029000"},
{"state":"Homs","name":"Al-Rastan District","lat":"34.87100000","lon":"36.77245000"},
{"state":"Homs","name":"Ar Rastan","lat":"34.92667000","lon":"36.73241000"},
{"state":"Homs","name":"Hisya","lat":"34.41197000","lon":"36.75867000"},
{"state":"Homs","name":"Homs","lat":"34.72682000","lon":"36.72339000"},
{"state":"Homs","name":"Kafr Lāhā","lat":"34.89469000","lon":"36.49582000"},
{"state":"Homs","name":"Mukharram al Fawqānī","lat":"34.81521000","lon":"37.08677000"},
{"state":"Homs","name":"Şadad","lat":"34.31248000","lon":"36.92562000"},
{"state":"Homs","name":"Tadmur","lat":"34.56240000","lon":"38.28402000"},
{"state":"Homs","name":"Tadmur District","lat":"34.42401000","lon":"38.64580000"},
{"state":"Homs","name":"Tallbīsah","lat":"34.84072000","lon":"36.73092000"},
{"state":"Homs","name":"Tallkalakh","lat":"34.66842000","lon":"36.25995000"},
{"state":"Idlib","name":"Ad Dānā","lat":"36.21254000","lon":"36.76998000"},
{"state":"Idlib","name":"Arīḩā","lat":"35.81374000","lon":"36.60964000"},
{"state":"Idlib","name":"Armanāz","lat":"36.08363000","lon":"36.50310000"},
{"state":"Idlib","name":"Binnish","lat":"35.95664000","lon":"36.71380000"},
{"state":"Idlib","name":"Darkūsh","lat":"35.99180000","lon":"36.39361000"},
{"state":"Idlib","name":"Harem District","lat":"36.14014000","lon":"36.56535000"},
{"state":"Idlib","name":"Ḩārim","lat":"36.21176000","lon":"36.52078000"},
{"state":"Idlib","name":"Idlib","lat":"35.93062000","lon":"36.63393000"},
{"state":"Idlib","name":"Jisr al-Shughur District","lat":"35.87756000","lon":"36.32901000"},
{"state":"Idlib","name":"Jisr ash Shughūr","lat":"35.81418000","lon":"36.31983000"},
{"state":"Idlib","name":"Kafr Takhārīm","lat":"36.11680000","lon":"36.51522000"},
{"state":"Idlib","name":"Kafranbel","lat":"35.61376000","lon":"36.56449000"},
{"state":"Idlib","name":"Khān Shaykhūn","lat":"35.44208000","lon":"36.65095000"},
{"state":"Idlib","name":"Ma‘arratmişrīn","lat":"36.01152000","lon":"36.67183000"},
{"state":"Idlib","name":"Maarrat al-Nu'man District","lat":"35.53858000","lon":"36.79193000"},
{"state":"Idlib","name":"Salqīn","lat":"36.13865000","lon":"36.45244000"},
{"state":"Idlib","name":"Sarāqib","lat":"35.86447000","lon":"36.80591000"},
{"state":"Idlib","name":"Sarmīn","lat":"35.90403000","lon":"36.72501000"},
{"state":"Idlib","name":"Taftanāz","lat":"35.99832000","lon":"36.78579000"},
{"state":"Latakia","name":"Al-Haffah District","lat":"35.59687000","lon":"36.11198000"},
{"state":"Latakia","name":"Jablah","lat":"35.36211000","lon":"35.92759000"},
{"state":"Latakia","name":"Jableh District","lat":"35.29048000","lon":"36.04490000"},
{"state":"Latakia","name":"Kassab","lat":"35.92639000","lon":"35.98970000"},
{"state":"Latakia","name":"Latakia","lat":"35.53168000","lon":"35.79011000"},
{"state":"Latakia","name":"Latakia District","lat":"35.72426000","lon":"35.94150000"},
{"state":"Latakia","name":"Qardaha District","lat":"35.39593000","lon":"36.08603000"},
{"state":"Latakia","name":"Şlinfah","lat":"35.59822000","lon":"36.18770000"},
{"state":"Quneitra","name":"Al Qunayţirah","lat":"33.12595000","lon":"35.82461000"},
{"state":"Rif Dimashq","name":"‘Irbīn","lat":"33.53719000","lon":"36.36635000"},
{"state":"Rif Dimashq","name":"Al Kiswah","lat":"33.35810000","lon":"36.24190000"},
{"state":"Rif Dimashq","name":"Al Quţayfah","lat":"33.73848000","lon":"36.60071000"},
{"state":"Rif Dimashq","name":"Al-Zabadani District","lat":"33.70819000","lon":"36.11198000"},
{"state":"Rif Dimashq","name":"An Nabk","lat":"34.02403000","lon":"36.72848000"},
{"state":"Rif Dimashq","name":"At Tall","lat":"33.61033000","lon":"36.31070000"},
{"state":"Rif Dimashq","name":"Az Zabadānī","lat":"33.72488000","lon":"36.10050000"},
{"state":"Rif Dimashq","name":"Dārayyā","lat":"33.45835000","lon":"36.23256000"},
{"state":"Rif Dimashq","name":"Dayr al ‘Aşāfīr","lat":"33.46585000","lon":"36.42044000"},
{"state":"Rif Dimashq","name":"Douma","lat":"33.57175000","lon":"36.40270000"},
{"state":"Rif Dimashq","name":"Ḩarastā","lat":"33.55869000","lon":"36.36515000"},
{"state":"Rif Dimashq","name":"Jaramānā","lat":"33.48620000","lon":"36.34614000"},
{"state":"Rif Dimashq","name":"Jayrūd","lat":"33.80709000","lon":"36.73861000"},
{"state":"Rif Dimashq","name":"Ma‘lūlā","lat":"33.84529000","lon":"36.54514000"},
{"state":"Rif Dimashq","name":"Medaya","lat":"33.69032000","lon":"36.10354000"},
{"state":"Rif Dimashq","name":"Qārah","lat":"34.15558000","lon":"36.74284000"},
{"state":"Rif Dimashq","name":"Qaţanā","lat":"33.43757000","lon":"36.07888000"},
{"state":"Rif Dimashq","name":"Şaydnāyā","lat":"33.69473000","lon":"36.37146000"},
{"state":"Rif Dimashq","name":"Yabrūd","lat":"33.96921000","lon":"36.65729000"},
{"state":"Tartus","name":"Ad Duraykīsh","lat":"34.89514000","lon":"36.14303000"},
{"state":"Tartus","name":"Bāniyās","lat":"35.18188000","lon":"35.94871000"},
{"state":"Tartus","name":"Kaff al-Jaa","lat":"35.08638000","lon":"36.20605000"},
{"state":"Tartus","name":"Safita District","lat":"34.80419000","lon":"36.12293000"},
{"state":"Tartus","name":"Satita","lat":"34.82099000","lon":"36.11773000"},
{"state":"Tartus","name":"Tartouss","lat":"34.88902000","lon":"35.88659000"}]