[{"state":"Hhohho District","name":"Bulembu","lat":"-25.96667000","lon":"31.13333000"},
{"state":"Hhohho District","name":"Hhukwini","lat":"-26.31972000","lon":"31.22222000"},
{"state":"Hhohho District","name":"Lobamba","lat":"-26.46667000","lon":"31.20000000"},
{"state":"Hhohho District","name":"Mbabane","lat":"-26.31667000","lon":"31.13333000"},
{"state":"Hhohho District","name":"Nkhaba","lat":"-26.15728000","lon":"31.16391000"},
{"state":"Hhohho District","name":"Piggs Peak","lat":"-25.96082000","lon":"31.24666000"},
{"state":"Lubombo District","name":"Big Bend","lat":"-26.81667000","lon":"31.93333000"},
{"state":"Lubombo District","name":"Dvokodvweni Inkhundla","lat":"-26.45398000","lon":"31.76456000"},
{"state":"Lubombo District","name":"Lomashasha","lat":"-26.06644000","lon":"32.00768000"},
{"state":"Lubombo District","name":"Mhlume","lat":"-26.03333000","lon":"31.85000000"},
{"state":"Lubombo District","name":"Nsoko","lat":"-27.03333000","lon":"31.95000000"},
{"state":"Lubombo District","name":"Siteki","lat":"-26.45250000","lon":"31.94722000"},
{"state":"Lubombo District","name":"Tshaneni","lat":"-25.98333000","lon":"31.71667000"},
{"state":"Lubombo District","name":"Vuvulane","lat":"-26.07427000","lon":"31.87672000"},
{"state":"Manzini District","name":"Bhunya","lat":"-26.55000000","lon":"31.01667000"},
{"state":"Manzini District","name":"Ekukhanyeni","lat":"-26.38750000","lon":"31.52806000"},
{"state":"Manzini District","name":"Kwaluseni","lat":"-26.48333000","lon":"31.33333000"},
{"state":"Manzini District","name":"Malkerns","lat":"-26.56667000","lon":"31.18333000"},
{"state":"Manzini District","name":"Manzini","lat":"-26.49884000","lon":"31.38004000"},
{"state":"Manzini District","name":"Manzini South","lat":"-26.48333000","lon":"31.36667000"},
{"state":"Manzini District","name":"Mhlambanyatsi","lat":"-26.45000000","lon":"31.01667000"},
{"state":"Manzini District","name":"Ngwempisi","lat":"-26.69990000","lon":"31.28876000"},
{"state":"Manzini District","name":"Ntondozi","lat":"-26.63500000","lon":"31.22556000"},
{"state":"Manzini District","name":"Sidvokodvo","lat":"-26.62820000","lon":"31.42021000"},
{"state":"Shiselweni District","name":"Hlatikulu","lat":"-26.97917000","lon":"31.32444000"},
{"state":"Shiselweni District","name":"Hluti","lat":"-27.21667000","lon":"31.61667000"},
{"state":"Shiselweni District","name":"Kubuta","lat":"-26.88333000","lon":"31.48333000"},
{"state":"Shiselweni District","name":"Lavumisa","lat":"-27.31005000","lon":"31.89198000"},
{"state":"Shiselweni District","name":"Matsanjeni","lat":"-27.21585000","lon":"31.72309000"},
{"state":"Shiselweni District","name":"Ngudzeni","lat":"-27.03583000","lon":"31.55111000"},
{"state":"Shiselweni District","name":"Nhlangano","lat":"-27.11222000","lon":"31.19833000"},
{"state":"Shiselweni District","name":"Nkwene","lat":"-26.89778000","lon":"31.24972000"},
{"state":"Shiselweni District","name":"Sigwe Inkhundla","lat":"-27.05821000","lon":"31.64543000"},
{"state":"Shiselweni District","name":"Zombodze Ikhundla","lat":"-27.22746000","lon":"31.33799000"}]