[{"state":"Bahr el Gazel","name":"Moussoro","lat":"13.64143000","lon":"16.48941000"},
{"state":"Batha","name":"Ati","lat":"13.21540000","lon":"18.33530000"},
{"state":"Batha","name":"Oum Hadjer","lat":"13.29540000","lon":"19.69660000"},
{"state":"Borkou","name":"Faya-Largeau","lat":"17.92570000","lon":"19.10428000"},
{"state":"Chari-Baguirmi","name":"Baguirmi Department","lat":"11.39833333","lon":"16.16750000"},
{"state":"Chari-Baguirmi","name":"Bousso","lat":"10.48250000","lon":"16.71611111"},
{"state":"Chari-Baguirmi","name":"Chari Department","lat":"12.05000000","lon":"15.30000000"},
{"state":"Chari-Baguirmi","name":"Dababa","lat":"12.38000000","lon":"17.06000000"},
{"state":"Chari-Baguirmi","name":"Gaoui","lat":"12.18070000","lon":"15.14760000"},
{"state":"Chari-Baguirmi","name":"Linia","lat":"12.05000000","lon":"15.30000000"},
{"state":"Chari-Baguirmi","name":"Mandjafa","lat":"11.19861111","lon":"15.36111111"},
{"state":"Chari-Baguirmi","name":"Massenya","lat":"11.40277778","lon":"16.17000000"},
{"state":"Ennedi-Ouest","name":"Fada","lat":"17.18535000","lon":"21.58114000"},
{"state":"Guéra","name":"Bitkine","lat":"11.98010000","lon":"18.21380000"},
{"state":"Guéra","name":"Melfi","lat":"11.05980000","lon":"17.93550000"},
{"state":"Guéra","name":"Mongo","lat":"12.18441000","lon":"18.69303000"},
{"state":"Hadjer-Lamis","name":"Bokoro","lat":"12.37813000","lon":"17.05876000"},
{"state":"Hadjer-Lamis","name":"Massaguet","lat":"12.47554000","lon":"15.43647000"},
{"state":"Hadjer-Lamis","name":"Massakory","lat":"12.99600000","lon":"15.72927000"},
{"state":"Kanem","name":"Mao","lat":"14.12116000","lon":"15.31030000"},
{"state":"Lac","name":"Bol","lat":"13.46706000","lon":"14.71363000"},
{"state":"Logone Occidental","name":"Beïnamar","lat":"8.66980000","lon":"15.38130000"},
{"state":"Logone Occidental","name":"Benoy","lat":"8.98327000","lon":"16.31991000"},
{"state":"Logone Occidental","name":"Lac Wey","lat":"8.70502000","lon":"15.98303000"},
{"state":"Logone Occidental","name":"Moundou","lat":"8.56667000","lon":"16.08333000"},
{"state":"Logone Oriental","name":"Bébédja","lat":"8.67610000","lon":"16.56600000"},
{"state":"Logone Oriental","name":"Béboto","lat":"8.26681000","lon":"16.93898000"},
{"state":"Logone Oriental","name":"Doba","lat":"8.65000000","lon":"16.85000000"},
{"state":"Mandoul","name":"Goundi","lat":"9.36267000","lon":"17.36597000"},
{"state":"Mandoul","name":"Koumra","lat":"8.91256000","lon":"17.55392000"},
{"state":"Mandoul","name":"Moïssala","lat":"8.34040000","lon":"17.76630000"},
{"state":"Mayo-Kebbi Est","name":"Bongor","lat":"10.28056000","lon":"15.37222000"},
{"state":"Mayo-Kebbi Est","name":"Gounou Gaya","lat":"9.62940000","lon":"15.51320000"},
{"state":"Mayo-Kebbi Est","name":"Guelendeng","lat":"10.91762000","lon":"15.55011000"},
{"state":"Mayo-Kebbi Ouest","name":"Mboursou Léré","lat":"9.76390000","lon":"14.15390000"},
{"state":"Mayo-Kebbi Ouest","name":"Pala","lat":"9.36420000","lon":"14.90460000"},
{"state":"Moyen-Chari","name":"Kyabé","lat":"9.45149000","lon":"18.94493000"},
{"state":"Moyen-Chari","name":"Sarh","lat":"9.14290000","lon":"18.39230000"},
{"state":"N'Djamena","name":"N'Djamena","lat":"12.11000000","lon":"15.05000000"},
{"state":"Ouaddaï","name":"Abéché","lat":"13.82916000","lon":"20.83240000"},
{"state":"Ouaddaï","name":"Adré","lat":"13.46648000","lon":"22.19875000"},
{"state":"Ouaddaï","name":"Goz Béïda","lat":"13.94563000","lon":"20.54680000"},
{"state":"Salamat","name":"Am Timan","lat":"11.02970000","lon":"20.28270000"},
{"state":"Sila","name":"Goz Beïda","lat":"12.22484000","lon":"21.41034000"},
{"state":"Tandjilé","name":"Béré","lat":"9.32020000","lon":"16.15520000"},
{"state":"Tandjilé","name":"Kelo","lat":"9.30859000","lon":"15.80658000"},
{"state":"Tandjilé","name":"Laï","lat":"9.39720000","lon":"16.30066000"},
{"state":"Tibesti","name":"Aozou","lat":"21.83750000","lon":"17.42750000"},
{"state":"Wadi Fira","name":"Biltine","lat":"14.52791000","lon":"20.92749000"},
{"state":"Wadi Fira","name":"Iriba","lat":"15.11667000","lon":"22.25000000"}]