[{"name":"Bahr el Gazel","native":null,"cities":[{"name":"Moussoro","native":null,"lat":"13.64143000","lon":"16.48941000"}]},{"name":"Batha","native":null,"cities":[{"name":"Ati","native":null,"lat":"13.21540000","lon":"18.33530000"},{"name":"Oum Hadjer","native":null,"lat":"13.29540000","lon":"19.69660000"}]},{"name":"Borkou","native":null,"cities":[{"name":"Faya-Largeau","native":null,"lat":"17.92570000","lon":"19.10428000"}]},{"name":"Chari-Baguirmi","native":null,"cities":[{"name":"Baguirmi Department","native":null,"lat":"11.39833333","lon":"16.16750000"},{"name":"Bousso","native":null,"lat":"10.48250000","lon":"16.71611111"},{"name":"Chari Department","native":null,"lat":"12.05000000","lon":"15.30000000"},{"name":"Dababa","native":null,"lat":"12.38000000","lon":"17.06000000"},{"name":"Gaoui","native":null,"lat":"12.18070000","lon":"15.14760000"},{"name":"Linia","native":null,"lat":"12.05000000","lon":"15.30000000"},{"name":"Mandjafa","native":null,"lat":"11.19861111","lon":"15.36111111"},{"name":"Massenya","native":null,"lat":"11.40277778","lon":"16.17000000"}]},{"name":"Ennedi-Est","native":null,"cities":[]},{"name":"Ennedi-Ouest","native":null,"cities":[{"name":"Fada","native":null,"lat":"17.18535000","lon":"21.58114000"}]},{"name":"Guéra","native":null,"cities":[{"name":"Bitkine","native":null,"lat":"11.98010000","lon":"18.21380000"},{"name":"Melfi","native":null,"lat":"11.05980000","lon":"17.93550000"},{"name":"Mongo","native":null,"lat":"12.18441000","lon":"18.69303000"}]},{"name":"Hadjer-Lamis","native":null,"cities":[{"name":"Bokoro","native":null,"lat":"12.37813000","lon":"17.05876000"},{"name":"Massaguet","native":null,"lat":"12.47554000","lon":"15.43647000"},{"name":"Massakory","native":null,"lat":"12.99600000","lon":"15.72927000"}]},{"name":"Kanem","native":null,"cities":[{"name":"Mao","native":null,"lat":"14.12116000","lon":"15.31030000"}]},{"name":"Lac","native":null,"cities":[{"name":"Bol","native":null,"lat":"13.46706000","lon":"14.71363000"}]},{"name":"Logone Occidental","native":null,"cities":[{"name":"Beïnamar","native":null,"lat":"8.66980000","lon":"15.38130000"},{"name":"Benoy","native":null,"lat":"8.98327000","lon":"16.31991000"},{"name":"Lac Wey","native":null,"lat":"8.70502000","lon":"15.98303000"},{"name":"Moundou","native":null,"lat":"8.56667000","lon":"16.08333000"}]},{"name":"Logone Oriental","native":null,"cities":[{"name":"Bébédja","native":null,"lat":"8.67610000","lon":"16.56600000"},{"name":"Béboto","native":null,"lat":"8.26681000","lon":"16.93898000"},{"name":"Doba","native":null,"lat":"8.65000000","lon":"16.85000000"}]},{"name":"Mandoul","native":null,"cities":[{"name":"Goundi","native":null,"lat":"9.36267000","lon":"17.36597000"},{"name":"Koumra","native":null,"lat":"8.91256000","lon":"17.55392000"},{"name":"Moïssala","native":null,"lat":"8.34040000","lon":"17.76630000"}]},{"name":"Mayo-Kebbi Est","native":null,"cities":[{"name":"Bongor","native":null,"lat":"10.28056000","lon":"15.37222000"},{"name":"Gounou Gaya","native":null,"lat":"9.62940000","lon":"15.51320000"},{"name":"Guelendeng","native":null,"lat":"10.91762000","lon":"15.55011000"}]},{"name":"Mayo-Kebbi Ouest","native":null,"cities":[{"name":"Mboursou Léré","native":null,"lat":"9.76390000","lon":"14.15390000"},{"name":"Pala","native":null,"lat":"9.36420000","lon":"14.90460000"}]},{"name":"Moyen-Chari","native":null,"cities":[{"name":"Kyabé","native":null,"lat":"9.45149000","lon":"18.94493000"},{"name":"Sarh","native":null,"lat":"9.14290000","lon":"18.39230000"}]},{"name":"N'Djamena","native":null,"cities":[{"name":"N'Djamena","native":null,"lat":"12.11000000","lon":"15.05000000"}]},{"name":"Ouaddaï","native":null,"cities":[{"name":"Abéché","native":null,"lat":"13.82916000","lon":"20.83240000"},{"name":"Adré","native":null,"lat":"13.46648000","lon":"22.19875000"},{"name":"Goz Béïda","native":null,"lat":"13.94563000","lon":"20.54680000"}]},{"name":"Salamat","native":null,"cities":[{"name":"Am Timan","native":null,"lat":"11.02970000","lon":"20.28270000"}]},{"name":"Sila","native":null,"cities":[{"name":"Goz Beïda","native":null,"lat":"12.22484000","lon":"21.41034000"}]},{"name":"Tandjilé","native":null,"cities":[{"name":"Béré","native":null,"lat":"9.32020000","lon":"16.15520000"},{"name":"Kelo","native":null,"lat":"9.30859000","lon":"15.80658000"},{"name":"Laï","native":null,"lat":"9.39720000","lon":"16.30066000"}]},{"name":"Tibesti","native":null,"cities":[{"name":"Aozou","native":null,"lat":"21.83750000","lon":"17.42750000"}]},{"name":"Wadi Fira","native":null,"cities":[{"name":"Biltine","native":null,"lat":"14.52791000","lon":"20.92749000"},{"name":"Iriba","native":null,"lat":"15.11667000","lon":"22.25000000"}]}]