[{"state":"Centrale Region","name":"Sokodé","lat":"8.98333000","lon":"1.13333000"},
{"state":"Centrale Region","name":"Sotouboua","lat":"8.56340000","lon":"0.98399000"},
{"state":"Centrale Region","name":"Tchamba","lat":"9.03333000","lon":"1.41667000"},
{"state":"Kara Region","name":"Bafilo","lat":"9.35000000","lon":"1.26667000"},
{"state":"Kara Region","name":"Bassar","lat":"9.25025000","lon":"0.78213000"},
{"state":"Kara Region","name":"Kandé","lat":"9.95778000","lon":"1.04472000"},
{"state":"Kara Region","name":"Kara","lat":"9.55111000","lon":"1.18611000"},
{"state":"Kara Region","name":"Niamtougou","lat":"9.76806000","lon":"1.10528000"},
{"state":"Kara Region","name":"Pagouda","lat":"9.75250000","lon":"1.32778000"},
{"state":"Kara Region","name":"Préfecture de Bassar","lat":"9.25000000","lon":"0.75000000"},
{"state":"Maritime","name":"Aného","lat":"6.22798000","lon":"1.59190000"},
{"state":"Maritime","name":"Lomé","lat":"6.12874000","lon":"1.22154000"},
{"state":"Maritime","name":"Tabligbo","lat":"6.58333000","lon":"1.50000000"},
{"state":"Maritime","name":"Tsévié","lat":"6.42611000","lon":"1.21333000"},
{"state":"Maritime","name":"Vogan","lat":"6.33333000","lon":"1.53333000"},
{"state":"Plateaux Region","name":"Amlamé","lat":"7.46667000","lon":"0.90000000"},
{"state":"Plateaux Region","name":"Atakpamé","lat":"7.53333000","lon":"1.13333000"},
{"state":"Plateaux Region","name":"Badou","lat":"7.58333000","lon":"0.60000000"},
{"state":"Plateaux Region","name":"Kpalimé","lat":"6.90000000","lon":"0.63333000"},
{"state":"Plateaux Region","name":"Notsé","lat":"6.95000000","lon":"1.16667000"},
{"state":"Savanes Region","name":"Dapaong","lat":"10.86225000","lon":"0.20762000"},
{"state":"Savanes Region","name":"Sansanné-Mango","lat":"10.35917000","lon":"0.47083000"}]