[{"state":"Amnat Charoen","name":"Amnat Charoen","lat":"15.85851000","lon":"104.62883000"},
{"state":"Amnat Charoen","name":"Amphoe Chanuman","lat":"16.12553000","lon":"104.92279000"},
{"state":"Amnat Charoen","name":"Amphoe Hua Taphan","lat":"15.67594000","lon":"104.52702000"},
{"state":"Amnat Charoen","name":"Amphoe Lue Amnat","lat":"15.70781000","lon":"104.71118000"},
{"state":"Amnat Charoen","name":"Amphoe Mueang Amnat Charoen","lat":"15.87864000","lon":"104.64284000"},
{"state":"Amnat Charoen","name":"Amphoe Pathum Ratchawongsa","lat":"15.89542000","lon":"104.89611000"},
{"state":"Amnat Charoen","name":"Amphoe Phana","lat":"15.66895000","lon":"104.85675000"},
{"state":"Amnat Charoen","name":"Amphoe Senangkhanikhom","lat":"16.05130000","lon":"104.68441000"},
{"state":"Ang Thong","name":"Amphoe Chaiyo","lat":"14.67225000","lon":"100.46786000"},
{"state":"Ang Thong","name":"Amphoe Mueang Ang Thong","lat":"14.57815000","lon":"100.44393000"},
{"state":"Ang Thong","name":"Amphoe Pa Mok","lat":"14.48620000","lon":"100.45730000"},
{"state":"Ang Thong","name":"Amphoe Pho Thong","lat":"14.67344000","lon":"100.34569000"},
{"state":"Ang Thong","name":"Amphoe Sawaeng Ha","lat":"14.74635000","lon":"100.28963000"},
{"state":"Ang Thong","name":"Amphoe Wiset Chai Chan","lat":"14.54990000","lon":"100.31743000"},
{"state":"Ang Thong","name":"Ang Thong","lat":"14.58839000","lon":"100.45283000"},
{"state":"Ang Thong","name":"Ban Thai Tan","lat":"14.62161000","lon":"100.48739000"},
{"state":"Ang Thong","name":"Chaiyo","lat":"14.67639000","lon":"100.46861000"},
{"state":"Ang Thong","name":"Pho Thong","lat":"14.66731000","lon":"100.40878000"},
{"state":"Ang Thong","name":"Wiset Chaichan","lat":"14.59450000","lon":"100.33825000"},
{"state":"Bangkok","name":"Bang Bon","lat":"13.65920000","lon":"100.38801000"},
{"state":"Bangkok","name":"Bang Kapi","lat":"13.77258000","lon":"100.63847000"},
{"state":"Bangkok","name":"Bang Khae","lat":"13.71927000","lon":"100.39278000"},
{"state":"Bangkok","name":"Bang Khen","lat":"13.86901000","lon":"100.62769000"},
{"state":"Bangkok","name":"Bang Kho laen","lat":"13.70025000","lon":"100.50971000"},
{"state":"Bangkok","name":"Bang Khun thain","lat":"13.59482000","lon":"100.42694000"},
{"state":"Bangkok","name":"Bang Na","lat":"13.67252000","lon":"100.62089000"},
{"state":"Bangkok","name":"Bang Phlat","lat":"13.78668000","lon":"100.49152000"},
{"state":"Bangkok","name":"Bang Rak","lat":"13.73058000","lon":"100.52388000"},
{"state":"Bangkok","name":"Bang Sue","lat":"13.81921000","lon":"100.52790000"},
{"state":"Bangkok","name":"Bangkok","lat":"13.75398000","lon":"100.50144000"},
{"state":"Bangkok","name":"Bangkok Noi","lat":"13.76551000","lon":"100.46988000"},
{"state":"Bangkok","name":"Bangkok Yai","lat":"13.73748000","lon":"100.47428000"},
{"state":"Bangkok","name":"Bueng Kum","lat":"13.81023000","lon":"100.65140000"},
{"state":"Bangkok","name":"Chatu Chak","lat":"13.82888000","lon":"100.56374000"},
{"state":"Bangkok","name":"Chom Thong","lat":"13.68910000","lon":"100.46175000"},
{"state":"Bangkok","name":"Din Daeng","lat":"13.77728000","lon":"100.56235000"},
{"state":"Bangkok","name":"Don Mueang","lat":"13.92601000","lon":"100.59365000"},
{"state":"Bangkok","name":"Dusit","lat":"13.78235000","lon":"100.51677000"},
{"state":"Bangkok","name":"Huai Khwang","lat":"13.77060000","lon":"100.58119000"},
{"state":"Bangkok","name":"Khan Na Yao","lat":"13.82380000","lon":"100.67649000"},
{"state":"Bangkok","name":"Khlong Sam Wa","lat":"13.87633000","lon":"100.73805000"},
{"state":"Bangkok","name":"Khlong San","lat":"13.72602000","lon":"100.50071000"},
{"state":"Bangkok","name":"Khlong Toei","lat":"13.71806000","lon":"100.57065000"},
{"state":"Bangkok","name":"Lak Si","lat":"13.88210000","lon":"100.56889000"},
{"state":"Bangkok","name":"Lat Krabang","lat":"13.74500000","lon":"100.79224000"},
{"state":"Bangkok","name":"Lat Phrao","lat":"13.82779000","lon":"100.60672000"},
{"state":"Bangkok","name":"Min Buri","lat":"13.81254000","lon":"100.75334000"},
{"state":"Bangkok","name":"Nong Chok","lat":"13.85280000","lon":"100.85788000"},
{"state":"Bangkok","name":"Nong Khaem","lat":"13.69979000","lon":"100.35364000"},
{"state":"Bangkok","name":"Parthum Wan","lat":"13.74265000","lon":"100.53398000"},
{"state":"Bangkok","name":"Phasi Charoen","lat":"13.72597000","lon":"100.44103000"},
{"state":"Bangkok","name":"Phaya Thai","lat":"13.78442000","lon":"100.54306000"},
{"state":"Bangkok","name":"Phra Khanong","lat":"13.69705000","lon":"100.61234000"},
{"state":"Bangkok","name":"Phra Nakhon","lat":"13.75831000","lon":"100.49613000"},
{"state":"Bangkok","name":"Pom Prap Sattru Phai","lat":"13.75480000","lon":"100.50995000"},
{"state":"Bangkok","name":"Pra Wet","lat":"13.71735000","lon":"100.69452000"},
{"state":"Bangkok","name":"Rat Burana","lat":"13.67633000","lon":"100.49881000"},
{"state":"Bangkok","name":"Ratchathewi","lat":"13.76029000","lon":"100.53724000"},
{"state":"Bangkok","name":"Sai Mai","lat":"13.90727000","lon":"100.65181000"},
{"state":"Bangkok","name":"Samphanthawong","lat":"13.74233000","lon":"100.50765000"},
{"state":"Bangkok","name":"Saphan Sung","lat":"13.76531000","lon":"100.69001000"},
{"state":"Bangkok","name":"Sathon","lat":"13.71745000","lon":"100.52999000"},
{"state":"Bangkok","name":"Suanluang","lat":"13.72989000","lon":"100.62677000"},
{"state":"Bangkok","name":"Taling Chan","lat":"13.77271000","lon":"100.43289000"},
{"state":"Bangkok","name":"Thawi Watthana","lat":"13.77637000","lon":"100.36620000"},
{"state":"Bangkok","name":"Thon buri","lat":"13.71874000","lon":"100.48367000"},
{"state":"Bangkok","name":"Thung khru","lat":"13.63387000","lon":"100.49641000"},
{"state":"Bangkok","name":"Vadhana","lat":"13.73501000","lon":"100.58280000"},
{"state":"Bangkok","name":"Wang Thong Lang","lat":"13.78188000","lon":"100.60804000"},
{"state":"Bangkok","name":"Yan na wa","lat":"13.69177000","lon":"100.53950000"},
{"state":"Bueng Kan","name":"Amphoe Bueng Khong Long","lat":"18.00899000","lon":"104.07302000"},
{"state":"Bueng Kan","name":"Amphoe Bung Khla","lat":"18.24726000","lon":"103.99427000"},
{"state":"Bueng Kan","name":"Amphoe Mueang Bueng Kan","lat":"18.29950000","lon":"103.64016000"},
{"state":"Bueng Kan","name":"Amphoe Pak Khat","lat":"18.27738000","lon":"103.34140000"},
{"state":"Bueng Kan","name":"Amphoe Phon Charoen","lat":"18.07967000","lon":"103.65453000"},
{"state":"Bueng Kan","name":"Amphoe Seka","lat":"17.98734000","lon":"103.89616000"},
{"state":"Bueng Kan","name":"Amphoe Si Wilai","lat":"18.15528000","lon":"103.77975000"},
{"state":"Bueng Kan","name":"Amphoe So Phisai","lat":"18.14176000","lon":"103.44923000"},
{"state":"Bueng Kan","name":"Bueng Kan","lat":"18.36303000","lon":"103.65194000"},
{"state":"Bueng Kan","name":"Seka","lat":"17.92851000","lon":"103.95519000"},
{"state":"Buri Ram","name":"Amphoe Ban Dan","lat":"15.12363000","lon":"103.18937000"},
{"state":"Buri Ram","name":"Amphoe Ban Kruat","lat":"14.39205000","lon":"103.11494000"},
{"state":"Buri Ram","name":"Amphoe Ban Mai Chaiyaphot","lat":"15.57857000","lon":"102.84394000"},
{"state":"Buri Ram","name":"Amphoe Chaloem Phra Kiat","lat":"14.55725000","lon":"102.89878000"},
{"state":"Buri Ram","name":"Amphoe Chamni","lat":"14.78636000","lon":"102.85386000"},
{"state":"Buri Ram","name":"Amphoe Huai Rat","lat":"15.00896000","lon":"103.23499000"},
{"state":"Buri Ram","name":"Amphoe Khaen Dong","lat":"15.30620000","lon":"103.13286000"},
{"state":"Buri Ram","name":"Amphoe Khu Mueang","lat":"15.26844000","lon":"103.02717000"},
{"state":"Buri Ram","name":"Amphoe Krasang","lat":"14.94167000","lon":"103.31898000"},
{"state":"Buri Ram","name":"Amphoe Lahan Sai","lat":"14.32194000","lon":"102.87994000"},
{"state":"Buri Ram","name":"Amphoe Lam Plai Mat","lat":"15.01688000","lon":"102.87479000"},
{"state":"Buri Ram","name":"Amphoe Mueang Buriram","lat":"14.94078000","lon":"103.06244000"},
{"state":"Buri Ram","name":"Amphoe Na Pho","lat":"15.69565000","lon":"102.93857000"},
{"state":"Buri Ram","name":"Amphoe Nang Rong","lat":"14.63333000","lon":"102.76667000"},
{"state":"Buri Ram","name":"Amphoe Non Din Daeng","lat":"14.22010000","lon":"102.68233000"},
{"state":"Buri Ram","name":"Amphoe Non Suwan","lat":"14.55511000","lon":"102.58339000"},
{"state":"Buri Ram","name":"Amphoe Nong Hong","lat":"14.86149000","lon":"102.67080000"},
{"state":"Buri Ram","name":"Amphoe Nong Ki","lat":"14.72696000","lon":"102.55798000"},
{"state":"Buri Ram","name":"Amphoe Pa Kham","lat":"14.40000000","lon":"102.66667000"},
{"state":"Buri Ram","name":"Amphoe Phlapphla Chai","lat":"14.73299000","lon":"103.17015000"},
{"state":"Buri Ram","name":"Amphoe Phutthaisong","lat":"15.53249000","lon":"102.98701000"},
{"state":"Buri Ram","name":"Amphoe Prakhon Chai","lat":"14.61041000","lon":"103.06054000"},
{"state":"Buri Ram","name":"Amphoe Satuek","lat":"15.22699000","lon":"103.33006000"},
{"state":"Buri Ram","name":"Buri Ram","lat":"14.99433000","lon":"103.10392000"},
{"state":"Buri Ram","name":"Nang Rong","lat":"14.63770000","lon":"102.79138000"},
{"state":"Buri Ram","name":"Nong Ki","lat":"14.68679000","lon":"102.53800000"},
{"state":"Buri Ram","name":"Prakhon Chai","lat":"14.60592000","lon":"103.12081000"},
{"state":"Buri Ram","name":"Satuek","lat":"15.29703000","lon":"103.29192000"},
{"state":"Chachoengsao","name":"Amphoe Ban Pho","lat":"13.61000000","lon":"101.07838000"},
{"state":"Chachoengsao","name":"Amphoe Bang Khla","lat":"13.74186000","lon":"101.20754000"},
{"state":"Chachoengsao","name":"Amphoe Bang Nam Priao","lat":"13.88034000","lon":"101.03232000"},
{"state":"Chachoengsao","name":"Amphoe Bang Pakong","lat":"13.53241000","lon":"100.96045000"},
{"state":"Chachoengsao","name":"Amphoe Khlong Khuean","lat":"13.77961000","lon":"101.15633000"},
{"state":"Chachoengsao","name":"Amphoe Mueang Chachoengsao","lat":"13.71758000","lon":"101.02152000"},
{"state":"Chachoengsao","name":"Amphoe Phanom Sarakham","lat":"13.73806000","lon":"101.41202000"},
{"state":"Chachoengsao","name":"Amphoe Plaeng Yao","lat":"13.56381000","lon":"101.33972000"},
{"state":"Chachoengsao","name":"Amphoe Ratchasan","lat":"13.78660000","lon":"101.28136000"},
{"state":"Chachoengsao","name":"Amphoe Sanam Chai Khet","lat":"13.62612000","lon":"101.65475000"},
{"state":"Chachoengsao","name":"Amphoe Tha Takiap","lat":"13.39510000","lon":"101.73457000"},
{"state":"Chachoengsao","name":"Bang Khla","lat":"13.72144000","lon":"101.20814000"},
{"state":"Chachoengsao","name":"Bang Nam Priao","lat":"13.84739000","lon":"101.05306000"},
{"state":"Chachoengsao","name":"Bang Pakong","lat":"13.54297000","lon":"100.99333000"},
{"state":"Chachoengsao","name":"Chachoengsao","lat":"13.68820000","lon":"101.07156000"},
{"state":"Chachoengsao","name":"Khlong Khuean","lat":"13.79131000","lon":"101.16353000"},
{"state":"Chachoengsao","name":"Phanom Sarakham","lat":"13.74872000","lon":"101.34888000"},
{"state":"Chai Nat","name":"Amphoe Hankha","lat":"15.05048000","lon":"99.96090000"},
{"state":"Chai Nat","name":"Amphoe Manorom","lat":"15.31894000","lon":"100.15677000"},
{"state":"Chai Nat","name":"Amphoe Mueang Chainat","lat":"15.19104000","lon":"100.13540000"},
{"state":"Chai Nat","name":"Amphoe Noen Kham","lat":"14.98254000","lon":"99.84590000"},
{"state":"Chai Nat","name":"Amphoe Nong Mamong","lat":"15.23372000","lon":"99.81087000"},
{"state":"Chai Nat","name":"Amphoe Sankhaburi","lat":"15.02105000","lon":"100.17038000"},
{"state":"Chai Nat","name":"Amphoe Sapphaya","lat":"15.14873000","lon":"100.25506000"},
{"state":"Chai Nat","name":"Amphoe Wat Sing","lat":"15.21574000","lon":"99.96680000"},
{"state":"Chai Nat","name":"Chai Nat","lat":"15.18636000","lon":"100.12353000"},
{"state":"Chaiyaphum","name":"Bamnet Narong","lat":"15.50189000","lon":"101.68982000"},
{"state":"Chaiyaphum","name":"Chaiyaphum","lat":"15.81047000","lon":"102.02881000"},
{"state":"Chaiyaphum","name":"Kaeng Khro","lat":"16.10861111","lon":"102.25805556"},
{"state":"Chaiyaphum","name":"Kaset Sombun","lat":"16.28053000","lon":"101.95422000"},
{"state":"Chaiyaphum","name":"Nakhon Nayok","lat":"14.20305600","lon":"101.21500000"},
{"state":"Chaiyaphum","name":"Phu Khiao","lat":"16.37650000","lon":"102.12853000"},
{"state":"Chanthaburi","name":"Amphoe Kaeng Hang Maeo","lat":"13.09690000","lon":"101.88543000"},
{"state":"Chanthaburi","name":"Amphoe Khao Khitchakut","lat":"12.93726000","lon":"102.09762000"},
{"state":"Chanthaburi","name":"Amphoe Khlung","lat":"12.57246000","lon":"102.30783000"},
{"state":"Chanthaburi","name":"Amphoe Laem Sing","lat":"12.45689000","lon":"102.14262000"},
{"state":"Chanthaburi","name":"Amphoe Makham","lat":"12.73333000","lon":"102.21667000"},
{"state":"Chanthaburi","name":"Amphoe Mueang Chanthaburi","lat":"12.59542000","lon":"102.12263000"},
{"state":"Chanthaburi","name":"Amphoe Na Yai Am","lat":"12.73833000","lon":"101.87502000"},
{"state":"Chanthaburi","name":"Amphoe Pong Nam Ron","lat":"12.93467000","lon":"102.37189000"},
{"state":"Chanthaburi","name":"Amphoe Soi Dao","lat":"13.17034000","lon":"102.22796000"},
{"state":"Chanthaburi","name":"Amphoe Tha Mai","lat":"12.73848000","lon":"101.97696000"},
{"state":"Chanthaburi","name":"Chanthaburi","lat":"12.60961000","lon":"102.10447000"},
{"state":"Chanthaburi","name":"Khlung","lat":"12.45467000","lon":"102.22142000"},
{"state":"Chanthaburi","name":"Laem Sing","lat":"12.48164000","lon":"102.07375000"},
{"state":"Chanthaburi","name":"Pong Nam Ron","lat":"12.90575000","lon":"102.26225000"},
{"state":"Chanthaburi","name":"Tha Mai","lat":"12.62137000","lon":"102.00481000"},
{"state":"Chiang Mai","name":"Amphoe Chai Prakan","lat":"19.67400000","lon":"99.17478000"},
{"state":"Chiang Mai","name":"Amphoe Chiang Dao","lat":"19.51279000","lon":"98.94180000"},
{"state":"Chiang Mai","name":"Amphoe Chom Thong","lat":"18.39242000","lon":"98.59761000"},
{"state":"Chiang Mai","name":"Amphoe Doi Lo","lat":"18.53330000","lon":"98.76843000"},
{"state":"Chiang Mai","name":"Amphoe Doi Saket","lat":"18.92372000","lon":"99.21272000"},
{"state":"Chiang Mai","name":"Amphoe Doi Tao","lat":"17.89703000","lon":"98.66292000"},
{"state":"Chiang Mai","name":"Amphoe Fang","lat":"19.87550000","lon":"99.16345000"},
{"state":"Chiang Mai","name":"Amphoe Galyani Vadhana","lat":"18.94439000","lon":"98.30329000"},
{"state":"Chiang Mai","name":"Amphoe Hang Dong","lat":"18.73869000","lon":"98.88439000"},
{"state":"Chiang Mai","name":"Amphoe Hot","lat":"18.11581000","lon":"98.46377000"},
{"state":"Chiang Mai","name":"Amphoe Mae Ai","lat":"19.99136000","lon":"99.33976000"},
{"state":"Chiang Mai","name":"Amphoe Mae Chaem","lat":"18.66694000","lon":"98.32450000"},
{"state":"Chiang Mai","name":"Amphoe Mae On","lat":"18.73496000","lon":"99.30378000"},
{"state":"Chiang Mai","name":"Amphoe Mae Rim","lat":"18.94139000","lon":"98.88667000"},
{"state":"Chiang Mai","name":"Amphoe Mae Taeng","lat":"19.16667000","lon":"98.83333000"},
{"state":"Chiang Mai","name":"Amphoe Mae Wang","lat":"18.67457000","lon":"98.68714000"},
{"state":"Chiang Mai","name":"Amphoe Mueang Chiang Mai","lat":"18.79008000","lon":"98.96869000"},
{"state":"Chiang Mai","name":"Amphoe Om Koi","lat":"17.69842000","lon":"98.35433000"},
{"state":"Chiang Mai","name":"Amphoe Phrao","lat":"19.28460000","lon":"99.22277000"},
{"state":"Chiang Mai","name":"Amphoe Samoeng","lat":"18.90027000","lon":"98.65650000"},
{"state":"Chiang Mai","name":"Amphoe San Kamphaeng","lat":"18.73497000","lon":"99.18609000"},
{"state":"Chiang Mai","name":"Amphoe San Pa Tong","lat":"18.60567000","lon":"98.88531000"},
{"state":"Chiang Mai","name":"Amphoe San Sai","lat":"18.94101000","lon":"99.04048000"},
{"state":"Chiang Mai","name":"Amphoe Saraphi","lat":"18.70511000","lon":"99.02989000"},
{"state":"Chiang Mai","name":"Amphoe Wiang Haeng","lat":"19.59188000","lon":"98.65845000"},
{"state":"Chiang Mai","name":"Chai Prakan","lat":"19.73136000","lon":"99.13997000"},
{"state":"Chiang Mai","name":"Chiang Mai","lat":"18.79038000","lon":"98.98468000"},
{"state":"Chiang Mai","name":"Chom Thong","lat":"18.41742000","lon":"98.67428000"},
{"state":"Chiang Mai","name":"Fang","lat":"19.91689000","lon":"99.21450000"},
{"state":"Chiang Mai","name":"Hang Dong","lat":"18.68703000","lon":"98.91939000"},
{"state":"Chiang Mai","name":"Pai","lat":"19.36168000","lon":"98.43973000"},
{"state":"Chiang Mai","name":"San Kamphaeng","lat":"18.74486000","lon":"99.11953000"},
{"state":"Chiang Mai","name":"San Pa Tong","lat":"18.62828000","lon":"98.89572000"},
{"state":"Chiang Rai","name":"Amphoe Chiang Khong","lat":"20.13587000","lon":"100.36527000"},
{"state":"Chiang Rai","name":"Amphoe Chiang Saen","lat":"20.23572000","lon":"100.15537000"},
{"state":"Chiang Rai","name":"Amphoe Doi Luang","lat":"20.14496000","lon":"100.15712000"},
{"state":"Chiang Rai","name":"Amphoe Khun Tan","lat":"19.86481000","lon":"100.28731000"},
{"state":"Chiang Rai","name":"Amphoe Mae Chan","lat":"20.19910000","lon":"99.88468000"},
{"state":"Chiang Rai","name":"Amphoe Mae Fa Luang","lat":"20.22228000","lon":"99.64147000"},
{"state":"Chiang Rai","name":"Amphoe Mae Lao","lat":"19.77223000","lon":"99.71128000"},
{"state":"Chiang Rai","name":"Amphoe Mae Sai","lat":"20.36500000","lon":"99.92604000"},
{"state":"Chiang Rai","name":"Amphoe Mae Suai","lat":"19.69037000","lon":"99.48459000"},
{"state":"Chiang Rai","name":"Amphoe Mueang Chiang Rai","lat":"19.90824000","lon":"99.77299000"},
{"state":"Chiang Rai","name":"Amphoe Pa Daet","lat":"19.50643000","lon":"99.97615000"},
{"state":"Chiang Rai","name":"Amphoe Phan","lat":"19.57450000","lon":"99.77299000"},
{"state":"Chiang Rai","name":"Amphoe Phaya Mengrai","lat":"19.87320000","lon":"100.16257000"},
{"state":"Chiang Rai","name":"Amphoe Thoeng","lat":"19.67650000","lon":"100.20095000"},
{"state":"Chiang Rai","name":"Amphoe Wiang Chai","lat":"19.86360000","lon":"100.00065000"},
{"state":"Chiang Rai","name":"Amphoe Wiang Chiang Rung","lat":"20.02208000","lon":"100.07472000"},
{"state":"Chiang Rai","name":"Amphoe Wiang Kaen","lat":"20.00874000","lon":"100.48641000"},
{"state":"Chiang Rai","name":"Amphoe Wiang Pa Pao","lat":"19.30460000","lon":"99.44925000"},
{"state":"Chiang Rai","name":"Chiang Khong","lat":"20.26125000","lon":"100.40461000"},
{"state":"Chiang Rai","name":"Chiang Rai","lat":"19.90858000","lon":"99.83250000"},
{"state":"Chiang Rai","name":"Chiang Saen","lat":"20.27511000","lon":"100.08689000"},
{"state":"Chiang Rai","name":"Mae Chan","lat":"20.14675000","lon":"99.85256000"},
{"state":"Chiang Rai","name":"Mae Sai","lat":"20.43353000","lon":"99.87617000"},
{"state":"Chiang Rai","name":"Pa Daet","lat":"19.50489000","lon":"99.99241000"},
{"state":"Chon Buri","name":"Amphoe Ban Bueng","lat":"13.25280000","lon":"101.18151000"},
{"state":"Chon Buri","name":"Amphoe Bo Thong","lat":"13.24227000","lon":"101.50864000"},
{"state":"Chon Buri","name":"Amphoe Ko Chan","lat":"13.40253000","lon":"101.38800000"},
{"state":"Chon Buri","name":"Amphoe Ko Si Chang","lat":"13.15286000","lon":"100.81156000"},
{"state":"Chon Buri","name":"Amphoe Nong Yai","lat":"13.11772000","lon":"101.37471000"},
{"state":"Chon Buri","name":"Amphoe Phan Thong","lat":"13.46300000","lon":"101.09131000"},
{"state":"Chon Buri","name":"Amphoe Phanat Nikhom","lat":"13.46434000","lon":"101.21428000"},
{"state":"Chon Buri","name":"Amphoe Sattahip","lat":"12.71743000","lon":"100.92754000"},
{"state":"Chon Buri","name":"Amphoe Si Racha","lat":"13.12976000","lon":"101.04008000"},
{"state":"Chon Buri","name":"Ban Bueng","lat":"13.31100000","lon":"101.11214000"},
{"state":"Chon Buri","name":"Ban Ko Lan","lat":"12.92419000","lon":"100.78794000"},
{"state":"Chon Buri","name":"Ban Talat Bueng","lat":"13.07147000","lon":"101.00314000"},
{"state":"Chon Buri","name":"Bang Lamung","lat":"13.04704000","lon":"100.92891000"},
{"state":"Chon Buri","name":"Bang Lamung District","lat":"12.92579000","lon":"100.89243000"},
{"state":"Chon Buri","name":"Chon Buri","lat":"13.36220000","lon":"100.98345000"},
{"state":"Chon Buri","name":"Ko Si Chang","lat":"13.16389000","lon":"100.80547000"},
{"state":"Chon Buri","name":"Mueang Chonburi District","lat":"13.34271000","lon":"101.00111000"},
{"state":"Chon Buri","name":"Pattaya","lat":"12.93333000","lon":"100.88333000"},
{"state":"Chon Buri","name":"Phan Thong","lat":"13.46804000","lon":"101.09532000"},
{"state":"Chon Buri","name":"Phanat Nikhom","lat":"13.44581000","lon":"101.18445000"},
{"state":"Chon Buri","name":"Sattahip","lat":"12.66644000","lon":"100.90073000"},
{"state":"Chon Buri","name":"Si Racha","lat":"13.17372000","lon":"100.93111000"},
{"state":"Chumphon","name":"Amphoe Lamae","lat":"9.75567000","lon":"99.04378000"},
{"state":"Chumphon","name":"Amphoe Lang Suan","lat":"9.93386000","lon":"99.05292000"},
{"state":"Chumphon","name":"Amphoe Mueang Chumphon","lat":"10.46077000","lon":"99.10608000"},
{"state":"Chumphon","name":"Amphoe Pathio","lat":"10.81008000","lon":"99.33938000"},
{"state":"Chumphon","name":"Amphoe Phato","lat":"9.81066000","lon":"98.80178000"},
{"state":"Chumphon","name":"Amphoe Sawi","lat":"10.24008000","lon":"99.01865000"},
{"state":"Chumphon","name":"Amphoe Tha Sae","lat":"10.76864000","lon":"99.09878000"},
{"state":"Chumphon","name":"Amphoe Thung Tako","lat":"10.09223000","lon":"99.05337000"},
{"state":"Chumphon","name":"Ban Nam Yuen","lat":"9.87686000","lon":"98.86592000"},
{"state":"Chumphon","name":"Chumphon","lat":"10.49570000","lon":"99.17971000"},
{"state":"Chumphon","name":"Lang Suan","lat":"9.94561000","lon":"99.07847000"},
{"state":"Kalasin","name":"Amphoe Don Chan","lat":"16.46667000","lon":"103.71667000"},
{"state":"Kalasin","name":"Amphoe Huai Mek","lat":"16.58868000","lon":"103.24098000"},
{"state":"Kalasin","name":"Amphoe Huai Phueng","lat":"16.66972000","lon":"103.87997000"},
{"state":"Kalasin","name":"Amphoe Kamalasai","lat":"16.27999000","lon":"103.60010000"},
{"state":"Kalasin","name":"Amphoe Kham Muang","lat":"16.93884000","lon":"103.63980000"},
{"state":"Kalasin","name":"Amphoe Khao Wong","lat":"16.67959000","lon":"104.10030000"},
{"state":"Kalasin","name":"Amphoe Khong Chai","lat":"16.25845000","lon":"103.48167000"},
{"state":"Kalasin","name":"Amphoe Kuchinarai","lat":"16.51977000","lon":"104.05097000"},
{"state":"Kalasin","name":"Amphoe Mueang Kalasin","lat":"16.50918000","lon":"103.54984000"},
{"state":"Kalasin","name":"Amphoe Na Khu","lat":"16.75018000","lon":"104.00062000"},
{"state":"Kalasin","name":"Amphoe Na Mon","lat":"16.56994000","lon":"103.78015000"},
{"state":"Kalasin","name":"Amphoe Nong Kung Si","lat":"16.71932000","lon":"103.31922000"},
{"state":"Kalasin","name":"Amphoe Rong Kham","lat":"16.27925000","lon":"103.71238000"},
{"state":"Kalasin","name":"Amphoe Sahatsakhan","lat":"16.70987000","lon":"103.57909000"},
{"state":"Kalasin","name":"Amphoe Sam Chai","lat":"16.86909000","lon":"103.52243000"},
{"state":"Kalasin","name":"Amphoe Somdet","lat":"16.76973000","lon":"103.75012000"},
{"state":"Kalasin","name":"Amphoe Tha Khantho","lat":"16.88333000","lon":"103.25000000"},
{"state":"Kalasin","name":"Amphoe Yang Talat","lat":"16.43961000","lon":"103.34085000"},
{"state":"Kalasin","name":"Huai Mek","lat":"16.58975000","lon":"103.23547000"},
{"state":"Kalasin","name":"Kalasin","lat":"16.43281000","lon":"103.50658000"},
{"state":"Kalasin","name":"Kamalasai","lat":"16.33839000","lon":"103.57564000"},
{"state":"Kalasin","name":"Khao Wong","lat":"16.70008000","lon":"104.09019000"},
{"state":"Kalasin","name":"Kuchinarai","lat":"16.54100000","lon":"104.05004000"},
{"state":"Kalasin","name":"Nong Kung Si","lat":"16.65000000","lon":"103.30000000"},
{"state":"Kalasin","name":"Yang Talat","lat":"16.39982000","lon":"103.36785000"},
{"state":"Kamphaeng Phet","name":"Amphoe Bueng Samakkhi","lat":"16.21262000","lon":"99.96720000"},
{"state":"Kamphaeng Phet","name":"Amphoe Khanu Woralaksaburi","lat":"16.00233000","lon":"99.67618000"},
{"state":"Kamphaeng Phet","name":"Amphoe Khlong Khlung","lat":"16.22191000","lon":"99.67654000"},
{"state":"Kamphaeng Phet","name":"Amphoe Khlong Lan","lat":"16.25992000","lon":"99.21806000"},
{"state":"Kamphaeng Phet","name":"Amphoe Kosamphi Nakhon","lat":"16.60702000","lon":"99.34795000"},
{"state":"Kamphaeng Phet","name":"Amphoe Lan Krabue","lat":"16.60348000","lon":"99.86521000"},
{"state":"Kamphaeng Phet","name":"Amphoe Mueang Kamphaeng Phet","lat":"16.43254000","lon":"99.48831000"},
{"state":"Kamphaeng Phet","name":"Amphoe Pang Sila Thong","lat":"16.02525000","lon":"99.35593000"},
{"state":"Kamphaeng Phet","name":"Amphoe Phran Kratai","lat":"16.70541000","lon":"99.53704000"},
{"state":"Kamphaeng Phet","name":"Amphoe Sai Ngam","lat":"16.43956000","lon":"99.87457000"},
{"state":"Kamphaeng Phet","name":"Amphoe Sai Thong Watthana","lat":"16.30859000","lon":"99.87854000"},
{"state":"Kamphaeng Phet","name":"Kamphaeng Phet","lat":"16.48344000","lon":"99.52153000"},
{"state":"Kamphaeng Phet","name":"Khanu Woralaksaburi","lat":"16.06170000","lon":"99.86058000"},
{"state":"Kamphaeng Phet","name":"Lan Krabue","lat":"16.60003000","lon":"99.84889000"},
{"state":"Kanchanaburi","name":"Amphoe Bo Phloi","lat":"14.38723000","lon":"99.44990000"},
{"state":"Kanchanaburi","name":"Amphoe Dan Makham Tia","lat":"13.83422000","lon":"99.34125000"},
{"state":"Kanchanaburi","name":"Amphoe Huai Krachao","lat":"14.34056000","lon":"99.67633000"},
{"state":"Kanchanaburi","name":"Amphoe Lao Khwan","lat":"14.59488000","lon":"99.68338000"},
{"state":"Kanchanaburi","name":"Amphoe Mueang Kanchanaburi","lat":"14.06987000","lon":"99.32769000"},
{"state":"Kanchanaburi","name":"Amphoe Nong Prue","lat":"14.67801000","lon":"99.41075000"},
{"state":"Kanchanaburi","name":"Amphoe Phanom Thuan","lat":"14.15941000","lon":"99.66904000"},
{"state":"Kanchanaburi","name":"Amphoe Sai Yok","lat":"14.25652000","lon":"98.93372000"},
{"state":"Kanchanaburi","name":"Amphoe Sangkhla Buri","lat":"15.19337000","lon":"98.52791000"},
{"state":"Kanchanaburi","name":"Amphoe Si Sawat","lat":"14.67254000","lon":"99.12992000"},
{"state":"Kanchanaburi","name":"Amphoe Tha Maka","lat":"13.94665000","lon":"99.77900000"},
{"state":"Kanchanaburi","name":"Amphoe Tha Muang","lat":"13.90947000","lon":"99.61540000"},
{"state":"Kanchanaburi","name":"Amphoe Thong Pha Phum","lat":"14.83277000","lon":"98.69233000"},
{"state":"Kanchanaburi","name":"Bo Phloi","lat":"14.32517000","lon":"99.51467000"},
{"state":"Kanchanaburi","name":"Kanchanaburi","lat":"14.00412000","lon":"99.54832000"},
{"state":"Kanchanaburi","name":"Phanom Thuan","lat":"14.13031000","lon":"99.69858000"},
{"state":"Kanchanaburi","name":"Sangkhla Buri","lat":"15.15553000","lon":"98.45361000"},
{"state":"Kanchanaburi","name":"Tha Maka","lat":"13.90000000","lon":"99.76667000"},
{"state":"Kanchanaburi","name":"Tha Muang","lat":"13.96118000","lon":"99.64122000"},
{"state":"Khon Kaen","name":"Amphoe Ban Fang","lat":"16.49162000","lon":"102.61669000"},
{"state":"Khon Kaen","name":"Amphoe Ban Haet","lat":"16.20067000","lon":"102.77465000"},
{"state":"Khon Kaen","name":"Amphoe Ban Phai","lat":"16.04603000","lon":"102.77755000"},
{"state":"Khon Kaen","name":"Amphoe Chonnabot","lat":"16.02249000","lon":"102.55946000"},
{"state":"Khon Kaen","name":"Amphoe Chum Phae","lat":"16.61591000","lon":"102.09619000"},
{"state":"Khon Kaen","name":"Amphoe Khao Suan Kwang","lat":"16.91682000","lon":"102.78206000"},
{"state":"Khon Kaen","name":"Amphoe Khok Pho Chai","lat":"16.07194000","lon":"102.38428000"},
{"state":"Khon Kaen","name":"Amphoe Kranuan","lat":"16.75261000","lon":"103.08044000"},
{"state":"Khon Kaen","name":"Amphoe Mancha Khiri","lat":"16.21242000","lon":"102.51973000"},
{"state":"Khon Kaen","name":"Amphoe Mueang Khon Kaen","lat":"16.46048000","lon":"102.80873000"},
{"state":"Khon Kaen","name":"Amphoe Nam Phong","lat":"16.69946000","lon":"102.88125000"},
{"state":"Khon Kaen","name":"Amphoe Non Sila","lat":"15.96420000","lon":"102.69074000"},
{"state":"Khon Kaen","name":"Amphoe Nong Na Kham","lat":"16.81010000","lon":"102.32800000"},
{"state":"Khon Kaen","name":"Amphoe Nong Ruea","lat":"16.49166000","lon":"102.44572000"},
{"state":"Khon Kaen","name":"Amphoe Nong Song Hong","lat":"15.76419000","lon":"102.79174000"},
{"state":"Khon Kaen","name":"Amphoe Phon","lat":"15.80672000","lon":"102.59111000"},
{"state":"Khon Kaen","name":"Amphoe Phra Yuen","lat":"16.30823000","lon":"102.67108000"},
{"state":"Khon Kaen","name":"Amphoe Phu Pha Man","lat":"16.71864000","lon":"101.87081000"},
{"state":"Khon Kaen","name":"Amphoe Phu Wiang","lat":"16.67910000","lon":"102.39893000"},
{"state":"Khon Kaen","name":"Amphoe Pueai Noi","lat":"15.88867000","lon":"102.87618000"},
{"state":"Khon Kaen","name":"Amphoe Sam Sung","lat":"16.56208000","lon":"103.05473000"},
{"state":"Khon Kaen","name":"Amphoe Si Chom Phu","lat":"16.76258000","lon":"102.13078000"},
{"state":"Khon Kaen","name":"Amphoe Ubolratana","lat":"16.77766000","lon":"102.67536000"},
{"state":"Khon Kaen","name":"Amphoe Waeng Noi","lat":"15.80631000","lon":"102.42358000"},
{"state":"Khon Kaen","name":"Amphoe Waeng Yai","lat":"15.92532000","lon":"102.46221000"},
{"state":"Khon Kaen","name":"Amphoe Wiang Kao","lat":"16.70138000","lon":"102.29186000"},
{"state":"Khon Kaen","name":"Ban Phai","lat":"16.05997000","lon":"102.73097000"},
{"state":"Khon Kaen","name":"Chum Phae","lat":"16.54430000","lon":"102.09924000"},
{"state":"Khon Kaen","name":"Khon Kaen","lat":"16.44671000","lon":"102.83300000"},
{"state":"Khon Kaen","name":"Kranuan","lat":"16.70672000","lon":"103.07878000"},
{"state":"Khon Kaen","name":"Phon","lat":"15.81600000","lon":"102.59981000"},
{"state":"Khon Kaen","name":"Pueai Noi","lat":"15.86978000","lon":"102.90767000"},
{"state":"Krabi","name":"Amphoe Ao Luek","lat":"8.38526000","lon":"98.75378000"},
{"state":"Krabi","name":"Amphoe Khao Phanom","lat":"8.26953000","lon":"99.11813000"},
{"state":"Krabi","name":"Amphoe Khlong Thom","lat":"7.91470000","lon":"99.19935000"},
{"state":"Krabi","name":"Amphoe Ko Lanta","lat":"7.71267000","lon":"99.07813000"},
{"state":"Krabi","name":"Amphoe Lam Thap","lat":"8.04799000","lon":"99.33543000"},
{"state":"Krabi","name":"Amphoe Mueang Krabi","lat":"8.15947000","lon":"98.86661000"},
{"state":"Krabi","name":"Amphoe Nuea Khlong","lat":"8.06058000","lon":"99.04039000"},
{"state":"Krabi","name":"Amphoe Plai Phraya","lat":"8.54087000","lon":"98.83671000"},
{"state":"Krabi","name":"Ao Luek","lat":"8.37803000","lon":"98.72117000"},
{"state":"Krabi","name":"Ko Lanta","lat":"7.53362000","lon":"99.08647000"},
{"state":"Krabi","name":"Krabi","lat":"8.07257000","lon":"98.91052000"},
{"state":"Krabi","name":"Nuea Khlong","lat":"8.07143000","lon":"98.99933000"},
{"state":"Krabi","name":"Saladan","lat":"7.61342000","lon":"99.03651000"},
{"state":"Lampang","name":"Amphoe Chae Hom","lat":"18.75404000","lon":"99.66822000"},
{"state":"Lampang","name":"Amphoe Hang Chat","lat":"18.35497000","lon":"99.27978000"},
{"state":"Lampang","name":"Amphoe Ko Kha","lat":"18.14408000","lon":"99.35229000"},
{"state":"Lampang","name":"Amphoe Mae Mo","lat":"18.40244000","lon":"99.82135000"},
{"state":"Lampang","name":"Amphoe Mae Phrik","lat":"17.50450000","lon":"99.05847000"},
{"state":"Lampang","name":"Amphoe Mae Tha","lat":"18.11122000","lon":"99.57826000"},
{"state":"Lampang","name":"Amphoe Mueang Lampang","lat":"18.38901000","lon":"99.54388000"},
{"state":"Lampang","name":"Amphoe Mueang Pan","lat":"18.79093000","lon":"99.45408000"},
{"state":"Lampang","name":"Amphoe Ngao","lat":"18.75948000","lon":"99.95295000"},
{"state":"Lampang","name":"Amphoe Soem Ngam","lat":"18.09406000","lon":"99.17297000"},
{"state":"Lampang","name":"Amphoe Sop Prap","lat":"17.89861000","lon":"99.34081000"},
{"state":"Lampang","name":"Amphoe Thoen","lat":"17.58128000","lon":"99.28836000"},
{"state":"Lampang","name":"Amphoe Wang Nuea","lat":"19.16011000","lon":"99.64767000"},
{"state":"Lampang","name":"Lampang","lat":"18.29232000","lon":"99.49277000"},
{"state":"Lampang","name":"Thoen","lat":"17.61289000","lon":"99.21612000"},
{"state":"Lampang","name":"Wang Nuea","lat":"19.14678000","lon":"99.61933000"},
{"state":"Lamphun","name":"Amphoe Ban Hong","lat":"18.27422000","lon":"98.83794000"},
{"state":"Lamphun","name":"Amphoe Ban Thi","lat":"18.65894000","lon":"99.15883000"},
{"state":"Lamphun","name":"Amphoe Li","lat":"17.78639000","lon":"98.88674000"},
{"state":"Lamphun","name":"Amphoe Mae Tha","lat":"18.39540000","lon":"99.09233000"},
{"state":"Lamphun","name":"Amphoe Mueang Lamphun","lat":"18.55217000","lon":"99.05905000"},
{"state":"Lamphun","name":"Amphoe Pa Sang","lat":"18.41397000","lon":"98.88281000"},
{"state":"Lamphun","name":"Amphoe Thung Hua Chang","lat":"17.98333000","lon":"99.05000000"},
{"state":"Lamphun","name":"Amphoe Wiang Nong Long","lat":"18.41844000","lon":"98.75856000"},
{"state":"Lamphun","name":"Lamphun","lat":"18.58054000","lon":"99.00745000"},
{"state":"Lamphun","name":"Mae Tha","lat":"18.46456000","lon":"99.14026000"},
{"state":"Lamphun","name":"Pa Sang","lat":"18.52617000","lon":"98.93936000"},
{"state":"Loei","name":"Amphoe Chiang Khan","lat":"17.82441000","lon":"101.73424000"},
{"state":"Loei","name":"Amphoe Dan Sai","lat":"17.22101000","lon":"101.22373000"},
{"state":"Loei","name":"Amphoe Erawan","lat":"17.28823000","lon":"101.97443000"},
{"state":"Loei","name":"Amphoe Mueang Loei","lat":"17.54211000","lon":"101.71932000"},
{"state":"Loei","name":"Amphoe Na Duang","lat":"17.53833000","lon":"101.99639000"},
{"state":"Loei","name":"Amphoe Na Haeo","lat":"17.43942000","lon":"100.99654000"},
{"state":"Loei","name":"Amphoe Nong Hin","lat":"17.08087000","lon":"101.82643000"},
{"state":"Loei","name":"Amphoe Pak Chom","lat":"17.91100000","lon":"101.95777000"},
{"state":"Loei","name":"Amphoe Pha Khao","lat":"17.05638000","lon":"102.01575000"},
{"state":"Loei","name":"Amphoe Phu Kradueng","lat":"16.90190000","lon":"101.84562000"},
{"state":"Loei","name":"Amphoe Phu Luang","lat":"17.09782000","lon":"101.64413000"},
{"state":"Loei","name":"Amphoe Phu Ruea","lat":"17.35076000","lon":"101.41329000"},
{"state":"Loei","name":"Amphoe Tha Li","lat":"17.61279000","lon":"101.44141000"},
{"state":"Loei","name":"Amphoe Wang Saphung","lat":"17.28028000","lon":"101.73342000"},
{"state":"Loei","name":"Loei","lat":"17.49052000","lon":"101.72749000"},
{"state":"Loei","name":"Phu Kradueng","lat":"16.88425000","lon":"101.88467000"},
{"state":"Loei","name":"Wang Saphung","lat":"17.30097000","lon":"101.76850000"},
{"state":"Lop Buri","name":"Amphoe Ban Mi","lat":"15.06154000","lon":"100.55200000"},
{"state":"Lop Buri","name":"Amphoe Chai Badan","lat":"15.18944000","lon":"101.12682000"},
{"state":"Lop Buri","name":"Amphoe Khok Charoen","lat":"15.40384000","lon":"100.84968000"},
{"state":"Lop Buri","name":"Amphoe Khok Samrong","lat":"15.04303000","lon":"100.77151000"},
{"state":"Lop Buri","name":"Amphoe Lam Sonthi","lat":"15.32833000","lon":"101.34783000"},
{"state":"Lop Buri","name":"Amphoe Nong Muang","lat":"15.27740000","lon":"100.70413000"},
{"state":"Lop Buri","name":"Amphoe Phatthana Nikhom","lat":"14.90917000","lon":"101.02673000"},
{"state":"Lop Buri","name":"Amphoe Sa Bot","lat":"15.23832000","lon":"100.88318000"},
{"state":"Lop Buri","name":"Amphoe Tha Luang","lat":"15.04786000","lon":"101.19986000"},
{"state":"Lop Buri","name":"Amphoe Tha Wung","lat":"14.82506000","lon":"100.50921000"},
{"state":"Lop Buri","name":"Chai Badan","lat":"15.20000000","lon":"101.13333000"},
{"state":"Lop Buri","name":"Lop Buri","lat":"14.79808000","lon":"100.65397000"},
{"state":"Lop Buri","name":"Muang Lop Buri District","lat":"14.82334000","lon":"100.67557000"},
{"state":"Mae Hong Son","name":"Amphoe Khun Yuam","lat":"18.82643000","lon":"97.93303000"},
{"state":"Mae Hong Son","name":"Amphoe Mae La Noi","lat":"18.47823000","lon":"97.98295000"},
{"state":"Mae Hong Son","name":"Amphoe Mae Sariang","lat":"18.26474000","lon":"97.77057000"},
{"state":"Mae Hong Son","name":"Amphoe Mueang Mae Hong Son","lat":"19.28862000","lon":"98.00607000"},
{"state":"Mae Hong Son","name":"Amphoe Pai","lat":"19.36036000","lon":"98.40638000"},
{"state":"Mae Hong Son","name":"Amphoe Pang Mapha","lat":"19.60451000","lon":"98.20560000"},
{"state":"Mae Hong Son","name":"Amphoe Sop Moei","lat":"17.96333000","lon":"97.93149000"},
{"state":"Mae Hong Son","name":"Mae Hong Son","lat":"19.30029000","lon":"97.96852000"},
{"state":"Maha Sarakham","name":"Amphoe Borabue","lat":"15.98881000","lon":"103.12521000"},
{"state":"Maha Sarakham","name":"Amphoe Chiang Yuen","lat":"16.40942000","lon":"103.07005000"},
{"state":"Maha Sarakham","name":"Amphoe Chuen Chom","lat":"16.54801000","lon":"103.14796000"},
{"state":"Maha Sarakham","name":"Amphoe Kae Dam","lat":"16.04961000","lon":"103.38953000"},
{"state":"Maha Sarakham","name":"Amphoe Kantharawichai","lat":"16.27992000","lon":"103.25892000"},
{"state":"Maha Sarakham","name":"Amphoe Kosum Phisai","lat":"16.23882000","lon":"102.99081000"},
{"state":"Maha Sarakham","name":"Amphoe Kut Rang","lat":"16.02970000","lon":"102.95059000"},
{"state":"Maha Sarakham","name":"Amphoe Mueang Maha Sarakham","lat":"16.11882000","lon":"103.31160000"},
{"state":"Maha Sarakham","name":"Amphoe Na Chueak","lat":"15.80180000","lon":"103.05725000"},
{"state":"Maha Sarakham","name":"Amphoe Na Dun","lat":"15.71952000","lon":"103.23004000"},
{"state":"Maha Sarakham","name":"Amphoe Phayakkhaphum Phisai","lat":"15.51963000","lon":"103.23268000"},
{"state":"Maha Sarakham","name":"Amphoe Wapi Pathum","lat":"15.85953000","lon":"103.34091000"},
{"state":"Maha Sarakham","name":"Amphoe Yang Si Surat","lat":"15.64953000","lon":"103.08916000"},
{"state":"Maha Sarakham","name":"Kosum Phisai","lat":"16.24858000","lon":"103.06739000"},
{"state":"Maha Sarakham","name":"Maha Sarakham","lat":"16.18483000","lon":"103.30067000"},
{"state":"Maha Sarakham","name":"Phayakkhaphum Phisai","lat":"15.51631000","lon":"103.19367000"},
{"state":"Maha Sarakham","name":"Wapi Pathum","lat":"15.84523000","lon":"103.37678000"},
{"state":"Mukdahan","name":"Amphoe Don Tan","lat":"16.28796000","lon":"104.82231000"},
{"state":"Mukdahan","name":"Amphoe Dong Luang","lat":"16.79649000","lon":"104.35562000"},
{"state":"Mukdahan","name":"Amphoe Khamcha-i","lat":"16.61452000","lon":"104.35929000"},
{"state":"Mukdahan","name":"Amphoe Mueang Mukdahan","lat":"16.55110000","lon":"104.64605000"},
{"state":"Mukdahan","name":"Amphoe Nikhom Kham Soi","lat":"16.35375000","lon":"104.55864000"},
{"state":"Mukdahan","name":"Amphoe Nong Sung","lat":"16.44759000","lon":"104.33649000"},
{"state":"Mukdahan","name":"Amphoe Wan Yai","lat":"16.72030000","lon":"104.72865000"},
{"state":"Mukdahan","name":"Mukdahan","lat":"16.54531000","lon":"104.72351000"},
{"state":"Nakhon Nayok","name":"Amphoe Ban Na","lat":"14.26799000","lon":"101.06445000"},
{"state":"Nakhon Nayok","name":"Amphoe Mueang Nakhon Nayok","lat":"14.27730000","lon":"101.23379000"},
{"state":"Nakhon Nayok","name":"Amphoe Ongkharak","lat":"14.07554000","lon":"101.00891000"},
{"state":"Nakhon Nayok","name":"Amphoe Pak Phli","lat":"14.22499000","lon":"101.34482000"},
{"state":"Nakhon Nayok","name":"Nakhon Nayok","lat":"14.20463000","lon":"101.21295000"},
{"state":"Nakhon Pathom","name":"Amphoe Bang Len","lat":"14.05000000","lon":"100.18333000"},
{"state":"Nakhon Pathom","name":"Amphoe Don Tum","lat":"13.94499000","lon":"100.09003000"},
{"state":"Nakhon Pathom","name":"Amphoe Mueang Nakhon Pathom","lat":"13.81944000","lon":"100.02375000"},
{"state":"Nakhon Pathom","name":"Amphoe Nakhon Chai Si","lat":"13.81173000","lon":"100.18157000"},
{"state":"Nakhon Pathom","name":"Amphoe Phutthamonthon","lat":"13.82559000","lon":"100.29239000"},
{"state":"Nakhon Pathom","name":"Amphoe Sam Phran","lat":"13.72035000","lon":"100.21071000"},
{"state":"Nakhon Pathom","name":"Bang Len","lat":"14.02188000","lon":"100.17183000"},
{"state":"Nakhon Pathom","name":"Kamphaeng Saen District","lat":"14.02823000","lon":"99.96152000"},
{"state":"Nakhon Pathom","name":"Nakhon Pathom","lat":"13.81960000","lon":"100.04427000"},
{"state":"Nakhon Pathom","name":"Sam Phran","lat":"13.72698000","lon":"100.21526000"},
{"state":"Nakhon Phanom","name":"Amphoe Ban Phaeng","lat":"17.86955000","lon":"104.22744000"},
{"state":"Nakhon Phanom","name":"Amphoe Mueang Nakhon Phanom","lat":"17.31965000","lon":"104.68232000"},
{"state":"Nakhon Phanom","name":"Amphoe Na Kae","lat":"16.95737000","lon":"104.49349000"},
{"state":"Nakhon Phanom","name":"Amphoe Na Thom","lat":"17.82134000","lon":"104.10871000"},
{"state":"Nakhon Phanom","name":"Amphoe Na Wa","lat":"17.49922000","lon":"104.11833000"},
{"state":"Nakhon Phanom","name":"Amphoe Phon Sawan","lat":"17.46868000","lon":"104.42234000"},
{"state":"Nakhon Phanom","name":"Amphoe Pla Pak","lat":"17.20133000","lon":"104.54674000"},
{"state":"Nakhon Phanom","name":"Amphoe Renu Nakhon","lat":"17.05080000","lon":"104.65664000"},
{"state":"Nakhon Phanom","name":"Amphoe Si Songkhram","lat":"17.62989000","lon":"104.24495000"},
{"state":"Nakhon Phanom","name":"Amphoe Tha Uthen","lat":"17.59263000","lon":"104.49884000"},
{"state":"Nakhon Phanom","name":"Amphoe That Phanom","lat":"16.96457000","lon":"104.70277000"},
{"state":"Nakhon Phanom","name":"Amphoe Wangyang","lat":"17.07189000","lon":"104.45373000"},
{"state":"Nakhon Phanom","name":"Na Wa","lat":"17.48970000","lon":"104.10056000"},
{"state":"Nakhon Phanom","name":"Nakhon Phanom","lat":"17.41081000","lon":"104.77856000"},
{"state":"Nakhon Phanom","name":"That Phanom","lat":"16.93636000","lon":"104.71039000"},
{"state":"Nakhon Ratchasima","name":"Amphoe Ban Lueam","lat":"15.57431000","lon":"102.14204000"},
{"state":"Nakhon Ratchasima","name":"Amphoe Bua Lai","lat":"15.66917000","lon":"102.51761000"},
{"state":"Nakhon Ratchasima","name":"Amphoe Bua Yai","lat":"15.58488000","lon":"102.38738000"},
{"state":"Nakhon Ratchasima","name":"Amphoe Chakkarat","lat":"14.95686000","lon":"102.43718000"},
{"state":"Nakhon Ratchasima","name":"Amphoe Chaloem Phra Kiat","lat":"14.97540000","lon":"102.29372000"},
{"state":"Nakhon Ratchasima","name":"Amphoe Chok Chai","lat":"14.76341000","lon":"102.20338000"},
{"state":"Nakhon Ratchasima","name":"Amphoe Chum Phuang","lat":"15.25990000","lon":"102.75756000"},
{"state":"Nakhon Ratchasima","name":"Amphoe Dan Khun Thot","lat":"15.21835000","lon":"101.69790000"},
{"state":"Nakhon Ratchasima","name":"Amphoe Huai Thalaeng","lat":"15.04244000","lon":"102.63535000"},
{"state":"Nakhon Ratchasima","name":"Amphoe Kaeng Sanam Nang","lat":"15.69561000","lon":"102.25366000"},
{"state":"Nakhon Ratchasima","name":"Amphoe Kham Sakae Saeng","lat":"15.38042000","lon":"102.16636000"},
{"state":"Nakhon Ratchasima","name":"Amphoe Kham Thale So","lat":"15.03639000","lon":"101.93170000"},
{"state":"Nakhon Ratchasima","name":"Amphoe Khon Buri","lat":"14.37634000","lon":"102.21746000"},
{"state":"Nakhon Ratchasima","name":"Amphoe Khong","lat":"15.43311000","lon":"102.29617000"},
{"state":"Nakhon Ratchasima","name":"Amphoe Lam Thamen Chai","lat":"15.28424000","lon":"102.90723000"},
{"state":"Nakhon Ratchasima","name":"Amphoe Mueang Nakhon Ratchasima","lat":"14.95678000","lon":"102.08933000"},
{"state":"Nakhon Ratchasima","name":"Amphoe Mueang Yang","lat":"15.43842000","lon":"102.89331000"},
{"state":"Nakhon Ratchasima","name":"Amphoe Non Daeng","lat":"15.44479000","lon":"102.54565000"},
{"state":"Nakhon Ratchasima","name":"Amphoe Non Sung","lat":"15.20892000","lon":"102.28400000"},
{"state":"Nakhon Ratchasima","name":"Amphoe Non Thai","lat":"15.18106000","lon":"102.03001000"},
{"state":"Nakhon Ratchasima","name":"Amphoe Nong Bun Mak","lat":"14.71295000","lon":"102.37447000"},
{"state":"Nakhon Ratchasima","name":"Amphoe Pak Chong","lat":"14.61923000","lon":"101.44814000"},
{"state":"Nakhon Ratchasima","name":"Amphoe Pak Thong Chai","lat":"14.66228000","lon":"101.94227000"},
{"state":"Nakhon Ratchasima","name":"Amphoe Phimai","lat":"15.24622000","lon":"102.54217000"},
{"state":"Nakhon Ratchasima","name":"Amphoe Phra Thong Kham","lat":"15.35114000","lon":"101.99355000"},
{"state":"Nakhon Ratchasima","name":"Amphoe Prathai","lat":"15.55911000","lon":"102.69786000"},
{"state":"Nakhon Ratchasima","name":"Amphoe Sida","lat":"15.56406000","lon":"102.55823000"},
{"state":"Nakhon Ratchasima","name":"Amphoe Sikhio","lat":"14.94275000","lon":"101.60672000"},
{"state":"Nakhon Ratchasima","name":"Amphoe Sikhiu","lat":"14.89944000","lon":"101.70833000"},
{"state":"Nakhon Ratchasima","name":"Amphoe Soeng Sang","lat":"14.34456000","lon":"102.49297000"},
{"state":"Nakhon Ratchasima","name":"Amphoe Sung Noen","lat":"14.85623000","lon":"101.83049000"},
{"state":"Nakhon Ratchasima","name":"Amphoe Thepharak","lat":"15.28639000","lon":"101.50373000"},
{"state":"Nakhon Ratchasima","name":"Amphoe Wang Nam Khiao","lat":"14.44786000","lon":"101.85533000"},
{"state":"Nakhon Ratchasima","name":"Ban Huai Thalaeng","lat":"14.98333000","lon":"102.65000000"},
{"state":"Nakhon Ratchasima","name":"Bua Yai","lat":"15.58552000","lon":"102.42587000"},
{"state":"Nakhon Ratchasima","name":"Chok Chai","lat":"14.72844000","lon":"102.16524000"},
{"state":"Nakhon Ratchasima","name":"Dan Khun Thot","lat":"15.20850000","lon":"101.77138000"},
{"state":"Nakhon Ratchasima","name":"Kham Sakae Saeng","lat":"15.33221000","lon":"102.17278000"},
{"state":"Nakhon Ratchasima","name":"Khon Buri","lat":"14.52541000","lon":"102.24591000"},
{"state":"Nakhon Ratchasima","name":"Nakhon Ratchasima","lat":"14.97066000","lon":"102.10196000"},
{"state":"Nakhon Ratchasima","name":"Non Sung","lat":"15.18014000","lon":"102.25695000"},
{"state":"Nakhon Ratchasima","name":"Non Thai","lat":"15.19580000","lon":"102.07145000"},
{"state":"Nakhon Ratchasima","name":"Pak Chong","lat":"14.70802000","lon":"101.41614000"},
{"state":"Nakhon Ratchasima","name":"Pak Thong Chai","lat":"14.72260000","lon":"102.02512000"},
{"state":"Nakhon Ratchasima","name":"Phimai","lat":"15.22324000","lon":"102.49473000"},
{"state":"Nakhon Ratchasima","name":"Soeng Sang","lat":"14.42642000","lon":"102.46058000"},
{"state":"Nakhon Ratchasima","name":"Sung Noen","lat":"14.89920000","lon":"101.82075000"},
{"state":"Nakhon Sawan","name":"Amphoe Banphot Phisai","lat":"15.99714000","lon":"99.99409000"},
{"state":"Nakhon Sawan","name":"Amphoe Chum Ta Bong","lat":"15.68311000","lon":"99.56908000"},
{"state":"Nakhon Sawan","name":"Amphoe Chumsaeng","lat":"15.84745000","lon":"100.28971000"},
{"state":"Nakhon Sawan","name":"Amphoe Kao Liao","lat":"15.88778000","lon":"100.09647000"},
{"state":"Nakhon Sawan","name":"Amphoe Krok Phra","lat":"15.58638000","lon":"100.01815000"},
{"state":"Nakhon Sawan","name":"Amphoe Lat Yao","lat":"15.77526000","lon":"99.80046000"},
{"state":"Nakhon Sawan","name":"Amphoe Mae Poen","lat":"15.70656000","lon":"99.34827000"},
{"state":"Nakhon Sawan","name":"Amphoe Mae Wong","lat":"15.83538000","lon":"99.40785000"},
{"state":"Nakhon Sawan","name":"Amphoe Mueang Nakhon Sawan","lat":"15.71991000","lon":"100.10067000"},
{"state":"Nakhon Sawan","name":"Amphoe Nong Bua","lat":"15.86591000","lon":"100.62860000"},
{"state":"Nakhon Sawan","name":"Amphoe Phai Sali","lat":"15.58723000","lon":"100.68530000"},
{"state":"Nakhon Sawan","name":"Amphoe Phayuha Khiri","lat":"15.50783000","lon":"100.21226000"},
{"state":"Nakhon Sawan","name":"Amphoe Tak Fa","lat":"15.38249000","lon":"100.46693000"},
{"state":"Nakhon Sawan","name":"Amphoe Takhli","lat":"15.25928000","lon":"100.38058000"},
{"state":"Nakhon Sawan","name":"Amphoe Tha Tako","lat":"15.65434000","lon":"100.45939000"},
{"state":"Nakhon Sawan","name":"Kao Liao","lat":"15.85053000","lon":"100.07914000"},
{"state":"Nakhon Sawan","name":"Lat Yao","lat":"15.75100000","lon":"99.78925000"},
{"state":"Nakhon Sawan","name":"Nakhon Sawan","lat":"15.70472000","lon":"100.13717000"},
{"state":"Nakhon Sawan","name":"Nong Bua","lat":"15.86458000","lon":"100.58581000"},
{"state":"Nakhon Sawan","name":"Phai Sali","lat":"15.60003000","lon":"100.64937000"},
{"state":"Nakhon Sawan","name":"Phayuha Khiri","lat":"15.45525000","lon":"100.13533000"},
{"state":"Nakhon Sawan","name":"Takhli","lat":"15.26336000","lon":"100.34378000"},
{"state":"Nakhon Si Thammarat","name":"Amphoe Bang Khan","lat":"8.01208000","lon":"99.48449000"},
{"state":"Nakhon Si Thammarat","name":"Amphoe Cha-uat","lat":"7.95645000","lon":"99.98929000"},
{"state":"Nakhon Si Thammarat","name":"Amphoe Chaloem Phra Kiat","lat":"8.18333000","lon":"100.05000000"},
{"state":"Nakhon Si Thammarat","name":"Amphoe Chang Klang","lat":"8.35697000","lon":"99.64592000"},
{"state":"Nakhon Si Thammarat","name":"Amphoe Chawang","lat":"8.46322000","lon":"99.51107000"},
{"state":"Nakhon Si Thammarat","name":"Amphoe Chian Yai","lat":"8.11719000","lon":"100.15819000"},
{"state":"Nakhon Si Thammarat","name":"Amphoe Chulabhorn","lat":"8.07591000","lon":"99.85365000"},
{"state":"Nakhon Si Thammarat","name":"Amphoe Hua Sai","lat":"8.01181000","lon":"100.24614000"},
{"state":"Nakhon Si Thammarat","name":"Amphoe Khanom","lat":"9.18317000","lon":"99.80192000"},
{"state":"Nakhon Si Thammarat","name":"Amphoe Lan Saka","lat":"8.37799000","lon":"99.78328000"},
{"state":"Nakhon Si Thammarat","name":"Amphoe Mueang Nakhon Si Thammarat","lat":"8.44013000","lon":"99.98537000"},
{"state":"Nakhon Si Thammarat","name":"Amphoe Na Bon","lat":"8.26976000","lon":"99.55694000"},
{"state":"Nakhon Si Thammarat","name":"Amphoe Nopphitam","lat":"8.75166000","lon":"99.67087000"},
{"state":"Nakhon Si Thammarat","name":"Amphoe Pak Phanang","lat":"8.30711000","lon":"100.17361000"},
{"state":"Nakhon Si Thammarat","name":"Amphoe Phipun","lat":"8.60289000","lon":"99.59528000"},
{"state":"Nakhon Si Thammarat","name":"Amphoe Phra Phrom","lat":"8.32652000","lon":"99.93240000"},
{"state":"Nakhon Si Thammarat","name":"Amphoe Phrom Khiri","lat":"8.54242000","lon":"99.79229000"},
{"state":"Nakhon Si Thammarat","name":"Amphoe Ron Phibun","lat":"8.17997000","lon":"99.89248000"},
{"state":"Nakhon Si Thammarat","name":"Amphoe Sichon","lat":"8.94981000","lon":"99.81322000"},
{"state":"Nakhon Si Thammarat","name":"Amphoe Tha Sala","lat":"8.69367000","lon":"99.88539000"},
{"state":"Nakhon Si Thammarat","name":"Amphoe Tham Phannara","lat":"8.45822000","lon":"99.37718000"},
{"state":"Nakhon Si Thammarat","name":"Amphoe Thung Song","lat":"8.11757000","lon":"99.66907000"},
{"state":"Nakhon Si Thammarat","name":"Amphoe Thung Yai","lat":"8.28708000","lon":"99.37196000"},
{"state":"Nakhon Si Thammarat","name":"Chawang","lat":"8.42614000","lon":"99.50472000"},
{"state":"Nakhon Si Thammarat","name":"Nakhon Si Thammarat","lat":"8.43333000","lon":"99.96667000"},
{"state":"Nakhon Si Thammarat","name":"Pak Phanang","lat":"8.35109000","lon":"100.20195000"},
{"state":"Nakhon Si Thammarat","name":"Ron Phibun","lat":"8.17911000","lon":"99.85425000"},
{"state":"Nakhon Si Thammarat","name":"Tham Phannara","lat":"8.42045000","lon":"99.39517000"},
{"state":"Nakhon Si Thammarat","name":"Thung Song","lat":"8.16453000","lon":"99.68039000"},
{"state":"Nan","name":"Amphoe Ban Luang","lat":"18.88375000","lon":"100.46014000"},
{"state":"Nan","name":"Amphoe Bo Kluea","lat":"19.08994000","lon":"101.18952000"},
{"state":"Nan","name":"Amphoe Chaloem Phra Kiat","lat":"19.50618000","lon":"101.14249000"},
{"state":"Nan","name":"Amphoe Chiang Klang","lat":"19.30637000","lon":"100.87878000"},
{"state":"Nan","name":"Amphoe Mae Charim","lat":"18.71336000","lon":"101.11011000"},
{"state":"Nan","name":"Amphoe Mueang Nan","lat":"18.89008000","lon":"100.67472000"},
{"state":"Nan","name":"Amphoe Na Muen","lat":"18.12524000","lon":"100.60270000"},
{"state":"Nan","name":"Amphoe Na Noi","lat":"18.30269000","lon":"100.72393000"},
{"state":"Nan","name":"Amphoe Phu Phiang","lat":"18.78030000","lon":"100.87497000"},
{"state":"Nan","name":"Amphoe Pua","lat":"19.16306000","lon":"101.02796000"},
{"state":"Nan","name":"Amphoe Santi Suk","lat":"18.91190000","lon":"101.00016000"},
{"state":"Nan","name":"Amphoe Song Khwae","lat":"19.40911000","lon":"100.66174000"},
{"state":"Nan","name":"Amphoe Tha Wang Pha","lat":"19.13148000","lon":"100.76117000"},
{"state":"Nan","name":"Amphoe Thung Chang","lat":"19.46342000","lon":"100.91937000"},
{"state":"Nan","name":"Amphoe Wiang Sa","lat":"18.55088000","lon":"100.72754000"},
{"state":"Nan","name":"Chiang Klang","lat":"19.29378000","lon":"100.86169000"},
{"state":"Nan","name":"Nan","lat":"18.78378000","lon":"100.77899000"},
{"state":"Narathiwat","name":"Amphoe Ba Cho","lat":"6.54591000","lon":"101.64923000"},
{"state":"Narathiwat","name":"Amphoe Chanae","lat":"6.04591000","lon":"101.61765000"},
{"state":"Narathiwat","name":"Amphoe Cho-airong","lat":"6.23011000","lon":"101.84721000"},
{"state":"Narathiwat","name":"Amphoe Mueang Narathiwat","lat":"6.39391000","lon":"101.81316000"},
{"state":"Narathiwat","name":"Amphoe Ra-ngae","lat":"6.25504000","lon":"101.70496000"},
{"state":"Narathiwat","name":"Amphoe Rueso","lat":"6.37450000","lon":"101.51491000"},
{"state":"Narathiwat","name":"Amphoe Si Sakhon","lat":"6.19360000","lon":"101.51257000"},
{"state":"Narathiwat","name":"Amphoe Su-ngai Kolok","lat":"6.07674000","lon":"101.99818000"},
{"state":"Narathiwat","name":"Amphoe Su-ngai Padi","lat":"6.10425000","lon":"101.89333000"},
{"state":"Narathiwat","name":"Amphoe Sukhirin","lat":"5.91513000","lon":"101.73811000"},
{"state":"Narathiwat","name":"Amphoe Tak Bai","lat":"6.23748000","lon":"102.00238000"},
{"state":"Narathiwat","name":"Amphoe Waeng","lat":"5.90042000","lon":"101.86195000"},
{"state":"Narathiwat","name":"Amphoe Yi-ngo","lat":"6.41655000","lon":"101.70035000"},
{"state":"Narathiwat","name":"Ban Su-ngai Pa Di","lat":"6.07239000","lon":"101.87172000"},
{"state":"Narathiwat","name":"Narathiwat","lat":"6.42639000","lon":"101.82308000"},
{"state":"Narathiwat","name":"Ra-ngae","lat":"6.29678000","lon":"101.72844000"},
{"state":"Narathiwat","name":"Su-ngai Kolok","lat":"6.02977000","lon":"101.96586000"},
{"state":"Narathiwat","name":"Tak Bai","lat":"6.25947000","lon":"102.05461000"},
{"state":"Nong Bua Lam Phu","name":"Amphoe Mueang Nong Bua Lamphu","lat":"17.15818000","lon":"102.39860000"},
{"state":"Nong Bua Lam Phu","name":"Amphoe Na Klang","lat":"17.32466000","lon":"102.21456000"},
{"state":"Nong Bua Lam Phu","name":"Amphoe Na Wang","lat":"17.34290000","lon":"102.07157000"},
{"state":"Nong Bua Lam Phu","name":"Amphoe Non Sang","lat":"16.90220000","lon":"102.53084000"},
{"state":"Nong Bua Lam Phu","name":"Amphoe Si Bun Rueang","lat":"16.99775000","lon":"102.22528000"},
{"state":"Nong Bua Lam Phu","name":"Amphoe Suwannakhuha","lat":"17.54605000","lon":"102.24852000"},
{"state":"Nong Bua Lam Phu","name":"Na Klang","lat":"17.30720000","lon":"102.18886000"},
{"state":"Nong Bua Lam Phu","name":"Non Sang","lat":"16.86870000","lon":"102.56642000"},
{"state":"Nong Bua Lam Phu","name":"Nong Bua Lamphu","lat":"17.20406000","lon":"102.44068000"},
{"state":"Nong Bua Lam Phu","name":"Si Bun Rueang","lat":"16.96705000","lon":"102.27607000"},
{"state":"Nong Khai","name":"Amphoe Fao Rai","lat":"18.00275000","lon":"103.29640000"},
{"state":"Nong Khai","name":"Amphoe Mueang Nong Khai","lat":"17.84661000","lon":"102.78911000"},
{"state":"Nong Khai","name":"Amphoe Pho Tak","lat":"17.88819000","lon":"102.43023000"},
{"state":"Nong Khai","name":"Amphoe Phonphisai","lat":"17.95443000","lon":"103.12279000"},
{"state":"Nong Khai","name":"Amphoe Rattanawapi","lat":"18.19255000","lon":"103.23760000"},
{"state":"Nong Khai","name":"Amphoe Sa Khrai","lat":"17.65985000","lon":"102.70847000"},
{"state":"Nong Khai","name":"Amphoe Sangkhom","lat":"18.05392000","lon":"102.22677000"},
{"state":"Nong Khai","name":"Amphoe Si Chiang Mai","lat":"17.93574000","lon":"102.50306000"},
{"state":"Nong Khai","name":"Amphoe Tha Bo","lat":"17.79499000","lon":"102.56608000"},
{"state":"Nong Khai","name":"Nong Khai","lat":"17.87847000","lon":"102.74200000"},
{"state":"Nong Khai","name":"Phon Charoen","lat":"18.03333000","lon":"103.16667000"},
{"state":"Nong Khai","name":"Sangkhom","lat":"18.06389000","lon":"102.27364000"},
{"state":"Nong Khai","name":"Si Chiang Mai","lat":"17.95639000","lon":"102.58667000"},
{"state":"Nong Khai","name":"Tha Bo","lat":"17.85003000","lon":"102.58139000"},
{"state":"Nonthaburi","name":"Amphoe Bang Bua Thong","lat":"13.92641000","lon":"100.39360000"},
{"state":"Nonthaburi","name":"Amphoe Bang Kruai","lat":"13.80249000","lon":"100.41525000"},
{"state":"Nonthaburi","name":"Amphoe Bang Yai","lat":"13.85385000","lon":"100.37318000"},
{"state":"Nonthaburi","name":"Amphoe Mueang Nonthaburi","lat":"13.85581000","lon":"100.49264000"},
{"state":"Nonthaburi","name":"Amphoe Pak Kret","lat":"13.91626000","lon":"100.50397000"},
{"state":"Nonthaburi","name":"Amphoe Sai Noi","lat":"14.00627000","lon":"100.31072000"},
{"state":"Nonthaburi","name":"Bang Bua Thong","lat":"13.91783000","lon":"100.42403000"},
{"state":"Nonthaburi","name":"Bang Kruai","lat":"13.80500000","lon":"100.47283000"},
{"state":"Nonthaburi","name":"Bang Yai","lat":"13.84341000","lon":"100.36251000"},
{"state":"Nonthaburi","name":"Mueang Nonthaburi","lat":"13.86075000","lon":"100.51477000"},
{"state":"Nonthaburi","name":"Pak Kret","lat":"13.91301000","lon":"100.49883000"},
{"state":"Pathum Thani","name":"Amphoe Khlong Luang","lat":"14.09323000","lon":"100.68106000"},
{"state":"Pathum Thani","name":"Amphoe Lam Luk Ka","lat":"13.97744000","lon":"100.79244000"},
{"state":"Pathum Thani","name":"Amphoe Lat Lum Kaeo","lat":"14.04459000","lon":"100.40948000"},
{"state":"Pathum Thani","name":"Amphoe Mueang Pathum Thani","lat":"13.99105000","lon":"100.53554000"},
{"state":"Pathum Thani","name":"Amphoe Nong Suea","lat":"14.16030000","lon":"100.83929000"},
{"state":"Pathum Thani","name":"Amphoe Thanyaburi","lat":"14.02852000","lon":"100.76291000"},
{"state":"Pathum Thani","name":"Ban Lam Luk Ka","lat":"13.97738000","lon":"100.77776000"},
{"state":"Pathum Thani","name":"Khlong Luang","lat":"14.06467000","lon":"100.64578000"},
{"state":"Pathum Thani","name":"Pathum Thani","lat":"14.01346000","lon":"100.53049000"},
{"state":"Pattani","name":"Amphoe Kapho","lat":"6.60264000","lon":"101.54327000"},
{"state":"Pattani","name":"Amphoe Khok Pho","lat":"6.70858000","lon":"101.11693000"},
{"state":"Pattani","name":"Amphoe Mae Lan","lat":"6.66833000","lon":"101.23149000"},
{"state":"Pattani","name":"Amphoe Mai Kaen","lat":"6.61603000","lon":"101.67864000"},
{"state":"Pattani","name":"Amphoe Mayo","lat":"6.70764000","lon":"101.40359000"},
{"state":"Pattani","name":"Amphoe Mueang Pattani","lat":"6.85581000","lon":"101.26761000"},
{"state":"Pattani","name":"Amphoe Nong Chik","lat":"6.80011000","lon":"101.17057000"},
{"state":"Pattani","name":"Amphoe Panare","lat":"6.81211000","lon":"101.51247000"},
{"state":"Pattani","name":"Amphoe Sai Buri","lat":"6.70000000","lon":"101.58333000"},
{"state":"Pattani","name":"Amphoe Thung Yang Daeng","lat":"6.64160000","lon":"101.44652000"},
{"state":"Pattani","name":"Amphoe Yarang","lat":"6.69240000","lon":"101.31408000"},
{"state":"Pattani","name":"Amphoe Yaring","lat":"6.83507000","lon":"101.39073000"},
{"state":"Pattani","name":"Nong Chik","lat":"6.84356000","lon":"101.17803000"},
{"state":"Pattani","name":"Pattani","lat":"6.86814000","lon":"101.25009000"},
{"state":"Pattani","name":"Sai Buri","lat":"6.70131000","lon":"101.61675000"},
{"state":"Pattani","name":"Yaring","lat":"6.86617000","lon":"101.36894000"},
{"state":"Phangnga","name":"Amphoe Kapong","lat":"8.74139000","lon":"98.47542000"},
{"state":"Phangnga","name":"Amphoe Khura Buri","lat":"9.18972000","lon":"98.40806000"},
{"state":"Phangnga","name":"Amphoe Ko Yao","lat":"8.06549000","lon":"98.57851000"},
{"state":"Phangnga","name":"Amphoe Mueang Phangnga","lat":"8.49350000","lon":"98.50775000"},
{"state":"Phangnga","name":"Amphoe Takua Pa","lat":"8.86883000","lon":"98.33892000"},
{"state":"Phangnga","name":"Amphoe Takua Thung","lat":"8.28433000","lon":"98.38950000"},
{"state":"Phangnga","name":"Amphoe Thai Mueang","lat":"8.48995000","lon":"98.31292000"},
{"state":"Phangnga","name":"Amphoe Thap Put","lat":"8.53768000","lon":"98.63208000"},
{"state":"Phangnga","name":"Ban Ao Nang","lat":"8.04580000","lon":"98.81035000"},
{"state":"Phangnga","name":"Ban Khao Lak","lat":"8.61501000","lon":"98.23994000"},
{"state":"Phangnga","name":"Ban Phru Nai","lat":"7.95458000","lon":"98.58989000"},
{"state":"Phangnga","name":"Phang Nga","lat":"8.45091000","lon":"98.52985000"},
{"state":"Phatthalung","name":"Amphoe Bang Kaeo","lat":"7.41775000","lon":"100.17164000"},
{"state":"Phatthalung","name":"Amphoe Khao Chaison","lat":"7.46305000","lon":"100.09055000"},
{"state":"Phatthalung","name":"Amphoe Khuan Khanun","lat":"7.76438000","lon":"100.04349000"},
{"state":"Phatthalung","name":"Amphoe Kong Ra","lat":"7.41674000","lon":"99.95719000"},
{"state":"Phatthalung","name":"Amphoe Mueang Phatthalung","lat":"7.60250000","lon":"100.07425000"},
{"state":"Phatthalung","name":"Amphoe Pa Bon","lat":"7.21994000","lon":"100.13078000"},
{"state":"Phatthalung","name":"Amphoe Pa Phayom","lat":"7.83154000","lon":"99.87448000"},
{"state":"Phatthalung","name":"Amphoe Pak Phayun","lat":"7.29622000","lon":"100.29542000"},
{"state":"Phatthalung","name":"Amphoe Si Banphot","lat":"7.69259000","lon":"99.87322000"},
{"state":"Phatthalung","name":"Amphoe Srinagarindra","lat":"7.57574000","lon":"99.91053000"},
{"state":"Phatthalung","name":"Amphoe Tamot","lat":"7.28783000","lon":"100.04358000"},
{"state":"Phatthalung","name":"Phatthalung","lat":"7.61786000","lon":"100.07792000"},
{"state":"Phayao","name":"Amphoe Chiang Kham","lat":"19.47061000","lon":"100.33868000"},
{"state":"Phayao","name":"Amphoe Chiang Muan","lat":"18.90385000","lon":"100.31792000"},
{"state":"Phayao","name":"Amphoe Chun","lat":"19.36803000","lon":"100.14492000"},
{"state":"Phayao","name":"Amphoe Dok Kham Tai","lat":"19.10813000","lon":"100.05657000"},
{"state":"Phayao","name":"Amphoe Mae Chai","lat":"19.37925000","lon":"99.80141000"},
{"state":"Phayao","name":"Amphoe Mueang Phayao","lat":"19.14857000","lon":"99.87325000"},
{"state":"Phayao","name":"Amphoe Phu Kam Yao","lat":"19.31170000","lon":"99.96614000"},
{"state":"Phayao","name":"Amphoe Phu Sang","lat":"19.62372000","lon":"100.37246000"},
{"state":"Phayao","name":"Amphoe Pong","lat":"19.18500000","lon":"100.38780000"},
{"state":"Phayao","name":"Chiang Kham","lat":"19.52331000","lon":"100.30000000"},
{"state":"Phayao","name":"Dok Kham Tai","lat":"19.16242000","lon":"99.99342000"},
{"state":"Phayao","name":"Mae Chai","lat":"19.34597000","lon":"99.81400000"},
{"state":"Phayao","name":"Phayao","lat":"19.19203000","lon":"99.87883000"},
{"state":"Phayao","name":"Pong","lat":"19.14931000","lon":"100.27522000"},
{"state":"Phetchabun","name":"Amphoe Bueng Sam Phan","lat":"15.81650000","lon":"101.00399000"},
{"state":"Phetchabun","name":"Amphoe Chon Daen","lat":"16.10735000","lon":"100.83572000"},
{"state":"Phetchabun","name":"Amphoe Khao Kho","lat":"16.66313000","lon":"100.99450000"},
{"state":"Phetchabun","name":"Amphoe Lom Kao","lat":"16.97209000","lon":"101.26185000"},
{"state":"Phetchabun","name":"Amphoe Lom Sak","lat":"16.72837000","lon":"101.31139000"},
{"state":"Phetchabun","name":"Amphoe Mueang Phetchabun","lat":"16.38215000","lon":"101.17652000"},
{"state":"Phetchabun","name":"Amphoe Nam Nao","lat":"16.84489000","lon":"101.60080000"},
{"state":"Phetchabun","name":"Amphoe Nong Phai","lat":"16.01162000","lon":"101.15042000"},
{"state":"Phetchabun","name":"Amphoe Si Thep","lat":"15.44253000","lon":"101.14767000"},
{"state":"Phetchabun","name":"Amphoe Wang Pong","lat":"16.35049000","lon":"100.80772000"},
{"state":"Phetchabun","name":"Amphoe Wichian Buri","lat":"15.65000000","lon":"101.10000000"},
{"state":"Phetchabun","name":"Chon Daen","lat":"16.18953000","lon":"100.85958000"},
{"state":"Phetchabun","name":"Lom Sak","lat":"16.77983000","lon":"101.24225000"},
{"state":"Phetchabun","name":"Nong Phai","lat":"15.99025000","lon":"101.06183000"},
{"state":"Phetchabun","name":"Phetchabun","lat":"16.41904000","lon":"101.16056000"},
{"state":"Phetchabun","name":"Wichian Buri","lat":"15.65778000","lon":"101.10603000"},
{"state":"Phetchaburi","name":"Amphoe Ban Laem","lat":"13.16968000","lon":"99.98771000"},
{"state":"Phetchaburi","name":"Amphoe Ban Lat","lat":"13.04533000","lon":"99.83788000"},
{"state":"Phetchaburi","name":"Amphoe Cha-am","lat":"12.75374000","lon":"99.89828000"},
{"state":"Phetchaburi","name":"Amphoe Kaeng Krachan","lat":"12.85919000","lon":"99.46339000"},
{"state":"Phetchaburi","name":"Amphoe Khao Yoi","lat":"13.24240000","lon":"99.80753000"},
{"state":"Phetchaburi","name":"Amphoe Mueang Phetchaburi","lat":"13.08173000","lon":"99.96721000"},
{"state":"Phetchaburi","name":"Amphoe Nong Ya Plong","lat":"13.12590000","lon":"99.46880000"},
{"state":"Phetchaburi","name":"Amphoe Tha Yang","lat":"12.81743000","lon":"99.78738000"},
{"state":"Phetchaburi","name":"Cha-am","lat":"12.80000000","lon":"99.96667000"},
{"state":"Phetchaburi","name":"Khao Yoi","lat":"13.24025000","lon":"99.82428000"},
{"state":"Phetchaburi","name":"Phetchaburi","lat":"13.11189000","lon":"99.94467000"},
{"state":"Phetchaburi","name":"Tha Yang","lat":"12.95772000","lon":"99.90555000"},
{"state":"Phichit","name":"Amphoe Bang Mun Nak","lat":"16.02656000","lon":"100.43194000"},
{"state":"Phichit","name":"Amphoe Bueng Na Rang","lat":"16.18642000","lon":"100.14293000"},
{"state":"Phichit","name":"Amphoe Dong Charoen","lat":"15.99848000","lon":"100.59572000"},
{"state":"Phichit","name":"Amphoe Mueang Phichit","lat":"16.40986000","lon":"100.34578000"},
{"state":"Phichit","name":"Amphoe Pho Prathap Chang","lat":"16.31294000","lon":"100.19897000"},
{"state":"Phichit","name":"Amphoe Pho Thale","lat":"16.05885000","lon":"100.24579000"},
{"state":"Phichit","name":"Amphoe Sak Lek","lat":"16.50717000","lon":"100.52350000"},
{"state":"Phichit","name":"Amphoe Taphan Hin","lat":"16.21103000","lon":"100.41739000"},
{"state":"Phichit","name":"Amphoe Thap Khlo","lat":"16.19167000","lon":"100.60082000"},
{"state":"Phichit","name":"Amphoe Wachira Barami","lat":"16.51667000","lon":"100.11667000"},
{"state":"Phichit","name":"Amphoe Wang Sai Phun","lat":"16.37922000","lon":"100.53668000"},
{"state":"Phichit","name":"Bang Mun Nak","lat":"16.02781000","lon":"100.37917000"},
{"state":"Phichit","name":"Bueng Na Rang","lat":"16.17120000","lon":"100.12531000"},
{"state":"Phichit","name":"Phichit","lat":"16.44184000","lon":"100.34879000"},
{"state":"Phichit","name":"Taphan Hin","lat":"16.22095000","lon":"100.41978000"},
{"state":"Phichit","name":"Thap Khlo","lat":"16.16003000","lon":"100.59656000"},
{"state":"Phichit","name":"Wang Sai Phun","lat":"16.38850000","lon":"100.53801000"},
{"state":"Phitsanulok","name":"Amphoe Bang Krathum","lat":"16.59323000","lon":"100.35042000"},
{"state":"Phitsanulok","name":"Amphoe Bang Rakam","lat":"16.71844000","lon":"100.04217000"},
{"state":"Phitsanulok","name":"Amphoe Chat Trakan","lat":"17.39357000","lon":"100.68460000"},
{"state":"Phitsanulok","name":"Amphoe Mueang Phitsanulok","lat":"16.84040000","lon":"100.27298000"},
{"state":"Phitsanulok","name":"Amphoe Nakhon Thai","lat":"17.09426000","lon":"100.86437000"},
{"state":"Phitsanulok","name":"Amphoe Noen Maprang","lat":"16.56400000","lon":"100.70995000"},
{"state":"Phitsanulok","name":"Amphoe Phrom Phiram","lat":"17.06894000","lon":"100.15350000"},
{"state":"Phitsanulok","name":"Amphoe Wang Thong","lat":"16.85000000","lon":"100.58333000"},
{"state":"Phitsanulok","name":"Amphoe Wat Bot","lat":"17.16384000","lon":"100.36298000"},
{"state":"Phitsanulok","name":"Bang Krathum","lat":"16.57831000","lon":"100.30034000"},
{"state":"Phitsanulok","name":"Bang Rakam","lat":"16.75847000","lon":"100.11742000"},
{"state":"Phitsanulok","name":"Chat Trakan","lat":"17.27606000","lon":"100.60022000"},
{"state":"Phitsanulok","name":"Nakhon Thai","lat":"17.10056000","lon":"100.83739000"},
{"state":"Phitsanulok","name":"Phitsanulok","lat":"16.82481000","lon":"100.25858000"},
{"state":"Phra Nakhon Si Ayutthaya","name":"Amphoe Ban Phraek","lat":"14.64381000","lon":"100.54883000"},
{"state":"Phra Nakhon Si Ayutthaya","name":"Amphoe Bang Ban","lat":"14.38333000","lon":"100.46667000"},
{"state":"Phra Nakhon Si Ayutthaya","name":"Amphoe Bang Pa-in","lat":"14.23482000","lon":"100.59410000"},
{"state":"Phra Nakhon Si Ayutthaya","name":"Amphoe Bang Pahan","lat":"14.47174000","lon":"100.54731000"},
{"state":"Phra Nakhon Si Ayutthaya","name":"Amphoe Bang Sai","lat":"14.21043000","lon":"100.49422000"},
{"state":"Phra Nakhon Si Ayutthaya","name":"Amphoe Lat Bua Luang","lat":"14.16810000","lon":"100.34892000"},
{"state":"Phra Nakhon Si Ayutthaya","name":"Amphoe Maha Rat","lat":"14.57064000","lon":"100.54089000"},
{"state":"Phra Nakhon Si Ayutthaya","name":"Amphoe Nakhon Luang","lat":"14.46703000","lon":"100.62572000"},
{"state":"Phra Nakhon Si Ayutthaya","name":"Amphoe Phachi","lat":"14.43795000","lon":"100.72780000"},
{"state":"Phra Nakhon Si Ayutthaya","name":"Amphoe Phak Hai","lat":"14.45073000","lon":"100.33949000"},
{"state":"Phra Nakhon Si Ayutthaya","name":"Amphoe Phra Nakhon Si Ayutthaya","lat":"14.35172000","lon":"100.56719000"},
{"state":"Phra Nakhon Si Ayutthaya","name":"Amphoe Sena","lat":"14.29605000","lon":"100.37486000"},
{"state":"Phra Nakhon Si Ayutthaya","name":"Amphoe Tha Ruea","lat":"14.53587000","lon":"100.71268000"},
{"state":"Phra Nakhon Si Ayutthaya","name":"Amphoe Uthai","lat":"14.35321000","lon":"100.69643000"},
{"state":"Phra Nakhon Si Ayutthaya","name":"Amphoe Wang Noi","lat":"14.24348000","lon":"100.72500000"},
{"state":"Phra Nakhon Si Ayutthaya","name":"Ban Bang Kadi Pathum Thani","lat":"13.99904000","lon":"100.54962000"},
{"state":"Phra Nakhon Si Ayutthaya","name":"Bang Ban","lat":"14.37395000","lon":"100.48528000"},
{"state":"Phra Nakhon Si Ayutthaya","name":"Bang Pa-in","lat":"14.22783000","lon":"100.57589000"},
{"state":"Phra Nakhon Si Ayutthaya","name":"Nakhon Luang","lat":"14.46281000","lon":"100.60832000"},
{"state":"Phra Nakhon Si Ayutthaya","name":"Phak Hai","lat":"14.45736000","lon":"100.36989000"},
{"state":"Phra Nakhon Si Ayutthaya","name":"Phra Nakhon Si Ayutthaya","lat":"14.35167000","lon":"100.57739000"},
{"state":"Phra Nakhon Si Ayutthaya","name":"Tha Ruea","lat":"14.56739000","lon":"100.72598000"},
{"state":"Phra Nakhon Si Ayutthaya","name":"Wang Noi","lat":"14.22689000","lon":"100.71550000"},
{"state":"Phrae","name":"Amphoe Den Chai","lat":"17.91667000","lon":"100.03333000"},
{"state":"Phrae","name":"Amphoe Long","lat":"18.14262000","lon":"99.90901000"},
{"state":"Phrae","name":"Amphoe Mueang Phrae","lat":"18.12258000","lon":"100.25620000"},
{"state":"Phrae","name":"Amphoe Nong Muang Khai","lat":"18.28845000","lon":"100.15231000"},
{"state":"Phrae","name":"Amphoe Rong Kwang","lat":"18.32614000","lon":"100.39418000"},
{"state":"Phrae","name":"Amphoe Song","lat":"18.57006000","lon":"100.22911000"},
{"state":"Phrae","name":"Amphoe Sung Men","lat":"18.03542000","lon":"100.12538000"},
{"state":"Phrae","name":"Amphoe Wang Chin","lat":"17.86667000","lon":"99.64990000"},
{"state":"Phrae","name":"Den Chai","lat":"17.98372000","lon":"100.05217000"},
{"state":"Phrae","name":"Long","lat":"18.07422000","lon":"99.83073000"},
{"state":"Phrae","name":"Phrae","lat":"18.14589000","lon":"100.14103000"},
{"state":"Phrae","name":"Rong Kwang","lat":"18.33903000","lon":"100.31736000"},
{"state":"Phuket","name":"Amphoe Kathu","lat":"7.91456000","lon":"98.33330000"},
{"state":"Phuket","name":"Amphoe Mueang Phuket","lat":"7.85609000","lon":"98.37183000"},
{"state":"Phuket","name":"Amphoe Thalang","lat":"8.03407000","lon":"98.33399000"},
{"state":"Phuket","name":"Ban Chalong","lat":"7.84468000","lon":"98.33897000"},
{"state":"Phuket","name":"Ban Karon","lat":"7.84769000","lon":"98.29850000"},
{"state":"Phuket","name":"Ban Kata","lat":"7.82125000","lon":"98.30703000"},
{"state":"Phuket","name":"Ban Ko Kaeo","lat":"7.93599000","lon":"98.39664000"},
{"state":"Phuket","name":"Ban Mai Khao","lat":"8.12713000","lon":"98.30738000"},
{"state":"Phuket","name":"Ban Ratsada","lat":"7.90963000","lon":"98.40248000"},
{"state":"Phuket","name":"Ban Talat Nua","lat":"7.88489000","lon":"98.38557000"},
{"state":"Phuket","name":"Ban Talat Yai","lat":"7.88481000","lon":"98.40008000"},
{"state":"Phuket","name":"Kathu","lat":"7.91779000","lon":"98.33322000"},
{"state":"Phuket","name":"Nai Harn","lat":"7.77859000","lon":"98.30661000"},
{"state":"Phuket","name":"Patong","lat":"7.89607000","lon":"98.29661000"},
{"state":"Phuket","name":"Phuket","lat":"7.89059000","lon":"98.39810000"},
{"state":"Phuket","name":"Rawai","lat":"7.77965000","lon":"98.32532000"},
{"state":"Phuket","name":"Wichit","lat":"7.88940000","lon":"98.38523000"},
{"state":"Prachin Buri","name":"Amphoe Ban Sang","lat":"13.95005000","lon":"101.25063000"},
{"state":"Prachin Buri","name":"Amphoe Kabin Buri","lat":"13.90000000","lon":"101.80000000"},
{"state":"Prachin Buri","name":"Amphoe Mueang Prachin Buri","lat":"14.09335000","lon":"101.39776000"},
{"state":"Prachin Buri","name":"Amphoe Na Di","lat":"14.19253000","lon":"101.84557000"},
{"state":"Prachin Buri","name":"Amphoe Prachantakham","lat":"14.22813000","lon":"101.57440000"},
{"state":"Prachin Buri","name":"Amphoe Si Maha Phot","lat":"13.89041000","lon":"101.54181000"},
{"state":"Prachin Buri","name":"Amphoe Si Mahosot","lat":"13.87669000","lon":"101.42499000"},
{"state":"Prachin Buri","name":"Kabin Buri","lat":"13.95114000","lon":"101.71769000"},
{"state":"Prachin Buri","name":"Prachin Buri","lat":"14.04992000","lon":"101.36864000"},
{"state":"Prachuap Khiri Khan","name":"Amphoe Bang Saphan","lat":"11.29402000","lon":"99.44406000"},
{"state":"Prachuap Khiri Khan","name":"Amphoe Bang Saphan Noi","lat":"11.07057000","lon":"99.34105000"},
{"state":"Prachuap Khiri Khan","name":"Amphoe Hua Hin","lat":"12.53522000","lon":"99.70366000"},
{"state":"Prachuap Khiri Khan","name":"Amphoe Kui Buri","lat":"12.11311000","lon":"99.75462000"},
{"state":"Prachuap Khiri Khan","name":"Amphoe Mueang Prachuap Khiri Khan","lat":"11.87144000","lon":"99.73563000"},
{"state":"Prachuap Khiri Khan","name":"Amphoe Pran Buri","lat":"12.39040000","lon":"99.69690000"},
{"state":"Prachuap Khiri Khan","name":"Amphoe Sam Roi Yot","lat":"12.25586000","lon":"99.74010000"},
{"state":"Prachuap Khiri Khan","name":"Amphoe Thap Sakae","lat":"11.54787000","lon":"99.57159000"},
{"state":"Prachuap Khiri Khan","name":"Bang Saphan","lat":"11.21259000","lon":"99.51167000"},
{"state":"Prachuap Khiri Khan","name":"Hua Hin","lat":"12.57065000","lon":"99.95876000"},
{"state":"Prachuap Khiri Khan","name":"Kui Buri","lat":"12.08283000","lon":"99.85431000"},
{"state":"Prachuap Khiri Khan","name":"Prachuap Khiri Khan","lat":"11.82098000","lon":"99.78410000"},
{"state":"Prachuap Khiri Khan","name":"Pran Buri","lat":"12.38487000","lon":"99.90157000"},
{"state":"Prachuap Khiri Khan","name":"Sam Roi Yot","lat":"12.27081000","lon":"99.87203000"},
{"state":"Ranong","name":"Amphoe Kapoe","lat":"9.53028000","lon":"98.62369000"},
{"state":"Ranong","name":"Amphoe Kra Buri","lat":"10.45895000","lon":"98.84373000"},
{"state":"Ranong","name":"Amphoe La-un","lat":"10.09691000","lon":"98.78498000"},
{"state":"Ranong","name":"Amphoe Mueang Ranong","lat":"9.86238000","lon":"98.62229000"},
{"state":"Ranong","name":"Amphoe Suk Samran","lat":"9.41570000","lon":"98.49117000"},
{"state":"Ranong","name":"Ranong","lat":"9.96583000","lon":"98.63476000"},
{"state":"Ratchaburi","name":"Amphoe Ban Kha","lat":"13.32374000","lon":"99.37323000"},
{"state":"Ratchaburi","name":"Amphoe Ban Pong","lat":"13.81660000","lon":"99.82147000"},
{"state":"Ratchaburi","name":"Amphoe Bang Phae","lat":"13.68333000","lon":"99.98333000"},
{"state":"Ratchaburi","name":"Amphoe Chom Bueng","lat":"13.62520000","lon":"99.51870000"},
{"state":"Ratchaburi","name":"Amphoe Damnoen Saduak","lat":"13.56537000","lon":"99.97042000"},
{"state":"Ratchaburi","name":"Amphoe Mueang Ratchaburi","lat":"13.54559000","lon":"99.77678000"},
{"state":"Ratchaburi","name":"Amphoe Pak Tho","lat":"13.38761000","lon":"99.67700000"},
{"state":"Ratchaburi","name":"Amphoe Photharam","lat":"13.70707000","lon":"99.75622000"},
{"state":"Ratchaburi","name":"Amphoe Suan Phueng","lat":"13.56361000","lon":"99.31133000"},
{"state":"Ratchaburi","name":"Amphoe Wat Phleng","lat":"13.44705000","lon":"99.86959000"},
{"state":"Ratchaburi","name":"Ban Pong","lat":"13.81629000","lon":"99.87739000"},
{"state":"Ratchaburi","name":"Bang Phae","lat":"13.69157000","lon":"99.92982000"},
{"state":"Ratchaburi","name":"Chom Bueng","lat":"13.62000000","lon":"99.59169000"},
{"state":"Ratchaburi","name":"Damnoen Saduak","lat":"13.51825000","lon":"99.95469000"},
{"state":"Ratchaburi","name":"Photharam","lat":"13.69234000","lon":"99.84969000"},
{"state":"Ratchaburi","name":"Ratchaburi","lat":"13.53671000","lon":"99.81712000"},
{"state":"Rayong","name":"Amphoe Ban Chang","lat":"12.73230000","lon":"101.04878000"},
{"state":"Rayong","name":"Amphoe Ban Khai","lat":"12.83827000","lon":"101.34210000"},
{"state":"Rayong","name":"Amphoe Khao Chamao","lat":"12.99042000","lon":"101.67847000"},
{"state":"Rayong","name":"Amphoe Klaeng","lat":"12.77179000","lon":"101.65666000"},
{"state":"Rayong","name":"Amphoe Mueang Rayong","lat":"12.71864000","lon":"101.34491000"},
{"state":"Rayong","name":"Amphoe Nikhom Phattana","lat":"12.84489000","lon":"101.15341000"},
{"state":"Rayong","name":"Amphoe Pluak Daeng","lat":"12.98333000","lon":"101.25000000"},
{"state":"Rayong","name":"Amphoe Wang Chan","lat":"12.96245000","lon":"101.51533000"},
{"state":"Rayong","name":"Ban Chang","lat":"12.72543000","lon":"101.05531000"},
{"state":"Rayong","name":"Ban Phe","lat":"12.62824000","lon":"101.43757000"},
{"state":"Rayong","name":"Klaeng","lat":"12.77972000","lon":"101.64831000"},
{"state":"Rayong","name":"Rayong","lat":"12.68095000","lon":"101.25798000"},
{"state":"Roi Et","name":"Amphoe At Samat","lat":"15.84014000","lon":"103.86619000"},
{"state":"Roi Et","name":"Amphoe Changhan","lat":"16.16213000","lon":"103.61605000"},
{"state":"Roi Et","name":"Amphoe Chaturaphak Phiman","lat":"15.82670000","lon":"103.54934000"},
{"state":"Roi Et","name":"Amphoe Chiang Khwan","lat":"16.14887000","lon":"103.74924000"},
{"state":"Roi Et","name":"Amphoe Kaset Wisai","lat":"15.60285000","lon":"103.56652000"},
{"state":"Roi Et","name":"Amphoe Moeiwadi","lat":"16.37155000","lon":"104.11137000"},
{"state":"Roi Et","name":"Amphoe Mueang Roi Et","lat":"16.01497000","lon":"103.61584000"},
{"state":"Roi Et","name":"Amphoe Mueang Suang","lat":"15.78619000","lon":"103.75071000"},
{"state":"Roi Et","name":"Amphoe Nong Hi","lat":"15.57983000","lon":"104.01134000"},
{"state":"Roi Et","name":"Amphoe Nong Phok","lat":"16.30357000","lon":"104.22144000"},
{"state":"Roi Et","name":"Amphoe Pathum Rat","lat":"15.62371000","lon":"103.38733000"},
{"state":"Roi Et","name":"Amphoe Phanom Phrai","lat":"15.69300000","lon":"104.07550000"},
{"state":"Roi Et","name":"Amphoe Pho Chai","lat":"16.30969000","lon":"103.79004000"},
{"state":"Roi Et","name":"Amphoe Phon Sai","lat":"15.49244000","lon":"103.94139000"},
{"state":"Roi Et","name":"Amphoe Phon Thong","lat":"16.29007000","lon":"103.96388000"},
{"state":"Roi Et","name":"Amphoe Selaphum","lat":"16.04700000","lon":"104.00031000"},
{"state":"Roi Et","name":"Amphoe Si Somdet","lat":"16.01947000","lon":"103.51427000"},
{"state":"Roi Et","name":"Amphoe Suwannaphum","lat":"15.60529000","lon":"103.80630000"},
{"state":"Roi Et","name":"Amphoe Thawatchaburi","lat":"16.02783000","lon":"103.77833000"},
{"state":"Roi Et","name":"Amphoe Thung Khao Luang","lat":"15.98966000","lon":"103.87086000"},
{"state":"Roi Et","name":"Ban Selaphum","lat":"16.01667000","lon":"103.95000000"},
{"state":"Roi Et","name":"Kaset Wisai","lat":"15.65558000","lon":"103.58361000"},
{"state":"Roi Et","name":"Moeiwadi","lat":"16.38944000","lon":"104.15720000"},
{"state":"Roi Et","name":"Pho Chai","lat":"16.32827000","lon":"103.77033000"},
{"state":"Roi Et","name":"Roi Et","lat":"16.05670000","lon":"103.65309000"},
{"state":"Roi Et","name":"Suwannaphum","lat":"15.60348000","lon":"103.80207000"},
{"state":"Roi Et","name":"Waeng","lat":"16.30006000","lon":"103.97786000"},
{"state":"Sa Kaeo","name":"Amphoe Aranyaprathet","lat":"13.69086000","lon":"102.47693000"},
{"state":"Sa Kaeo","name":"Amphoe Khao Chakan","lat":"13.62293000","lon":"102.02665000"},
{"state":"Sa Kaeo","name":"Amphoe Khlong Hat","lat":"13.47396000","lon":"102.27604000"},
{"state":"Sa Kaeo","name":"Amphoe Khok Sung","lat":"13.87388000","lon":"102.66075000"},
{"state":"Sa Kaeo","name":"Amphoe Mueang Sa Kaeo","lat":"13.92969000","lon":"102.10626000"},
{"state":"Sa Kaeo","name":"Amphoe Ta Phraya","lat":"14.06272000","lon":"102.72601000"},
{"state":"Sa Kaeo","name":"Amphoe Wang Nam Yen","lat":"13.51900000","lon":"102.08718000"},
{"state":"Sa Kaeo","name":"Amphoe Wang Sombun","lat":"13.36112000","lon":"102.12490000"},
{"state":"Sa Kaeo","name":"Amphoe Watthana Nakhon","lat":"13.88582000","lon":"102.35652000"},
{"state":"Sa Kaeo","name":"Aranyaprathet","lat":"13.69276000","lon":"102.50128000"},
{"state":"Sa Kaeo","name":"Sa Kaeo","lat":"13.81411000","lon":"102.07222000"},
{"state":"Sa Kaeo","name":"Wang Nam Yen","lat":"13.50325000","lon":"102.18115000"},
{"state":"Sakon Nakhon","name":"Amphoe Akat Amnuai","lat":"17.63589000","lon":"103.97590000"},
{"state":"Sakon Nakhon","name":"Amphoe Ban Muang","lat":"17.89569000","lon":"103.52793000"},
{"state":"Sakon Nakhon","name":"Amphoe Charoen Sin","lat":"17.63327000","lon":"103.52218000"},
{"state":"Sakon Nakhon","name":"Amphoe Kham Ta Kla","lat":"17.82547000","lon":"103.78598000"},
{"state":"Sakon Nakhon","name":"Amphoe Khok Si Suphan","lat":"17.02297000","lon":"104.30346000"},
{"state":"Sakon Nakhon","name":"Amphoe Kusuman","lat":"17.35402000","lon":"104.26677000"},
{"state":"Sakon Nakhon","name":"Amphoe Kut Bak","lat":"17.08205000","lon":"103.81469000"},
{"state":"Sakon Nakhon","name":"Amphoe Mueang Sakon Nakhon","lat":"17.16163000","lon":"104.10519000"},
{"state":"Sakon Nakhon","name":"Amphoe Nikhom Nam Un","lat":"17.17349000","lon":"103.73511000"},
{"state":"Sakon Nakhon","name":"Amphoe Phang Khon","lat":"17.38267000","lon":"103.75146000"},
{"state":"Sakon Nakhon","name":"Amphoe Phanna Nikhom","lat":"17.31369000","lon":"103.89791000"},
{"state":"Sakon Nakhon","name":"Amphoe Phon Na Kaeo","lat":"17.21248000","lon":"104.30700000"},
{"state":"Sakon Nakhon","name":"Amphoe Phu Phan","lat":"16.92862000","lon":"103.92400000"},
{"state":"Sakon Nakhon","name":"Amphoe Sawang Daen Din","lat":"17.45590000","lon":"103.44950000"},
{"state":"Sakon Nakhon","name":"Amphoe Song Dao","lat":"17.30883000","lon":"103.44987000"},
{"state":"Sakon Nakhon","name":"Amphoe Tao Ngoi","lat":"16.94022000","lon":"104.15863000"},
{"state":"Sakon Nakhon","name":"Amphoe Wanon Niwat","lat":"17.61516000","lon":"103.76536000"},
{"state":"Sakon Nakhon","name":"Amphoe Waritchaphum","lat":"17.25692000","lon":"103.62283000"},
{"state":"Sakon Nakhon","name":"Sakon Nakhon","lat":"17.16116000","lon":"104.14725000"},
{"state":"Sakon Nakhon","name":"Sawang Daen Din","lat":"17.47531000","lon":"103.45753000"},
{"state":"Samut Prakan","name":"Amphoe Bang Bo","lat":"13.58960000","lon":"100.86711000"},
{"state":"Samut Prakan","name":"Amphoe Bang Phli","lat":"13.61972000","lon":"100.72582000"},
{"state":"Samut Prakan","name":"Amphoe Bang Sao Thong","lat":"13.63286000","lon":"100.81038000"},
{"state":"Samut Prakan","name":"Amphoe Mueang Samut Prakan","lat":"13.56855000","lon":"100.65148000"},
{"state":"Samut Prakan","name":"Amphoe Phra Pradaeng","lat":"13.65246000","lon":"100.55271000"},
{"state":"Samut Prakan","name":"Amphoe Phra Samut Chedi","lat":"13.55622000","lon":"100.51485000"},
{"state":"Samut Prakan","name":"Ban Khlong Bang Sao Thong","lat":"13.64172000","lon":"100.83272000"},
{"state":"Samut Prakan","name":"Bang Bo District","lat":"13.58333000","lon":"100.81667000"},
{"state":"Samut Prakan","name":"Phra Pradaeng","lat":"13.65855000","lon":"100.53362000"},
{"state":"Samut Prakan","name":"Samut Prakan","lat":"13.59934000","lon":"100.59675000"},
{"state":"Samut Sakhon","name":"Amphoe Ban Phaeo","lat":"13.58747000","lon":"100.11789000"},
{"state":"Samut Sakhon","name":"Amphoe Krathum Baen","lat":"13.65570000","lon":"100.27282000"},
{"state":"Samut Sakhon","name":"Amphoe Mueang Samut Sakhon","lat":"13.53163000","lon":"100.25326000"},
{"state":"Samut Sakhon","name":"Ban Phaeo","lat":"13.59072000","lon":"100.10748000"},
{"state":"Samut Sakhon","name":"Krathum Baen","lat":"13.65330000","lon":"100.25972000"},
{"state":"Samut Sakhon","name":"Samut Sakhon","lat":"13.54753000","lon":"100.27362000"},
{"state":"Samut Songkhram","name":"Amphoe Amphawa","lat":"13.36721000","lon":"99.91232000"},
{"state":"Samut Songkhram","name":"Amphoe Bang Khonthi","lat":"13.47448000","lon":"99.94838000"},
{"state":"Samut Songkhram","name":"Amphoe Mueang Samut Songkhram","lat":"13.39587000","lon":"99.99929000"},
{"state":"Samut Songkhram","name":"Samut Songkhram","lat":"13.41456000","lon":"100.00264000"},
{"state":"Saraburi","name":"Amphoe Ban Mo","lat":"14.60804000","lon":"100.72404000"},
{"state":"Saraburi","name":"Amphoe Chaloem Phra Kiat","lat":"14.65671000","lon":"100.90838000"},
{"state":"Saraburi","name":"Amphoe Don Phut","lat":"14.60758000","lon":"100.61578000"},
{"state":"Saraburi","name":"Amphoe Kaeng Khoi","lat":"14.58166000","lon":"101.05297000"},
{"state":"Saraburi","name":"Amphoe Muak Lek","lat":"14.77706000","lon":"101.27151000"},
{"state":"Saraburi","name":"Amphoe Mueang Sara Buri","lat":"14.49721000","lon":"100.93829000"},
{"state":"Saraburi","name":"Amphoe Nong Don","lat":"14.68880000","lon":"100.68527000"},
{"state":"Saraburi","name":"Amphoe Nong Khae","lat":"14.38125000","lon":"100.86451000"},
{"state":"Saraburi","name":"Amphoe Nong Saeng","lat":"14.48283000","lon":"100.80463000"},
{"state":"Saraburi","name":"Amphoe Phra Phutthabat","lat":"14.71912000","lon":"100.80622000"},
{"state":"Saraburi","name":"Amphoe Sao Hai","lat":"14.57549000","lon":"100.84390000"},
{"state":"Saraburi","name":"Amphoe Wang Muang","lat":"14.82287000","lon":"101.13346000"},
{"state":"Saraburi","name":"Amphoe Wihan Daeng","lat":"14.33435000","lon":"100.96458000"},
{"state":"Saraburi","name":"Ban Mo","lat":"14.61544000","lon":"100.72731000"},
{"state":"Saraburi","name":"Kaeng Khoi","lat":"14.58617000","lon":"100.99758000"},
{"state":"Saraburi","name":"Nong Khae","lat":"14.34062000","lon":"100.86733000"},
{"state":"Saraburi","name":"Phra Phutthabat","lat":"14.72526000","lon":"100.79536000"},
{"state":"Saraburi","name":"Saraburi","lat":"14.53333000","lon":"100.91667000"},
{"state":"Satun","name":"Amphoe Khuan Don","lat":"6.76978000","lon":"100.12216000"},
{"state":"Satun","name":"Amphoe Khuan Kalong","lat":"6.90593000","lon":"100.04178000"},
{"state":"Satun","name":"Amphoe La-Ngu","lat":"6.90392000","lon":"99.79836000"},
{"state":"Satun","name":"Amphoe Manang","lat":"7.01822000","lon":"99.95399000"},
{"state":"Satun","name":"Amphoe Mueang Satun","lat":"6.62314000","lon":"100.06681000"},
{"state":"Satun","name":"Amphoe Tha Phae","lat":"6.79542000","lon":"99.91985000"},
{"state":"Satun","name":"Amphoe Thung Wa","lat":"7.04915000","lon":"99.76587000"},
{"state":"Satun","name":"Satun","lat":"6.62314000","lon":"100.06676000"},
{"state":"Si Sa Ket","name":"Amphoe Benchalak","lat":"14.78319000","lon":"104.71879000"},
{"state":"Si Sa Ket","name":"Amphoe Bueng Bun","lat":"15.30288000","lon":"104.06166000"},
{"state":"Si Sa Ket","name":"Amphoe Huai Thap Than","lat":"15.01808000","lon":"104.03875000"},
{"state":"Si Sa Ket","name":"Amphoe Kantharalak","lat":"14.56800000","lon":"104.67080000"},
{"state":"Si Sa Ket","name":"Amphoe Kanthararom","lat":"15.12447000","lon":"104.57318000"},
{"state":"Si Sa Ket","name":"Amphoe Khukhan","lat":"14.73783000","lon":"104.18590000"},
{"state":"Si Sa Ket","name":"Amphoe Khun Han","lat":"14.53455000","lon":"104.40739000"},
{"state":"Si Sa Ket","name":"Amphoe Mueang Chan","lat":"15.18249000","lon":"104.02471000"},
{"state":"Si Sa Ket","name":"Amphoe Mueang Sisaket","lat":"15.08168000","lon":"104.35126000"},
{"state":"Si Sa Ket","name":"Amphoe Nam Kliang","lat":"14.91022000","lon":"104.52545000"},
{"state":"Si Sa Ket","name":"Amphoe Non Khun","lat":"14.90188000","lon":"104.69564000"},
{"state":"Si Sa Ket","name":"Amphoe Phayu","lat":"14.90639000","lon":"104.38293000"},
{"state":"Si Sa Ket","name":"Amphoe Pho Si Suwan","lat":"15.23370000","lon":"104.06739000"},
{"state":"Si Sa Ket","name":"Amphoe Phrai Bueng","lat":"14.77989000","lon":"104.36599000"},
{"state":"Si Sa Ket","name":"Amphoe Phu Sing","lat":"14.48873000","lon":"104.15603000"},
{"state":"Si Sa Ket","name":"Amphoe Prang Ku","lat":"14.85443000","lon":"104.03740000"},
{"state":"Si Sa Ket","name":"Amphoe Rasi Salai","lat":"15.34637000","lon":"104.18617000"},
{"state":"Si Sa Ket","name":"Amphoe Si Rattana","lat":"14.81062000","lon":"104.47634000"},
{"state":"Si Sa Ket","name":"Amphoe Sila Lat","lat":"15.48070000","lon":"104.09478000"},
{"state":"Si Sa Ket","name":"Amphoe Uthumphon Phisai","lat":"15.12305000","lon":"104.16002000"},
{"state":"Si Sa Ket","name":"Amphoe Wang Hin","lat":"14.96133000","lon":"104.21928000"},
{"state":"Si Sa Ket","name":"Amphoe Yang Chum Noi","lat":"15.23688000","lon":"104.39083000"},
{"state":"Si Sa Ket","name":"Kantharalak","lat":"14.64056000","lon":"104.64992000"},
{"state":"Si Sa Ket","name":"Phrai Bueng","lat":"14.74833000","lon":"104.36261000"},
{"state":"Si Sa Ket","name":"Si Sa Ket","lat":"15.11481000","lon":"104.32938000"},
{"state":"Sing Buri","name":"Amphoe Bang Rachan","lat":"14.89959000","lon":"100.27795000"},
{"state":"Sing Buri","name":"Amphoe In Buri","lat":"15.02057000","lon":"100.34865000"},
{"state":"Sing Buri","name":"Amphoe Khai Bang Rachan","lat":"14.81438000","lon":"100.31389000"},
{"state":"Sing Buri","name":"Amphoe Mueang Sing Buri","lat":"14.90239000","lon":"100.39731000"},
{"state":"Sing Buri","name":"Amphoe Phrom Buri","lat":"14.78333000","lon":"100.45000000"},
{"state":"Sing Buri","name":"Amphoe Tha Chang","lat":"14.77941000","lon":"100.39349000"},
{"state":"Sing Buri","name":"Bang Racham","lat":"14.89200000","lon":"100.31728000"},
{"state":"Sing Buri","name":"In Buri","lat":"15.00787000","lon":"100.32691000"},
{"state":"Sing Buri","name":"Sing Buri","lat":"14.88786000","lon":"100.40464000"},
{"state":"Songkhla","name":"Amphoe Bang Klam","lat":"7.06404000","lon":"100.40664000"},
{"state":"Songkhla","name":"Amphoe Chana","lat":"6.89584000","lon":"100.70126000"},
{"state":"Songkhla","name":"Amphoe Hat Yai","lat":"6.98092000","lon":"100.46539000"},
{"state":"Songkhla","name":"Amphoe Khlong Hoi Khong","lat":"6.86623000","lon":"100.35353000"},
{"state":"Songkhla","name":"Amphoe Khuan Niang","lat":"7.18231000","lon":"100.37403000"},
{"state":"Songkhla","name":"Amphoe Krasae Sin","lat":"7.61254000","lon":"100.32827000"},
{"state":"Songkhla","name":"Amphoe Mueang Songkhla","lat":"7.11075000","lon":"100.60814000"},
{"state":"Songkhla","name":"Amphoe Na Mom","lat":"6.95990000","lon":"100.57161000"},
{"state":"Songkhla","name":"Amphoe Na Thawi","lat":"6.63849000","lon":"100.68173000"},
{"state":"Songkhla","name":"Amphoe Ranot","lat":"7.81390000","lon":"100.28323000"},
{"state":"Songkhla","name":"Amphoe Rattaphum","lat":"7.07488000","lon":"100.19515000"},
{"state":"Songkhla","name":"Amphoe Saba Yoi","lat":"6.52971000","lon":"100.91232000"},
{"state":"Songkhla","name":"Amphoe Sadao","lat":"6.67135000","lon":"100.42409000"},
{"state":"Songkhla","name":"Amphoe Sathing Phra","lat":"7.47963000","lon":"100.42227000"},
{"state":"Songkhla","name":"Amphoe Singhanakhon","lat":"7.28453000","lon":"100.48809000"},
{"state":"Songkhla","name":"Amphoe Thepha","lat":"6.79726000","lon":"100.91025000"},
{"state":"Songkhla","name":"Ban Mai","lat":"7.20411000","lon":"100.54508000"},
{"state":"Songkhla","name":"Hat Yai","lat":"7.00836000","lon":"100.47668000"},
{"state":"Songkhla","name":"Na Mom","lat":"6.95856000","lon":"100.55683000"},
{"state":"Songkhla","name":"Ranot","lat":"7.77768000","lon":"100.32134000"},
{"state":"Songkhla","name":"Sadao","lat":"6.63883000","lon":"100.42342000"},
{"state":"Songkhla","name":"Songkhla","lat":"7.19882000","lon":"100.59510000"},
{"state":"Sukhothai","name":"Amphoe Ban Dan Lan Hoi","lat":"17.05278000","lon":"99.49148000"},
{"state":"Sukhothai","name":"Amphoe Khiri Mat","lat":"16.82923000","lon":"99.73976000"},
{"state":"Sukhothai","name":"Amphoe Kong Krailat","lat":"16.93115000","lon":"99.97414000"},
{"state":"Sukhothai","name":"Amphoe Mueang Sukhothai","lat":"17.02318000","lon":"99.77864000"},
{"state":"Sukhothai","name":"Amphoe Sawankhalok","lat":"17.29899000","lon":"99.85396000"},
{"state":"Sukhothai","name":"Amphoe Si Nakhon","lat":"17.39275000","lon":"99.97666000"},
{"state":"Sukhothai","name":"Amphoe Si Samrong","lat":"17.16397000","lon":"99.74672000"},
{"state":"Sukhothai","name":"Amphoe Si Satchanalai","lat":"17.59927000","lon":"99.70591000"},
{"state":"Sukhothai","name":"Amphoe Thung Saliam","lat":"17.37082000","lon":"99.55265000"},
{"state":"Sukhothai","name":"Ban Dan Lan Hoi","lat":"17.00683000","lon":"99.57497000"},
{"state":"Sukhothai","name":"Ban Na","lat":"17.01717000","lon":"99.73283000"},
{"state":"Sukhothai","name":"Khiri Mat","lat":"16.83333000","lon":"99.80000000"},
{"state":"Sukhothai","name":"Sawankhalok","lat":"17.31597000","lon":"99.83186000"},
{"state":"Sukhothai","name":"Si Satchanalai","lat":"17.51692000","lon":"99.75978000"},
{"state":"Sukhothai","name":"Sukhothai","lat":"17.00778000","lon":"99.82300000"},
{"state":"Suphan Buri","name":"Amphoe Bang Pla Ma","lat":"14.34985000","lon":"100.14479000"},
{"state":"Suphan Buri","name":"Amphoe Dan Chang","lat":"14.88388000","lon":"99.51642000"},
{"state":"Suphan Buri","name":"Amphoe Doembang Nangbuat","lat":"14.87394000","lon":"100.04669000"},
{"state":"Suphan Buri","name":"Amphoe Don Chedi","lat":"14.64804000","lon":"99.94734000"},
{"state":"Suphan Buri","name":"Amphoe Mueang Suphan Buri","lat":"14.49189000","lon":"100.07458000"},
{"state":"Suphan Buri","name":"Amphoe Nong Yasai","lat":"14.77644000","lon":"99.85751000"},
{"state":"Suphan Buri","name":"Amphoe Si Prachan","lat":"14.63810000","lon":"100.15050000"},
{"state":"Suphan Buri","name":"Amphoe Song Phi Nong","lat":"14.18895000","lon":"99.97580000"},
{"state":"Suphan Buri","name":"Amphoe U Thong","lat":"14.41093000","lon":"99.88949000"},
{"state":"Suphan Buri","name":"Ban Sam Chuk","lat":"14.74219000","lon":"100.09531000"},
{"state":"Suphan Buri","name":"Doembang Nangbuat","lat":"14.83333000","lon":"100.10000000"},
{"state":"Suphan Buri","name":"Suphan Buri","lat":"14.47418000","lon":"100.12218000"},
{"state":"Surat Thani","name":"Amphoe Ban Na Doem","lat":"8.90610000","lon":"99.28136000"},
{"state":"Surat Thani","name":"Amphoe Ban Na San","lat":"8.80063000","lon":"99.40201000"},
{"state":"Surat Thani","name":"Amphoe Ban Takhun","lat":"9.10423000","lon":"98.67222000"},
{"state":"Surat Thani","name":"Amphoe Chai Buri","lat":"8.43883000","lon":"99.07721000"},
{"state":"Surat Thani","name":"Amphoe Chaiya","lat":"9.49141000","lon":"98.99568000"},
{"state":"Surat Thani","name":"Amphoe Don Sak","lat":"9.21063000","lon":"99.68887000"},
{"state":"Surat Thani","name":"Amphoe Kanchanadit","lat":"9.07256000","lon":"99.54390000"},
{"state":"Surat Thani","name":"Amphoe Khian Sa","lat":"8.72766000","lon":"99.13240000"},
{"state":"Surat Thani","name":"Amphoe Khiri Rat Nikhom","lat":"9.00590000","lon":"98.94404000"},
{"state":"Surat Thani","name":"Amphoe Ko Pha-ngan","lat":"9.74939000","lon":"100.02649000"},
{"state":"Surat Thani","name":"Amphoe Ko Samui","lat":"9.50841000","lon":"99.99644000"},
{"state":"Surat Thani","name":"Amphoe Mueang Surat Thani","lat":"9.10132000","lon":"99.32614000"},
{"state":"Surat Thani","name":"Amphoe Phanom","lat":"8.82254000","lon":"98.71709000"},
{"state":"Surat Thani","name":"Amphoe Phrasaeng","lat":"8.55124000","lon":"99.10520000"},
{"state":"Surat Thani","name":"Amphoe Phunphin","lat":"9.02472000","lon":"99.14304000"},
{"state":"Surat Thani","name":"Amphoe Tha Chana","lat":"9.61142000","lon":"99.03611000"},
{"state":"Surat Thani","name":"Amphoe Tha Chang","lat":"9.33475000","lon":"98.95619000"},
{"state":"Surat Thani","name":"Amphoe Wiang Sa","lat":"8.59813000","lon":"99.35277000"},
{"state":"Surat Thani","name":"Amphoe Wiphawadi","lat":"9.21972000","lon":"98.87028000"},
{"state":"Surat Thani","name":"Ban Na San","lat":"8.80036000","lon":"99.36372000"},
{"state":"Surat Thani","name":"Chai Buri","lat":"8.46222000","lon":"99.07631000"},
{"state":"Surat Thani","name":"Chaiya","lat":"9.38625000","lon":"99.19861000"},
{"state":"Surat Thani","name":"Don Sak","lat":"9.31676000","lon":"99.69184000"},
{"state":"Surat Thani","name":"Kanchanadit","lat":"9.16611000","lon":"99.47014000"},
{"state":"Surat Thani","name":"Ko Pha Ngan","lat":"9.75778000","lon":"100.02914000"},
{"state":"Surat Thani","name":"Ko Samui","lat":"9.53567000","lon":"99.93567000"},
{"state":"Surat Thani","name":"Koh Tao","lat":"10.09808000","lon":"99.83809000"},
{"state":"Surat Thani","name":"Surat Thani","lat":"9.14011000","lon":"99.33311000"},
{"state":"Surat Thani","name":"Tha Kham","lat":"9.11072000","lon":"99.23208000"},
{"state":"Surat Thani","name":"Tha Khanon","lat":"9.03020000","lon":"98.95286000"},
{"state":"Surat Thani","name":"Wiang Sa","lat":"8.63585000","lon":"99.36660000"},
{"state":"Surin","name":"Amphoe Bua Chet","lat":"14.48406000","lon":"103.97809000"},
{"state":"Surin","name":"Amphoe Chom Phra","lat":"15.14356000","lon":"103.57881000"},
{"state":"Surin","name":"Amphoe Chumphon Buri","lat":"15.37942000","lon":"103.37095000"},
{"state":"Surin","name":"Amphoe Kap Choeng","lat":"14.46795000","lon":"103.58476000"},
{"state":"Surin","name":"Amphoe Khwao Sinarin","lat":"15.00733000","lon":"103.62064000"},
{"state":"Surin","name":"Amphoe Lamduan","lat":"14.71907000","lon":"103.69911000"},
{"state":"Surin","name":"Amphoe Mueang Surin","lat":"14.88359000","lon":"103.51272000"},
{"state":"Surin","name":"Amphoe Non Narai","lat":"15.19111000","lon":"103.92242000"},
{"state":"Surin","name":"Amphoe Phanom Dong Rak","lat":"14.42745000","lon":"103.31007000"},
{"state":"Surin","name":"Amphoe Prasat","lat":"14.62602000","lon":"103.41569000"},
{"state":"Surin","name":"Amphoe Rattanaburi","lat":"15.33780000","lon":"103.90541000"},
{"state":"Surin","name":"Amphoe Samrong Thap","lat":"15.03980000","lon":"103.94089000"},
{"state":"Surin","name":"Amphoe Sangkha","lat":"14.57051000","lon":"103.83911000"},
{"state":"Surin","name":"Amphoe Sanom","lat":"15.17099000","lon":"103.78475000"},
{"state":"Surin","name":"Amphoe Si Khoraphum","lat":"14.94753000","lon":"103.78310000"},
{"state":"Surin","name":"Amphoe Si Narong","lat":"14.78085000","lon":"103.88651000"},
{"state":"Surin","name":"Amphoe Tha Tum","lat":"15.30940000","lon":"103.65111000"},
{"state":"Surin","name":"Surin","lat":"14.88181000","lon":"103.49364000"},
{"state":"Tak","name":"Amphoe Ban Tak","lat":"17.09163000","lon":"99.06648000"},
{"state":"Tak","name":"Amphoe Mae Ramat","lat":"17.11180000","lon":"98.58635000"},
{"state":"Tak","name":"Amphoe Mae Sot","lat":"16.72154000","lon":"98.71074000"},
{"state":"Tak","name":"Amphoe Mueang Tak","lat":"16.87650000","lon":"99.16617000"},
{"state":"Tak","name":"Amphoe Phop Phra","lat":"16.47215000","lon":"98.83501000"},
{"state":"Tak","name":"Amphoe Tha Song Yang","lat":"17.47481000","lon":"98.12079000"},
{"state":"Tak","name":"Amphoe Umphang","lat":"15.79496000","lon":"98.87787000"},
{"state":"Tak","name":"Amphoe Wang Chao","lat":"16.63311000","lon":"99.14826000"},
{"state":"Tak","name":"Ban Tak","lat":"17.04325000","lon":"99.08128000"},
{"state":"Tak","name":"Mae Ramat","lat":"16.98403000","lon":"98.51665000"},
{"state":"Tak","name":"Mae Sot","lat":"16.71667000","lon":"98.56667000"},
{"state":"Tak","name":"Tak","lat":"16.86968000","lon":"99.12898000"},
{"state":"Trang","name":"Amphoe Hat Samran","lat":"7.25733000","lon":"99.58160000"},
{"state":"Trang","name":"Amphoe Huai Yot","lat":"7.80063000","lon":"99.60500000"},
{"state":"Trang","name":"Amphoe Kantang","lat":"7.38563000","lon":"99.47064000"},
{"state":"Trang","name":"Amphoe Mueang Trang","lat":"7.60944000","lon":"99.61772000"},
{"state":"Trang","name":"Amphoe Na Yong","lat":"7.56257000","lon":"99.74791000"},
{"state":"Trang","name":"Amphoe Palian","lat":"7.23340000","lon":"99.79491000"},
{"state":"Trang","name":"Amphoe Ratsada","lat":"7.93779000","lon":"99.66771000"},
{"state":"Trang","name":"Amphoe Sikao","lat":"7.57122000","lon":"99.33915000"},
{"state":"Trang","name":"Amphoe Wang Wiset","lat":"7.76061000","lon":"99.40861000"},
{"state":"Trang","name":"Amphoe Yan Ta Khao","lat":"7.42580000","lon":"99.73438000"},
{"state":"Trang","name":"Huai Yot","lat":"7.78937000","lon":"99.63469000"},
{"state":"Trang","name":"Kantang","lat":"7.40542000","lon":"99.51561000"},
{"state":"Trang","name":"Trang","lat":"7.55633000","lon":"99.61141000"},
{"state":"Trat","name":"Amphoe Bo Rai","lat":"12.55816000","lon":"102.56566000"},
{"state":"Trat","name":"Amphoe Khao Saming","lat":"12.42885000","lon":"102.41784000"},
{"state":"Trat","name":"Amphoe Khlong Yai","lat":"11.85540000","lon":"102.82596000"},
{"state":"Trat","name":"Amphoe Ko Chang","lat":"12.05947000","lon":"102.32941000"},
{"state":"Trat","name":"Amphoe Ko Kut","lat":"11.65714000","lon":"102.56694000"},
{"state":"Trat","name":"Amphoe Laem Ngop","lat":"12.22028000","lon":"102.36558000"},
{"state":"Trat","name":"Amphoe Mueang Trat","lat":"12.26667000","lon":"102.60945000"},
{"state":"Trat","name":"Bo Rai","lat":"12.57283000","lon":"102.53714000"},
{"state":"Trat","name":"Khlong Yai","lat":"11.77645000","lon":"102.88567000"},
{"state":"Trat","name":"Ko Chang Tai","lat":"12.00171000","lon":"102.37267000"},
{"state":"Trat","name":"Trat","lat":"12.24364000","lon":"102.51514000"},
{"state":"Ubon Ratchathani","name":"Amphoe Buntharik","lat":"14.70495000","lon":"105.40444000"},
{"state":"Ubon Ratchathani","name":"Amphoe Det Udom","lat":"14.85153000","lon":"105.07511000"},
{"state":"Ubon Ratchathani","name":"Amphoe Don Mot Daeng","lat":"15.37694000","lon":"105.02107000"},
{"state":"Ubon Ratchathani","name":"Amphoe Khemmarat","lat":"15.97114000","lon":"105.15168000"},
{"state":"Ubon Ratchathani","name":"Amphoe Khong Chiam","lat":"15.45432000","lon":"105.50363000"},
{"state":"Ubon Ratchathani","name":"Amphoe Khueang Nai","lat":"15.39097000","lon":"104.54363000"},
{"state":"Ubon Ratchathani","name":"Amphoe Kut Khaopun","lat":"15.81907000","lon":"105.04066000"},
{"state":"Ubon Ratchathani","name":"Amphoe Lao Suea Kok","lat":"15.43952000","lon":"104.91662000"},
{"state":"Ubon Ratchathani","name":"Amphoe Muang Sam Sip","lat":"15.52637000","lon":"104.71661000"},
{"state":"Ubon Ratchathani","name":"Amphoe Mueang Ubon Ratchathani","lat":"15.29662000","lon":"104.83052000"},
{"state":"Ubon Ratchathani","name":"Amphoe Na Chaluai","lat":"14.56695000","lon":"105.22367000"},
{"state":"Ubon Ratchathani","name":"Amphoe Na Tan","lat":"15.93485000","lon":"105.28454000"},
{"state":"Ubon Ratchathani","name":"Amphoe Na Yia","lat":"15.04140000","lon":"105.05729000"},
{"state":"Ubon Ratchathani","name":"Amphoe Nam Khun","lat":"14.55508000","lon":"104.89872000"},
{"state":"Ubon Ratchathani","name":"Amphoe Nam Yuen","lat":"14.48671000","lon":"105.00269000"},
{"state":"Ubon Ratchathani","name":"Amphoe Phibun Mangsahan","lat":"15.14589000","lon":"105.24094000"},
{"state":"Ubon Ratchathani","name":"Amphoe Pho Sai","lat":"15.76739000","lon":"105.34339000"},
{"state":"Ubon Ratchathani","name":"Amphoe Samrong","lat":"14.98532000","lon":"104.79139000"},
{"state":"Ubon Ratchathani","name":"Amphoe Sawang Wirawong","lat":"15.23439000","lon":"105.07600000"},
{"state":"Ubon Ratchathani","name":"Amphoe Si Mueang Mai","lat":"15.56297000","lon":"105.34830000"},
{"state":"Ubon Ratchathani","name":"Amphoe Sirindhorn","lat":"15.11249000","lon":"105.42837000"},
{"state":"Ubon Ratchathani","name":"Amphoe Tan Sum","lat":"15.39035000","lon":"105.16273000"},
{"state":"Ubon Ratchathani","name":"Amphoe Thung Si Udom","lat":"14.73936000","lon":"104.91731000"},
{"state":"Ubon Ratchathani","name":"Amphoe Trakan Phuet Phon","lat":"15.61360000","lon":"105.06444000"},
{"state":"Ubon Ratchathani","name":"Amphoe Warin Chamrap","lat":"15.12394000","lon":"104.87499000"},
{"state":"Ubon Ratchathani","name":"Det Udom","lat":"14.90598000","lon":"105.07836000"},
{"state":"Ubon Ratchathani","name":"Phibun Mangsahan","lat":"15.24467000","lon":"105.22908000"},
{"state":"Ubon Ratchathani","name":"Sawang Wirawong","lat":"15.24158000","lon":"105.09220000"},
{"state":"Ubon Ratchathani","name":"Ubon Ratchathani","lat":"15.23844000","lon":"104.84866000"},
{"state":"Ubon Ratchathani","name":"Warin Chamrap","lat":"15.19319000","lon":"104.86280000"},
{"state":"Udon Thani","name":"Amphoe Ban Dung","lat":"17.71134000","lon":"103.26729000"},
{"state":"Udon Thani","name":"Amphoe Ban Phue","lat":"17.67709000","lon":"102.44563000"},
{"state":"Udon Thani","name":"Amphoe Chai Wan","lat":"17.21581000","lon":"103.27832000"},
{"state":"Udon Thani","name":"Amphoe Ku Kaeo","lat":"17.16286000","lon":"103.16754000"},
{"state":"Udon Thani","name":"Amphoe Kumphawapi","lat":"17.09209000","lon":"102.99395000"},
{"state":"Udon Thani","name":"Amphoe Kut Chap","lat":"17.44009000","lon":"102.54083000"},
{"state":"Udon Thani","name":"Amphoe Mueang Udon Thani","lat":"17.39085000","lon":"102.78912000"},
{"state":"Udon Thani","name":"Amphoe Na Yung","lat":"17.93470000","lon":"102.13417000"},
{"state":"Udon Thani","name":"Amphoe Nam Som","lat":"17.74338000","lon":"102.17328000"},
{"state":"Udon Thani","name":"Amphoe Non Sa-at","lat":"16.95002000","lon":"102.89990000"},
{"state":"Udon Thani","name":"Amphoe Nong Han","lat":"17.36853000","lon":"103.11510000"},
{"state":"Udon Thani","name":"Amphoe Nong Saeng","lat":"17.14166000","lon":"102.78592000"},
{"state":"Udon Thani","name":"Amphoe Nong Wua So","lat":"17.18691000","lon":"102.58986000"},
{"state":"Udon Thani","name":"Amphoe Phen","lat":"17.66033000","lon":"102.93052000"},
{"state":"Udon Thani","name":"Amphoe Phibun Rak","lat":"17.52630000","lon":"103.07497000"},
{"state":"Udon Thani","name":"Amphoe Prachak Sinlapakhom","lat":"17.24648000","lon":"102.98713000"},
{"state":"Udon Thani","name":"Amphoe Sang Khom","lat":"17.79433000","lon":"103.05114000"},
{"state":"Udon Thani","name":"Amphoe Si That","lat":"17.03388000","lon":"103.23084000"},
{"state":"Udon Thani","name":"Amphoe Thung Fon","lat":"17.49061000","lon":"103.22088000"},
{"state":"Udon Thani","name":"Amphoe Wang Sam Mo","lat":"17.04595000","lon":"103.46262000"},
{"state":"Udon Thani","name":"Ban Dung","lat":"17.69900000","lon":"103.25957000"},
{"state":"Udon Thani","name":"Ban Nong Wua So","lat":"17.26750000","lon":"103.22472000"},
{"state":"Udon Thani","name":"Ban Phan Don","lat":"17.14272000","lon":"102.97261000"},
{"state":"Udon Thani","name":"Kumphawapi","lat":"17.10875000","lon":"103.01487000"},
{"state":"Udon Thani","name":"Kut Chap","lat":"17.42570000","lon":"102.56692000"},
{"state":"Udon Thani","name":"Nam Som","lat":"17.77036000","lon":"102.18947000"},
{"state":"Udon Thani","name":"Nong Wua So","lat":"17.16261000","lon":"102.57272000"},
{"state":"Udon Thani","name":"Udon Thani","lat":"17.41567000","lon":"102.78589000"},
{"state":"Uthai Thani","name":"Amphoe Ban Rai","lat":"15.24921000","lon":"99.32817000"},
{"state":"Uthai Thani","name":"Amphoe Huai Khot","lat":"15.32761000","lon":"99.51941000"},
{"state":"Uthai Thani","name":"Amphoe Lan Sak","lat":"15.52289000","lon":"99.46110000"},
{"state":"Uthai Thani","name":"Amphoe Mueang Uthai Thani","lat":"15.40857000","lon":"100.02794000"},
{"state":"Uthai Thani","name":"Amphoe Nong Chang","lat":"15.36755000","lon":"99.77273000"},
{"state":"Uthai Thani","name":"Amphoe Nong Khayang","lat":"15.34892000","lon":"99.94706000"},
{"state":"Uthai Thani","name":"Amphoe Sawang Arom","lat":"15.60250000","lon":"99.78490000"},
{"state":"Uthai Thani","name":"Amphoe Thap Than","lat":"15.49057000","lon":"99.82224000"},
{"state":"Uthai Thani","name":"Huai Khot","lat":"15.29095000","lon":"99.61661000"},
{"state":"Uthai Thani","name":"Lan Sak","lat":"15.45289000","lon":"99.57606000"},
{"state":"Uthai Thani","name":"Thap Than","lat":"15.46063000","lon":"99.89166000"},
{"state":"Uthai Thani","name":"Uthai Thani","lat":"15.37939000","lon":"100.02450000"},
{"state":"Uttaradit","name":"Amphoe Ban Khok","lat":"18.14680000","lon":"101.06610000"},
{"state":"Uttaradit","name":"Amphoe Fak Tha","lat":"18.00078000","lon":"100.88885000"},
{"state":"Uttaradit","name":"Amphoe Lap Lae","lat":"17.65741000","lon":"100.01484000"},
{"state":"Uttaradit","name":"Amphoe Mueang Uttaradit","lat":"17.68138000","lon":"100.19963000"},
{"state":"Uttaradit","name":"Amphoe Nam Pat","lat":"17.70025000","lon":"100.72738000"},
{"state":"Uttaradit","name":"Amphoe Phichai","lat":"17.30188000","lon":"100.11281000"},
{"state":"Uttaradit","name":"Amphoe Tha Pla","lat":"17.85868000","lon":"100.47061000"},
{"state":"Uttaradit","name":"Amphoe Thong Saen Khan","lat":"17.49930000","lon":"100.39658000"},
{"state":"Uttaradit","name":"Amphoe Tron","lat":"17.47231000","lon":"100.13467000"},
{"state":"Uttaradit","name":"Uttaradit","lat":"17.62557000","lon":"100.09421000"},
{"state":"Yala","name":"Amphoe Bannang Sata","lat":"6.25643000","lon":"101.27852000"},
{"state":"Yala","name":"Amphoe Betong","lat":"5.86362000","lon":"101.22737000"},
{"state":"Yala","name":"Amphoe Kabang","lat":"6.37923000","lon":"100.98348000"},
{"state":"Yala","name":"Amphoe Krong Pinang","lat":"6.39932000","lon":"101.25710000"},
{"state":"Yala","name":"Amphoe Mueang Yala","lat":"6.54378000","lon":"101.25105000"},
{"state":"Yala","name":"Amphoe Raman","lat":"6.48985000","lon":"101.43442000"},
{"state":"Yala","name":"Amphoe Than To","lat":"6.08042000","lon":"101.25941000"},
{"state":"Yala","name":"Amphoe Yaha","lat":"6.40529000","lon":"101.12679000"},
{"state":"Yala","name":"Betong","lat":"5.77434000","lon":"101.07231000"},
{"state":"Yala","name":"Yala","lat":"6.53995000","lon":"101.28128000"},
{"state":"Yasothon","name":"Amphoe Kham Khuan Kaeo","lat":"15.67197000","lon":"104.33372000"},
{"state":"Yasothon","name":"Amphoe Kho Wang","lat":"15.38164000","lon":"104.34109000"},
{"state":"Yasothon","name":"Amphoe Kut Chum","lat":"16.04620000","lon":"104.30545000"},
{"state":"Yasothon","name":"Amphoe Loeng Nok Tha","lat":"16.20433000","lon":"104.51442000"},
{"state":"Yasothon","name":"Amphoe Maha Chana Chai","lat":"15.51267000","lon":"104.26104000"},
{"state":"Yasothon","name":"Amphoe Mueang Yasothon","lat":"15.85550000","lon":"104.17804000"},
{"state":"Yasothon","name":"Amphoe Pa Tio","lat":"15.84415000","lon":"104.39994000"},
{"state":"Yasothon","name":"Amphoe Sai Mun","lat":"15.97917000","lon":"104.19070000"},
{"state":"Yasothon","name":"Amphoe Thai Charoen","lat":"16.07936000","lon":"104.42778000"},
{"state":"Yasothon","name":"Yasothon","lat":"15.79408000","lon":"104.14510000"}]