[{"state":"districts of Republican Subordination","name":"Darband","lat":"38.86776000","lon":"69.96642000"},
{"state":"districts of Republican Subordination","name":"Hisor","lat":"38.52504000","lon":"68.55124000"},
{"state":"districts of Republican Subordination","name":"Karakenja","lat":"39.23585000","lon":"71.52412000"},
{"state":"districts of Republican Subordination","name":"Khodzha-Maston","lat":"38.74457000","lon":"68.62702000"},
{"state":"districts of Republican Subordination","name":"Novobod","lat":"39.01084000","lon":"70.15082000"},
{"state":"districts of Republican Subordination","name":"Obigarm","lat":"38.71731000","lon":"69.70885000"},
{"state":"districts of Republican Subordination","name":"Rasht","lat":"39.02871000","lon":"70.37446000"},
{"state":"districts of Republican Subordination","name":"Roghun","lat":"38.69331000","lon":"69.73692000"},
{"state":"districts of Republican Subordination","name":"Shahrinav","lat":"38.57085000","lon":"68.33498000"},
{"state":"districts of Republican Subordination","name":"Tagob","lat":"38.83827000","lon":"68.89847000"},
{"state":"districts of Republican Subordination","name":"Tursunzoda","lat":"38.51271000","lon":"68.23163000"},
{"state":"districts of Republican Subordination","name":"Vahdat","lat":"38.55632000","lon":"69.01354000"},
{"state":"districts of Republican Subordination","name":"Vahdat District","lat":"38.83333000","lon":"69.33333000"},
{"state":"districts of Republican Subordination","name":"Varzob","lat":"38.77369000","lon":"68.81776000"},
{"state":"districts of Republican Subordination","name":"Varzob District","lat":"38.75000000","lon":"68.75000000"},
{"state":"Gorno-Badakhshan Autonomous Province","name":"Ishqoshim","lat":"36.72484000","lon":"71.61331000"},
{"state":"Gorno-Badakhshan Autonomous Province","name":"Khorugh","lat":"37.48974000","lon":"71.55304000"},
{"state":"Gorno-Badakhshan Autonomous Province","name":"Murghob","lat":"38.17023000","lon":"73.96674000"},
{"state":"Gorno-Badakhshan Autonomous Province","name":"Nohiyai Shughnon","lat":"37.70004000","lon":"72.16748000"},
{"state":"Khatlon Province","name":"Abdurahmoni Jomí","lat":"37.94636000","lon":"68.80878000"},
{"state":"Khatlon Province","name":"Boshchorbogh","lat":"37.52027000","lon":"68.12825000"},
{"state":"Khatlon Province","name":"Bŭstonqal’a","lat":"37.84783000","lon":"68.83125000"},
{"state":"Khatlon Province","name":"Chubek","lat":"37.61453000","lon":"69.70525000"},
{"state":"Khatlon Province","name":"Danghara","lat":"38.09578000","lon":"69.33998000"},
{"state":"Khatlon Province","name":"Dŭstí","lat":"37.34812000","lon":"68.66398000"},
{"state":"Khatlon Province","name":"Farkhor","lat":"37.49219000","lon":"69.40356000"},
{"state":"Khatlon Province","name":"Gharavŭtí","lat":"37.56703000","lon":"68.44668000"},
{"state":"Khatlon Province","name":"Jilikŭl","lat":"37.49167000","lon":"68.53106000"},
{"state":"Khatlon Province","name":"Kirov","lat":"37.81908000","lon":"68.85905000"},
{"state":"Khatlon Province","name":"Kolkhozobod","lat":"37.58823000","lon":"68.65886000"},
{"state":"Khatlon Province","name":"Kŭlob","lat":"37.91459000","lon":"69.78454000"},
{"state":"Khatlon Province","name":"Moskovskiy","lat":"37.60931000","lon":"68.58094000"},
{"state":"Khatlon Province","name":"Mŭ’minobod","lat":"38.10714000","lon":"70.03213000"},
{"state":"Khatlon Province","name":"Nohiyai Kolkhozobod","lat":"37.57277000","lon":"68.81528000"},
{"state":"Khatlon Province","name":"Nohiyai Panj","lat":"37.31611000","lon":"69.16679000"},
{"state":"Khatlon Province","name":"Nohiyai Vakhsh","lat":"37.75602000","lon":"68.94138000"},
{"state":"Khatlon Province","name":"Norak","lat":"38.38917000","lon":"69.32272000"},
{"state":"Khatlon Province","name":"Orzu","lat":"37.55820000","lon":"68.81952000"},
{"state":"Khatlon Province","name":"Panj","lat":"37.23634000","lon":"69.09911000"},
{"state":"Khatlon Province","name":"Qŭrghonteppa","lat":"37.83399000","lon":"68.78186000"},
{"state":"Khatlon Province","name":"Shahritus","lat":"37.26206000","lon":"68.13849000"},
{"state":"Khatlon Province","name":"Sovet","lat":"38.04670000","lon":"69.58822000"},
{"state":"Khatlon Province","name":"Tartiki","lat":"37.58221000","lon":"68.13347000"},
{"state":"Khatlon Province","name":"Vakhsh","lat":"37.71485000","lon":"68.83456000"},
{"state":"Khatlon Province","name":"Vose’","lat":"37.80396000","lon":"69.64417000"},
{"state":"Khatlon Province","name":"Yovon","lat":"38.31408000","lon":"69.03784000"},
{"state":"Sughd Province","name":"Adrasmon","lat":"40.64928000","lon":"69.98472000"},
{"state":"Sughd Province","name":"Ayní","lat":"39.39406000","lon":"68.53766000"},
{"state":"Sughd Province","name":"Bŭston","lat":"40.52286000","lon":"69.33307000"},
{"state":"Sughd Province","name":"Chkalov","lat":"40.23417000","lon":"69.69481000"},
{"state":"Sughd Province","name":"Ghafurov","lat":"40.21571000","lon":"69.72867000"},
{"state":"Sughd Province","name":"Isfara","lat":"40.12649000","lon":"70.62526000"},
{"state":"Sughd Province","name":"Istaravshan","lat":"39.91420000","lon":"69.00328000"},
{"state":"Sughd Province","name":"Khŭjand","lat":"40.28256000","lon":"69.62216000"},
{"state":"Sughd Province","name":"Kim","lat":"40.20798000","lon":"70.46882000"},
{"state":"Sughd Province","name":"Konibodom","lat":"40.29414000","lon":"70.43122000"},
{"state":"Sughd Province","name":"Konsoy","lat":"40.49155000","lon":"69.70245000"},
{"state":"Sughd Province","name":"Neftobod","lat":"40.21524000","lon":"70.57193000"},
{"state":"Sughd Province","name":"Nohiyai Konibodom","lat":"40.26877000","lon":"70.33057000"},
{"state":"Sughd Province","name":"Nov","lat":"40.15220000","lon":"69.37076000"},
{"state":"Sughd Province","name":"Oltintopkan","lat":"40.65425000","lon":"69.59811000"},
{"state":"Sughd Province","name":"Pakhtakoron","lat":"40.15709000","lon":"68.74659000"},
{"state":"Sughd Province","name":"Palos","lat":"40.31628000","lon":"69.73743000"},
{"state":"Sughd Province","name":"Panjakent","lat":"39.49524000","lon":"67.60931000"},
{"state":"Sughd Province","name":"Proletar","lat":"40.16713000","lon":"69.50163000"},
{"state":"Sughd Province","name":"Quruqsoy","lat":"40.57648000","lon":"69.37962000"},
{"state":"Sughd Province","name":"Shaydon","lat":"40.66992000","lon":"70.35020000"},
{"state":"Sughd Province","name":"Shŭrob","lat":"40.04605000","lon":"70.54117000"},
{"state":"Sughd Province","name":"Taboshar","lat":"40.57017000","lon":"69.64175000"},
{"state":"Sughd Province","name":"Vorukh","lat":"39.85125000","lon":"70.58012000"}]