[{"state":"Aileu municipality","name":"Aileu","lat":"-8.72806000","lon":"125.56639000"},
{"state":"Aileu municipality","name":"Lequidoe","lat":"-8.69139000","lon":"125.63611000"},
{"state":"Aileu municipality","name":"Remexio","lat":"-8.61667000","lon":"125.66667000"},
{"state":"Ainaro Municipality","name":"Ainaro","lat":"-8.99241000","lon":"125.50816000"},
{"state":"Ainaro Municipality","name":"Hato-Udo","lat":"-9.12036000","lon":"125.58935000"},
{"state":"Baucau Municipality","name":"Baguia","lat":"-8.62787000","lon":"126.65743000"},
{"state":"Baucau Municipality","name":"Baucau","lat":"-8.46667000","lon":"126.45000000"},
{"state":"Baucau Municipality","name":"Baukau","lat":"-8.47572000","lon":"126.45633000"},
{"state":"Baucau Municipality","name":"Laga","lat":"-8.47411000","lon":"126.59228000"},
{"state":"Baucau Municipality","name":"Quelicai","lat":"-8.60135000","lon":"126.55904000"},
{"state":"Baucau Municipality","name":"Vemasse","lat":"-8.51036000","lon":"126.20823000"},
{"state":"Baucau Municipality","name":"Venilale","lat":"-8.64306000","lon":"126.37833000"},
{"state":"Bobonaro Municipality","name":"Maliana","lat":"-8.99167000","lon":"125.21972000"},
{"state":"Cova Lima Municipality","name":"Fatumean","lat":"-9.22917000","lon":"125.03583000"},
{"state":"Cova Lima Municipality","name":"Fohorem","lat":"-9.28361000","lon":"125.08944000"},
{"state":"Cova Lima Municipality","name":"Maucatar","lat":"-9.21772000","lon":"125.22981000"},
{"state":"Cova Lima Municipality","name":"Suai","lat":"-9.30000000","lon":"125.25000000"},
{"state":"Cova Lima Municipality","name":"Tilomar","lat":"-9.34182000","lon":"125.10887000"},
{"state":"Dili municipality","name":"Atauro Island","lat":"-8.26785000","lon":"125.59699000"},
{"state":"Dili municipality","name":"Cristo Rei","lat":"-8.52047000","lon":"125.60837000"},
{"state":"Dili municipality","name":"Dili","lat":"-8.55861000","lon":"125.57361000"},
{"state":"Dili municipality","name":"Metinaro","lat":"-8.53007000","lon":"125.74163000"},
{"state":"Ermera District","name":"Ermera Villa","lat":"-8.75222000","lon":"125.39694000"},
{"state":"Ermera District","name":"Gleno","lat":"-8.72389000","lon":"125.43611000"},
{"state":"Ermera District","name":"Hatulia","lat":"-8.81667000","lon":"125.31667000"},
{"state":"Ermera District","name":"Letefoho","lat":"-8.83444000","lon":"125.42639000"},
{"state":"Ermera District","name":"Railaco","lat":"-8.67237000","lon":"125.42546000"},
{"state":"Lautém Municipality","name":"Iliomar","lat":"-8.70917000","lon":"126.82833000"},
{"state":"Lautém Municipality","name":"Lautem","lat":"-8.36514000","lon":"126.90389000"},
{"state":"Lautém Municipality","name":"Lospalos","lat":"-8.52167000","lon":"126.99833000"},
{"state":"Lautém Municipality","name":"Luro","lat":"-8.54359000","lon":"126.83003000"},
{"state":"Lautém Municipality","name":"Tutuala","lat":"-8.39597000","lon":"127.25923000"},
{"state":"Liquiçá Municipality","name":"Bazartete","lat":"-8.62464000","lon":"125.38168000"},
{"state":"Liquiçá Municipality","name":"Likisá","lat":"-8.58750000","lon":"125.34194000"},
{"state":"Liquiçá Municipality","name":"Maubara","lat":"-8.61194000","lon":"125.20611000"},
{"state":"Manatuto District","name":"Barique","lat":"-8.85472000","lon":"126.06556000"},
{"state":"Manatuto District","name":"Laclo","lat":"-8.55000000","lon":"125.91667000"},
{"state":"Manatuto District","name":"Laclubar","lat":"-8.74975000","lon":"125.91186000"},
{"state":"Manatuto District","name":"Manatuto","lat":"-8.52207000","lon":"126.01516000"},
{"state":"Manatuto District","name":"Manatutu","lat":"-8.51139000","lon":"126.01306000"},
{"state":"Manatuto District","name":"Soibada","lat":"-8.86000000","lon":"125.94000000"},
{"state":"Manufahi Municipality","name":"Alas","lat":"-9.02730000","lon":"125.78680000"},
{"state":"Manufahi Municipality","name":"Fatuberliu","lat":"-8.94790000","lon":"125.86633000"},
{"state":"Manufahi Municipality","name":"Same","lat":"-9.00000000","lon":"125.65000000"},
{"state":"Manufahi Municipality","name":"Turiscai","lat":"-8.82371000","lon":"125.70454000"},
{"state":"Viqueque Municipality","name":"Lacluta","lat":"-8.80000000","lon":"126.13333000"},
{"state":"Viqueque Municipality","name":"Ossu","lat":"-8.73477000","lon":"126.38324000"},
{"state":"Viqueque Municipality","name":"Uatocarabau","lat":"-8.75658000","lon":"126.68060000"},
{"state":"Viqueque Municipality","name":"Uatolari","lat":"-8.76277000","lon":"126.57353000"},
{"state":"Viqueque Municipality","name":"Viqueque","lat":"-8.85908000","lon":"126.36972000"}]