[{"state":"Ahal Region","name":"Abadan","lat":"38.05415000","lon":"58.19721000"},
{"state":"Ahal Region","name":"Annau","lat":"37.88754000","lon":"58.51596000"},
{"state":"Ahal Region","name":"Arçabil","lat":"37.91500000","lon":"58.08987000"},
{"state":"Ahal Region","name":"Baharly","lat":"38.43624000","lon":"57.43158000"},
{"state":"Ahal Region","name":"Kaka","lat":"37.34821000","lon":"59.61431000"},
{"state":"Ahal Region","name":"Tejen","lat":"37.38338000","lon":"60.50545000"},
{"state":"Ashgabat","name":"Ashgabat","lat":"37.95000000","lon":"58.38333000"},
{"state":"Balkan Region","name":"Balkanabat","lat":"39.51075000","lon":"54.36713000"},
{"state":"Balkan Region","name":"Bereket","lat":"39.24463000","lon":"55.51536000"},
{"state":"Balkan Region","name":"Gumdag","lat":"39.20611000","lon":"54.59056000"},
{"state":"Balkan Region","name":"Magtymguly","lat":"38.43749000","lon":"56.28081000"},
{"state":"Balkan Region","name":"Serdar","lat":"38.97644000","lon":"56.27575000"},
{"state":"Balkan Region","name":"Türkmenbaşy","lat":"40.02216000","lon":"52.95517000"},
{"state":"Daşoguz Region","name":"Akdepe","lat":"42.05513000","lon":"59.37877000"},
{"state":"Daşoguz Region","name":"Boldumsaz","lat":"42.12824000","lon":"59.67101000"},
{"state":"Daşoguz Region","name":"Daşoguz","lat":"41.83625000","lon":"59.96661000"},
{"state":"Daşoguz Region","name":"Köneürgench","lat":"42.32773000","lon":"59.15442000"},
{"state":"Daşoguz Region","name":"Tagta","lat":"41.65041000","lon":"59.91640000"},
{"state":"Daşoguz Region","name":"Yylanly","lat":"41.83333000","lon":"59.65000000"},
{"state":"Lebap Region","name":"Atamyrat","lat":"37.83573000","lon":"65.21058000"},
{"state":"Lebap Region","name":"Farap","lat":"39.17037000","lon":"63.61165000"},
{"state":"Lebap Region","name":"Gazojak","lat":"41.18746000","lon":"61.40360000"},
{"state":"Lebap Region","name":"Gowurdak","lat":"37.81244000","lon":"66.04656000"},
{"state":"Lebap Region","name":"Saýat","lat":"38.78393000","lon":"63.88035000"},
{"state":"Lebap Region","name":"Türkmenabat","lat":"39.07328000","lon":"63.57861000"},
{"state":"Mary Region","name":"Bayramaly","lat":"37.61852000","lon":"62.16715000"},
{"state":"Mary Region","name":"Mary","lat":"37.59378000","lon":"61.83031000"},
{"state":"Mary Region","name":"Serhetabat","lat":"35.27992000","lon":"62.34383000"},
{"state":"Mary Region","name":"Seydi","lat":"39.48160000","lon":"62.91374000"},
{"state":"Mary Region","name":"Yolöten","lat":"37.29886000","lon":"62.35975000"}]