[{"name":"Ahal Region","native":null,"cities":[{"name":"Abadan","native":null,"lat":"38.05415000","lon":"58.19721000"},{"name":"Annau","native":null,"lat":"37.88754000","lon":"58.51596000"},{"name":"Arçabil","native":null,"lat":"37.91500000","lon":"58.08987000"},{"name":"Baharly","native":null,"lat":"38.43624000","lon":"57.43158000"},{"name":"Kaka","native":null,"lat":"37.34821000","lon":"59.61431000"},{"name":"Tejen","native":null,"lat":"37.38338000","lon":"60.50545000"}]},{"name":"Ashgabat","native":null,"cities":[{"name":"Ashgabat","native":null,"lat":"37.95000000","lon":"58.38333000"}]},{"name":"Balkan Region","native":null,"cities":[{"name":"Balkanabat","native":null,"lat":"39.51075000","lon":"54.36713000"},{"name":"Bereket","native":null,"lat":"39.24463000","lon":"55.51536000"},{"name":"Gumdag","native":null,"lat":"39.20611000","lon":"54.59056000"},{"name":"Magtymguly","native":null,"lat":"38.43749000","lon":"56.28081000"},{"name":"Serdar","native":null,"lat":"38.97644000","lon":"56.27575000"},{"name":"Türkmenbaşy","native":null,"lat":"40.02216000","lon":"52.95517000"}]},{"name":"Daşoguz Region","native":null,"cities":[{"name":"Akdepe","native":null,"lat":"42.05513000","lon":"59.37877000"},{"name":"Boldumsaz","native":null,"lat":"42.12824000","lon":"59.67101000"},{"name":"Daşoguz","native":null,"lat":"41.83625000","lon":"59.96661000"},{"name":"Köneürgench","native":null,"lat":"42.32773000","lon":"59.15442000"},{"name":"Tagta","native":null,"lat":"41.65041000","lon":"59.91640000"},{"name":"Yylanly","native":null,"lat":"41.83333000","lon":"59.65000000"}]},{"name":"Lebap Region","native":null,"cities":[{"name":"Atamyrat","native":null,"lat":"37.83573000","lon":"65.21058000"},{"name":"Farap","native":null,"lat":"39.17037000","lon":"63.61165000"},{"name":"Gazojak","native":null,"lat":"41.18746000","lon":"61.40360000"},{"name":"Gowurdak","native":null,"lat":"37.81244000","lon":"66.04656000"},{"name":"Saýat","native":null,"lat":"38.78393000","lon":"63.88035000"},{"name":"Türkmenabat","native":null,"lat":"39.07328000","lon":"63.57861000"}]},{"name":"Mary Region","native":null,"cities":[{"name":"Bayramaly","native":null,"lat":"37.61852000","lon":"62.16715000"},{"name":"Mary","native":null,"lat":"37.59378000","lon":"61.83031000"},{"name":"Serhetabat","native":null,"lat":"35.27992000","lon":"62.34383000"},{"name":"Seydi","native":null,"lat":"39.48160000","lon":"62.91374000"},{"name":"Yolöten","native":null,"lat":"37.29886000","lon":"62.35975000"}]}]