[{"state":"Ariana","name":"Ariana","lat":"36.86012000","lon":"10.19337000"},
{"state":"Ariana","name":"Galaat el Andeless","lat":"37.06290000","lon":"10.11829000"},
{"state":"Ben Arous","name":"Ben Arous","lat":"36.75452000","lon":"10.22167000"},
{"state":"Ben Arous","name":"Hammam Lif","lat":"36.71919000","lon":"10.32233000"},
{"state":"Ben Arous","name":"Hammam-Lif","lat":"36.72866000","lon":"10.34163000"},
{"state":"Ben Arous","name":"La Sebala du Mornag","lat":"36.67931000","lon":"10.29195000"},
{"state":"Ben Arous","name":"Radès","lat":"36.76946000","lon":"10.27468000"},
{"state":"Bizerte","name":"Al Matlīn","lat":"37.24516000","lon":"10.05000000"},
{"state":"Bizerte","name":"Bizerte","lat":"37.27442000","lon":"9.87391000"},
{"state":"Bizerte","name":"Bizerte Sud","lat":"37.25528000","lon":"9.67915000"},
{"state":"Bizerte","name":"Douar Tindja","lat":"37.16667000","lon":"9.75000000"},
{"state":"Bizerte","name":"El Alia","lat":"37.16911000","lon":"10.03478000"},
{"state":"Bizerte","name":"Mateur","lat":"37.04045000","lon":"9.66557000"},
{"state":"Bizerte","name":"Menzel Abderhaman","lat":"37.23737000","lon":"9.86313000"},
{"state":"Bizerte","name":"Menzel Bourguiba","lat":"37.15368000","lon":"9.78594000"},
{"state":"Bizerte","name":"Menzel Jemil","lat":"37.23618000","lon":"9.91448000"},
{"state":"Bizerte","name":"Rafrāf","lat":"37.19043000","lon":"10.18365000"},
{"state":"Bizerte","name":"Rhar el Melah","lat":"37.16939000","lon":"10.19064000"},
{"state":"Bizerte","name":"Sejenane","lat":"37.05722000","lon":"9.23806000"},
{"state":"Bizerte","name":"Zahānah","lat":"37.03959000","lon":"10.03876000"},
{"state":"Gabès","name":"Bou Attouche","lat":"33.89927000","lon":"9.78496000"},
{"state":"Gabès","name":"El Hamma","lat":"33.89152000","lon":"9.79629000"},
{"state":"Gabès","name":"Gabès","lat":"33.88146000","lon":"10.09820000"},
{"state":"Gabès","name":"Matmata","lat":"33.54445000","lon":"9.97157000"},
{"state":"Gafsa","name":"Ar Rudayyif","lat":"34.38270000","lon":"8.15549000"},
{"state":"Gafsa","name":"As Sanad","lat":"34.46280000","lon":"9.26404000"},
{"state":"Gafsa","name":"Gafsa","lat":"34.42500000","lon":"8.78417000"},
{"state":"Gafsa","name":"Metlaoui","lat":"34.32081000","lon":"8.40157000"},
{"state":"Gafsa","name":"Mu‘tamadīyat ar Rudayyif","lat":"34.40081000","lon":"8.17057000"},
{"state":"Jendouba","name":"Fernana","lat":"36.65547000","lon":"8.69602000"},
{"state":"Jendouba","name":"Jendouba","lat":"36.48519000","lon":"8.82325000"},
{"state":"Jendouba","name":"Oued Meliz","lat":"36.46813000","lon":"8.54951000"},
{"state":"Jendouba","name":"Tabarka","lat":"36.95442000","lon":"8.75801000"},
{"state":"Kairouan","name":"Haffouz","lat":"35.63235000","lon":"9.67624000"},
{"state":"Kairouan","name":"Kairouan","lat":"35.67810000","lon":"10.09633000"},
{"state":"Kairouan","name":"Sbikha","lat":"35.93325000","lon":"10.02081000"},
{"state":"Kasserine","name":"Kasserine","lat":"35.16758000","lon":"8.83651000"},
{"state":"Kasserine","name":"Rohia","lat":"35.65129000","lon":"9.05306000"},
{"state":"Kasserine","name":"Sbiba","lat":"35.54332000","lon":"9.07370000"},
{"state":"Kasserine","name":"Thala","lat":"35.57244000","lon":"8.67031000"},
{"state":"Kassrine","name":"Béja","lat":"36.72564000","lon":"9.18169000"},
{"state":"Kassrine","name":"Délégation de Béja Nord","lat":"36.80353000","lon":"9.24984000"},
{"state":"Kassrine","name":"Goubellat","lat":"36.54178000","lon":"9.66334000"},
{"state":"Kassrine","name":"Medjez el Bab","lat":"36.64964000","lon":"9.61231000"},
{"state":"Kassrine","name":"Tabursuq","lat":"36.45692000","lon":"9.24751000"},
{"state":"Kassrine","name":"Testour","lat":"36.55130000","lon":"9.44307000"},
{"state":"Kebili","name":"Douz","lat":"33.46632000","lon":"9.02030000"},
{"state":"Kebili","name":"El Golaa","lat":"33.48485000","lon":"9.00678000"},
{"state":"Kebili","name":"Jemna","lat":"33.57778000","lon":"9.01472000"},
{"state":"Kebili","name":"Kebili","lat":"33.70439000","lon":"8.96903000"},
{"state":"Kef","name":"As Sars","lat":"36.07640000","lon":"9.02117000"},
{"state":"Kef","name":"El Kef","lat":"36.17424000","lon":"8.70486000"},
{"state":"Kef","name":"El Ksour","lat":"35.89607000","lon":"8.88493000"},
{"state":"Kef","name":"Menzel Salem","lat":"35.85673000","lon":"8.47654000"},
{"state":"Kef","name":"Nibbar","lat":"36.29411000","lon":"8.76657000"},
{"state":"Kef","name":"Sakiet Sidi Youssef","lat":"36.22292000","lon":"8.35547000"},
{"state":"Kef","name":"Tajerouine","lat":"35.89174000","lon":"8.55276000"},
{"state":"Mahdia","name":"Chebba","lat":"35.23722000","lon":"11.11500000"},
{"state":"Mahdia","name":"Chorbane","lat":"35.28581000","lon":"10.38580000"},
{"state":"Mahdia","name":"El Jem","lat":"35.30000000","lon":"10.71667000"},
{"state":"Mahdia","name":"Ksour Essaf","lat":"35.41808000","lon":"10.99475000"},
{"state":"Mahdia","name":"Mahdia","lat":"35.50472000","lon":"11.06222000"},
{"state":"Mahdia","name":"Melloulèche","lat":"35.16617000","lon":"11.03504000"},
{"state":"Mahdia","name":"Salakta","lat":"35.39444000","lon":"11.04361000"},
{"state":"Mahdia","name":"Sidi Alouane","lat":"35.37505000","lon":"10.93899000"},
{"state":"Mahdia","name":"Zouila","lat":"35.50056000","lon":"11.06056000"},
{"state":"Manouba","name":"El Battan","lat":"36.80368000","lon":"9.84424000"},
{"state":"Manouba","name":"Manouba","lat":"36.81006000","lon":"10.09557000"},
{"state":"Manouba","name":"Mu‘tamadīyat Manūbah","lat":"36.80907000","lon":"10.09467000"},
{"state":"Manouba","name":"Oued Lill","lat":"36.83408000","lon":"10.04057000"},
{"state":"Medenine","name":"Ben Gardane","lat":"33.13783000","lon":"11.21965000"},
{"state":"Medenine","name":"Beni Kheddache","lat":"33.25279000","lon":"10.19883000"},
{"state":"Medenine","name":"Erriadh","lat":"33.82063000","lon":"10.85394000"},
{"state":"Medenine","name":"Houmt El Souk","lat":"33.87576000","lon":"10.85745000"},
{"state":"Medenine","name":"Jerba Midoun","lat":"33.77918000","lon":"10.95215000"},
{"state":"Medenine","name":"Medenine","lat":"33.35495000","lon":"10.50548000"},
{"state":"Medenine","name":"Midoun","lat":"33.80813000","lon":"10.99228000"},
{"state":"Medenine","name":"Zarzis","lat":"33.50398000","lon":"11.11215000"},
{"state":"Monastir","name":"Banbalah","lat":"35.70000000","lon":"10.80000000"},
{"state":"Monastir","name":"Bekalta","lat":"35.61739000","lon":"10.99466000"},
{"state":"Monastir","name":"Beni Hassane","lat":"35.56720000","lon":"10.80869000"},
{"state":"Monastir","name":"Djemmal","lat":"35.62231000","lon":"10.75696000"},
{"state":"Monastir","name":"Ksar Hellal","lat":"35.64773000","lon":"10.89046000"},
{"state":"Monastir","name":"Ksibet el Mediouni","lat":"35.68561000","lon":"10.84256000"},
{"state":"Monastir","name":"Lemta","lat":"35.66667000","lon":"10.88333000"},
{"state":"Monastir","name":"Menzel Kamel","lat":"35.62477000","lon":"10.66727000"},
{"state":"Monastir","name":"Mesdour","lat":"35.68206000","lon":"10.72746000"},
{"state":"Monastir","name":"Monastir","lat":"35.77799000","lon":"10.82617000"},
{"state":"Monastir","name":"Ouardenine","lat":"35.70915000","lon":"10.67397000"},
{"state":"Monastir","name":"Sahline","lat":"35.75166000","lon":"10.71109000"},
{"state":"Monastir","name":"Seïada","lat":"35.66887000","lon":"10.89246000"},
{"state":"Monastir","name":"Sidi Ben Nour","lat":"35.53333000","lon":"10.91667000"},
{"state":"Monastir","name":"Skanes","lat":"35.78333000","lon":"10.80000000"},
{"state":"Monastir","name":"Touza","lat":"35.63544000","lon":"10.82732000"},
{"state":"Nabeul","name":"Azmour","lat":"36.92440000","lon":"11.00690000"},
{"state":"Nabeul","name":"Beni Khalled","lat":"36.65038000","lon":"10.59004000"},
{"state":"Nabeul","name":"Béni Khiar","lat":"36.46666667","lon":"10.78333333"},
{"state":"Nabeul","name":"Bou Argoub","lat":"36.53853000","lon":"10.55093000"},
{"state":"Nabeul","name":"Dar Chaabane","lat":"36.47000000","lon":"10.75000000"},
{"state":"Nabeul","name":"El Haouaria","lat":"37.05000000","lon":"11.01111111"},
{"state":"Nabeul","name":"El Maâmoura","lat":"36.46666667","lon":"10.80000000"},
{"state":"Nabeul","name":"El Mida","lat":"36.73333333","lon":"10.85000000"},
{"state":"Nabeul","name":"El Mrezga","lat":"36.42163000","lon":"10.66411000"},
{"state":"Nabeul","name":"Grombalia","lat":"36.61000000","lon":"10.50000000"},
{"state":"Nabeul","name":"Hammamet","lat":"36.41666667","lon":"10.60000000"},
{"state":"Nabeul","name":"Kelibia","lat":"36.84750000","lon":"11.09388889"},
{"state":"Nabeul","name":"Korba","lat":"36.56666667","lon":"10.86666667"},
{"state":"Nabeul","name":"Korbous","lat":"36.81638889","lon":"10.56861111"},
{"state":"Nabeul","name":"Menzel Bouzelfa","lat":"36.68170000","lon":"10.58470000"},
{"state":"Nabeul","name":"Menzel Horr","lat":"36.73333333","lon":"10.95000000"},
{"state":"Nabeul","name":"Menzel Temime","lat":"36.78333333","lon":"10.98333333"},
{"state":"Nabeul","name":"Nabeul","lat":"36.45138900","lon":"10.73611100"},
{"state":"Nabeul","name":"Soliman","lat":"36.69512600","lon":"10.49125700"},
{"state":"Nabeul","name":"Takelsa","lat":"36.79000000","lon":"10.63000000"},
{"state":"Nabeul","name":"Tazerka","lat":"36.55000000","lon":"10.80000000"},
{"state":"Nabeul","name":"Zaouiet Djedidi","lat":"36.65000000","lon":"10.60000000"},
{"state":"Nabeul","name":"Zriba","lat":"36.35585000","lon":"10.20603400"},
{"state":"Sfax","name":"Agareb","lat":"34.74406000","lon":"10.46110000"},
{"state":"Sfax","name":"Bir Ali Ben Khalifa","lat":"34.73592000","lon":"10.09240000"},
{"state":"Sfax","name":"Djebeniana","lat":"35.03500000","lon":"10.90809000"},
{"state":"Sfax","name":"Gremda","lat":"34.75000000","lon":"10.78333000"},
{"state":"Sfax","name":"Sfax","lat":"34.74056000","lon":"10.76028000"},
{"state":"Sfax","name":"Skhira","lat":"34.29920000","lon":"10.06999000"},
{"state":"Sidi Bouzid","name":"Bir el Hafey","lat":"34.93212000","lon":"9.19321000"},
{"state":"Sidi Bouzid","name":"Er Regueb","lat":"34.85932000","lon":"9.78654000"},
{"state":"Sidi Bouzid","name":"Jilma","lat":"35.27311000","lon":"9.42385000"},
{"state":"Sidi Bouzid","name":"Mezzouna","lat":"34.57758000","lon":"9.84193000"},
{"state":"Sidi Bouzid","name":"Sidi Bouzid","lat":"35.03823000","lon":"9.48494000"},
{"state":"Siliana","name":"Bou Arada","lat":"36.35251000","lon":"9.62175000"},
{"state":"Siliana","name":"Gafour","lat":"36.32045000","lon":"9.32424000"},
{"state":"Siliana","name":"Kesra","lat":"35.81363000","lon":"9.36434000"},
{"state":"Siliana","name":"Le Krib","lat":"36.32802000","lon":"9.13613000"},
{"state":"Siliana","name":"Maktar","lat":"35.85798000","lon":"9.20072000"},
{"state":"Siliana","name":"Siliana","lat":"36.08497000","lon":"9.37082000"},
{"state":"Sousse","name":"Akouda","lat":"35.86910000","lon":"10.56530000"},
{"state":"Sousse","name":"Hammam Sousse","lat":"35.86090000","lon":"10.60313000"},
{"state":"Sousse","name":"Harqalah","lat":"36.03027000","lon":"10.50904000"},
{"state":"Sousse","name":"Msaken","lat":"35.72917000","lon":"10.58082000"},
{"state":"Sousse","name":"Port el Kantaoui","lat":"35.89239000","lon":"10.59434000"},
{"state":"Sousse","name":"Sidi Bou Ali","lat":"35.95667000","lon":"10.47306000"},
{"state":"Sousse","name":"Sidi el Hani","lat":"35.67139000","lon":"10.31583000"},
{"state":"Sousse","name":"Sousse","lat":"35.82539000","lon":"10.63699000"},
{"state":"Tataouine","name":"Remada","lat":"32.31662000","lon":"10.39551000"},
{"state":"Tataouine","name":"Tataouine","lat":"32.92967000","lon":"10.45177000"},
{"state":"Tozeur","name":"Chebika","lat":"34.31909000","lon":"7.93519000"},
{"state":"Tozeur","name":"Degache","lat":"33.97606000","lon":"8.20810000"},
{"state":"Tozeur","name":"Nefta","lat":"33.87309000","lon":"7.87765000"},
{"state":"Tozeur","name":"Tamaghzah","lat":"34.38849000","lon":"7.94313000"},
{"state":"Tozeur","name":"Tozeur","lat":"33.91968000","lon":"8.13352000"},
{"state":"Tunis","name":"Al Marsá","lat":"36.87818000","lon":"10.32466000"},
{"state":"Tunis","name":"Carthage","lat":"36.85961000","lon":"10.32978000"},
{"state":"Tunis","name":"La Goulette","lat":"36.81825000","lon":"10.30520000"},
{"state":"Tunis","name":"La Mohammedia","lat":"36.67446000","lon":"10.15633000"},
{"state":"Tunis","name":"Sidi Bou Saïd","lat":"36.86870000","lon":"10.34174000"},
{"state":"Tunis","name":"Tunis","lat":"36.81897000","lon":"10.16579000"},
{"state":"Zaghouan","name":"El Fahs","lat":"36.37419000","lon":"9.90651000"},
{"state":"Zaghouan","name":"Zaghouan","lat":"36.40291000","lon":"10.14292000"}]