[{"name":"Haʻapai","native":null,"cities":[{"name":"Pangai","native":null,"lat":"-19.81468000","lon":"-174.35423000"}]},{"name":"ʻEua","native":null,"cities":[{"name":"‘Ohonua","native":null,"lat":"-21.33333000","lon":"-174.95000000"}]},{"name":"Niuas","native":null,"cities":[{"name":"Hihifo","native":null,"lat":"-15.95440000","lon":"-173.79616000"}]},{"name":"Tongatapu","native":null,"cities":[{"name":"Haveluloto","native":null,"lat":"-21.15216000","lon":"-175.21333000"},{"name":"Kolonga","native":null,"lat":"-21.13333000","lon":"-175.06667000"},{"name":"Nuku‘alofa","native":null,"lat":"-21.13938000","lon":"-175.20180000"},{"name":"Vaini","native":null,"lat":"-21.19292000","lon":"-175.17678000"}]},{"name":"Vavaʻu","native":null,"cities":[{"name":"Neiafu","native":null,"lat":"-18.65060000","lon":"-173.98404000"}]}]