[{"state":"Haʻapai","name":"Pangai","lat":"-19.81468000","lon":"-174.35423000"},
{"state":"ʻEua","name":"‘Ohonua","lat":"-21.33333000","lon":"-174.95000000"},
{"state":"Niuas","name":"Hihifo","lat":"-15.95440000","lon":"-173.79616000"},
{"state":"Tongatapu","name":"Haveluloto","lat":"-21.15216000","lon":"-175.21333000"},
{"state":"Tongatapu","name":"Kolonga","lat":"-21.13333000","lon":"-175.06667000"},
{"state":"Tongatapu","name":"Nuku‘alofa","lat":"-21.13938000","lon":"-175.20180000"},
{"state":"Tongatapu","name":"Vaini","lat":"-21.19292000","lon":"-175.17678000"},
{"state":"Vavaʻu","name":"Neiafu","lat":"-18.65060000","lon":"-173.98404000"}]