[{"state":"Arima","name":"Arima","lat":"10.63737000","lon":"-61.28228000"},
{"state":"Chaguanas","name":"Chaguanas","lat":"10.51667000","lon":"-61.41667000"},
{"state":"Chaguanas","name":"Ward of Chaguanas","lat":"10.50000000","lon":"-61.38333000"},
{"state":"Couva-Tabaquite-Talparo Regional Corporation","name":"Couva","lat":"10.42248000","lon":"-61.46748000"},
{"state":"Couva-Tabaquite-Talparo Regional Corporation","name":"Tabaquite","lat":"10.38824000","lon":"-61.29704000"},
{"state":"Diego Martin Regional Corporation","name":"Petit Valley","lat":"10.69974000","lon":"-61.54717000"},
{"state":"Diego Martin Regional Corporation","name":"Ward of Diego Martin","lat":"10.70000000","lon":"-61.58333000"},
{"state":"Eastern Tobago","name":"Scarborough","lat":"11.18229000","lon":"-60.73525000"},
{"state":"Penal-Debe Regional Corporation","name":"Debe","lat":"10.20846000","lon":"-61.45273000"},
{"state":"Penal-Debe Regional Corporation","name":"Pe√±al","lat":"10.16667000","lon":"-61.46667000"},
{"state":"Point Fortin","name":"Point Fortin","lat":"10.17411000","lon":"-61.68407000"},
{"state":"Port of Spain","name":"Mucurapo","lat":"10.66253000","lon":"-61.53697000"},
{"state":"Port of Spain","name":"Port of Spain","lat":"10.66668000","lon":"-61.51889000"},
{"state":"Princes Town Regional Corporation","name":"Princes Town","lat":"10.27184000","lon":"-61.37103000"},
{"state":"San Fernando","name":"Marabella","lat":"10.30618000","lon":"-61.44671000"},
{"state":"San Fernando","name":"Mon Repos","lat":"10.27979000","lon":"-61.44590000"},
{"state":"San Fernando","name":"San Fernando","lat":"10.27969000","lon":"-61.46835000"},
{"state":"San Juan-Laventille Regional Corporation","name":"Laventille","lat":"10.64917000","lon":"-61.49889000"},
{"state":"Sangre Grande Regional Corporation","name":"Sangre Grande","lat":"10.58705000","lon":"-61.13008000"},
{"state":"Siparia Regional Corporation","name":"Siparia","lat":"10.14525000","lon":"-61.50740000"},
{"state":"Siparia Regional Corporation","name":"Ward of Siparia","lat":"10.15000000","lon":"-61.46667000"},
{"state":"Tunapuna-Piarco Regional Corporation","name":"Arouca","lat":"10.62877000","lon":"-61.33487000"},
{"state":"Tunapuna-Piarco Regional Corporation","name":"Paradise","lat":"10.65298000","lon":"-61.36298000"},
{"state":"Tunapuna-Piarco Regional Corporation","name":"Tunapuna","lat":"10.65245000","lon":"-61.38878000"},
{"state":"Western Tobago","name":"Rio Claro","lat":"10.30594000","lon":"-61.17556000"}]