[{"state":"Funafuti","name":"Alapi Village","lat":"-8.52074000","lon":"179.19680000"},
{"state":"Funafuti","name":"Fakaifou Village","lat":"-8.51758000","lon":"179.20094000"},
{"state":"Funafuti","name":"Funafuti","lat":"-8.52425000","lon":"179.19417000"},
{"state":"Nanumanga","name":"Toga Village","lat":"-6.28764000","lon":"176.31472000"},
{"state":"Niutao Island Council","name":"Kulia Village","lat":"-6.10819000","lon":"177.33393000"},
{"state":"Niutao Island Council","name":"Niulakita","lat":"-10.78800000","lon":"179.46600000"},
{"state":"Nui","name":"Tanrake Village","lat":"-7.24562000","lon":"177.14511000"},
{"state":"Nukufetau","name":"Savave Village","lat":"-8.02731000","lon":"178.31351000"},
{"state":"Vaitupu","name":"Asau Village","lat":"-7.49026000","lon":"178.68016000"}]