[{"state":"Changhua","name":"Changhua","lat":"23.95361000","lon":"120.49083000"},
{"state":"Changhua","name":"Yuanlin","lat":"23.95671000","lon":"120.57608000"},
{"state":"Chiayi","name":"Chiayi","lat":"23.47722000","lon":"120.44527000"},
{"state":"Chiayi","name":"Pizitou","lat":"23.48556000","lon":"120.44472000"},
{"state":"Chiayi","name":"Chiayi County","lat":"23.46333000","lon":"120.58166000"},
{"state":"Hsinchu","name":"Hsinchu","lat":"24.80361000","lon":"120.96861000"},
{"state":"Hsinchu","name":"Hsinchu County","lat":"24.67416000","lon":"121.16111000"},
{"state":"Hualien","name":"Hualien","lat":"23.78166000","lon":"121.39333000"},
{"state":"Hualien","name":"Hualien City","lat":"23.97694000","lon":"121.60444000"},
{"state":"Kaohsiung","name":"Kaohsiung","lat":"22.61626000","lon":"120.31333000"},
{"state":"Kinmen","name":"Jincheng","lat":"24.43415000","lon":"118.31712000"},
{"state":"Kinmen","name":"Kinmen County","lat":"24.45333000","lon":"118.38861000"},
{"state":"Lienchiang","name":"Lienchiang","lat":"26.37004000","lon":"120.49545000"},
{"state":"Lienchiang","name":"Nangan","lat":"26.15039000","lon":"119.93284000"},
{"state":"Miaoli","name":"Miaoli","lat":"24.48972000","lon":"120.90638000"},
{"state":"Nantou","name":"Lugu","lat":"23.74639000","lon":"120.75250000"},
{"state":"Nantou","name":"Nantou","lat":"23.83419000","lon":"120.92704000"},
{"state":"Nantou","name":"Puli","lat":"23.96639000","lon":"120.96952000"},
{"state":"Nantou","name":"Zhongxing New Village","lat":"23.95908000","lon":"120.68516000"},
{"state":"Penghu","name":"Magong","lat":"23.56540000","lon":"119.58627000"},
{"state":"Penghu","name":"Penghu County","lat":"23.57111000","lon":"119.61138000"},
{"state":"Pingtung","name":"Donggang","lat":"22.46515000","lon":"120.44927000"},
{"state":"Pingtung","name":"Hengchun","lat":"22.00417000","lon":"120.74389000"},
{"state":"Pingtung","name":"Pingtung","lat":"22.49555000","lon":"120.61444000"},
{"state":"Taichung","name":"Taichung","lat":"24.14690000","lon":"120.68390000"},
{"state":"Taichung","name":"Taichung City","lat":"24.15472000","lon":"120.67297000"},
{"state":"Tainan","name":"Tainan","lat":"22.99083000","lon":"120.21333000"},
{"state":"Tainan","name":"Yujing","lat":"23.12493000","lon":"120.46138000"},
{"state":"Taipei","name":"Banqiao","lat":"25.01427000","lon":"121.46719000"},
{"state":"Taipei","name":"Jiufen","lat":"25.10957000","lon":"121.84424000"},
{"state":"Taipei","name":"Taipei","lat":"25.04776000","lon":"121.53185000"},
{"state":"Taipei","name":"Taipei City","lat":"25.08300000","lon":"121.55331000"},
{"state":"Taitung","name":"Taitung","lat":"22.88361000","lon":"121.04833000"},
{"state":"Taitung","name":"Taitung City","lat":"22.75830000","lon":"121.14440000"},
{"state":"Taoyuan","name":"Daxi","lat":"24.88373000","lon":"121.29043000"},
{"state":"Taoyuan","name":"Taoyuan","lat":"24.89500000","lon":"121.24611000"},
{"state":"Taoyuan","name":"Taoyuan City","lat":"24.99368000","lon":"121.29696000"},
{"state":"Yilan","name":"Yilan","lat":"24.54250000","lon":"121.63361000"},
{"state":"Yunlin","name":"Douliu","lat":"23.70944000","lon":"120.54333000"},
{"state":"Yunlin","name":"Yunlin","lat":"23.70701000","lon":"120.38481000"}]