[{"state":"Arusha","name":"Arusha","lat":"-3.36667000","lon":"36.68333000"},
{"state":"Arusha","name":"Kingori","lat":"-3.28333000","lon":"36.98333000"},
{"state":"Arusha","name":"Kiratu","lat":"-3.33333000","lon":"35.66667000"},
{"state":"Arusha","name":"Longido","lat":"-2.73319000","lon":"36.69773000"},
{"state":"Arusha","name":"Mbuguni","lat":"-3.56667000","lon":"36.95000000"},
{"state":"Arusha","name":"Merelani","lat":"-3.56182000","lon":"36.97895000"},
{"state":"Arusha","name":"Meru","lat":"-3.30500000","lon":"36.80100000"},
{"state":"Arusha","name":"Monduli","lat":"-3.30000000","lon":"36.45000000"},
{"state":"Arusha","name":"Mto wa Mbu","lat":"-3.35000000","lon":"35.85000000"},
{"state":"Arusha","name":"Namanga","lat":"-2.55116000","lon":"36.78377000"},
{"state":"Arusha","name":"Ngorongoro","lat":"-3.23973000","lon":"35.48747000"},
{"state":"Arusha","name":"Nkoaranga","lat":"-3.33333000","lon":"36.80000000"},
{"state":"Arusha","name":"Poli","lat":"-3.33333000","lon":"36.80000000"},
{"state":"Arusha","name":"Usa River","lat":"-3.36667000","lon":"36.85000000"},
{"state":"Dar es Salaam","name":"Dar es Salaam","lat":"-6.82349000","lon":"39.26951000"},
{"state":"Dar es Salaam","name":"Magomeni","lat":"-6.80000000","lon":"39.25000000"},
{"state":"Dodoma","name":"Dodoma","lat":"-6.17221000","lon":"35.73947000"},
{"state":"Dodoma","name":"Kibakwe","lat":"-6.71667000","lon":"36.36667000"},
{"state":"Dodoma","name":"Kisasa","lat":"-6.17526000","lon":"35.79266000"},
{"state":"Dodoma","name":"Kondoa","lat":"-4.70931000","lon":"35.86227000"},
{"state":"Dodoma","name":"Kongwa","lat":"-6.20000000","lon":"36.41667000"},
{"state":"Dodoma","name":"Mpwapwa","lat":"-6.35000000","lon":"36.48333000"},
{"state":"Dodoma","name":"Msanga","lat":"-6.05000000","lon":"36.03333000"},
{"state":"Geita","name":"Buseresere","lat":"-3.02361000","lon":"31.87472000"},
{"state":"Geita","name":"Chato","lat":"-2.63778000","lon":"31.76694000"},
{"state":"Geita","name":"Geita","lat":"-2.87250000","lon":"32.23250000"},
{"state":"Geita","name":"Kasamwa","lat":"-2.85000000","lon":"32.43333000"},
{"state":"Geita","name":"Katoro","lat":"-3.02028000","lon":"31.89583000"},
{"state":"Geita","name":"Masumbwe","lat":"-3.63333000","lon":"32.18333000"},
{"state":"Geita","name":"Ushirombo","lat":"-3.49194000","lon":"31.96389000"},
{"state":"Geita","name":"Uyovu","lat":"-3.28333000","lon":"31.52583000"},
{"state":"Iringa","name":"Ilula","lat":"-7.67660000","lon":"36.03658000"},
{"state":"Iringa","name":"Iringa","lat":"-7.76667000","lon":"35.70000000"},
{"state":"Iringa","name":"Izazi","lat":"-7.20000000","lon":"35.73333000"},
{"state":"Iringa","name":"Mafinga","lat":"-7.25000000","lon":"35.06667000"},
{"state":"Iringa","name":"Makungu","lat":"-8.73333000","lon":"35.28333000"},
{"state":"Iringa","name":"Malangali","lat":"-8.56667000","lon":"34.85000000"},
{"state":"Kagera","name":"Biharamulo","lat":"-2.63194000","lon":"31.30889000"},
{"state":"Kagera","name":"Bugarama","lat":"-2.87056000","lon":"30.52806000"},
{"state":"Kagera","name":"Bugene","lat":"-1.59111000","lon":"31.14028000"},
{"state":"Kagera","name":"Bukoba","lat":"-1.33167000","lon":"31.81222000"},
{"state":"Kagera","name":"Kabanga","lat":"-2.63861000","lon":"30.46778000"},
{"state":"Kagera","name":"Kamachumu","lat":"-1.61861000","lon":"31.62000000"},
{"state":"Kagera","name":"Katerero","lat":"-1.40000000","lon":"31.73333000"},
{"state":"Kagera","name":"Katoro","lat":"-1.39972000","lon":"31.50028000"},
{"state":"Kagera","name":"Kyaka","lat":"-1.25222000","lon":"31.42028000"},
{"state":"Kagera","name":"Ngara","lat":"-2.51222000","lon":"30.65583000"},
{"state":"Kagera","name":"Nshamba","lat":"-1.79833000","lon":"31.55111000"},
{"state":"Kagera","name":"Nsunga","lat":"-1.14389000","lon":"31.39472000"},
{"state":"Kagera","name":"Nyakahanga","lat":"-1.60333000","lon":"31.14139000"},
{"state":"Kagera","name":"Rulenge","lat":"-2.71750000","lon":"30.63250000"},
{"state":"Katavi","name":"Inyonga","lat":"-6.71667000","lon":"32.06667000"},
{"state":"Katavi","name":"Karema","lat":"-6.82052000","lon":"30.43887000"},
{"state":"Katavi","name":"Mpanda","lat":"-6.34379000","lon":"31.06951000"},
{"state":"Katavi","name":"Usevia","lat":"-7.10000000","lon":"31.23333000"},
{"state":"Kigoma","name":"Kakonko","lat":"-3.28278000","lon":"30.96417000"},
{"state":"Kigoma","name":"Kasulu","lat":"-4.57667000","lon":"30.10250000"},
{"state":"Kigoma","name":"Kibondo","lat":"-3.58639000","lon":"30.72028000"},
{"state":"Kigoma","name":"Kigoma","lat":"-4.87694000","lon":"29.62667000"},
{"state":"Kigoma","name":"Mabamba","lat":"-3.59833000","lon":"30.50194000"},
{"state":"Kigoma","name":"Mwandiga","lat":"-4.83000000","lon":"29.65806000"},
{"state":"Kigoma","name":"Nguruka","lat":"-5.10917000","lon":"31.04194000"},
{"state":"Kigoma","name":"Uvinza","lat":"-5.10361000","lon":"30.39111000"},
{"state":"Kilimanjaro","name":"Hedaru","lat":"-4.50000000","lon":"37.90000000"},
{"state":"Kilimanjaro","name":"Kihurio","lat":"-4.46667000","lon":"38.06667000"},
{"state":"Kilimanjaro","name":"Kisiwani","lat":"-4.13333000","lon":"37.95000000"},
{"state":"Kilimanjaro","name":"Kwakoa","lat":"-3.76667000","lon":"37.71667000"},
{"state":"Kilimanjaro","name":"Lembeni","lat":"-3.78333000","lon":"37.61667000"},
{"state":"Kilimanjaro","name":"Makanya","lat":"-4.36667000","lon":"37.83333000"},
{"state":"Kilimanjaro","name":"Moshi","lat":"-3.35000000","lon":"37.33333000"},
{"state":"Kilimanjaro","name":"Mwembe","lat":"-4.15000000","lon":"37.85000000"},
{"state":"Kilimanjaro","name":"Ndungu","lat":"-4.36667000","lon":"38.05000000"},
{"state":"Kilimanjaro","name":"Same","lat":"-4.22199000","lon":"37.88278000"},
{"state":"Lindi","name":"Lindi","lat":"-9.99709000","lon":"39.71649000"},
{"state":"Lindi","name":"Mbekenyera","lat":"-10.00000000","lon":"38.98333000"},
{"state":"Lindi","name":"Mingoyo","lat":"-10.10526000","lon":"39.61859000"},
{"state":"Lindi","name":"Mtama","lat":"-10.30000000","lon":"39.36667000"},
{"state":"Lindi","name":"Nachingwea","lat":"-10.37250000","lon":"38.76251000"},
{"state":"Lindi","name":"Nyangao","lat":"-10.33333000","lon":"39.28333000"},
{"state":"Lindi","name":"Ruangwa","lat":"-10.06667000","lon":"38.93333000"},
{"state":"Manyara","name":"Babati","lat":"-4.21667000","lon":"35.75000000"},
{"state":"Manyara","name":"Bashanet","lat":"-4.23333000","lon":"35.41667000"},
{"state":"Manyara","name":"Basotu","lat":"-4.36667000","lon":"35.08333000"},
{"state":"Manyara","name":"Dareda","lat":"-4.21667000","lon":"35.55000000"},
{"state":"Manyara","name":"Dongobesh","lat":"-4.06667000","lon":"35.38333000"},
{"state":"Manyara","name":"Endasak","lat":"-4.41667000","lon":"35.51667000"},
{"state":"Manyara","name":"Galappo","lat":"-4.26667000","lon":"35.85000000"},
{"state":"Manyara","name":"Katesh","lat":"-4.52483000","lon":"35.38490000"},
{"state":"Manyara","name":"Kibaya","lat":"-5.30000000","lon":"36.56667000"},
{"state":"Manyara","name":"Kirya","lat":"-3.91667000","lon":"37.48333000"},
{"state":"Manyara","name":"Magugu","lat":"-4.01667000","lon":"35.76667000"},
{"state":"Manyara","name":"Mbulu","lat":"-3.85000000","lon":"35.53333000"},
{"state":"Manyara","name":"Naberera","lat":"-4.20000000","lon":"36.93333000"},
{"state":"Manyara","name":"Nangwa","lat":"-4.46667000","lon":"35.45000000"},
{"state":"Mara","name":"Bukonyo","lat":"-1.95000000","lon":"32.93333000"},
{"state":"Mara","name":"Butiama","lat":"-1.76667000","lon":"33.96667000"},
{"state":"Mara","name":"Issenye","lat":"-2.00000000","lon":"34.33333000"},
{"state":"Mara","name":"Kibara","lat":"-2.15000000","lon":"33.45000000"},
{"state":"Mara","name":"Mugango","lat":"-1.68333000","lon":"33.70000000"},
{"state":"Mara","name":"Mugumu","lat":"-1.85000000","lon":"34.70000000"},
{"state":"Mara","name":"Muriti","lat":"-1.98333000","lon":"32.91667000"},
{"state":"Mara","name":"Musoma","lat":"-1.50000000","lon":"33.80000000"},
{"state":"Mara","name":"Nakatunguru","lat":"-2.11667000","lon":"33.06667000"},
{"state":"Mara","name":"Nansio","lat":"-2.13333000","lon":"33.05000000"},
{"state":"Mara","name":"Nyamuswa","lat":"-1.90000000","lon":"34.01667000"},
{"state":"Mara","name":"Sirari","lat":"-1.25367000","lon":"34.47596000"},
{"state":"Mbeya","name":"Chimala","lat":"-8.85637000","lon":"34.02393000"},
{"state":"Mbeya","name":"Hedaru","lat":"-4.50000000","lon":"37.90000000"},
{"state":"Mbeya","name":"Ibaba","lat":"-9.40000000","lon":"33.35000000"},
{"state":"Mbeya","name":"Ikama","lat":"-9.26666667","lon":"33.83333333"},
{"state":"Mbeya","name":"Ikinga","lat":"-9.50000000","lon":"33.55000000"},
{"state":"Mbeya","name":"Ikolo","lat":"-9.65000000","lon":"33.90000000"},
{"state":"Mbeya","name":"Ikuti","lat":"-9.31666667","lon":"33.53333333"},
{"state":"Mbeya","name":"Ilembo","lat":"-9.25000000","lon":"33.38333333"},
{"state":"Mbeya","name":"Ipinda","lat":"-9.48333333","lon":"33.90000000"},
{"state":"Mbeya","name":"Kabula","lat":"-9.26666667","lon":"33.76666667"},
{"state":"Mbeya","name":"Kahe Tanzania","lat":"-3.50000000","lon":"37.43300000"},
{"state":"Mbeya","name":"Kandete","lat":"-9.15000000","lon":"33.80000000"},
{"state":"Mbeya","name":"Katumba","lat":"-9.23333333","lon":"33.61666667"},
{"state":"Mbeya","name":"Kihurio","lat":"-4.46666667","lon":"38.06666667"},
{"state":"Mbeya","name":"Kisiwani","lat":"-4.13333000","lon":"37.95000000"},
{"state":"Mbeya","name":"Kiwira","lat":"-9.16666667","lon":"33.53333333"},
{"state":"Mbeya","name":"Kwakoa","lat":"-3.76666667","lon":"37.71666667"},
{"state":"Mbeya","name":"Lembeni","lat":"-3.78333333","lon":"37.61666667"},
{"state":"Mbeya","name":"Lupata","lat":"-9.30000000","lon":"33.85000000"},
{"state":"Mbeya","name":"Lusungo","lat":"-9.50000000","lon":"33.98333333"},
{"state":"Mbeya","name":"Machame","lat":"-3.20611111","lon":"37.22638889"},
{"state":"Mbeya","name":"Makanya","lat":"-4.36666667","lon":"37.83333333"},
{"state":"Mbeya","name":"Marangu","lat":"-3.28333000","lon":"37.51667000"},
{"state":"Mbeya","name":"Masukulu","lat":"-9.40000000","lon":"33.75000000"},
{"state":"Mbeya","name":"Mbeya","lat":"-8.90000000","lon":"33.45000000"},
{"state":"Mbeya","name":"Mlowo","lat":"-9.00000000","lon":"32.98333333"},
{"state":"Mbeya","name":"Moshi","lat":"-3.33488333","lon":"37.34038056"},
{"state":"Mbeya","name":"Mpuguso","lat":"-9.31666667","lon":"33.65000000"},
{"state":"Mbeya","name":"Mwansanga","lat":"-8.76666667","lon":"33.53333333"},
{"state":"Mbeya","name":"Mwaya","lat":"-9.55000000","lon":"33.95000000"},
{"state":"Mbeya","name":"Mwembe","lat":"-4.15000000","lon":"37.85000000"},
{"state":"Mbeya","name":"Same","lat":"-4.06666667","lon":"37.78333333"},
{"state":"Mbeya","name":"Tukuyu","lat":"-9.25833333","lon":"33.64166667"},
{"state":"Mbeya","name":"Tunduma","lat":"-9.30000000","lon":"32.76670000"},
{"state":"Mbeya","name":"Ugweno","lat":"-3.65000000","lon":"37.65000000"},
{"state":"Mbeya","name":"Ulanga","lat":"-8.34361000","lon":"34.28970000"},
{"state":"Morogoro","name":"Geiro","lat":"-6.15000000","lon":"36.86667000"},
{"state":"Morogoro","name":"Ifakara","lat":"-8.13333000","lon":"36.68333000"},
{"state":"Morogoro","name":"Kidatu","lat":"-7.69916000","lon":"36.95722000"},
{"state":"Morogoro","name":"Kidodi","lat":"-7.60361000","lon":"37.00438000"},
{"state":"Morogoro","name":"Kilosa","lat":"-6.83333000","lon":"36.98333000"},
{"state":"Morogoro","name":"Kimamba","lat":"-6.78333000","lon":"37.13333000"},
{"state":"Morogoro","name":"Kisanga","lat":"-7.43622000","lon":"37.70337000"},
{"state":"Morogoro","name":"Lupiro","lat":"-8.38333000","lon":"36.66667000"},
{"state":"Morogoro","name":"Magole","lat":"-6.37697000","lon":"37.37373000"},
{"state":"Morogoro","name":"Mahenge","lat":"-8.68333000","lon":"36.71667000"},
{"state":"Morogoro","name":"Malinyi","lat":"-8.93333000","lon":"36.13333000"},
{"state":"Morogoro","name":"Mikumi","lat":"-7.40409000","lon":"36.98309000"},
{"state":"Morogoro","name":"Mlimba","lat":"-8.80000000","lon":"35.81667000"},
{"state":"Morogoro","name":"Morogoro","lat":"-6.82102000","lon":"37.66122000"},
{"state":"Morogoro","name":"Msowero","lat":"-6.53333000","lon":"37.20000000"},
{"state":"Morogoro","name":"Mtimbira","lat":"-8.78333000","lon":"36.35000000"},
{"state":"Morogoro","name":"Mvomero District","lat":"-6.30000000","lon":"37.45000000"},
{"state":"Morogoro","name":"Ngerengere","lat":"-6.75000000","lon":"38.11667000"},
{"state":"Mtwara","name":"Chiungutwa","lat":"-10.88333000","lon":"38.98333000"},
{"state":"Mtwara","name":"Kitama","lat":"-10.71667000","lon":"39.73333000"},
{"state":"Mtwara","name":"Kitangari","lat":"-10.65000000","lon":"39.33333000"},
{"state":"Mtwara","name":"Luchingu","lat":"-10.90000000","lon":"39.33333000"},
{"state":"Mtwara","name":"Lukuledi","lat":"-10.56667000","lon":"38.80000000"},
{"state":"Mtwara","name":"Lulindi","lat":"-10.81667000","lon":"39.13333000"},
{"state":"Mtwara","name":"Madimba","lat":"-10.40000000","lon":"40.33333000"},
{"state":"Mtwara","name":"Mahuta","lat":"-10.86667000","lon":"39.45000000"},
{"state":"Mtwara","name":"Masasi","lat":"-10.71667000","lon":"38.80000000"},
{"state":"Mtwara","name":"Masuguru","lat":"-11.36667000","lon":"38.41667000"},
{"state":"Mtwara","name":"Mtwara","lat":"-10.26667000","lon":"40.18333000"},
{"state":"Mtwara","name":"Namalenga","lat":"-10.95000000","lon":"39.10000000"},
{"state":"Mtwara","name":"Namikupa","lat":"-10.83333000","lon":"39.60000000"},
{"state":"Mtwara","name":"Nanganga","lat":"-10.38333000","lon":"39.15000000"},
{"state":"Mtwara","name":"Nangomba","lat":"-10.90000000","lon":"38.50000000"},
{"state":"Mtwara","name":"Nanhyanga","lat":"-10.80000000","lon":"39.55000000"},
{"state":"Mtwara","name":"Nanyamba","lat":"-10.68333000","lon":"39.83333000"},
{"state":"Mtwara","name":"Newala Kisimani","lat":"-10.95000000","lon":"39.28333000"},
{"state":"Mtwara","name":"Tandahimba","lat":"-10.75000000","lon":"39.63333000"},
{"state":"Mwanza","name":"Ilemela District","lat":"-2.44783000","lon":"33.03177000"},
{"state":"Mwanza","name":"Kihangara","lat":"-2.58333000","lon":"33.35000000"},
{"state":"Mwanza","name":"Malya","lat":"-2.98333000","lon":"33.51667000"},
{"state":"Mwanza","name":"Misasi","lat":"-3.00000000","lon":"33.08333000"},
{"state":"Mwanza","name":"Misungwi","lat":"-2.85000000","lon":"33.08333000"},
{"state":"Mwanza","name":"Mwanza","lat":"-2.51667000","lon":"32.90000000"},
{"state":"Mwanza","name":"Ngudu","lat":"-2.96667000","lon":"33.33333000"},
{"state":"Mwanza","name":"Nyanguge","lat":"-2.55000000","lon":"33.20000000"},
{"state":"Mwanza","name":"Usagara","lat":"-2.68333000","lon":"33.00000000"},
{"state":"Njombe","name":"Ilembula","lat":"-8.90000000","lon":"34.58333000"},
{"state":"Njombe","name":"Makumbako","lat":"-8.85000000","lon":"34.83333000"},
{"state":"Njombe","name":"Manda","lat":"-10.46667000","lon":"34.58333000"},
{"state":"Njombe","name":"Matamba","lat":"-8.98333000","lon":"33.96667000"},
{"state":"Njombe","name":"Mlangali","lat":"-9.78333000","lon":"34.51667000"},
{"state":"Njombe","name":"Mtwango","lat":"-9.01667000","lon":"34.80000000"},
{"state":"Njombe","name":"Njombe","lat":"-9.34917000","lon":"34.77167000"},
{"state":"Pemba North","name":"Konde","lat":"-4.95000000","lon":"39.75000000"},
{"state":"Pemba North","name":"Micheweni","lat":"-4.96667000","lon":"39.83333000"},
{"state":"Pemba North","name":"Wete","lat":"-5.05589000","lon":"39.72938000"},
{"state":"Pemba South","name":"Chake Chake","lat":"-5.24586000","lon":"39.76659000"},
{"state":"Pemba South","name":"Mtambile","lat":"-5.38333000","lon":"39.70000000"},
{"state":"Pemba South","name":"Uwelini","lat":"-5.40000000","lon":"39.68333000"},
{"state":"Pwani","name":"Bagamoyo","lat":"-6.44222000","lon":"38.90422000"},
{"state":"Pwani","name":"Bungu","lat":"-7.63369000","lon":"39.05818000"},
{"state":"Pwani","name":"Chalinze","lat":"-6.63784000","lon":"38.35396000"},
{"state":"Pwani","name":"Ikwiriri","lat":"-7.95618000","lon":"38.97164000"},
{"state":"Pwani","name":"Kibaha","lat":"-6.76667000","lon":"38.91667000"},
{"state":"Pwani","name":"Kibiti","lat":"-7.72178000","lon":"38.93749000"},
{"state":"Pwani","name":"Kilindoni","lat":"-7.91446000","lon":"39.66204000"},
{"state":"Pwani","name":"Kisarawe","lat":"-6.90000000","lon":"39.06667000"},
{"state":"Pwani","name":"Lugoba","lat":"-6.45000000","lon":"38.33333000"},
{"state":"Pwani","name":"Maneromango","lat":"-7.19880000","lon":"38.78478000"},
{"state":"Pwani","name":"Mbumi","lat":"-7.90577000","lon":"39.21047000"},
{"state":"Pwani","name":"Mkuranga","lat":"-7.27000000","lon":"39.20000000"},
{"state":"Pwani","name":"Mlandizi","lat":"-6.70000000","lon":"38.73333000"},
{"state":"Pwani","name":"Mvomero","lat":"-6.25000000","lon":"38.66667000"},
{"state":"Pwani","name":"Utete","lat":"-7.98598000","lon":"38.75795000"},
{"state":"Pwani","name":"Vikindu","lat":"-7.00667000","lon":"39.29849000"},
{"state":"Rukwa","name":"Chala","lat":"-7.58333000","lon":"31.26667000"},
{"state":"Rukwa","name":"Kirando","lat":"-7.41667000","lon":"30.60000000"},
{"state":"Rukwa","name":"Laela","lat":"-8.56667000","lon":"32.05000000"},
{"state":"Rukwa","name":"Matai","lat":"-8.30000000","lon":"31.51667000"},
{"state":"Rukwa","name":"Namanyere","lat":"-7.51667000","lon":"31.05000000"},
{"state":"Rukwa","name":"Nkove","lat":"-7.95000000","lon":"30.85000000"},
{"state":"Rukwa","name":"Sumbawanga","lat":"-7.96667000","lon":"31.61667000"},
{"state":"Ruvuma","name":"Kigonsera","lat":"-10.80000000","lon":"35.05000000"},
{"state":"Ruvuma","name":"Liuli","lat":"-11.08333000","lon":"34.63333000"},
{"state":"Ruvuma","name":"Mahanje","lat":"-9.93333000","lon":"35.33333000"},
{"state":"Ruvuma","name":"Maposeni","lat":"-10.58333000","lon":"35.40000000"},
{"state":"Ruvuma","name":"Matiri","lat":"-10.75000000","lon":"34.90000000"},
{"state":"Ruvuma","name":"Mbamba Bay","lat":"-11.28333000","lon":"34.76667000"},
{"state":"Ruvuma","name":"Mbinga","lat":"-10.93333000","lon":"35.01667000"},
{"state":"Ruvuma","name":"Songea","lat":"-10.68333000","lon":"35.65000000"},
{"state":"Ruvuma","name":"Tingi","lat":"-11.30000000","lon":"35.03333000"},
{"state":"Shinyanga","name":"Isaka","lat":"-3.90000000","lon":"32.93333000"},
{"state":"Shinyanga","name":"Kahama","lat":"-3.83333000","lon":"32.60000000"},
{"state":"Shinyanga","name":"Kishapu","lat":"-3.61667000","lon":"33.86667000"},
{"state":"Shinyanga","name":"Mhango","lat":"-3.28333000","lon":"32.85000000"},
{"state":"Shinyanga","name":"Mwadui","lat":"-3.55000000","lon":"33.60000000"},
{"state":"Shinyanga","name":"Old Shinyanga","lat":"-3.55000000","lon":"33.40000000"},
{"state":"Shinyanga","name":"Shinyanga","lat":"-3.66393000","lon":"33.42118000"},
{"state":"Shinyanga","name":"Songwa","lat":"-3.51667000","lon":"33.51667000"},
{"state":"Shinyanga","name":"Tinde","lat":"-3.88333000","lon":"33.20000000"},
{"state":"Simiyu","name":"Bariadi","lat":"-2.80000000","lon":"33.98333000"},
{"state":"Simiyu","name":"Kisesa","lat":"-3.08333000","lon":"34.15000000"},
{"state":"Simiyu","name":"Lalago","lat":"-3.45000000","lon":"33.95000000"},
{"state":"Simiyu","name":"Malampaka","lat":"-3.13333000","lon":"33.53333000"},
{"state":"Simiyu","name":"Maswa","lat":"-2.68333000","lon":"33.98333000"},
{"state":"Simiyu","name":"Matonga","lat":"-2.38333000","lon":"34.08333000"},
{"state":"Simiyu","name":"Nyakabindi","lat":"-2.63333000","lon":"33.98333000"},
{"state":"Simiyu","name":"Nyalikungu","lat":"-3.18333000","lon":"33.78333000"},
{"state":"Simiyu","name":"Somanda","lat":"-3.36667000","lon":"33.95000000"},
{"state":"Singida","name":"Igugunu","lat":"-4.56667000","lon":"34.63333000"},
{"state":"Singida","name":"Ikungi","lat":"-5.13333000","lon":"34.76667000"},
{"state":"Singida","name":"Ilongero","lat":"-4.66667000","lon":"34.86667000"},
{"state":"Singida","name":"Itigi","lat":"-5.70000000","lon":"34.48333000"},
{"state":"Singida","name":"Kilimatinde","lat":"-5.85000000","lon":"34.95000000"},
{"state":"Singida","name":"Kintinku","lat":"-5.88333000","lon":"35.23333000"},
{"state":"Singida","name":"Kiomboi","lat":"-4.26667000","lon":"34.36667000"},
{"state":"Singida","name":"Mgandu","lat":"-5.95000000","lon":"34.13333000"},
{"state":"Singida","name":"Mtinko","lat":"-4.55000000","lon":"34.85000000"},
{"state":"Singida","name":"Mungaa","lat":"-4.96667000","lon":"34.88333000"},
{"state":"Singida","name":"Ndago","lat":"-4.60000000","lon":"34.35000000"},
{"state":"Singida","name":"Puma","lat":"-5.00000000","lon":"34.73333000"},
{"state":"Singida","name":"Sepuka","lat":"-4.75000000","lon":"34.53333000"},
{"state":"Singida","name":"Shelui","lat":"-4.36667000","lon":"34.20000000"},
{"state":"Singida","name":"Singida","lat":"-4.81629000","lon":"34.74358000"},
{"state":"Tabora","name":"Bukene","lat":"-4.23333000","lon":"32.88333000"},
{"state":"Tabora","name":"Igurubi","lat":"-4.00000000","lon":"33.70000000"},
{"state":"Tabora","name":"Kaliua","lat":"-5.06056000","lon":"31.79361000"},
{"state":"Tabora","name":"Mabama","lat":"-5.13333000","lon":"32.53333000"},
{"state":"Tabora","name":"Sikonge","lat":"-5.63333000","lon":"32.76667000"},
{"state":"Tabora","name":"Tabora","lat":"-5.01622000","lon":"32.82663000"},
{"state":"Tabora","name":"Tumbi","lat":"-5.06667000","lon":"32.73333000"},
{"state":"Tabora","name":"Usoke","lat":"-5.16667000","lon":"32.35000000"},
{"state":"Tanga","name":"Chanika","lat":"-5.41667000","lon":"38.01667000"},
{"state":"Tanga","name":"Lushoto","lat":"-4.78333000","lon":"38.28333000"},
{"state":"Tanga","name":"Magomeni","lat":"-5.23333000","lon":"38.11667000"},
{"state":"Tanga","name":"Majengo","lat":"-5.15000000","lon":"38.98333000"},
{"state":"Tanga","name":"Makuyuni","lat":"-4.73333000","lon":"38.10000000"},
{"state":"Tanga","name":"Maramba","lat":"-5.05000000","lon":"38.61667000"},
{"state":"Tanga","name":"Matui","lat":"-4.80000000","lon":"38.25000000"},
{"state":"Tanga","name":"Mazinde","lat":"-4.80000000","lon":"38.21667000"},
{"state":"Tanga","name":"Mlalo","lat":"-4.93333000","lon":"38.93333000"},
{"state":"Tanga","name":"Muheza","lat":"-5.16667000","lon":"38.78333000"},
{"state":"Tanga","name":"Mwanga","lat":"-4.80000000","lon":"38.20000000"},
{"state":"Tanga","name":"Pangani","lat":"-5.42526000","lon":"38.97473000"},
{"state":"Tanga","name":"Soni","lat":"-4.85000000","lon":"38.36667000"},
{"state":"Tanga","name":"Tanga","lat":"-5.06893000","lon":"39.09875000"},
{"state":"Zanzibar North","name":"Gamba","lat":"-5.90000000","lon":"39.30000000"},
{"state":"Zanzibar North","name":"Kijini","lat":"-5.85000000","lon":"39.31667000"},
{"state":"Zanzibar North","name":"Kiwengwa","lat":"-5.98957000","lon":"39.37680000"},
{"state":"Zanzibar North","name":"Mkokotoni","lat":"-5.87506000","lon":"39.25523000"},
{"state":"Zanzibar North","name":"Nungwi","lat":"-5.72651000","lon":"39.29870000"},
{"state":"Zanzibar South","name":"Koani","lat":"-6.13333000","lon":"39.28333000"},
{"state":"Zanzibar South","name":"Koani Ndogo","lat":"-6.13333000","lon":"39.28333000"},
{"state":"Zanzibar South","name":"Mahonda","lat":"-6.45000000","lon":"39.46667000"},
{"state":"Zanzibar South","name":"Nganane","lat":"-6.40000000","lon":"39.55000000"},
{"state":"Zanzibar South","name":"Sokoni","lat":"-6.43333000","lon":"39.55000000"},
{"state":"Zanzibar West","name":"Zanzibar","lat":"-6.16394000","lon":"39.19793000"}]