[{"state":"Autonomous Republic of Crimea","name":"Abrikosovka","lat":"45.10759000","lon":"35.10139000"},
{"state":"Autonomous Republic of Crimea","name":"Abrikosovo","lat":"45.69236000","lon":"34.10156000"},
{"state":"Autonomous Republic of Crimea","name":"Aeroflotskiy","lat":"45.01816000","lon":"33.99961000"},
{"state":"Autonomous Republic of Crimea","name":"Agrarnoye","lat":"45.01596000","lon":"34.05725000"},
{"state":"Autonomous Republic of Crimea","name":"Akimovka","lat":"45.51981000","lon":"34.82438000"},
{"state":"Autonomous Republic of Crimea","name":"Aleksandrovka","lat":"45.57654000","lon":"34.09947000"},
{"state":"Autonomous Republic of Crimea","name":"Alekseyevka","lat":"45.58194000","lon":"33.62980000"},
{"state":"Autonomous Republic of Crimea","name":"Alupka","lat":"44.41808000","lon":"34.04531000"},
{"state":"Autonomous Republic of Crimea","name":"Alushta","lat":"44.67728000","lon":"34.40970000"},
{"state":"Autonomous Republic of Crimea","name":"Amurskoye","lat":"45.27822000","lon":"34.12823000"},
{"state":"Autonomous Republic of Crimea","name":"Armyansk","lat":"46.10919000","lon":"33.69206000"},
{"state":"Autonomous Republic of Crimea","name":"Aromatnoye","lat":"45.03678000","lon":"34.39921000"},
{"state":"Autonomous Republic of Crimea","name":"Azovskoye","lat":"45.58604000","lon":"34.56680000"},
{"state":"Autonomous Republic of Crimea","name":"Baherove","lat":"45.37417000","lon":"36.29705000"},
{"state":"Autonomous Republic of Crimea","name":"Bakhchysarai","lat":"44.75525000","lon":"33.85782000"},
{"state":"Autonomous Republic of Crimea","name":"Bakhchysarai Raion","lat":"44.75002000","lon":"33.86330000"},
{"state":"Autonomous Republic of Crimea","name":"Batal’noye","lat":"45.19402000","lon":"35.61583000"},
{"state":"Autonomous Republic of Crimea","name":"Belinskoye","lat":"45.37465000","lon":"36.08212000"},
{"state":"Autonomous Republic of Crimea","name":"Beloglinka","lat":"44.99490000","lon":"34.04167000"},
{"state":"Autonomous Republic of Crimea","name":"Belogorskiy rayon","lat":"45.06300000","lon":"34.55675000"},
{"state":"Autonomous Republic of Crimea","name":"Beregovoye","lat":"45.09470000","lon":"35.43385000"},
{"state":"Autonomous Republic of Crimea","name":"Berezovka","lat":"45.57471000","lon":"33.34397000"},
{"state":"Autonomous Republic of Crimea","name":"Bilohirsk","lat":"45.05462000","lon":"34.60185000"},
{"state":"Autonomous Republic of Crimea","name":"Blizhneye","lat":"45.05694000","lon":"35.33056000"},
{"state":"Autonomous Republic of Crimea","name":"Bogatoye","lat":"45.02933000","lon":"34.76732000"},
{"state":"Autonomous Republic of Crimea","name":"Botanicheskoye","lat":"45.78656000","lon":"33.54856000"},
{"state":"Autonomous Republic of Crimea","name":"Bratskoye","lat":"45.83170000","lon":"33.92151000"},
{"state":"Autonomous Republic of Crimea","name":"Chapayevka","lat":"45.28119000","lon":"34.89428000"},
{"state":"Autonomous Republic of Crimea","name":"Chaykino","lat":"45.08223000","lon":"34.08673000"},
{"state":"Autonomous Republic of Crimea","name":"Chelyadinovo","lat":"45.20729000","lon":"36.37620000"},
{"state":"Autonomous Republic of Crimea","name":"Chernomorskiy rayon","lat":"45.48798000","lon":"32.92614000"},
{"state":"Autonomous Republic of Crimea","name":"Chernomorskoye","lat":"45.50657000","lon":"32.69776000"},
{"state":"Autonomous Republic of Crimea","name":"Chernopolye","lat":"45.04399000","lon":"34.63916000"},
{"state":"Autonomous Republic of Crimea","name":"Chernovo","lat":"45.50833000","lon":"33.93397000"},
{"state":"Autonomous Republic of Crimea","name":"Chernozemnoye","lat":"45.40808000","lon":"34.81990000"},
{"state":"Autonomous Republic of Crimea","name":"Chernyshevo","lat":"45.78202000","lon":"33.42825000"},
{"state":"Autonomous Republic of Crimea","name":"Chervonoye","lat":"45.12294000","lon":"33.68662000"},
{"state":"Autonomous Republic of Crimea","name":"Chisten’koye","lat":"44.88152000","lon":"34.04716000"},
{"state":"Autonomous Republic of Crimea","name":"Chistopolye","lat":"45.36541000","lon":"36.18312000"},
{"state":"Autonomous Republic of Crimea","name":"Chkalovo","lat":"45.60474000","lon":"34.83395000"},
{"state":"Autonomous Republic of Crimea","name":"Dachnoye","lat":"44.88448000","lon":"34.98333000"},
{"state":"Autonomous Republic of Crimea","name":"Dalekoye","lat":"45.66006000","lon":"33.08059000"},
{"state":"Autonomous Republic of Crimea","name":"Dmitrovka","lat":"45.48411000","lon":"35.05880000"},
{"state":"Autonomous Republic of Crimea","name":"Dneprovka","lat":"45.71373000","lon":"34.36256000"},
{"state":"Autonomous Republic of Crimea","name":"Dobroye","lat":"44.86632000","lon":"34.22661000"},
{"state":"Autonomous Republic of Crimea","name":"Dobrushino","lat":"45.37441000","lon":"33.36547000"},
{"state":"Autonomous Republic of Crimea","name":"Dolinnoye","lat":"44.75320000","lon":"33.77766000"},
{"state":"Autonomous Republic of Crimea","name":"Donskoye","lat":"45.04509000","lon":"34.21413000"},
{"state":"Autonomous Republic of Crimea","name":"Drofino","lat":"45.28629000","lon":"34.61589000"},
{"state":"Autonomous Republic of Crimea","name":"Dubki","lat":"44.93581000","lon":"34.02355000"},
{"state":"Autonomous Republic of Crimea","name":"Dzhankoy","lat":"45.71168000","lon":"34.39274000"},
{"state":"Autonomous Republic of Crimea","name":"Dzhankoyskiy rayon","lat":"45.78706000","lon":"34.39197000"},
{"state":"Autonomous Republic of Crimea","name":"Feodosiya","lat":"45.03677000","lon":"35.37789000"},
{"state":"Autonomous Republic of Crimea","name":"Filatovka","lat":"46.08192000","lon":"33.78510000"},
{"state":"Autonomous Republic of Crimea","name":"Fontany","lat":"44.89717000","lon":"34.07297000"},
{"state":"Autonomous Republic of Crimea","name":"Foros","lat":"44.39214000","lon":"33.78798000"},
{"state":"Autonomous Republic of Crimea","name":"Frunze","lat":"45.02688000","lon":"33.62956000"},
{"state":"Autonomous Republic of Crimea","name":"Gaspra","lat":"44.43364000","lon":"34.10297000"},
{"state":"Autonomous Republic of Crimea","name":"Geroyskoye","lat":"45.13857000","lon":"33.74675000"},
{"state":"Autonomous Republic of Crimea","name":"Glazovka","lat":"45.38792000","lon":"36.57965000"},
{"state":"Autonomous Republic of Crimea","name":"Golubinka","lat":"44.59382000","lon":"33.91521000"},
{"state":"Autonomous Republic of Crimea","name":"Gornostayevka","lat":"45.27819000","lon":"36.18601000"},
{"state":"Autonomous Republic of Crimea","name":"Gorodskoy okrug Alushta","lat":"44.67256000","lon":"34.41467000"},
{"state":"Autonomous Republic of Crimea","name":"Gorodskoy okrug Armyansk","lat":"46.10871000","lon":"33.69095000"},
{"state":"Autonomous Republic of Crimea","name":"Gorodskoy okrug Dzhankoy","lat":"45.70810000","lon":"34.39407000"},
{"state":"Autonomous Republic of Crimea","name":"Gorodskoy okrug Feodosiya","lat":"45.04612000","lon":"35.37289000"},
{"state":"Autonomous Republic of Crimea","name":"Gorodskoy okrug Krasnoperekopsk","lat":"45.95330000","lon":"33.79669000"},
{"state":"Autonomous Republic of Crimea","name":"Gorodskoy okrug Saki","lat":"45.12780000","lon":"33.60134000"},
{"state":"Autonomous Republic of Crimea","name":"Gorodskoy okrug Simferopol","lat":"44.94803000","lon":"34.10912000"},
{"state":"Autonomous Republic of Crimea","name":"Gorodskoy okrug Sudak","lat":"44.91667000","lon":"35.00202000"},
{"state":"Autonomous Republic of Crimea","name":"Gorodskoy okrug Yalta","lat":"44.49638000","lon":"34.16336000"},
{"state":"Autonomous Republic of Crimea","name":"Gorodskoy okrug Yevpatoriya","lat":"45.19559000","lon":"33.36342000"},
{"state":"Autonomous Republic of Crimea","name":"Gresovskiy","lat":"45.00804000","lon":"34.02657000"},
{"state":"Autonomous Republic of Crimea","name":"Grishino","lat":"45.64219000","lon":"33.83098000"},
{"state":"Autonomous Republic of Crimea","name":"Grushevka","lat":"45.02281000","lon":"34.97301000"},
{"state":"Autonomous Republic of Crimea","name":"Gurzuf","lat":"44.54624000","lon":"34.27841000"},
{"state":"Autonomous Republic of Crimea","name":"Hvardiiske","lat":"45.11692000","lon":"34.02188000"},
{"state":"Autonomous Republic of Crimea","name":"Ilychyovo","lat":"45.28348000","lon":"35.73864000"},
{"state":"Autonomous Republic of Crimea","name":"Ilyichevo","lat":"45.24524000","lon":"35.07127000"},
{"state":"Autonomous Republic of Crimea","name":"Ilyinka","lat":"45.81784000","lon":"33.79482000"},
{"state":"Autonomous Republic of Crimea","name":"Ishun’","lat":"45.92403000","lon":"33.82364000"},
{"state":"Autonomous Republic of Crimea","name":"Ivanovka","lat":"45.07200000","lon":"33.66130000"},
{"state":"Autonomous Republic of Crimea","name":"Izobil’noye","lat":"44.70276000","lon":"34.35357000"},
{"state":"Autonomous Republic of Crimea","name":"Izumrudnoye","lat":"45.73704000","lon":"34.41299000"},
{"state":"Autonomous Republic of Crimea","name":"Izyumovka","lat":"45.04437000","lon":"35.13717000"},
{"state":"Autonomous Republic of Crimea","name":"Kalinino","lat":"45.59521000","lon":"34.22030000"},
{"state":"Autonomous Republic of Crimea","name":"Kalinovka","lat":"45.31658000","lon":"35.74643000"},
{"state":"Autonomous Republic of Crimea","name":"Kamenolomnya","lat":"45.24804000","lon":"33.41773000"},
{"state":"Autonomous Republic of Crimea","name":"Kashtanovoye","lat":"44.83210000","lon":"34.05912000"},
{"state":"Autonomous Republic of Crimea","name":"Kashtany","lat":"44.86760000","lon":"33.78995000"},
{"state":"Autonomous Republic of Crimea","name":"Kerch","lat":"45.35310000","lon":"36.47429000"},
{"state":"Autonomous Republic of Crimea","name":"Kerchens'ka Mis'ka Rada","lat":"45.35307000","lon":"36.47414000"},
{"state":"Autonomous Republic of Crimea","name":"Kholmovka","lat":"44.65830000","lon":"33.75456000"},
{"state":"Autonomous Republic of Crimea","name":"Kirovo","lat":"45.22106000","lon":"35.84227000"},
{"state":"Autonomous Republic of Crimea","name":"Kirovske Raion","lat":"45.15522000","lon":"35.17696000"},
{"state":"Autonomous Republic of Crimea","name":"Kirovskoye","lat":"45.22967000","lon":"35.19987000"},
{"state":"Autonomous Republic of Crimea","name":"Klepinino","lat":"45.52800000","lon":"34.18315000"},
{"state":"Autonomous Republic of Crimea","name":"Koktebel","lat":"44.96155000","lon":"35.24660000"},
{"state":"Autonomous Republic of Crimea","name":"Kol’chugino","lat":"44.94367000","lon":"33.78865000"},
{"state":"Autonomous Republic of Crimea","name":"Kol’tsovo","lat":"45.32807000","lon":"33.44992000"},
{"state":"Autonomous Republic of Crimea","name":"Kolodeznoye","lat":"45.22682000","lon":"34.33698000"},
{"state":"Autonomous Republic of Crimea","name":"Koloski","lat":"45.26936000","lon":"33.29386000"},
{"state":"Autonomous Republic of Crimea","name":"Komsomol’skoye","lat":"45.01900000","lon":"34.03049000"},
{"state":"Autonomous Republic of Crimea","name":"Kondratyevo","lat":"45.63125000","lon":"34.47387000"},
{"state":"Autonomous Republic of Crimea","name":"Konstantinovka","lat":"44.85511000","lon":"34.12069000"},
{"state":"Autonomous Republic of Crimea","name":"Koreiz","lat":"44.43374000","lon":"34.08516000"},
{"state":"Autonomous Republic of Crimea","name":"Kormovoye","lat":"45.50001000","lon":"33.61192000"},
{"state":"Autonomous Republic of Crimea","name":"Kostochkovka","lat":"45.31747000","lon":"34.67418000"},
{"state":"Autonomous Republic of Crimea","name":"Kotel’nikovo","lat":"45.36584000","lon":"34.02575000"},
{"state":"Autonomous Republic of Crimea","name":"Kovyl’noye","lat":"45.69028000","lon":"33.52775000"},
{"state":"Autonomous Republic of Crimea","name":"Krasna Zor'ka","lat":"45.13432000","lon":"34.04015000"},
{"state":"Autonomous Republic of Crimea","name":"Krasnaya Polyana","lat":"45.48241000","lon":"32.93790000"},
{"state":"Autonomous Republic of Crimea","name":"Krasnoarmeyskoye","lat":"45.99103000","lon":"34.03037000"},
{"state":"Autonomous Republic of Crimea","name":"Krasnoflotskoye","lat":"45.31572000","lon":"34.94756000"},
{"state":"Autonomous Republic of Crimea","name":"Krasnogorka","lat":"45.24513000","lon":"35.80739000"},
{"state":"Autonomous Republic of Crimea","name":"Krasnogvardeyskoye","lat":"45.50271000","lon":"34.30134000"},
{"state":"Autonomous Republic of Crimea","name":"Krasnohvardiiske Raion","lat":"45.40230000","lon":"34.25464000"},
{"state":"Autonomous Republic of Crimea","name":"Krasnokamenka","lat":"44.56383000","lon":"34.28877000"},
{"state":"Autonomous Republic of Crimea","name":"Krasnolesye","lat":"44.83259000","lon":"34.23086000"},
{"state":"Autonomous Republic of Crimea","name":"Krasnoperekops’k","lat":"45.95716000","lon":"33.79650000"},
{"state":"Autonomous Republic of Crimea","name":"Krasnoperekopsk Raion","lat":"45.96992000","lon":"33.87990000"},
{"state":"Autonomous Republic of Crimea","name":"Krasnoyarskoye","lat":"45.50661000","lon":"33.26641000"},
{"state":"Autonomous Republic of Crimea","name":"Krasnoye","lat":"45.13999000","lon":"34.09452000"},
{"state":"Autonomous Republic of Crimea","name":"Krasnoznamenka","lat":"45.28676000","lon":"34.00036000"},
{"state":"Autonomous Republic of Crimea","name":"Krasnyi Mak","lat":"44.64218000","lon":"33.78130000"},
{"state":"Autonomous Republic of Crimea","name":"Krayneye","lat":"45.22993000","lon":"33.83239000"},
{"state":"Autonomous Republic of Crimea","name":"Krest’yanovka","lat":"45.72268000","lon":"33.93938000"},
{"state":"Autonomous Republic of Crimea","name":"Krinichnoye","lat":"45.02428000","lon":"34.61202000"},
{"state":"Autonomous Republic of Crimea","name":"Krymka","lat":"45.70453000","lon":"34.18782000"},
{"state":"Autonomous Republic of Crimea","name":"Krymskaya Roza","lat":"45.05776000","lon":"34.35631000"},
{"state":"Autonomous Republic of Crimea","name":"Krymskoye","lat":"45.18836000","lon":"33.80106000"},
{"state":"Autonomous Republic of Crimea","name":"Kuibyshevo","lat":"44.62900000","lon":"33.86895000"},
{"state":"Autonomous Republic of Crimea","name":"Kukushkino","lat":"45.71924000","lon":"33.39030000"},
{"state":"Autonomous Republic of Crimea","name":"Kurskoye","lat":"45.02908000","lon":"34.93623000"},
{"state":"Autonomous Republic of Crimea","name":"L’govskoye","lat":"45.09801000","lon":"34.95770000"},
{"state":"Autonomous Republic of Crimea","name":"Lekarstvennoye","lat":"44.94194000","lon":"33.82229000"},
{"state":"Autonomous Republic of Crimea","name":"Lenine Raion","lat":"45.24693000","lon":"36.00540000"},
{"state":"Autonomous Republic of Crimea","name":"Lenino","lat":"45.29857000","lon":"35.77708000"},
{"state":"Autonomous Republic of Crimea","name":"Leninskoye","lat":"45.26844000","lon":"34.05023000"},
{"state":"Autonomous Republic of Crimea","name":"Lesnovka","lat":"45.15350000","lon":"33.61889000"},
{"state":"Autonomous Republic of Crimea","name":"Levadki","lat":"44.87083000","lon":"34.04278000"},
{"state":"Autonomous Republic of Crimea","name":"Listvennoye","lat":"45.48086000","lon":"34.81087000"},
{"state":"Autonomous Republic of Crimea","name":"Litvinenkovo","lat":"45.08648000","lon":"34.31107000"},
{"state":"Autonomous Republic of Crimea","name":"Livadia","lat":"44.47021000","lon":"34.14272000"},
{"state":"Autonomous Republic of Crimea","name":"Lobanovo","lat":"45.77552000","lon":"34.24236000"},
{"state":"Autonomous Republic of Crimea","name":"Lozovoye","lat":"44.90600000","lon":"34.16414000"},
{"state":"Autonomous Republic of Crimea","name":"Luchistoye","lat":"44.73646000","lon":"34.40063000"},
{"state":"Autonomous Republic of Crimea","name":"Luganskoye","lat":"45.80190000","lon":"34.23786000"},
{"state":"Autonomous Republic of Crimea","name":"Lugovoye","lat":"45.23469000","lon":"35.72202000"},
{"state":"Autonomous Republic of Crimea","name":"Magazinka","lat":"45.86312000","lon":"34.04969000"},
{"state":"Autonomous Republic of Crimea","name":"Malen’koye","lat":"45.07585000","lon":"33.99942000"},
{"state":"Autonomous Republic of Crimea","name":"Malorechenskoye","lat":"44.75888000","lon":"34.55789000"},
{"state":"Autonomous Republic of Crimea","name":"Maly Mayak","lat":"44.61356000","lon":"34.36469000"},
{"state":"Autonomous Republic of Crimea","name":"Mar’yanovka","lat":"45.44627000","lon":"34.29474000"},
{"state":"Autonomous Republic of Crimea","name":"Marfovka","lat":"45.19853000","lon":"36.09144000"},
{"state":"Autonomous Republic of Crimea","name":"Maryevka","lat":"45.11330000","lon":"36.23992000"},
{"state":"Autonomous Republic of Crimea","name":"Maslovo","lat":"45.79197000","lon":"34.36298000"},
{"state":"Autonomous Republic of Crimea","name":"Massandra","lat":"44.50958000","lon":"34.18817000"},
{"state":"Autonomous Republic of Crimea","name":"Mayskoye","lat":"45.59555000","lon":"34.55213000"},
{"state":"Autonomous Republic of Crimea","name":"Mazanka","lat":"45.00550000","lon":"34.25581000"},
{"state":"Autonomous Republic of Crimea","name":"Medvedevka","lat":"45.88389000","lon":"34.55562000"},
{"state":"Autonomous Republic of Crimea","name":"Medvedevo","lat":"45.38597000","lon":"33.00400000"},
{"state":"Autonomous Republic of Crimea","name":"Mel’nichnoye","lat":"45.19885000","lon":"34.42012000"},
{"state":"Autonomous Republic of Crimea","name":"Mezhvodnoye","lat":"45.58751000","lon":"32.84501000"},
{"state":"Autonomous Republic of Crimea","name":"Michurinskoye","lat":"45.07430000","lon":"34.70672000"},
{"state":"Autonomous Republic of Crimea","name":"Mikhaylovka","lat":"45.11325000","lon":"33.61071000"},
{"state":"Autonomous Republic of Crimea","name":"Mirnovka","lat":"45.69083000","lon":"34.30966000"},
{"state":"Autonomous Republic of Crimea","name":"Mirnoye","lat":"44.98330000","lon":"34.06160000"},
{"state":"Autonomous Republic of Crimea","name":"Mirny","lat":"45.30788000","lon":"33.03501000"},
{"state":"Autonomous Republic of Crimea","name":"Mitrofanovka","lat":"45.45114000","lon":"34.67883000"},
{"state":"Autonomous Republic of Crimea","name":"Mityayevo","lat":"45.23423000","lon":"33.70150000"},
{"state":"Autonomous Republic of Crimea","name":"Molochnoye","lat":"45.19960000","lon":"33.22233000"},
{"state":"Autonomous Republic of Crimea","name":"Molodyozhnoye","lat":"45.00354000","lon":"34.05634000"},
{"state":"Autonomous Republic of Crimea","name":"Morskoye","lat":"44.82593000","lon":"34.80314000"},
{"state":"Autonomous Republic of Crimea","name":"Muromskoye","lat":"45.09051000","lon":"34.84900000"},
{"state":"Autonomous Republic of Crimea","name":"Muskatnoye","lat":"45.46586000","lon":"34.54316000"},
{"state":"Autonomous Republic of Crimea","name":"Mysovoe","lat":"45.44788000","lon":"35.83528000"},
{"state":"Autonomous Republic of Crimea","name":"Nasypnoe","lat":"45.05285000","lon":"35.29415000"},
{"state":"Autonomous Republic of Crimea","name":"Naydenovka","lat":"45.27088000","lon":"34.44898000"},
{"state":"Autonomous Republic of Crimea","name":"Nekrasovka","lat":"45.44085000","lon":"34.98584000"},
{"state":"Autonomous Republic of Crimea","name":"Nekrasovo","lat":"45.42453000","lon":"34.28545000"},
{"state":"Autonomous Republic of Crimea","name":"Nikita","lat":"44.51564000","lon":"34.23840000"},
{"state":"Autonomous Republic of Crimea","name":"Nikolayevka","lat":"44.96213000","lon":"33.61061000"},
{"state":"Autonomous Republic of Crimea","name":"Nizhnegorskiy","lat":"45.44789000","lon":"34.73839000"},
{"state":"Autonomous Republic of Crimea","name":"Nizhnegorskiy rayon","lat":"45.48430000","lon":"34.76798000"},
{"state":"Autonomous Republic of Crimea","name":"Novoandreyevka","lat":"45.19904000","lon":"34.09384000"},
{"state":"Autonomous Republic of Crimea","name":"Novoestoniya","lat":"45.49960000","lon":"34.24298000"},
{"state":"Autonomous Republic of Crimea","name":"Novofedorovka","lat":"45.09473000","lon":"33.57211000"},
{"state":"Autonomous Republic of Crimea","name":"Novogrigoryevka","lat":"45.45200000","lon":"34.60378000"},
{"state":"Autonomous Republic of Crimea","name":"Novoivanovka","lat":"45.44914000","lon":"33.09833000"},
{"state":"Autonomous Republic of Crimea","name":"Novokrymskoye","lat":"45.78007000","lon":"34.15543000"},
{"state":"Autonomous Republic of Crimea","name":"Novonikolayevka","lat":"45.30855000","lon":"36.05749000"},
{"state":"Autonomous Republic of Crimea","name":"Novoozyornoye","lat":"45.38314000","lon":"33.11715000"},
{"state":"Autonomous Republic of Crimea","name":"Novopavlovka","lat":"45.86634000","lon":"33.89018000"},
{"state":"Autonomous Republic of Crimea","name":"Novopokrovka","lat":"45.16517000","lon":"35.25304000"},
{"state":"Autonomous Republic of Crimea","name":"Novosel’skoye","lat":"45.50357000","lon":"32.72250000"},
{"state":"Autonomous Republic of Crimea","name":"Novoselovskoye","lat":"45.44276000","lon":"33.59795000"},
{"state":"Autonomous Republic of Crimea","name":"Novostepnoye","lat":"45.66206000","lon":"34.38700000"},
{"state":"Autonomous Republic of Crimea","name":"Novosyolovka","lat":"44.99377000","lon":"33.83525000"},
{"state":"Autonomous Republic of Crimea","name":"Novozhilovka","lat":"45.15960000","lon":"34.23270000"},
{"state":"Autonomous Republic of Crimea","name":"Novy Svet","lat":"44.83087000","lon":"34.91370000"},
{"state":"Autonomous Republic of Crimea","name":"Okhotnikovo","lat":"45.23985000","lon":"33.59405000"},
{"state":"Autonomous Republic of Crimea","name":"Okhotskoye","lat":"45.48612000","lon":"34.86401000"},
{"state":"Autonomous Republic of Crimea","name":"Oktyabr'skoye","lat":"45.36215000","lon":"36.36803000"},
{"state":"Autonomous Republic of Crimea","name":"Oktyabr’skoye","lat":"45.28866000","lon":"34.13521000"},
{"state":"Autonomous Republic of Crimea","name":"Okunevka","lat":"45.36855000","lon":"32.76357000"},
{"state":"Autonomous Republic of Crimea","name":"Olenevka","lat":"45.38333000","lon":"32.53333000"},
{"state":"Autonomous Republic of Crimea","name":"Ordzhonikidze","lat":"44.96401000","lon":"35.35576000"},
{"state":"Autonomous Republic of Crimea","name":"Orekhovo","lat":"45.12944000","lon":"33.63180000"},
{"state":"Autonomous Republic of Crimea","name":"Orlovskoye","lat":"45.81070000","lon":"33.97308000"},
{"state":"Autonomous Republic of Crimea","name":"Ostanino","lat":"45.32731000","lon":"35.91295000"},
{"state":"Autonomous Republic of Crimea","name":"Ostrovskoye","lat":"45.74232000","lon":"34.06607000"},
{"state":"Autonomous Republic of Crimea","name":"Pakharevka","lat":"45.83472000","lon":"34.16129000"},
{"state":"Autonomous Republic of Crimea","name":"Partenit","lat":"44.57800000","lon":"34.34464000"},
{"state":"Autonomous Republic of Crimea","name":"Partizanskoye","lat":"44.83379000","lon":"34.08465000"},
{"state":"Autonomous Republic of Crimea","name":"Partizany","lat":"45.14373000","lon":"35.15509000"},
{"state":"Autonomous Republic of Crimea","name":"Pereval'noye","lat":"44.84838000","lon":"34.31271000"},
{"state":"Autonomous Republic of Crimea","name":"Perovo","lat":"44.92513000","lon":"34.05753000"},
{"state":"Autonomous Republic of Crimea","name":"Pervomayskiy rayon","lat":"45.59825000","lon":"33.83249000"},
{"state":"Autonomous Republic of Crimea","name":"Pervomayskoye","lat":"45.71744000","lon":"33.85596000"},
{"state":"Autonomous Republic of Crimea","name":"Peschanoye","lat":"44.84342000","lon":"33.60921000"},
{"state":"Autonomous Republic of Crimea","name":"Petrovka","lat":"45.49776000","lon":"34.28816000"},
{"state":"Autonomous Republic of Crimea","name":"Pionerskoye","lat":"44.88083000","lon":"34.20194000"},
{"state":"Autonomous Republic of Crimea","name":"Plodovoye","lat":"44.87156000","lon":"33.85615000"},
{"state":"Autonomous Republic of Crimea","name":"Pobednoye","lat":"45.70109000","lon":"34.44805000"},
{"state":"Autonomous Republic of Crimea","name":"Pochetnoye","lat":"45.99495000","lon":"33.76588000"},
{"state":"Autonomous Republic of Crimea","name":"Poltavka","lat":"45.35133000","lon":"34.18371000"},
{"state":"Autonomous Republic of Crimea","name":"Poshtove","lat":"44.83540000","lon":"33.96159000"},
{"state":"Autonomous Republic of Crimea","name":"Pozharskoye","lat":"44.93554000","lon":"33.87109000"},
{"state":"Autonomous Republic of Crimea","name":"Pravda","lat":"45.77903000","lon":"33.84649000"},
{"state":"Autonomous Republic of Crimea","name":"Primorskiy","lat":"45.11904000","lon":"35.48025000"},
{"state":"Autonomous Republic of Crimea","name":"Priozyornoye","lat":"45.26990000","lon":"36.33405000"},
{"state":"Autonomous Republic of Crimea","name":"Privetnoye","lat":"45.11969000","lon":"35.05960000"},
{"state":"Autonomous Republic of Crimea","name":"Prostornoye","lat":"45.65597000","lon":"34.69837000"},
{"state":"Autonomous Republic of Crimea","name":"Prudovoye","lat":"44.90424000","lon":"33.78114000"},
{"state":"Autonomous Republic of Crimea","name":"Prudy","lat":"45.23922000","lon":"34.70217000"},
{"state":"Autonomous Republic of Crimea","name":"Pshenichnoye","lat":"45.64627000","lon":"34.83767000"},
{"state":"Autonomous Republic of Crimea","name":"Pushkino","lat":"45.20373000","lon":"34.97642000"},
{"state":"Autonomous Republic of Crimea","name":"Pyatikhatka","lat":"45.32347000","lon":"34.25516000"},
{"state":"Autonomous Republic of Crimea","name":"Razdol’nenskiy rayon","lat":"45.67086000","lon":"33.44075000"},
{"state":"Autonomous Republic of Crimea","name":"Razdol’noye","lat":"45.77083000","lon":"33.48777000"},
{"state":"Autonomous Republic of Crimea","name":"Rodnikovo","lat":"45.04296000","lon":"33.95407000"},
{"state":"Autonomous Republic of Crimea","name":"Romashkino","lat":"45.25647000","lon":"33.25517000"},
{"state":"Autonomous Republic of Crimea","name":"Roshchino","lat":"45.60916000","lon":"34.37992000"},
{"state":"Autonomous Republic of Crimea","name":"Roskoshnoye","lat":"45.65187000","lon":"34.11552000"},
{"state":"Autonomous Republic of Crimea","name":"Rovnoye","lat":"45.35134000","lon":"34.35230000"},
{"state":"Autonomous Republic of Crimea","name":"Ruch’i","lat":"45.78564000","lon":"33.66093000"},
{"state":"Autonomous Republic of Crimea","name":"Rusakovka","lat":"45.12369000","lon":"34.47458000"},
{"state":"Autonomous Republic of Crimea","name":"Rybach'e","lat":"44.77331000","lon":"34.59609000"},
{"state":"Autonomous Republic of Crimea","name":"Sadovoye","lat":"45.31037000","lon":"34.65260000"},
{"state":"Autonomous Republic of Crimea","name":"Saki","lat":"45.13424000","lon":"33.59996000"},
{"state":"Autonomous Republic of Crimea","name":"Sakskiy rayon","lat":"45.27799000","lon":"33.52911000"},
{"state":"Autonomous Republic of Crimea","name":"Sary-Bash","lat":"45.57142000","lon":"33.78728000"},
{"state":"Autonomous Republic of Crimea","name":"Semisotka","lat":"45.24676000","lon":"35.56500000"},
{"state":"Autonomous Republic of Crimea","name":"Senokosnoye","lat":"45.73277000","lon":"33.51552000"},
{"state":"Autonomous Republic of Crimea","name":"Serebryanka","lat":"45.63937000","lon":"33.49632000"},
{"state":"Autonomous Republic of Crimea","name":"Shchebetovka","lat":"44.93821000","lon":"35.15800000"},
{"state":"Autonomous Republic of Crimea","name":"Shchyolkino","lat":"45.42985000","lon":"35.82250000"},
{"state":"Autonomous Republic of Crimea","name":"Shelkovichnoye","lat":"45.18748000","lon":"33.68807000"},
{"state":"Autonomous Republic of Crimea","name":"Shirokoye","lat":"45.20029000","lon":"34.05069000"},
{"state":"Autonomous Republic of Crimea","name":"Shkol’noye","lat":"45.05758000","lon":"33.89737000"},
{"state":"Autonomous Republic of Crimea","name":"Shtormovoye","lat":"45.26717000","lon":"33.08693000"},
{"state":"Autonomous Republic of Crimea","name":"Simeiz","lat":"44.40646000","lon":"34.00704000"},
{"state":"Autonomous Republic of Crimea","name":"Simferopol","lat":"44.95719000","lon":"34.11079000"},
{"state":"Autonomous Republic of Crimea","name":"Simferopol Raion","lat":"44.95690000","lon":"34.10225000"},
{"state":"Autonomous Republic of Crimea","name":"Sinitsyno","lat":"45.23862000","lon":"35.24659000"},
{"state":"Autonomous Republic of Crimea","name":"Sizovka","lat":"45.34892000","lon":"33.87669000"},
{"state":"Autonomous Republic of Crimea","name":"Skalistoye","lat":"44.81686000","lon":"33.97791000"},
{"state":"Autonomous Republic of Crimea","name":"Skvortsovo","lat":"45.07542000","lon":"33.82084000"},
{"state":"Autonomous Republic of Crimea","name":"Slavnoye","lat":"45.72176000","lon":"33.23689000"},
{"state":"Autonomous Republic of Crimea","name":"Slavyanskoye","lat":"45.72768000","lon":"33.32165000"},
{"state":"Autonomous Republic of Crimea","name":"Sofiivka","lat":"45.08985000","lon":"33.99887000"},
{"state":"Autonomous Republic of Crimea","name":"Sokolinoye","lat":"44.55041000","lon":"33.95897000"},
{"state":"Autonomous Republic of Crimea","name":"Solnechnaya Dolina","lat":"44.87185000","lon":"35.10622000"},
{"state":"Autonomous Republic of Crimea","name":"Solnechnogorskoye","lat":"44.74722000","lon":"34.53999000"},
{"state":"Autonomous Republic of Crimea","name":"Solnechnoye","lat":"45.04767000","lon":"34.08380000"},
{"state":"Autonomous Republic of Crimea","name":"Sovetskiy","lat":"45.34267000","lon":"34.92463000"},
{"state":"Autonomous Republic of Crimea","name":"Sovietskyi Raion","lat":"45.31516000","lon":"34.92914000"},
{"state":"Autonomous Republic of Crimea","name":"Sovkhoznoye","lat":"45.96005000","lon":"33.77155000"},
{"state":"Autonomous Republic of Crimea","name":"Stakhanovka","lat":"45.37062000","lon":"33.94883000"},
{"state":"Autonomous Republic of Crimea","name":"Stal’noye","lat":"45.70814000","lon":"34.56238000"},
{"state":"Autonomous Republic of Crimea","name":"Stary Krym","lat":"45.02887000","lon":"35.09174000"},
{"state":"Autonomous Republic of Crimea","name":"Stepnoye","lat":"45.65212000","lon":"33.77441000"},
{"state":"Autonomous Republic of Crimea","name":"Stolbovoye","lat":"45.36270000","lon":"33.49584000"},
{"state":"Autonomous Republic of Crimea","name":"Strogonovka","lat":"44.94970000","lon":"34.17924000"},
{"state":"Autonomous Republic of Crimea","name":"Sudak","lat":"44.84924000","lon":"34.97471000"},
{"state":"Autonomous Republic of Crimea","name":"Susanino","lat":"45.49898000","lon":"33.69854000"},
{"state":"Autonomous Republic of Crimea","name":"Suvorovo","lat":"46.08865000","lon":"33.68800000"},
{"state":"Autonomous Republic of Crimea","name":"Suvorovskoye","lat":"45.25171000","lon":"33.37194000"},
{"state":"Autonomous Republic of Crimea","name":"Svetloye","lat":"45.63320000","lon":"34.66264000"},
{"state":"Autonomous Republic of Crimea","name":"Tabachnoye","lat":"44.90175000","lon":"33.67638000"},
{"state":"Autonomous Republic of Crimea","name":"Tankovoye","lat":"44.65829000","lon":"33.80929000"},
{"state":"Autonomous Republic of Crimea","name":"Tenistoye","lat":"44.74303000","lon":"33.66812000"},
{"state":"Autonomous Republic of Crimea","name":"Teplovka","lat":"45.03239000","lon":"33.69588000"},
{"state":"Autonomous Republic of Crimea","name":"Tokarevo","lat":"45.28367000","lon":"35.15244000"},
{"state":"Autonomous Republic of Crimea","name":"Trudovoye","lat":"44.99133000","lon":"34.20311000"},
{"state":"Autonomous Republic of Crimea","name":"Tselinnoye","lat":"45.90633000","lon":"34.18063000"},
{"state":"Autonomous Republic of Crimea","name":"Tsvetochnoye","lat":"45.08655000","lon":"34.38521000"},
{"state":"Autonomous Republic of Crimea","name":"Turgenevka","lat":"44.69747000","lon":"33.83007000"},
{"state":"Autonomous Republic of Crimea","name":"Uglovoye","lat":"44.82146000","lon":"33.60452000"},
{"state":"Autonomous Republic of Crimea","name":"Ukrainka","lat":"44.88730000","lon":"34.13973000"},
{"state":"Autonomous Republic of Crimea","name":"Ukromnoye","lat":"45.04272000","lon":"34.00312000"},
{"state":"Autonomous Republic of Crimea","name":"Urozhaynoye","lat":"45.04522000","lon":"34.13511000"},
{"state":"Autonomous Republic of Crimea","name":"Uvarovka","lat":"45.45108000","lon":"34.78812000"},
{"state":"Autonomous Republic of Crimea","name":"Uvarovo","lat":"45.26260000","lon":"35.66506000"},
{"state":"Autonomous Republic of Crimea","name":"Uyutnoye","lat":"45.19769000","lon":"33.29796000"},
{"state":"Autonomous Republic of Crimea","name":"Vasilyevka","lat":"45.13938000","lon":"34.72291000"},
{"state":"Autonomous Republic of Crimea","name":"Veresayevo","lat":"45.30551000","lon":"33.50004000"},
{"state":"Autonomous Republic of Crimea","name":"Verkhorechye","lat":"44.69738000","lon":"33.98696000"},
{"state":"Autonomous Republic of Crimea","name":"Vesele","lat":"44.85807000","lon":"34.87952000"},
{"state":"Autonomous Republic of Crimea","name":"Veselovka","lat":"45.37733000","lon":"33.21385000"},
{"state":"Autonomous Republic of Crimea","name":"Vilino","lat":"44.84560000","lon":"33.67161000"},
{"state":"Autonomous Republic of Crimea","name":"Vinnitskoye","lat":"44.98129000","lon":"33.73920000"},
{"state":"Autonomous Republic of Crimea","name":"Vinogradnoye","lat":"44.48149000","lon":"34.12973000"},
{"state":"Autonomous Republic of Crimea","name":"Vinogradovo","lat":"45.39264000","lon":"33.64668000"},
{"state":"Autonomous Republic of Crimea","name":"Vishennoye","lat":"45.14509000","lon":"34.59691000"},
{"state":"Autonomous Republic of Crimea","name":"Vishnyovka","lat":"45.95966000","lon":"33.95289000"},
{"state":"Autonomous Republic of Crimea","name":"Vladimirovka","lat":"45.14760000","lon":"33.57583000"},
{"state":"Autonomous Republic of Crimea","name":"Vladislavovka","lat":"45.16828000","lon":"35.37658000"},
{"state":"Autonomous Republic of Crimea","name":"Voinka","lat":"45.86990000","lon":"33.99138000"},
{"state":"Autonomous Republic of Crimea","name":"Vol’noye","lat":"45.56570000","lon":"34.30360000"},
{"state":"Autonomous Republic of Crimea","name":"Vorobyovo","lat":"45.32895000","lon":"33.24654000"},
{"state":"Autonomous Republic of Crimea","name":"Voskhod","lat":"45.50999000","lon":"34.39355000"},
{"state":"Autonomous Republic of Crimea","name":"Voykovo","lat":"45.38329000","lon":"36.43739000"},
{"state":"Autonomous Republic of Crimea","name":"Yalta","lat":"44.50218000","lon":"34.16624000"},
{"state":"Autonomous Republic of Crimea","name":"Yantarnoye","lat":"45.43473000","lon":"34.22134000"},
{"state":"Autonomous Republic of Crimea","name":"Yarkoye","lat":"45.69120000","lon":"34.26323000"},
{"state":"Autonomous Republic of Crimea","name":"Yarkoye Pole","lat":"45.20581000","lon":"35.19848000"},
{"state":"Autonomous Republic of Crimea","name":"Yasnopolyanskoye","lat":"45.94097000","lon":"34.35262000"},
{"state":"Autonomous Republic of Crimea","name":"Yemelyanovka","lat":"45.53287000","lon":"34.89624000"},
{"state":"Autonomous Republic of Crimea","name":"Yermakovo","lat":"45.85364000","lon":"34.48644000"},
{"state":"Autonomous Republic of Crimea","name":"Yevpatoriya","lat":"45.20091000","lon":"33.36655000"},
{"state":"Autonomous Republic of Crimea","name":"Zalesye","lat":"44.88687000","lon":"34.10168000"},
{"state":"Autonomous Republic of Crimea","name":"Zaozyornoye","lat":"45.15816000","lon":"33.27866000"},
{"state":"Autonomous Republic of Crimea","name":"Zarechnoye","lat":"44.85048000","lon":"34.26426000"},
{"state":"Autonomous Republic of Crimea","name":"Zavet-Leninskiy","lat":"45.86258000","lon":"34.39160000"},
{"state":"Autonomous Republic of Crimea","name":"Zavetnoye","lat":"45.32697000","lon":"34.80837000"},
{"state":"Autonomous Republic of Crimea","name":"Zelenogorskoye","lat":"45.01249000","lon":"34.46848000"},
{"state":"Autonomous Republic of Crimea","name":"Zelyonoye","lat":"44.59583000","lon":"34.00921000"},
{"state":"Autonomous Republic of Crimea","name":"Zemlyanichnoye","lat":"44.97444000","lon":"34.83553000"},
{"state":"Autonomous Republic of Crimea","name":"Zernovoye","lat":"45.32364000","lon":"34.48099000"},
{"state":"Autonomous Republic of Crimea","name":"Zheleznodorozhnoye","lat":"44.71710000","lon":"33.80417000"},
{"state":"Autonomous Republic of Crimea","name":"Zhelyabovka","lat":"45.39877000","lon":"34.75776000"},
{"state":"Autonomous Republic of Crimea","name":"Zhemchuzhina","lat":"45.27466000","lon":"34.65778000"},
{"state":"Autonomous Republic of Crimea","name":"Zhuravki","lat":"45.12629000","lon":"35.21513000"},
{"state":"Autonomous Republic of Crimea","name":"Zhuravli","lat":"45.25246000","lon":"33.64104000"},
{"state":"Autonomous Republic of Crimea","name":"Zhuravlyovka","lat":"45.17680000","lon":"33.99680000"},
{"state":"Autonomous Republic of Crimea","name":"Zimino","lat":"45.50797000","lon":"33.51431000"},
{"state":"Autonomous Republic of Crimea","name":"Zolotoye Pole","lat":"45.12774000","lon":"34.99148000"},
{"state":"Autonomous Republic of Crimea","name":"Zorkino","lat":"45.54762000","lon":"34.71028000"},
{"state":"Autonomous Republic of Crimea","name":"Zuya","lat":"45.05418000","lon":"34.32152000"},
{"state":"Autonomous Republic of Crimea","name":"Zybiny","lat":"45.23674000","lon":"34.64987000"},
{"state":"Cherkaska oblast","name":"Babanka","lat":"48.70971000","lon":"30.44827000"},
{"state":"Cherkaska oblast","name":"Buky","lat":"49.09252000","lon":"30.40355000"},
{"state":"Cherkaska oblast","name":"Cherkasy","lat":"49.42854000","lon":"32.06207000"},
{"state":"Cherkaska oblast","name":"Chervona Sloboda","lat":"49.37281000","lon":"32.15742000"},
{"state":"Cherkaska oblast","name":"Chornobay","lat":"49.66644000","lon":"32.32932000"},
{"state":"Cherkaska oblast","name":"Chyhyryn","lat":"49.08376000","lon":"32.65549000"},
{"state":"Cherkaska oblast","name":"Drabiv","lat":"49.96029000","lon":"32.14070000"},
{"state":"Cherkaska oblast","name":"Horodyshche","lat":"49.28489000","lon":"31.44513000"},
{"state":"Cherkaska oblast","name":"Kamianka","lat":"49.03180000","lon":"32.10396000"},
{"state":"Cherkaska oblast","name":"Kaniv","lat":"49.75182000","lon":"31.46004000"},
{"state":"Cherkaska oblast","name":"Khrystynivka","lat":"48.81577000","lon":"29.97703000"},
{"state":"Cherkaska oblast","name":"Korsun-Shevchenkivskyi","lat":"49.41894000","lon":"31.25865000"},
{"state":"Cherkaska oblast","name":"Lebedyn","lat":"48.96242000","lon":"31.52696000"},
{"state":"Cherkaska oblast","name":"Lysianka","lat":"49.25229000","lon":"30.82946000"},
{"state":"Cherkaska oblast","name":"Mankivka","lat":"48.96349000","lon":"30.33366000"},
{"state":"Cherkaska oblast","name":"Mliiv","lat":"49.33691000","lon":"31.51704000"},
{"state":"Cherkaska oblast","name":"Monastyryshche","lat":"48.99090000","lon":"29.80470000"},
{"state":"Cherkaska oblast","name":"Moshny","lat":"49.52754000","lon":"31.73708000"},
{"state":"Cherkaska oblast","name":"Nove-Misto","lat":"48.98113000","lon":"29.82813000"},
{"state":"Cherkaska oblast","name":"Ruska Poliana","lat":"49.41700000","lon":"31.92009000"},
{"state":"Cherkaska oblast","name":"Shpola","lat":"49.00687000","lon":"31.39471000"},
{"state":"Cherkaska oblast","name":"Smila","lat":"49.22242000","lon":"31.88714000"},
{"state":"Cherkaska oblast","name":"Stebliv","lat":"49.40186000","lon":"31.09764000"},
{"state":"Cherkaska oblast","name":"Talne","lat":"48.88877000","lon":"30.69482000"},
{"state":"Cherkaska oblast","name":"Tsibulev","lat":"49.07907000","lon":"29.84727000"},
{"state":"Cherkaska oblast","name":"Tsvitkove","lat":"49.15231000","lon":"31.53739000"},
{"state":"Cherkaska oblast","name":"Uman","lat":"48.74838000","lon":"30.22184000"},
{"state":"Cherkaska oblast","name":"Vatutine","lat":"49.01502000","lon":"31.06211000"},
{"state":"Cherkaska oblast","name":"Verkhniachka","lat":"48.82849000","lon":"30.03957000"},
{"state":"Cherkaska oblast","name":"Yerky","lat":"48.99062000","lon":"30.98818000"},
{"state":"Cherkaska oblast","name":"Yurkivka","lat":"49.01082000","lon":"31.08797000"},
{"state":"Cherkaska oblast","name":"Zhashkiv","lat":"49.24545000","lon":"30.11020000"},
{"state":"Cherkaska oblast","name":"Zolotonosha","lat":"49.66832000","lon":"32.04047000"},
{"state":"Cherkaska oblast","name":"Zvenihorodka","lat":"49.07866000","lon":"30.96755000"},
{"state":"Chernihivska oblast","name":"Avdiyivka","lat":"51.77660000","lon":"32.79988000"},
{"state":"Chernihivska oblast","name":"Bakhmach","lat":"51.18144000","lon":"32.83463000"},
{"state":"Chernihivska oblast","name":"Baturyn","lat":"51.34567000","lon":"32.87794000"},
{"state":"Chernihivska oblast","name":"Berezna","lat":"51.57160000","lon":"31.78456000"},
{"state":"Chernihivska oblast","name":"Bobrovytsya","lat":"50.74693000","lon":"31.39480000"},
{"state":"Chernihivska oblast","name":"Borzna","lat":"51.25464000","lon":"32.42690000"},
{"state":"Chernihivska oblast","name":"Chernihiv","lat":"51.50551000","lon":"31.28487000"},
{"state":"Chernihivska oblast","name":"Chernihiv Raion","lat":"51.58333000","lon":"31.33333000"},
{"state":"Chernihivska oblast","name":"Chernihivs’ka Mis’krada","lat":"51.49923000","lon":"31.28805000"},
{"state":"Chernihivska oblast","name":"Desna","lat":"50.92731000","lon":"30.76048000"},
{"state":"Chernihivska oblast","name":"Dihtyari","lat":"50.58264000","lon":"32.77012000"},
{"state":"Chernihivska oblast","name":"Dobryanka","lat":"52.06314000","lon":"31.18567000"},
{"state":"Chernihivska oblast","name":"Horodnya","lat":"51.89085000","lon":"31.59741000"},
{"state":"Chernihivska oblast","name":"Ichnya","lat":"50.86258000","lon":"32.39425000"},
{"state":"Chernihivska oblast","name":"Kholmy","lat":"51.87096000","lon":"32.60063000"},
{"state":"Chernihivska oblast","name":"Kobyzhcha","lat":"50.82854000","lon":"31.50439000"},
{"state":"Chernihivska oblast","name":"Korop","lat":"51.56638000","lon":"32.95861000"},
{"state":"Chernihivska oblast","name":"Koryukivka","lat":"51.76877000","lon":"32.24813000"},
{"state":"Chernihivska oblast","name":"Kozelets’","lat":"50.91334000","lon":"31.12140000"},
{"state":"Chernihivska oblast","name":"Kruty","lat":"51.05974000","lon":"32.10634000"},
{"state":"Chernihivska oblast","name":"Kulykivka","lat":"51.37345000","lon":"31.64661000"},
{"state":"Chernihivska oblast","name":"Ladan","lat":"50.51959000","lon":"32.58178000"},
{"state":"Chernihivska oblast","name":"Lisovi Sorochyntsi","lat":"50.68920000","lon":"32.32919000"},
{"state":"Chernihivska oblast","name":"Lyubech","lat":"51.70260000","lon":"30.65692000"},
{"state":"Chernihivska oblast","name":"Mena","lat":"51.52170000","lon":"32.21568000"},
{"state":"Chernihivska oblast","name":"Mens’kyy Rayon","lat":"51.52148000","lon":"32.02166000"},
{"state":"Chernihivska oblast","name":"Nizhyn","lat":"51.04801000","lon":"31.88688000"},
{"state":"Chernihivska oblast","name":"Nosivka","lat":"50.93152000","lon":"31.58282000"},
{"state":"Chernihivska oblast","name":"Novhorod-Sivers’kyy","lat":"52.00577000","lon":"33.26150000"},
{"state":"Chernihivska oblast","name":"Olyshivka","lat":"51.22266000","lon":"31.33314000"},
{"state":"Chernihivska oblast","name":"Oster","lat":"50.95060000","lon":"30.88229000"},
{"state":"Chernihivska oblast","name":"Pryluky","lat":"50.59323000","lon":"32.38761000"},
{"state":"Chernihivska oblast","name":"Ripky","lat":"51.80105000","lon":"31.08383000"},
{"state":"Chernihivska oblast","name":"Sedniv","lat":"51.64473000","lon":"31.56497000"},
{"state":"Chernihivska oblast","name":"Semenivka","lat":"52.17827000","lon":"32.58183000"},
{"state":"Chernihivska oblast","name":"Shchors","lat":"51.81865000","lon":"31.94504000"},
{"state":"Chernihivska oblast","name":"Snovs'kyy Rayon","lat":"51.83333000","lon":"32.00000000"},
{"state":"Chernihivska oblast","name":"Sosnytsya","lat":"51.52387000","lon":"32.49985000"},
{"state":"Chernihivska oblast","name":"Sribne","lat":"50.66384000","lon":"32.91867000"},
{"state":"Chernihivska oblast","name":"Varva","lat":"50.49503000","lon":"32.71968000"},
{"state":"Chernihivska oblast","name":"Zhuravka","lat":"50.48108000","lon":"32.59490000"},
{"state":"Chernivetska oblast","name":"Banyliv","lat":"48.36612000","lon":"25.34549000"},
{"state":"Chernivetska oblast","name":"Berehomet","lat":"48.17882000","lon":"25.34855000"},
{"state":"Chernivetska oblast","name":"Boyany","lat":"48.27077000","lon":"26.12624000"},
{"state":"Chernivetska oblast","name":"Chernivtsi","lat":"48.29149000","lon":"25.94034000"},
{"state":"Chernivetska oblast","name":"Chernivtsi Municipality","lat":"48.31932000","lon":"25.94104000"},
{"state":"Chernivetska oblast","name":"Chudey","lat":"48.05247000","lon":"25.62208000"},
{"state":"Chernivetska oblast","name":"Davydivka","lat":"48.12099000","lon":"25.56461000"},
{"state":"Chernivetska oblast","name":"Hlyboka","lat":"48.08971000","lon":"25.92933000"},
{"state":"Chernivetska oblast","name":"Ispas","lat":"48.29734000","lon":"25.27406000"},
{"state":"Chernivetska oblast","name":"Kadubivtsi","lat":"48.58337000","lon":"25.76871000"},
{"state":"Chernivetska oblast","name":"Khotyn","lat":"48.50693000","lon":"26.49121000"},
{"state":"Chernivetska oblast","name":"Klishkivtsi","lat":"48.43161000","lon":"26.26231000"},
{"state":"Chernivetska oblast","name":"Kostryzhivka","lat":"48.65455000","lon":"25.71316000"},
{"state":"Chernivetska oblast","name":"Luzhany","lat":"48.36492000","lon":"25.77173000"},
{"state":"Chernivetska oblast","name":"Marshintsy","lat":"48.21751000","lon":"26.29133000"},
{"state":"Chernivetska oblast","name":"Molodiya","lat":"48.22326000","lon":"26.02139000"},
{"state":"Chernivetska oblast","name":"Myhove","lat":"48.15749000","lon":"25.37904000"},
{"state":"Chernivetska oblast","name":"Novodnistrovs’k","lat":"48.58303000","lon":"27.44070000"},
{"state":"Chernivetska oblast","name":"Novoselytsya","lat":"48.21931000","lon":"26.26531000"},
{"state":"Chernivetska oblast","name":"Nyzhni Petrivtsi","lat":"48.02847000","lon":"25.72327000"},
{"state":"Chernivetska oblast","name":"Putyla Raion","lat":"48.00000000","lon":"25.00000000"},
{"state":"Chernivetska oblast","name":"Ropcha","lat":"48.11988000","lon":"25.77421000"},
{"state":"Chernivetska oblast","name":"Shypyntsi","lat":"48.37677000","lon":"25.74664000"},
{"state":"Chernivetska oblast","name":"Sokyryany","lat":"48.44747000","lon":"27.41678000"},
{"state":"Chernivetska oblast","name":"Vashkivtsi","lat":"48.38491000","lon":"25.51023000"},
{"state":"Chernivetska oblast","name":"Verenchanka","lat":"48.54653000","lon":"25.74533000"},
{"state":"Chernivetska oblast","name":"Voloka","lat":"48.19225000","lon":"25.93074000"},
{"state":"Chernivetska oblast","name":"Vyzhnytsya","lat":"48.24801000","lon":"25.19452000"},
{"state":"Chernivetska oblast","name":"Yizhivtsi","lat":"48.03962000","lon":"25.66232000"},
{"state":"Chernivetska oblast","name":"Zastavna","lat":"48.52307000","lon":"25.84369000"},
{"state":"Dnipropetrovska oblast","name":"Apostolove","lat":"47.66003000","lon":"33.71369000"},
{"state":"Dnipropetrovska oblast","name":"Auly","lat":"48.56660000","lon":"34.46111000"},
{"state":"Dnipropetrovska oblast","name":"Aviatorske","lat":"48.36714000","lon":"35.08132000"},
{"state":"Dnipropetrovska oblast","name":"Chervonohryhorivka","lat":"47.62298000","lon":"34.53887000"},
{"state":"Dnipropetrovska oblast","name":"Chortomlyk","lat":"47.62315000","lon":"34.14198000"},
{"state":"Dnipropetrovska oblast","name":"Dnipro","lat":"48.45930000","lon":"35.03865000"},
{"state":"Dnipropetrovska oblast","name":"Dnipro Raion","lat":"48.45608000","lon":"35.02167000"},
{"state":"Dnipropetrovska oblast","name":"Dniprovs’ka Mis’ka Rada","lat":"48.46726000","lon":"34.99898000"},
{"state":"Dnipropetrovska oblast","name":"Hubynykha","lat":"48.80980000","lon":"35.25602000"},
{"state":"Dnipropetrovska oblast","name":"Hupalivka","lat":"49.11139000","lon":"34.73556000"},
{"state":"Dnipropetrovska oblast","name":"Kamianske","lat":"48.51134000","lon":"34.60210000"},
{"state":"Dnipropetrovska oblast","name":"Kaydaki","lat":"48.37678000","lon":"35.12398000"},
{"state":"Dnipropetrovska oblast","name":"Krynychky","lat":"48.37551000","lon":"34.46701000"},
{"state":"Dnipropetrovska oblast","name":"Kryvoriz’ka Mis’krada","lat":"47.94730000","lon":"33.42489000"},
{"state":"Dnipropetrovska oblast","name":"Kryvyi Rih","lat":"47.90966000","lon":"33.38044000"},
{"state":"Dnipropetrovska oblast","name":"Lykhivka","lat":"48.68735000","lon":"33.92279000"},
{"state":"Dnipropetrovska oblast","name":"Mahdalynivka","lat":"48.92111000","lon":"34.91491000"},
{"state":"Dnipropetrovska oblast","name":"Mahdalynivs’kyy Rayon","lat":"48.97612000","lon":"34.96762000"},
{"state":"Dnipropetrovska oblast","name":"Marhanets’","lat":"47.63543000","lon":"34.62769000"},
{"state":"Dnipropetrovska oblast","name":"Melioratyvne","lat":"48.63009000","lon":"35.41558000"},
{"state":"Dnipropetrovska oblast","name":"Mezhova","lat":"48.25318000","lon":"36.73468000"},
{"state":"Dnipropetrovska oblast","name":"Nikopol","lat":"47.57119000","lon":"34.39637000"},
{"state":"Dnipropetrovska oblast","name":"Novomoskovs’k","lat":"48.63799000","lon":"35.24548000"},
{"state":"Dnipropetrovska oblast","name":"Novomoskovsk Raion","lat":"48.66667000","lon":"35.41667000"},
{"state":"Dnipropetrovska oblast","name":"Novomykolayivka","lat":"48.55625000","lon":"34.37399000"},
{"state":"Dnipropetrovska oblast","name":"Novopokrovka","lat":"48.05918000","lon":"34.60619000"},
{"state":"Dnipropetrovska oblast","name":"Ordzhonikidze","lat":"47.66763000","lon":"34.05957000"},
{"state":"Dnipropetrovska oblast","name":"Partyzans’ke","lat":"48.58680000","lon":"34.80948000"},
{"state":"Dnipropetrovska oblast","name":"Pavlohrad","lat":"48.53426000","lon":"35.87098000"},
{"state":"Dnipropetrovska oblast","name":"Petropavlivka","lat":"48.45643000","lon":"36.43670000"},
{"state":"Dnipropetrovska oblast","name":"Petrykivka","lat":"48.72933000","lon":"34.63358000"},
{"state":"Dnipropetrovska oblast","name":"Petrykivs’kyy Rayon","lat":"48.68914000","lon":"34.61098000"},
{"state":"Dnipropetrovska oblast","name":"Piatykhatky","lat":"48.41333000","lon":"33.71056000"},
{"state":"Dnipropetrovska oblast","name":"Pidhorodne","lat":"48.57528000","lon":"35.10680000"},
{"state":"Dnipropetrovska oblast","name":"Sholokhove","lat":"47.69453000","lon":"34.03119000"},
{"state":"Dnipropetrovska oblast","name":"Shyroke","lat":"47.69173000","lon":"33.25715000"},
{"state":"Dnipropetrovska oblast","name":"Shyroke Raion","lat":"47.66667000","lon":"33.33333000"},
{"state":"Dnipropetrovska oblast","name":"Sofiyivka","lat":"48.04865000","lon":"33.87618000"},
{"state":"Dnipropetrovska oblast","name":"Solone","lat":"48.20805000","lon":"34.87208000"},
{"state":"Dnipropetrovska oblast","name":"Solone Raion","lat":"48.16667000","lon":"35.00000000"},
{"state":"Dnipropetrovska oblast","name":"Spas’ke","lat":"48.66667000","lon":"35.05385000"},
{"state":"Dnipropetrovska oblast","name":"Surs’ko-Mykhaylivka","lat":"48.27202000","lon":"34.72759000"},
{"state":"Dnipropetrovska oblast","name":"Synel’nykove","lat":"48.32044000","lon":"35.51792000"},
{"state":"Dnipropetrovska oblast","name":"Tomakivka","lat":"47.81569000","lon":"34.74137000"},
{"state":"Dnipropetrovska oblast","name":"Tsarychanka","lat":"48.93697000","lon":"34.47860000"},
{"state":"Dnipropetrovska oblast","name":"Tsarychans’kyy Rayon","lat":"48.93329000","lon":"34.53043000"},
{"state":"Dnipropetrovska oblast","name":"Verkhn’odniprovs’k","lat":"48.65242000","lon":"34.33457000"},
{"state":"Dnipropetrovska oblast","name":"Vil’ne","lat":"47.63645000","lon":"34.81387000"},
{"state":"Dnipropetrovska oblast","name":"Vyshchetarasivka","lat":"47.56851000","lon":"34.88096000"},
{"state":"Dnipropetrovska oblast","name":"Vyshneve","lat":"48.43611000","lon":"33.91556000"},
{"state":"Dnipropetrovska oblast","name":"Yur”yivs’kyy Rayon","lat":"48.80743000","lon":"35.91325000"},
{"state":"Dnipropetrovska oblast","name":"Zhovti Vody","lat":"48.34493000","lon":"33.50374000"},
{"state":"Donetska oblast","name":"Amvrosiivka Raion","lat":"47.75000000","lon":"38.50000000"},
{"state":"Donetska oblast","name":"Amvrosiyivka","lat":"47.79348000","lon":"38.47768000"},
{"state":"Donetska oblast","name":"Avdiyivka","lat":"48.13989000","lon":"37.74255000"},
{"state":"Donetska oblast","name":"Bakhmut","lat":"48.59559000","lon":"37.99987000"},
{"state":"Donetska oblast","name":"Bakhmut Raion","lat":"48.58333000","lon":"38.00000000"},
{"state":"Donetska oblast","name":"Bezimenne","lat":"47.10716000","lon":"37.93815000"},
{"state":"Donetska oblast","name":"Bilyts’ke","lat":"48.40642000","lon":"37.18111000"},
{"state":"Donetska oblast","name":"Blahodatne","lat":"47.87928000","lon":"38.48492000"},
{"state":"Donetska oblast","name":"Boykivske","lat":"47.40994000","lon":"38.02476000"},
{"state":"Donetska oblast","name":"Boykivske Raion","lat":"47.41667000","lon":"38.00000000"},
{"state":"Donetska oblast","name":"Chasiv Yar","lat":"48.59348000","lon":"37.85724000"},
{"state":"Donetska oblast","name":"Chystyakove","lat":"48.03876000","lon":"38.59685000"},
{"state":"Donetska oblast","name":"Debal’tseve","lat":"48.34072000","lon":"38.40490000"},
{"state":"Donetska oblast","name":"Dmytrivka","lat":"47.93611000","lon":"38.93661000"},
{"state":"Donetska oblast","name":"Dobropillia Raion","lat":"48.41667000","lon":"37.16667000"},
{"state":"Donetska oblast","name":"Dobropillya","lat":"48.46147000","lon":"37.08524000"},
{"state":"Donetska oblast","name":"Dokuchayevs’k","lat":"47.75046000","lon":"37.67936000"},
{"state":"Donetska oblast","name":"Donetsk","lat":"48.02300000","lon":"37.80224000"},
{"state":"Donetska oblast","name":"Druzhkivka","lat":"48.63013000","lon":"37.55259000"},
{"state":"Donetska oblast","name":"Horlivka","lat":"48.33576000","lon":"38.05325000"},
{"state":"Donetska oblast","name":"Ilovays’k","lat":"47.92498000","lon":"38.20235000"},
{"state":"Donetska oblast","name":"Khartsyz’k","lat":"48.04243000","lon":"38.14728000"},
{"state":"Donetska oblast","name":"Kostiantynivka Raion","lat":"48.50000000","lon":"37.75000000"},
{"state":"Donetska oblast","name":"Kostyantynivka","lat":"48.52770000","lon":"37.70690000"},
{"state":"Donetska oblast","name":"Kramators’k","lat":"48.72305000","lon":"37.55629000"},
{"state":"Donetska oblast","name":"Krasnotorka","lat":"48.68204000","lon":"37.53266000"},
{"state":"Donetska oblast","name":"Krinichnaya","lat":"48.12899000","lon":"38.02597000"},
{"state":"Donetska oblast","name":"Kurakhovo","lat":"47.98522000","lon":"37.28210000"},
{"state":"Donetska oblast","name":"Kuteynykove","lat":"47.81227000","lon":"38.28822000"},
{"state":"Donetska oblast","name":"Luhans’ke","lat":"48.44574000","lon":"38.26153000"},
{"state":"Donetska oblast","name":"Lyman","lat":"48.98837000","lon":"37.80225000"},
{"state":"Donetska oblast","name":"Lyman Raion","lat":"49.00000000","lon":"37.83333000"},
{"state":"Donetska oblast","name":"Makiyivka","lat":"48.04782000","lon":"37.92576000"},
{"state":"Donetska oblast","name":"Makiyivs’ka Mis’krada","lat":"48.06287000","lon":"38.03075000"},
{"state":"Donetska oblast","name":"Manhush","lat":"47.05582000","lon":"37.31068000"},
{"state":"Donetska oblast","name":"Mar'yinka","lat":"47.94527000","lon":"37.50544000"},
{"state":"Donetska oblast","name":"Mariupol","lat":"47.09514000","lon":"37.54131000"},
{"state":"Donetska oblast","name":"Melekyne","lat":"46.95957000","lon":"37.39981000"},
{"state":"Donetska oblast","name":"Mospyne","lat":"47.89081000","lon":"38.06395000"},
{"state":"Donetska oblast","name":"Myrnohrad","lat":"48.30523000","lon":"37.26091000"},
{"state":"Donetska oblast","name":"Nikolske Raion","lat":"47.25000000","lon":"37.25000000"},
{"state":"Donetska oblast","name":"Novoazovs'k","lat":"47.11389000","lon":"38.08599000"},
{"state":"Donetska oblast","name":"Novodonets’ke","lat":"48.63526000","lon":"36.98477000"},
{"state":"Donetska oblast","name":"Novyy Svit","lat":"47.80591000","lon":"38.02112000"},
{"state":"Donetska oblast","name":"Nyzhnya Krynka","lat":"48.11350000","lon":"38.16064000"},
{"state":"Donetska oblast","name":"P'yatypill'ya","lat":"48.01590000","lon":"38.09979000"},
{"state":"Donetska oblast","name":"Pokrovsk","lat":"48.28198000","lon":"37.17585000"},
{"state":"Donetska oblast","name":"Pokrovsk Raion","lat":"48.25000000","lon":"37.16667000"},
{"state":"Donetska oblast","name":"Rodyns’ke","lat":"48.35199000","lon":"37.20602000"},
{"state":"Donetska oblast","name":"Rozsypne","lat":"48.14966000","lon":"38.57619000"},
{"state":"Donetska oblast","name":"Sartana","lat":"47.17436000","lon":"37.69266000"},
{"state":"Donetska oblast","name":"Selydivs’ka Mis’krada","lat":"48.14530000","lon":"37.29962000"},
{"state":"Donetska oblast","name":"Selydove","lat":"48.14708000","lon":"37.30032000"},
{"state":"Donetska oblast","name":"Serebryanka","lat":"48.91917000","lon":"38.13494000"},
{"state":"Donetska oblast","name":"Shakhtars’k","lat":"48.05657000","lon":"38.43826000"},
{"state":"Donetska oblast","name":"Shcherbynivka","lat":"48.39489000","lon":"37.79102000"},
{"state":"Donetska oblast","name":"Shyroke","lat":"47.95711000","lon":"38.23160000"},
{"state":"Donetska oblast","name":"Sivers’k","lat":"48.86699000","lon":"38.10007000"},
{"state":"Donetska oblast","name":"Sloviansk","lat":"48.86667000","lon":"37.61667000"},
{"state":"Donetska oblast","name":"Sloviansk Raion","lat":"48.91667000","lon":"37.50000000"},
{"state":"Donetska oblast","name":"Snizhne","lat":"48.02612000","lon":"38.77225000"},
{"state":"Donetska oblast","name":"Soledar","lat":"48.67935000","lon":"38.08902000"},
{"state":"Donetska oblast","name":"Starobesheve","lat":"47.75038000","lon":"38.03051000"},
{"state":"Donetska oblast","name":"Staryy Krym","lat":"47.16146000","lon":"37.48934000"},
{"state":"Donetska oblast","name":"Stizhkivs’ke","lat":"48.11333000","lon":"38.49250000"},
{"state":"Donetska oblast","name":"Svetlodarsk","lat":"48.43374000","lon":"38.22331000"},
{"state":"Donetska oblast","name":"Svyatogorsk","lat":"49.03333000","lon":"37.56667000"},
{"state":"Donetska oblast","name":"Syedove","lat":"47.07678000","lon":"38.15602000"},
{"state":"Donetska oblast","name":"Temriuk","lat":"47.26857000","lon":"36.98115000"},
{"state":"Donetska oblast","name":"Toretsk","lat":"48.39869000","lon":"37.84787000"},
{"state":"Donetska oblast","name":"Urzuf","lat":"46.91562000","lon":"37.09961000"},
{"state":"Donetska oblast","name":"Volnovakha","lat":"47.60103000","lon":"37.49674000"},
{"state":"Donetska oblast","name":"Vuhlehirs’k","lat":"48.31474000","lon":"38.27423000"},
{"state":"Donetska oblast","name":"Yalta","lat":"46.96279000","lon":"37.27365000"},
{"state":"Donetska oblast","name":"Yasynuvata","lat":"48.12980000","lon":"37.85940000"},
{"state":"Donetska oblast","name":"Yasynuvata Raion","lat":"48.16667000","lon":"37.83333000"},
{"state":"Donetska oblast","name":"Yenakiyeve","lat":"48.23331000","lon":"38.21137000"},
{"state":"Donetska oblast","name":"Zuhres","lat":"48.01140000","lon":"38.26444000"},
{"state":"Ivano-Frankivska oblast","name":"Bili Oslavy","lat":"48.48722000","lon":"24.70078000"},
{"state":"Ivano-Frankivska oblast","name":"Bilshivtsi","lat":"49.18333000","lon":"24.75000000"},
{"state":"Ivano-Frankivska oblast","name":"Bohorodchans’kyy Rayon","lat":"48.72278000","lon":"24.38042000"},
{"state":"Ivano-Frankivska oblast","name":"Bohorodchany","lat":"48.80700000","lon":"24.53834000"},
{"state":"Ivano-Frankivska oblast","name":"Bolekhiv","lat":"49.06607000","lon":"23.86435000"},
{"state":"Ivano-Frankivska oblast","name":"Bolekhivs’ka Mis’krada","lat":"49.06255000","lon":"23.84339000"},
{"state":"Ivano-Frankivska oblast","name":"Borshchevskiy Rayon","lat":"48.75000000","lon":"26.00000000"},
{"state":"Ivano-Frankivska oblast","name":"Broshniv-Osada","lat":"48.99621000","lon":"24.19748000"},
{"state":"Ivano-Frankivska oblast","name":"Burshtyn","lat":"49.25867000","lon":"24.62777000"},
{"state":"Ivano-Frankivska oblast","name":"Burshtyns’ka Mis’krada","lat":"49.25217000","lon":"24.63320000"},
{"state":"Ivano-Frankivska oblast","name":"Bystrytsya","lat":"48.45931000","lon":"24.24545000"},
{"state":"Ivano-Frankivska oblast","name":"Bytkiv","lat":"48.62968000","lon":"24.47398000"},
{"state":"Ivano-Frankivska oblast","name":"Chernelytsya","lat":"48.81207000","lon":"25.42477000"},
{"state":"Ivano-Frankivska oblast","name":"Cherniyiv","lat":"48.85658000","lon":"24.71388000"},
{"state":"Ivano-Frankivska oblast","name":"Chernyatyn","lat":"48.66034000","lon":"25.44832000"},
{"state":"Ivano-Frankivska oblast","name":"Chornoliztsi","lat":"48.83034000","lon":"24.89576000"},
{"state":"Ivano-Frankivska oblast","name":"Delyatyn","lat":"48.52354000","lon":"24.62466000"},
{"state":"Ivano-Frankivska oblast","name":"Dolyna","lat":"48.97330000","lon":"24.00944000"},
{"state":"Ivano-Frankivska oblast","name":"Dolyns’kyy Rayon","lat":"48.89148000","lon":"23.84343000"},
{"state":"Ivano-Frankivska oblast","name":"Halych","lat":"49.12179000","lon":"24.72578000"},
{"state":"Ivano-Frankivska oblast","name":"Halyts’kyy Rayon","lat":"49.16169000","lon":"24.71797000"},
{"state":"Ivano-Frankivska oblast","name":"Horodenka","lat":"48.67274000","lon":"25.50163000"},
{"state":"Ivano-Frankivska oblast","name":"Horodenkivs’kyy Rayon","lat":"48.70617000","lon":"25.42008000"},
{"state":"Ivano-Frankivska oblast","name":"Hvizd","lat":"48.68517000","lon":"24.55055000"},
{"state":"Ivano-Frankivska oblast","name":"Ivano-Frankivs’ka Mis’krada","lat":"48.91177000","lon":"24.72831000"},
{"state":"Ivano-Frankivska oblast","name":"Ivano-Frankivsk","lat":"48.92150000","lon":"24.70972000"},
{"state":"Ivano-Frankivska oblast","name":"Kalus’kyy Rayon","lat":"49.06088000","lon":"24.38766000"},
{"state":"Ivano-Frankivska oblast","name":"Kalush","lat":"49.01187000","lon":"24.37308000"},
{"state":"Ivano-Frankivska oblast","name":"Khymchyn","lat":"48.38639000","lon":"25.14803000"},
{"state":"Ivano-Frankivska oblast","name":"Kolomyia","lat":"48.53115000","lon":"25.03649000"},
{"state":"Ivano-Frankivska oblast","name":"Kolomyys’kyy Rayon","lat":"48.58586000","lon":"24.99300000"},
{"state":"Ivano-Frankivska oblast","name":"Kosiv","lat":"48.31071000","lon":"25.09575000"},
{"state":"Ivano-Frankivska oblast","name":"Kosivs’kyy Rayon","lat":"48.32569000","lon":"24.98641000"},
{"state":"Ivano-Frankivska oblast","name":"Kosmach","lat":"48.75089000","lon":"24.36731000"},
{"state":"Ivano-Frankivska oblast","name":"Krasna","lat":"48.57571000","lon":"24.70027000"},
{"state":"Ivano-Frankivska oblast","name":"Kuty","lat":"48.25868000","lon":"25.17946000"},
{"state":"Ivano-Frankivska oblast","name":"Lanchyn","lat":"48.55781000","lon":"24.75622000"},
{"state":"Ivano-Frankivska oblast","name":"Manyava","lat":"48.65541000","lon":"24.37537000"},
{"state":"Ivano-Frankivska oblast","name":"Markova","lat":"48.67576000","lon":"24.41382000"},
{"state":"Ivano-Frankivska oblast","name":"Nadvirna","lat":"48.63480000","lon":"24.56936000"},
{"state":"Ivano-Frankivska oblast","name":"Nadvirnyans’kyy Rayon","lat":"48.55387000","lon":"24.50381000"},
{"state":"Ivano-Frankivska oblast","name":"Nebyliv","lat":"48.81526000","lon":"24.21657000"},
{"state":"Ivano-Frankivska oblast","name":"Novytsya","lat":"48.96345000","lon":"24.33542000"},
{"state":"Ivano-Frankivska oblast","name":"Obertyn","lat":"48.70032000","lon":"25.17012000"},
{"state":"Ivano-Frankivska oblast","name":"Otyniya","lat":"48.73767000","lon":"24.86111000"},
{"state":"Ivano-Frankivska oblast","name":"Pasichna","lat":"48.57152000","lon":"24.43003000"},
{"state":"Ivano-Frankivska oblast","name":"Pechenizhyn","lat":"48.51551000","lon":"24.89423000"},
{"state":"Ivano-Frankivska oblast","name":"Petranka","lat":"48.90246000","lon":"24.30347000"},
{"state":"Ivano-Frankivska oblast","name":"Pniv","lat":"48.61783000","lon":"24.52872000"},
{"state":"Ivano-Frankivska oblast","name":"Porohy","lat":"48.68755000","lon":"24.26322000"},
{"state":"Ivano-Frankivska oblast","name":"Radcha","lat":"48.85023000","lon":"24.65502000"},
{"state":"Ivano-Frankivska oblast","name":"Rechka","lat":"48.28034000","lon":"24.93330000"},
{"state":"Ivano-Frankivska oblast","name":"Rohatyn","lat":"49.40900000","lon":"24.60927000"},
{"state":"Ivano-Frankivska oblast","name":"Rohatyns’kyy Rayon","lat":"49.38025000","lon":"24.57111000"},
{"state":"Ivano-Frankivska oblast","name":"Rozhniativ","lat":"48.93576000","lon":"24.16379000"},
{"state":"Ivano-Frankivska oblast","name":"Rozhniv","lat":"48.36597000","lon":"25.22580000"},
{"state":"Ivano-Frankivska oblast","name":"Rozhnyativs’kyy Rayon","lat":"48.75890000","lon":"24.07588000"},
{"state":"Ivano-Frankivska oblast","name":"Sadzhavka","lat":"48.56603000","lon":"24.78820000"},
{"state":"Ivano-Frankivska oblast","name":"Sheshory","lat":"48.33197000","lon":"24.98329000"},
{"state":"Ivano-Frankivska oblast","name":"Sniatyn","lat":"48.44692000","lon":"25.56937000"},
{"state":"Ivano-Frankivska oblast","name":"Snyatyns’kyy Rayon","lat":"48.47674000","lon":"25.41153000"},
{"state":"Ivano-Frankivska oblast","name":"Solotvyn","lat":"48.70212000","lon":"24.42212000"},
{"state":"Ivano-Frankivska oblast","name":"Spas","lat":"48.88992000","lon":"24.06293000"},
{"state":"Ivano-Frankivska oblast","name":"Stari Bohorodchany","lat":"48.83361000","lon":"24.52430000"},
{"state":"Ivano-Frankivska oblast","name":"Stari Kuty","lat":"48.27093000","lon":"25.17293000"},
{"state":"Ivano-Frankivska oblast","name":"Stetseva","lat":"48.52767000","lon":"25.57572000"},
{"state":"Ivano-Frankivska oblast","name":"Svarychiv","lat":"48.96220000","lon":"24.19658000"},
{"state":"Ivano-Frankivska oblast","name":"Tatariv","lat":"48.34558000","lon":"24.57836000"},
{"state":"Ivano-Frankivska oblast","name":"Tlumach","lat":"48.86403000","lon":"25.00325000"},
{"state":"Ivano-Frankivska oblast","name":"Tlumats’kyy Rayon","lat":"48.82924000","lon":"25.09055000"},
{"state":"Ivano-Frankivska oblast","name":"Tysmenychany","lat":"48.77168000","lon":"24.66626000"},
{"state":"Ivano-Frankivska oblast","name":"Tysmenyts’kyy Rayon","lat":"48.92246000","lon":"24.74486000"},
{"state":"Ivano-Frankivska oblast","name":"Tysmenytsya","lat":"48.90219000","lon":"24.84482000"},
{"state":"Ivano-Frankivska oblast","name":"Uhryniv","lat":"48.95520000","lon":"24.69292000"},
{"state":"Ivano-Frankivska oblast","name":"Velykyy Klyuchiv","lat":"48.47092000","lon":"24.94677000"},
{"state":"Ivano-Frankivska oblast","name":"Verkhniy Yasenov","lat":"48.16156000","lon":"24.94532000"},
{"state":"Ivano-Frankivska oblast","name":"Verkhovyna","lat":"48.15571000","lon":"24.79112000"},
{"state":"Ivano-Frankivska oblast","name":"Vorokhta","lat":"48.28459000","lon":"24.56536000"},
{"state":"Ivano-Frankivska oblast","name":"Yabluniv","lat":"48.40418000","lon":"24.93874000"},
{"state":"Ivano-Frankivska oblast","name":"Yablunytsya","lat":"48.31742000","lon":"24.48448000"},
{"state":"Ivano-Frankivska oblast","name":"Yamnytsya","lat":"48.98972000","lon":"24.70750000"},
{"state":"Ivano-Frankivska oblast","name":"Yaremchans’ks Mis’krada","lat":"48.33234000","lon":"24.57426000"},
{"state":"Ivano-Frankivska oblast","name":"Yaremche","lat":"48.45157000","lon":"24.55436000"},
{"state":"Ivano-Frankivska oblast","name":"Zabolotiv","lat":"48.47054000","lon":"25.28571000"},
{"state":"Ivano-Frankivska oblast","name":"Zahvizdya","lat":"48.91836000","lon":"24.65275000"},
{"state":"Ivano-Frankivska oblast","name":"Zarichchya","lat":"48.52144000","lon":"24.64857000"},
{"state":"Kharkivska oblast","name":"Balakliya","lat":"49.46270000","lon":"36.85951000"},
{"state":"Kharkivska oblast","name":"Barvinkove","lat":"48.90970000","lon":"37.02051000"},
{"state":"Kharkivska oblast","name":"Berezivka","lat":"49.43935000","lon":"35.70736000"},
{"state":"Kharkivska oblast","name":"Bezlyudivka","lat":"49.87547000","lon":"36.26539000"},
{"state":"Kharkivska oblast","name":"Blyznyuky","lat":"48.85775000","lon":"36.55505000"},
{"state":"Kharkivska oblast","name":"Bohodukhiv","lat":"50.16466000","lon":"35.52765000"},
{"state":"Kharkivska oblast","name":"Borova","lat":"49.37770000","lon":"37.62136000"},
{"state":"Kharkivska oblast","name":"Budy","lat":"49.89133000","lon":"36.02096000"},
{"state":"Kharkivska oblast","name":"Chapayeve","lat":"49.36625000","lon":"35.87486000"},
{"state":"Kharkivska oblast","name":"Chervonyy Oskil","lat":"49.17906000","lon":"37.42593000"},
{"state":"Kharkivska oblast","name":"Chuhuyiv","lat":"49.83588000","lon":"36.68803000"},
{"state":"Kharkivska oblast","name":"Derhachi","lat":"50.10659000","lon":"36.12112000"},
{"state":"Kharkivska oblast","name":"Dvorichna","lat":"49.85019000","lon":"37.68262000"},
{"state":"Kharkivska oblast","name":"Eskhar","lat":"49.79614000","lon":"36.59047000"},
{"state":"Kharkivska oblast","name":"Huty","lat":"50.13322000","lon":"35.34394000"},
{"state":"Kharkivska oblast","name":"Izyum","lat":"49.20875000","lon":"37.24849000"},
{"state":"Kharkivska oblast","name":"Kehychivka","lat":"49.28656000","lon":"35.76153000"},
{"state":"Kharkivska oblast","name":"Kharkiv","lat":"49.98081000","lon":"36.25272000"},
{"state":"Kharkivska oblast","name":"Khorosheve","lat":"49.85413000","lon":"36.21704000"},
{"state":"Kharkivska oblast","name":"Kivsharivka","lat":"49.63096000","lon":"37.68821000"},
{"state":"Kharkivska oblast","name":"Kochetok","lat":"49.88005000","lon":"36.73723000"},
{"state":"Kharkivska oblast","name":"Kolomak","lat":"49.83987000","lon":"35.30441000"},
{"state":"Kharkivska oblast","name":"Korotych","lat":"49.94737000","lon":"36.03736000"},
{"state":"Kharkivska oblast","name":"Krasnohrad","lat":"49.38009000","lon":"35.44186000"},
{"state":"Kharkivska oblast","name":"Krasnokuts’k","lat":"50.06602000","lon":"35.16275000"},
{"state":"Kharkivska oblast","name":"Krasnopavlivka","lat":"49.13643000","lon":"36.31911000"},
{"state":"Kharkivska oblast","name":"Kulynychi","lat":"49.98178000","lon":"36.38283000"},
{"state":"Kharkivska oblast","name":"Kupjansk","lat":"49.71055000","lon":"37.61517000"},
{"state":"Kharkivska oblast","name":"Lozova","lat":"48.88937000","lon":"36.31755000"},
{"state":"Kharkivska oblast","name":"Lyman","lat":"49.59769000","lon":"36.47030000"},
{"state":"Kharkivska oblast","name":"Lyubotyn","lat":"49.94691000","lon":"35.92907000"},
{"state":"Kharkivska oblast","name":"Mala Danylivka","lat":"50.06354000","lon":"36.16564000"},
{"state":"Kharkivska oblast","name":"Malynivka","lat":"49.81667000","lon":"36.73333000"},
{"state":"Kharkivska oblast","name":"Manchenky","lat":"49.97982000","lon":"35.85835000"},
{"state":"Kharkivska oblast","name":"Merefa","lat":"49.82302000","lon":"36.05069000"},
{"state":"Kharkivska oblast","name":"Nova Vodolaha","lat":"49.71901000","lon":"35.86578000"},
{"state":"Kharkivska oblast","name":"Novopokrovka","lat":"49.83349000","lon":"36.54771000"},
{"state":"Kharkivska oblast","name":"Panyutyne","lat":"48.93692000","lon":"36.27563000"},
{"state":"Kharkivska oblast","name":"Peresichna","lat":"50.02452000","lon":"35.97871000"},
{"state":"Kharkivska oblast","name":"Pervomaiskyi Raion","lat":"49.41667000","lon":"36.33333000"},
{"state":"Kharkivska oblast","name":"Pervomays’kyy","lat":"49.38742000","lon":"36.21471000"},
{"state":"Kharkivska oblast","name":"Petrivs’ke","lat":"49.17695000","lon":"36.89999000"},
{"state":"Kharkivska oblast","name":"Pivdenne","lat":"49.88315000","lon":"36.06785000"},
{"state":"Kharkivska oblast","name":"Pokotylivka","lat":"49.91343000","lon":"36.17511000"},
{"state":"Kharkivska oblast","name":"Prudyanka","lat":"50.23606000","lon":"36.16835000"},
{"state":"Kharkivska oblast","name":"Prykolotne","lat":"50.16273000","lon":"37.34524000"},
{"state":"Kharkivska oblast","name":"Sakhnovshchyna","lat":"49.15166000","lon":"35.87198000"},
{"state":"Kharkivska oblast","name":"Savyntsi","lat":"49.40257000","lon":"37.06266000"},
{"state":"Kharkivska oblast","name":"Shevchenkove","lat":"49.69585000","lon":"37.17348000"},
{"state":"Kharkivska oblast","name":"Slatyne","lat":"50.21041000","lon":"36.15376000"},
{"state":"Kharkivska oblast","name":"Slobozhans’ke","lat":"49.59701000","lon":"36.52618000"},
{"state":"Kharkivska oblast","name":"Solonytsivka","lat":"49.99682000","lon":"36.03464000"},
{"state":"Kharkivska oblast","name":"Staryy Merchyk","lat":"49.98147000","lon":"35.75904000"},
{"state":"Kharkivska oblast","name":"Staryy Saltiv","lat":"50.07619000","lon":"36.78852000"},
{"state":"Kharkivska oblast","name":"Studenok","lat":"49.09107000","lon":"37.48697000"},
{"state":"Kharkivska oblast","name":"Utkivka","lat":"49.78583000","lon":"36.07528000"},
{"state":"Kharkivska oblast","name":"Valky","lat":"49.83597000","lon":"35.61223000"},
{"state":"Kharkivska oblast","name":"Vasyshcheve","lat":"49.82852000","lon":"36.32691000"},
{"state":"Kharkivska oblast","name":"Velykyy Burluk","lat":"50.06170000","lon":"37.38373000"},
{"state":"Kharkivska oblast","name":"Verbivka","lat":"49.41667000","lon":"35.53333000"},
{"state":"Kharkivska oblast","name":"Vovchans’k","lat":"50.29078000","lon":"36.94108000"},
{"state":"Kharkivska oblast","name":"Vvedenka","lat":"49.82372000","lon":"36.50264000"},
{"state":"Kharkivska oblast","name":"Vysokyy","lat":"49.89156000","lon":"36.12175000"},
{"state":"Kharkivska oblast","name":"Zachepylivka","lat":"49.19385000","lon":"35.23943000"},
{"state":"Kharkivska oblast","name":"Zmiyiv","lat":"49.67453000","lon":"36.34775000"},
{"state":"Kharkivska oblast","name":"Zolochiv","lat":"50.27985000","lon":"35.98179000"},
{"state":"Khersonska oblast","name":"Askaniya-Nova","lat":"46.45135000","lon":"33.86889000"},
{"state":"Khersonska oblast","name":"Bekhtery","lat":"46.24790000","lon":"32.29123000"},
{"state":"Khersonska oblast","name":"Beryslav","lat":"46.84152000","lon":"33.42838000"},
{"state":"Khersonska oblast","name":"Bilozerka","lat":"46.62480000","lon":"32.44251000"},
{"state":"Khersonska oblast","name":"Brylivka","lat":"46.42476000","lon":"33.14721000"},
{"state":"Khersonska oblast","name":"Chaplynka","lat":"46.36507000","lon":"33.54027000"},
{"state":"Khersonska oblast","name":"Chornobayivka","lat":"46.69411000","lon":"32.55371000"},
{"state":"Khersonska oblast","name":"Chornyanka","lat":"46.65222000","lon":"33.35904000"},
{"state":"Khersonska oblast","name":"Chulakivka","lat":"46.35763000","lon":"32.35140000"},
{"state":"Khersonska oblast","name":"Dnipryany","lat":"46.74631000","lon":"33.27288000"},
{"state":"Khersonska oblast","name":"Dudchany","lat":"47.18557000","lon":"33.76390000"},
{"state":"Khersonska oblast","name":"Heniches’k","lat":"46.17592000","lon":"34.80340000"},
{"state":"Khersonska oblast","name":"Heniches’kyy Rayon","lat":"46.26451000","lon":"34.74488000"},
{"state":"Khersonska oblast","name":"Hola Prystan’","lat":"46.52719000","lon":"32.52417000"},
{"state":"Khersonska oblast","name":"Hornostayivka","lat":"47.00777000","lon":"33.72899000"},
{"state":"Khersonska oblast","name":"Ivanivka","lat":"46.72082000","lon":"34.55298000"},
{"state":"Khersonska oblast","name":"Kakhovka","lat":"46.81371000","lon":"33.48698000"},
{"state":"Khersonska oblast","name":"Kalanchak","lat":"46.25623000","lon":"33.29070000"},
{"state":"Khersonska oblast","name":"Kayiry","lat":"46.94537000","lon":"33.70591000"},
{"state":"Khersonska oblast","name":"Kherson","lat":"46.65581000","lon":"32.61780000"},
{"state":"Khersonska oblast","name":"Komyshany","lat":"46.63716000","lon":"32.50719000"},
{"state":"Khersonska oblast","name":"Kozachi Laheri","lat":"46.70372000","lon":"32.97760000"},
{"state":"Khersonska oblast","name":"Krasne","lat":"46.13088000","lon":"32.76910000"},
{"state":"Khersonska oblast","name":"Lazurne","lat":"46.08400000","lon":"32.52955000"},
{"state":"Khersonska oblast","name":"Lyubymivka","lat":"46.81063000","lon":"33.56862000"},
{"state":"Khersonska oblast","name":"Malokakhovka","lat":"46.78142000","lon":"33.44790000"},
{"state":"Khersonska oblast","name":"Nova Kakhovka","lat":"46.75451000","lon":"33.34864000"},
{"state":"Khersonska oblast","name":"Nova Mayachka","lat":"46.59996000","lon":"33.22707000"},
{"state":"Khersonska oblast","name":"Novofedorivka","lat":"46.17128000","lon":"32.31781000"},
{"state":"Khersonska oblast","name":"Novooleksiyivka","lat":"46.22472000","lon":"34.64031000"},
{"state":"Khersonska oblast","name":"Novovorontsovka","lat":"47.50035000","lon":"33.91748000"},
{"state":"Khersonska oblast","name":"Nyzhni Sirohozy","lat":"46.84842000","lon":"34.38044000"},
{"state":"Khersonska oblast","name":"Partyzany","lat":"46.33383000","lon":"34.75314000"},
{"state":"Khersonska oblast","name":"Radens’k","lat":"46.54860000","lon":"32.92787000"},
{"state":"Khersonska oblast","name":"Skadovs’k","lat":"46.11610000","lon":"32.91124000"},
{"state":"Khersonska oblast","name":"Stanislav","lat":"46.56909000","lon":"32.14777000"},
{"state":"Khersonska oblast","name":"Tsyurupyns’k","lat":"46.61842000","lon":"32.71890000"},
{"state":"Khersonska oblast","name":"Velyka Lepetykha","lat":"47.17572000","lon":"33.94362000"},
{"state":"Khersonska oblast","name":"Velyka Oleksandrivka","lat":"47.31969000","lon":"33.30373000"},
{"state":"Khersonska oblast","name":"Velyki Kopani","lat":"46.48684000","lon":"32.97498000"},
{"state":"Khersonska oblast","name":"Verkhniy Rohachyk","lat":"47.25053000","lon":"34.33797000"},
{"state":"Khersonska oblast","name":"Vynohradove","lat":"46.36957000","lon":"32.93980000"},
{"state":"Khersonska oblast","name":"Vysokopillya","lat":"47.49187000","lon":"33.53061000"},
{"state":"Khersonska oblast","name":"Zaliznyy Port","lat":"46.12337000","lon":"32.29892000"},
{"state":"Khmelnytska oblast","name":"Antoniny","lat":"49.80974000","lon":"26.87714000"},
{"state":"Khmelnytska oblast","name":"Bazaliya","lat":"49.71267000","lon":"26.47331000"},
{"state":"Khmelnytska oblast","name":"Derazhnya","lat":"49.26920000","lon":"27.43382000"},
{"state":"Khmelnytska oblast","name":"Derazhnyans’kyy Rayon","lat":"49.22676000","lon":"27.46603000"},
{"state":"Khmelnytska oblast","name":"Dunaivtsi","lat":"48.88909000","lon":"26.85636000"},
{"state":"Khmelnytska oblast","name":"Horodok","lat":"49.16374000","lon":"26.58394000"},
{"state":"Khmelnytska oblast","name":"Izyaslav","lat":"50.11947000","lon":"26.82125000"},
{"state":"Khmelnytska oblast","name":"Kamianets-Podilskyi","lat":"48.68450000","lon":"26.58559000"},
{"state":"Khmelnytska oblast","name":"Khmel’nyts’kyy Rayon","lat":"49.44511000","lon":"26.93268000"},
{"state":"Khmelnytska oblast","name":"Khmelnytskyi","lat":"49.42161000","lon":"26.99653000"},
{"state":"Khmelnytska oblast","name":"Krasyliv","lat":"49.65186000","lon":"26.97253000"},
{"state":"Khmelnytska oblast","name":"Letychiv","lat":"49.38263000","lon":"27.63051000"},
{"state":"Khmelnytska oblast","name":"Makiv","lat":"48.79487000","lon":"26.69188000"},
{"state":"Khmelnytska oblast","name":"Medzhybizh","lat":"49.43748000","lon":"27.40487000"},
{"state":"Khmelnytska oblast","name":"Narkevychi","lat":"49.51717000","lon":"26.64178000"},
{"state":"Khmelnytska oblast","name":"Netishyn","lat":"50.34004000","lon":"26.64171000"},
{"state":"Khmelnytska oblast","name":"Nova Ushytsya","lat":"48.83716000","lon":"27.27434000"},
{"state":"Khmelnytska oblast","name":"Novoselytsya","lat":"50.07030000","lon":"27.51955000"},
{"state":"Khmelnytska oblast","name":"Polonne","lat":"50.12424000","lon":"27.51087000"},
{"state":"Khmelnytska oblast","name":"Poninka","lat":"50.18492000","lon":"27.53629000"},
{"state":"Khmelnytska oblast","name":"Shepetivka","lat":"50.18545000","lon":"27.06365000"},
{"state":"Khmelnytska oblast","name":"Slavuta","lat":"50.30155000","lon":"26.86506000"},
{"state":"Khmelnytska oblast","name":"Smotrych","lat":"48.66149000","lon":"26.56031000"},
{"state":"Khmelnytska oblast","name":"Smyga","lat":"50.23910000","lon":"25.76575000"},
{"state":"Khmelnytska oblast","name":"Stara Syniava","lat":"49.60318000","lon":"27.61909000"},
{"state":"Khmelnytska oblast","name":"Starokostiantyniv","lat":"49.75764000","lon":"27.20342000"},
{"state":"Khmelnytska oblast","name":"Yarmolyntsi","lat":"49.19236000","lon":"26.83725000"},
{"state":"Khmelnytska oblast","name":"Zakupne","lat":"49.11944000","lon":"26.33756000"},
{"state":"Khmelnytska oblast","name":"Zhvanets","lat":"48.54968000","lon":"26.48744000"},
{"state":"Kirovohradska oblast","name":"Adzhamka","lat":"48.54245000","lon":"32.53542000"},
{"state":"Kirovohradska oblast","name":"Blahovishchenske Raion","lat":"48.25000000","lon":"30.25000000"},
{"state":"Kirovohradska oblast","name":"Bobrynets","lat":"48.05896000","lon":"32.16641000"},
{"state":"Kirovohradska oblast","name":"Dmytrivka","lat":"48.79690000","lon":"32.71645000"},
{"state":"Kirovohradska oblast","name":"Dobrovelychkivka","lat":"48.38778000","lon":"31.18028000"},
{"state":"Kirovohradska oblast","name":"Dobrovelychkivs’kyy Rayon","lat":"48.36935000","lon":"31.16354000"},
{"state":"Kirovohradska oblast","name":"Dolyns'ka","lat":"48.11041000","lon":"32.76449000"},
{"state":"Kirovohradska oblast","name":"Dolyns’kyy Rayon","lat":"48.16327000","lon":"32.88318000"},
{"state":"Kirovohradska oblast","name":"Hayvoron","lat":"48.33958000","lon":"29.86791000"},
{"state":"Kirovohradska oblast","name":"Kapitanivka","lat":"48.91719000","lon":"31.71671000"},
{"state":"Kirovohradska oblast","name":"Kirovohrads’ka Mis’krada","lat":"48.52185000","lon":"32.24367000"},
{"state":"Kirovohradska oblast","name":"Kompaniyivka","lat":"48.25115000","lon":"32.20795000"},
{"state":"Kirovohradska oblast","name":"Kropyvnytskyi","lat":"48.51320000","lon":"32.25970000"},
{"state":"Kirovohradska oblast","name":"Lozuvatka","lat":"48.05710000","lon":"33.28581000"},
{"state":"Kirovohradska oblast","name":"Lypnyazhka","lat":"48.44694000","lon":"31.07611000"},
{"state":"Kirovohradska oblast","name":"Mala Vyska","lat":"48.64308000","lon":"31.63657000"},
{"state":"Kirovohradska oblast","name":"Malovyskivs’kyy Rayon","lat":"48.57680000","lon":"31.57594000"},
{"state":"Kirovohradska oblast","name":"Molodizhne","lat":"48.17732000","lon":"32.66015000"},
{"state":"Kirovohradska oblast","name":"Nova Praha","lat":"48.56821000","lon":"32.90273000"},
{"state":"Kirovohradska oblast","name":"Novhorodka","lat":"48.36506000","lon":"32.65785000"},
{"state":"Kirovohradska oblast","name":"Novoarkhanhel’s’k","lat":"48.65803000","lon":"30.81821000"},
{"state":"Kirovohradska oblast","name":"Novomyrhorod","lat":"48.78105000","lon":"31.64204000"},
{"state":"Kirovohradska oblast","name":"Novoukrayinka","lat":"48.32635000","lon":"31.52852000"},
{"state":"Kirovohradska oblast","name":"Novyy Starodub","lat":"48.51580000","lon":"33.17329000"},
{"state":"Kirovohradska oblast","name":"Oleksandrivka","lat":"48.96336000","lon":"32.23492000"},
{"state":"Kirovohradska oblast","name":"Oleksandriya","lat":"48.66961000","lon":"33.11593000"},
{"state":"Kirovohradska oblast","name":"Oleksandriys’ke","lat":"48.60767000","lon":"32.98347000"},
{"state":"Kirovohradska oblast","name":"Onufriyivka","lat":"48.90716000","lon":"33.44869000"},
{"state":"Kirovohradska oblast","name":"Pantayivka","lat":"48.67400000","lon":"32.88410000"},
{"state":"Kirovohradska oblast","name":"Pavlysh","lat":"48.91762000","lon":"33.35691000"},
{"state":"Kirovohradska oblast","name":"Perehonivka","lat":"48.53552000","lon":"30.51923000"},
{"state":"Kirovohradska oblast","name":"Petrove","lat":"48.32467000","lon":"33.25617000"},
{"state":"Kirovohradska oblast","name":"Pobugskoye","lat":"48.16579000","lon":"30.59274000"},
{"state":"Kirovohradska oblast","name":"Pomichna","lat":"48.24222000","lon":"31.41583000"},
{"state":"Kirovohradska oblast","name":"Pryyutivka","lat":"48.72094000","lon":"33.07078000"},
{"state":"Kirovohradska oblast","name":"Rivne","lat":"48.24742000","lon":"31.75432000"},
{"state":"Kirovohradska oblast","name":"Subottsi","lat":"48.65545000","lon":"32.52093000"},
{"state":"Kirovohradska oblast","name":"Svitlovods’k","lat":"49.04894000","lon":"33.24106000"},
{"state":"Kirovohradska oblast","name":"Tyshkivka","lat":"48.49665000","lon":"30.94229000"},
{"state":"Kirovohradska oblast","name":"Ustynivka","lat":"47.95507000","lon":"32.53674000"},
{"state":"Kirovohradska oblast","name":"Yelyzavethradka","lat":"48.80381000","lon":"32.40460000"},
{"state":"Kirovohradska oblast","name":"Zavallya","lat":"48.21354000","lon":"30.01558000"},
{"state":"Kirovohradska oblast","name":"Zlynka","lat":"48.48521000","lon":"31.53906000"},
{"state":"Kirovohradska oblast","name":"Znomenka","lat":"48.71278000","lon":"32.66472000"},
{"state":"Kyiv","name":"Darnytsia Raion","lat":"50.41333000","lon":"30.69305000"},
{"state":"Kyiv","name":"Desnyans’kyy Rayon","lat":"50.53550000","lon":"30.60875000"},
{"state":"Kyiv","name":"Dnipro Raion","lat":"50.46756000","lon":"30.63194000"},
{"state":"Kyiv","name":"Holosiiv Raion","lat":"50.32749000","lon":"30.56740000"},
{"state":"Kyiv","name":"Kotsyubyns’ke","lat":"50.48836000","lon":"30.32957000"},
{"state":"Kyiv","name":"Kyiv","lat":"50.45466000","lon":"30.52380000"},
{"state":"Kyiv","name":"Pechersk Raion","lat":"50.41902000","lon":"30.56602000"},
{"state":"Kyiv","name":"Podil’s’kyy Rayon","lat":"50.45000000","lon":"30.53333000"},
{"state":"Kyiv","name":"Prolisky","lat":"50.39118000","lon":"30.78000000"},
{"state":"Kyiv","name":"Shevchenkivs’kyy Rayon","lat":"50.43333000","lon":"30.51667000"},
{"state":"Kyiv","name":"Solomianka Rayon","lat":"50.42886000","lon":"30.45135000"},
{"state":"Kyiv","name":"Svyatoshyns’kyy Rayon","lat":"50.48533000","lon":"30.38050000"},
{"state":"Kyivska oblast","name":"Baryshivka","lat":"50.36098000","lon":"31.32173000"},
{"state":"Kyivska oblast","name":"Baryshivs’kyy Rayon","lat":"50.36919000","lon":"31.34896000"},
{"state":"Kyivska oblast","name":"Bila Tserkva","lat":"49.80939000","lon":"30.11209000"},
{"state":"Kyivska oblast","name":"Bila Tserkva Raion","lat":"49.75000000","lon":"30.08333000"},
{"state":"Kyivska oblast","name":"Bohuslav","lat":"49.54939000","lon":"30.87440000"},
{"state":"Kyivska oblast","name":"Borispol’skiy Rayon","lat":"50.33450000","lon":"31.02470000"},
{"state":"Kyivska oblast","name":"Borodianka","lat":"50.64484000","lon":"29.92010000"},
{"state":"Kyivska oblast","name":"Borodyans’kyy Rayon","lat":"50.65889000","lon":"29.88556000"},
{"state":"Kyivska oblast","name":"Borova","lat":"50.17625000","lon":"30.10429000"},
{"state":"Kyivska oblast","name":"Boryspil’","lat":"50.35269000","lon":"30.95501000"},
{"state":"Kyivska oblast","name":"Boyarka","lat":"50.31911000","lon":"30.29728000"},
{"state":"Kyivska oblast","name":"Brovary","lat":"50.51809000","lon":"30.80671000"},
{"state":"Kyivska oblast","name":"Brovary Raion","lat":"50.58333000","lon":"31.00000000"},
{"state":"Kyivska oblast","name":"Bucha","lat":"50.54345000","lon":"30.21201000"},
{"state":"Kyivska oblast","name":"Chabany","lat":"50.34071000","lon":"30.42356000"},
{"state":"Kyivska oblast","name":"Chernyakhivka","lat":"50.21882000","lon":"31.93082000"},
{"state":"Kyivska oblast","name":"Dymer","lat":"50.78647000","lon":"30.30260000"},
{"state":"Kyivska oblast","name":"Fastiv","lat":"50.07670000","lon":"29.91770000"},
{"state":"Kyivska oblast","name":"Fastiv Raion","lat":"50.08333000","lon":"30.00000000"},
{"state":"Kyivska oblast","name":"Hlevakha","lat":"50.27423000","lon":"30.32706000"},
{"state":"Kyivska oblast","name":"Hnidyn","lat":"50.32899000","lon":"30.71059000"},
{"state":"Kyivska oblast","name":"Horenka","lat":"50.55731000","lon":"30.33217000"},
{"state":"Kyivska oblast","name":"Hostomel","lat":"50.56841000","lon":"30.26510000"},
{"state":"Kyivska oblast","name":"Irpin","lat":"50.52175000","lon":"30.25055000"},
{"state":"Kyivska oblast","name":"Irpins’ka Mis’krada","lat":"50.51585000","lon":"30.24099000"},
{"state":"Kyivska oblast","name":"Ivankiv","lat":"50.93865000","lon":"29.89426000"},
{"state":"Kyivska oblast","name":"Ivankiv Raion","lat":"51.00000000","lon":"29.91667000"},
{"state":"Kyivska oblast","name":"Kaharlyk","lat":"49.86233000","lon":"30.82815000"},
{"state":"Kyivska oblast","name":"Kaharlyk Raion","lat":"49.91667000","lon":"30.75000000"},
{"state":"Kyivska oblast","name":"Kalynove","lat":"49.38179000","lon":"30.45137000"},
{"state":"Kyivska oblast","name":"Karapyshi","lat":"49.64237000","lon":"30.79002000"},
{"state":"Kyivska oblast","name":"Katyuzhanka","lat":"50.80595000","lon":"30.13763000"},
{"state":"Kyivska oblast","name":"Khotiv","lat":"50.33069000","lon":"30.46836000"},
{"state":"Kyivska oblast","name":"Kirove","lat":"50.36890000","lon":"31.12066000"},
{"state":"Kyivska oblast","name":"Klavdiyevo-Tarasove","lat":"50.58416000","lon":"30.01134000"},
{"state":"Kyivska oblast","name":"Knyazhichi","lat":"50.46275000","lon":"30.78369000"},
{"state":"Kyivska oblast","name":"Kodra","lat":"50.59488000","lon":"29.55873000"},
{"state":"Kyivska oblast","name":"Korniyivka","lat":"50.41661000","lon":"31.46261000"},
{"state":"Kyivska oblast","name":"Kozhanka","lat":"49.97231000","lon":"29.76424000"},
{"state":"Kyivska oblast","name":"Krasyatychi","lat":"51.07636000","lon":"29.64899000"},
{"state":"Kyivska oblast","name":"Kriukivschina","lat":"50.37153000","lon":"30.36861000"},
{"state":"Kyivska oblast","name":"Kryva Hora","lat":"51.38495000","lon":"30.19978000"},
{"state":"Kyivska oblast","name":"Kyyevo-Svyatoshyns’kyy Rayon","lat":"50.38530000","lon":"30.23129000"},
{"state":"Kyivska oblast","name":"Liutizh","lat":"50.68350000","lon":"30.39324000"},
{"state":"Kyivska oblast","name":"Makariv","lat":"50.46408000","lon":"29.81128000"},
{"state":"Kyivska oblast","name":"Makariv Raion","lat":"50.50000000","lon":"29.75000000"},
{"state":"Kyivska oblast","name":"Mirovka","lat":"49.93126000","lon":"30.62309000"},
{"state":"Kyivska oblast","name":"Motovylivka","lat":"50.15821000","lon":"30.07421000"},
{"state":"Kyivska oblast","name":"Myronivka","lat":"49.66007000","lon":"30.98225000"},
{"state":"Kyivska oblast","name":"Novi Petrivtsi","lat":"50.62754000","lon":"30.44310000"},
{"state":"Kyivska oblast","name":"Obukhiv","lat":"50.10689000","lon":"30.61848000"},
{"state":"Kyivska oblast","name":"Obukhiv Raion","lat":"50.16667000","lon":"30.66667000"},
{"state":"Kyivska oblast","name":"Obukhivs’ka Mis’krada","lat":"50.11425000","lon":"30.63293000"},
{"state":"Kyivska oblast","name":"Pereiaslav-Khmelnytskyi","lat":"50.06739000","lon":"31.44969000"},
{"state":"Kyivska oblast","name":"Pereiaslav-Khmelnytskyi Raion","lat":"50.08333000","lon":"31.50000000"},
{"state":"Kyivska oblast","name":"Piskivka","lat":"50.69378000","lon":"29.61934000"},
{"state":"Kyivska oblast","name":"Pohreby","lat":"50.55453000","lon":"30.64455000"},
{"state":"Kyivska oblast","name":"Pukhivka","lat":"50.60970000","lon":"30.71770000"},
{"state":"Kyivska oblast","name":"Rokytne","lat":"49.68665000","lon":"30.47384000"},
{"state":"Kyivska oblast","name":"Rokytne Raion","lat":"49.75000000","lon":"30.50000000"},
{"state":"Kyivska oblast","name":"Roskoshnyy","lat":"49.37087000","lon":"30.18471000"},
{"state":"Kyivska oblast","name":"Rzhyshchiv","lat":"49.96886000","lon":"31.04628000"},
{"state":"Kyivska oblast","name":"Semypolky","lat":"50.72627000","lon":"30.93441000"},
{"state":"Kyivska oblast","name":"Skvyra","lat":"49.73177000","lon":"29.66569000"},
{"state":"Kyivska oblast","name":"Skvyrs’kyy Rayon","lat":"49.74177000","lon":"29.70043000"},
{"state":"Kyivska oblast","name":"Slavutych","lat":"51.52250000","lon":"30.71806000"},
{"state":"Kyivska oblast","name":"Sofiyivska Borschagivka","lat":"50.41005000","lon":"30.36724000"},
{"state":"Kyivska oblast","name":"Stavyshche","lat":"49.39124000","lon":"30.19022000"},
{"state":"Kyivska oblast","name":"Stayki","lat":"50.07818000","lon":"30.90380000"},
{"state":"Kyivska oblast","name":"Tarashcha","lat":"49.55832000","lon":"30.49259000"},
{"state":"Kyivska oblast","name":"Tetiiv","lat":"49.37670000","lon":"29.66474000"},
{"state":"Kyivska oblast","name":"Trebukhiv","lat":"50.48432000","lon":"30.90304000"},
{"state":"Kyivska oblast","name":"Trypillia","lat":"50.11802000","lon":"30.78141000"},
{"state":"Kyivska oblast","name":"Tsybli","lat":"49.99484000","lon":"31.56281000"},
{"state":"Kyivska oblast","name":"Ukrainka","lat":"50.14317000","lon":"30.74612000"},
{"state":"Kyivska oblast","name":"Uzyn","lat":"49.82619000","lon":"30.41487000"},
{"state":"Kyivska oblast","name":"Vasylkiv","lat":"50.18693000","lon":"30.31346000"},
{"state":"Kyivska oblast","name":"Vasylkiv Raion","lat":"50.16667000","lon":"30.33333000"},
{"state":"Kyivska oblast","name":"Velyka Dymerka","lat":"50.59333000","lon":"30.90313000"},
{"state":"Kyivska oblast","name":"Volodarka","lat":"49.52484000","lon":"29.91222000"},
{"state":"Kyivska oblast","name":"Voronkov","lat":"50.22235000","lon":"30.89967000"},
{"state":"Kyivska oblast","name":"Vorzel’","lat":"50.54440000","lon":"30.15305000"},
{"state":"Kyivska oblast","name":"Vyshgorodskiy Rayon","lat":"50.58333000","lon":"30.50000000"},
{"state":"Kyivska oblast","name":"Vyshhorod","lat":"50.58476000","lon":"30.48980000"},
{"state":"Kyivska oblast","name":"Vyshneve","lat":"50.38913000","lon":"30.37050000"},
{"state":"Kyivska oblast","name":"Yahotyn","lat":"50.27975000","lon":"31.76246000"},
{"state":"Kyivska oblast","name":"Yahotyns’kyy Rayon","lat":"50.25722000","lon":"31.89456000"},
{"state":"Kyivska oblast","name":"Z·hurivs’kyy Rayon","lat":"50.47192000","lon":"31.79423000"},
{"state":"Kyivska oblast","name":"Zgurovka","lat":"50.50276000","lon":"31.78492000"},
{"state":"Luhanska oblast","name":"Alchevs’k","lat":"48.46893000","lon":"38.81669000"},
{"state":"Luhanska oblast","name":"Alchevs’ka Mis’krada","lat":"48.48029000","lon":"38.79690000"},
{"state":"Luhanska oblast","name":"Antratsyt","lat":"48.11503000","lon":"39.09128000"},
{"state":"Luhanska oblast","name":"Antratsytivs’kyy Rayon","lat":"48.12450000","lon":"39.05683000"},
{"state":"Luhanska oblast","name":"Artemivs’k","lat":"48.44061000","lon":"38.73200000"},
{"state":"Luhanska oblast","name":"Bayrachky","lat":"48.39200000","lon":"38.60174000"},
{"state":"Luhanska oblast","name":"Bile","lat":"48.49523000","lon":"39.05051000"},
{"state":"Luhanska oblast","name":"Bilohorivka","lat":"48.92503000","lon":"38.24822000"},
{"state":"Luhanska oblast","name":"Bilokurakyne","lat":"49.53410000","lon":"38.73067000"},
{"state":"Luhanska oblast","name":"Bilovods'k","lat":"49.20846000","lon":"39.58975000"},
{"state":"Luhanska oblast","name":"Biryukove","lat":"47.95631000","lon":"39.73843000"},
{"state":"Luhanska oblast","name":"Bryanka","lat":"48.51100000","lon":"38.67222000"},
{"state":"Luhanska oblast","name":"Buran","lat":"48.30003000","lon":"39.61526000"},
{"state":"Luhanska oblast","name":"Chervonopartyzans’k","lat":"48.07613000","lon":"39.79618000"},
{"state":"Luhanska oblast","name":"Chornukhyne","lat":"48.32339000","lon":"38.52272000"},
{"state":"Luhanska oblast","name":"Dovzhanskyy Rayon","lat":"48.00000000","lon":"39.66667000"},
{"state":"Luhanska oblast","name":"Hirs’ke","lat":"48.73468000","lon":"38.49541000"},
{"state":"Luhanska oblast","name":"Kadiyivka","lat":"48.56818000","lon":"38.64352000"},
{"state":"Luhanska oblast","name":"Kirovs’k","lat":"48.63751000","lon":"38.64280000"},
{"state":"Luhanska oblast","name":"Kirovs’ka Mis’krada","lat":"48.63485000","lon":"38.64753000"},
{"state":"Luhanska oblast","name":"Klenovyy","lat":"48.11934000","lon":"39.45880000"},
{"state":"Luhanska oblast","name":"Krasnyy Kut","lat":"48.20138000","lon":"38.79765000"},
{"state":"Luhanska oblast","name":"Krasnyy Luch","lat":"48.13954000","lon":"38.93715000"},
{"state":"Luhanska oblast","name":"Kreminna","lat":"49.04950000","lon":"38.21792000"},
{"state":"Luhanska oblast","name":"Kripens’kyy","lat":"48.07709000","lon":"39.05800000"},
{"state":"Luhanska oblast","name":"Lenina","lat":"48.42944000","lon":"39.14556000"},
{"state":"Luhanska oblast","name":"Lozno-Oleksandrivka","lat":"49.83910000","lon":"38.74098000"},
{"state":"Luhanska oblast","name":"Luhans’ka Mis’krada","lat":"48.58083000","lon":"39.35478000"},
{"state":"Luhanska oblast","name":"Luhansk","lat":"48.56705000","lon":"39.31706000"},
{"state":"Luhanska oblast","name":"Lutuhyne","lat":"48.40507000","lon":"39.22675000"},
{"state":"Luhanska oblast","name":"Lutuhyns’kyy Rayon","lat":"48.38509000","lon":"39.21209000"},
{"state":"Luhanska oblast","name":"Lysychans’k","lat":"48.90485000","lon":"38.44207000"},
{"state":"Luhanska oblast","name":"Makariv Yar","lat":"48.57768000","lon":"39.71944000"},
{"state":"Luhanska oblast","name":"Markivka","lat":"49.52290000","lon":"39.57055000"},
{"state":"Luhanska oblast","name":"Millerovo","lat":"48.16829000","lon":"39.16537000"},
{"state":"Luhanska oblast","name":"Milove","lat":"49.37528000","lon":"40.13222000"},
{"state":"Luhanska oblast","name":"Miusyns’k","lat":"48.07750000","lon":"38.90364000"},
{"state":"Luhanska oblast","name":"Molodohvardiys’k","lat":"48.34511000","lon":"39.65244000"},
{"state":"Luhanska oblast","name":"Novopskov","lat":"49.54640000","lon":"39.08987000"},
{"state":"Luhanska oblast","name":"Nyzhnya Duvanka","lat":"49.58464000","lon":"38.17429000"},
{"state":"Luhanska oblast","name":"Pavlivka","lat":"49.60864000","lon":"38.70917000"},
{"state":"Luhanska oblast","name":"Pereval’s’k","lat":"48.43779000","lon":"38.84384000"},
{"state":"Luhanska oblast","name":"Pervomays’k","lat":"48.62988000","lon":"38.54806000"},
{"state":"Luhanska oblast","name":"Popasna","lat":"48.63328000","lon":"38.37804000"},
{"state":"Luhanska oblast","name":"Pryvillya","lat":"49.01501000","lon":"38.30457000"},
{"state":"Luhanska oblast","name":"Roven’ky","lat":"48.08331000","lon":"39.37764000"},
{"state":"Luhanska oblast","name":"Rozkishne","lat":"48.48959000","lon":"39.27881000"},
{"state":"Luhanska oblast","name":"Rubizhans’ka Mis’krada","lat":"49.01460000","lon":"38.38909000"},
{"state":"Luhanska oblast","name":"Rubizhne","lat":"49.01229000","lon":"38.37967000"},
{"state":"Luhanska oblast","name":"Shchastya","lat":"48.73963000","lon":"39.23230000"},
{"state":"Luhanska oblast","name":"Simeykyne","lat":"48.32643000","lon":"39.53366000"},
{"state":"Luhanska oblast","name":"Slov`yanoserbsk","lat":"48.69779000","lon":"38.98133000"},
{"state":"Luhanska oblast","name":"Sorokyne","lat":"48.29235000","lon":"39.73921000"},
{"state":"Luhanska oblast","name":"Sorokyns'kyi Rayon","lat":"48.33333000","lon":"39.75000000"},
{"state":"Luhanska oblast","name":"Stanytsya Luhans’ka","lat":"48.65433000","lon":"39.47943000"},
{"state":"Luhanska oblast","name":"Starobil’s’k","lat":"49.27832000","lon":"38.91069000"},
{"state":"Luhanska oblast","name":"Svatove","lat":"49.41029000","lon":"38.15035000"},
{"state":"Luhanska oblast","name":"Sverdlovs’k","lat":"48.08964000","lon":"39.65243000"},
{"state":"Luhanska oblast","name":"Sverdlovs’ka Mis’krada","lat":"48.06850000","lon":"39.58057000"},
{"state":"Luhanska oblast","name":"Syevyerodonets’k","lat":"48.94832000","lon":"38.49166000"},
{"state":"Luhanska oblast","name":"Teple","lat":"48.31245000","lon":"39.56284000"},
{"state":"Luhanska oblast","name":"Toshkivka","lat":"48.77914000","lon":"38.57903000"},
{"state":"Luhanska oblast","name":"Tr’okhizbenka","lat":"48.75751000","lon":"38.96333000"},
{"state":"Luhanska oblast","name":"Uralo-Kavkaz","lat":"48.32110000","lon":"39.80302000"},
{"state":"Luhanska oblast","name":"Uspenka","lat":"48.39077000","lon":"39.16284000"},
{"state":"Luhanska oblast","name":"Zalesnoye","lat":"48.03104000","lon":"38.80934000"},
{"state":"Luhanska oblast","name":"Zoryns’k","lat":"48.41194000","lon":"38.62361000"},
{"state":"Luhanska oblast","name":"Zymohiria","lat":"48.58528000","lon":"38.93750000"},
{"state":"Lvivska oblast","name":"Belz","lat":"50.38226000","lon":"24.00642000"},
{"state":"Lvivska oblast","name":"Bibrka","lat":"49.64093000","lon":"24.28874000"},
{"state":"Lvivska oblast","name":"Boryslav","lat":"49.28672000","lon":"23.43238000"},
{"state":"Lvivska oblast","name":"Brody","lat":"50.08791000","lon":"25.15027000"},
{"state":"Lvivska oblast","name":"Bryukhovychi","lat":"49.90467000","lon":"23.95969000"},
{"state":"Lvivska oblast","name":"Chervonohrad","lat":"50.39105000","lon":"24.23514000"},
{"state":"Lvivska oblast","name":"Demnya","lat":"49.56738000","lon":"23.94607000"},
{"state":"Lvivska oblast","name":"Dobromyl’","lat":"49.57193000","lon":"22.78629000"},
{"state":"Lvivska oblast","name":"Drohobych","lat":"49.34991000","lon":"23.50561000"},
{"state":"Lvivska oblast","name":"Dublyany","lat":"49.90411000","lon":"24.08637000"},
{"state":"Lvivska oblast","name":"Duliby","lat":"49.23134000","lon":"23.81532000"},
{"state":"Lvivska oblast","name":"Dzvinogrud","lat":"49.73333000","lon":"24.25000000"},
{"state":"Lvivska oblast","name":"Hlyns'k","lat":"50.06033000","lon":"23.89956000"},
{"state":"Lvivska oblast","name":"Horodok","lat":"49.78465000","lon":"23.64806000"},
{"state":"Lvivska oblast","name":"Ivano-Frankove","lat":"49.91978000","lon":"23.72913000"},
{"state":"Lvivska oblast","name":"Khodoriv","lat":"49.40993000","lon":"24.30470000"},
{"state":"Lvivska oblast","name":"Khyriv","lat":"49.53417000","lon":"22.85538000"},
{"state":"Lvivska oblast","name":"Komarno","lat":"49.62739000","lon":"23.69952000"},
{"state":"Lvivska oblast","name":"Krasne","lat":"49.91447000","lon":"24.61340000"},
{"state":"Lvivska oblast","name":"Kulykiv","lat":"49.97954000","lon":"24.07817000"},
{"state":"Lvivska oblast","name":"Lopatyn","lat":"50.22022000","lon":"24.84831000"},
{"state":"Lvivska oblast","name":"Lviv","lat":"49.83826000","lon":"24.02324000"},
{"state":"Lvivska oblast","name":"Medenychi","lat":"49.43055000","lon":"23.75073000"},
{"state":"Lvivska oblast","name":"Morshyn","lat":"49.15652000","lon":"23.87232000"},
{"state":"Lvivska oblast","name":"Mostys'ka","lat":"49.79467000","lon":"23.15077000"},
{"state":"Lvivska oblast","name":"Murovane","lat":"49.52143000","lon":"22.93670000"},
{"state":"Lvivska oblast","name":"Mykolaiv","lat":"49.52372000","lon":"23.98522000"},
{"state":"Lvivska oblast","name":"Navaria","lat":"49.74952000","lon":"23.92746000"},
{"state":"Lvivska oblast","name":"Novoyavorivs'k","lat":"49.93023000","lon":"23.57357000"},
{"state":"Lvivska oblast","name":"Novyi Yarychiv","lat":"49.90444000","lon":"24.30523000"},
{"state":"Lvivska oblast","name":"Obroshyne","lat":"49.78333000","lon":"23.86667000"},
{"state":"Lvivska oblast","name":"Olesko","lat":"49.96233000","lon":"24.89336000"},
{"state":"Lvivska oblast","name":"Peremyshlyany","lat":"49.66523000","lon":"24.55846000"},
{"state":"Lvivska oblast","name":"Pidbuzh","lat":"49.33483000","lon":"23.24887000"},
{"state":"Lvivska oblast","name":"Pidhirtsi","lat":"49.94611000","lon":"24.97950000"},
{"state":"Lvivska oblast","name":"Pidkamin’","lat":"49.94599000","lon":"25.31672000"},
{"state":"Lvivska oblast","name":"Pnikut","lat":"49.71104000","lon":"23.13826000"},
{"state":"Lvivska oblast","name":"Pomoriany","lat":"49.64092000","lon":"24.93070000"},
{"state":"Lvivska oblast","name":"Potelych","lat":"50.20804000","lon":"23.54674000"},
{"state":"Lvivska oblast","name":"Pustomyty","lat":"49.71532000","lon":"23.91295000"},
{"state":"Lvivska oblast","name":"Ralivka","lat":"49.49982000","lon":"23.23739000"},
{"state":"Lvivska oblast","name":"Rava-Rus’ka","lat":"50.23079000","lon":"23.62825000"},
{"state":"Lvivska oblast","name":"Richky","lat":"50.27706000","lon":"23.64617000"},
{"state":"Lvivska oblast","name":"Rodatychi","lat":"49.79862000","lon":"23.53336000"},
{"state":"Lvivska oblast","name":"Rozdil","lat":"49.46144000","lon":"24.06230000"},
{"state":"Lvivska oblast","name":"Rozvadiv","lat":"49.50323000","lon":"23.96200000"},
{"state":"Lvivska oblast","name":"Rudky","lat":"49.65306000","lon":"23.48702000"},
{"state":"Lvivska oblast","name":"Rudne","lat":"49.83333000","lon":"23.90000000"},
{"state":"Lvivska oblast","name":"Rykhtychi","lat":"49.38511000","lon":"23.55662000"},
{"state":"Lvivska oblast","name":"Sambir","lat":"49.51830000","lon":"23.19752000"},
{"state":"Lvivska oblast","name":"Shchyrets","lat":"49.65096000","lon":"23.87426000"},
{"state":"Lvivska oblast","name":"Shklo","lat":"49.95675000","lon":"23.54408000"},
{"state":"Lvivska oblast","name":"Silets’","lat":"50.29712000","lon":"24.20462000"},
{"state":"Lvivska oblast","name":"Skelivka","lat":"49.53728000","lon":"22.96467000"},
{"state":"Lvivska oblast","name":"Skhidnytsya","lat":"49.22827000","lon":"23.35016000"},
{"state":"Lvivska oblast","name":"Skole","lat":"49.03717000","lon":"23.51346000"},
{"state":"Lvivska oblast","name":"Slavske","lat":"48.84734000","lon":"23.44587000"},
{"state":"Lvivska oblast","name":"Sokal’","lat":"50.47438000","lon":"24.28288000"},
{"state":"Lvivska oblast","name":"Solonka","lat":"49.75621000","lon":"24.01028000"},
{"state":"Lvivska oblast","name":"Staroye Selo","lat":"49.71037000","lon":"24.18950000"},
{"state":"Lvivska oblast","name":"Starychi","lat":"49.98001000","lon":"23.55848000"},
{"state":"Lvivska oblast","name":"Staryy Dobrotvir","lat":"50.23154000","lon":"24.37701000"},
{"state":"Lvivska oblast","name":"Staryy Sambir","lat":"49.43856000","lon":"23.00056000"},
{"state":"Lvivska oblast","name":"Stebnyk","lat":"49.29416000","lon":"23.56357000"},
{"state":"Lvivska oblast","name":"Stryi","lat":"49.26223000","lon":"23.85609000"},
{"state":"Lvivska oblast","name":"Sudova Vyshnya","lat":"49.78892000","lon":"23.37218000"},
{"state":"Lvivska oblast","name":"Sukhovolya","lat":"49.82426000","lon":"23.83770000"},
{"state":"Lvivska oblast","name":"Truskavets’","lat":"49.27837000","lon":"23.50618000"},
{"state":"Lvivska oblast","name":"Tukhlia","lat":"48.91218000","lon":"23.47303000"},
{"state":"Lvivska oblast","name":"Turka","lat":"49.15411000","lon":"23.02967000"},
{"state":"Lvivska oblast","name":"Uhniv","lat":"50.36811000","lon":"23.74895000"},
{"state":"Lvivska oblast","name":"Ulychne","lat":"49.23385000","lon":"23.65111000"},
{"state":"Lvivska oblast","name":"Verblyany","lat":"50.04747000","lon":"23.42189000"},
{"state":"Lvivska oblast","name":"Verchnia Rozhanka","lat":"48.78050000","lon":"23.51545000"},
{"state":"Lvivska oblast","name":"Verkhnie Synevydne","lat":"49.10307000","lon":"23.59099000"},
{"state":"Lvivska oblast","name":"Verkhnyaya Belka","lat":"49.81575000","lon":"24.30328000"},
{"state":"Lvivska oblast","name":"Voyutychi","lat":"49.55135000","lon":"23.10579000"},
{"state":"Lvivska oblast","name":"Yavoriv","lat":"49.93864000","lon":"23.38254000"},
{"state":"Lvivska oblast","name":"Zhovkva","lat":"50.05825000","lon":"23.97260000"},
{"state":"Lvivska oblast","name":"Zhydachiv","lat":"49.38468000","lon":"24.14254000"},
{"state":"Lvivska oblast","name":"Zolochiv","lat":"49.80597000","lon":"24.89436000"},
{"state":"Mykolaivska oblast","name":"Arbuzynka","lat":"47.90972000","lon":"31.31963000"},
{"state":"Mykolaivska oblast","name":"Bashtanka","lat":"47.40719000","lon":"32.43868000"},
{"state":"Mykolaivska oblast","name":"Berezanka","lat":"46.85262000","lon":"31.38802000"},
{"state":"Mykolaivska oblast","name":"Bereznehuvate","lat":"47.30783000","lon":"32.84993000"},
{"state":"Mykolaivska oblast","name":"Domanivka","lat":"47.63192000","lon":"30.98851000"},
{"state":"Mykolaivska oblast","name":"Kazanka","lat":"47.84625000","lon":"32.82177000"},
{"state":"Mykolaivska oblast","name":"Kobleve","lat":"46.66499000","lon":"31.20804000"},
{"state":"Mykolaivska oblast","name":"Kostyantynivka","lat":"47.82660000","lon":"31.13551000"},
{"state":"Mykolaivska oblast","name":"Kryve Ozero","lat":"47.95242000","lon":"30.34928000"},
{"state":"Mykolaivska oblast","name":"Lysa Hora","lat":"48.17059000","lon":"31.10994000"},
{"state":"Mykolaivska oblast","name":"Myhiya","lat":"48.03719000","lon":"30.95153000"},
{"state":"Mykolaivska oblast","name":"Mykolayiv","lat":"46.96591000","lon":"31.99740000"},
{"state":"Mykolaivska oblast","name":"Nova Odesa","lat":"47.30778000","lon":"31.78506000"},
{"state":"Mykolaivska oblast","name":"Novyy Buh","lat":"47.69308000","lon":"32.52160000"},
{"state":"Mykolaivska oblast","name":"Ochakiv","lat":"46.61283000","lon":"31.54982000"},
{"state":"Mykolaivska oblast","name":"Ol'shanskoye","lat":"47.18411000","lon":"31.79375000"},
{"state":"Mykolaivska oblast","name":"Oleksandrivka","lat":"46.83826000","lon":"32.76116000"},
{"state":"Mykolaivska oblast","name":"Parutyne","lat":"46.70538000","lon":"31.89709000"},
{"state":"Mykolaivska oblast","name":"Pervomays’k","lat":"48.04433000","lon":"30.85073000"},
{"state":"Mykolaivska oblast","name":"Pidhorodna","lat":"48.10704000","lon":"30.88953000"},
{"state":"Mykolaivska oblast","name":"Rybakivka","lat":"46.61712000","lon":"31.34995000"},
{"state":"Mykolaivska oblast","name":"Shevchenkove","lat":"46.86289000","lon":"32.20387000"},
{"state":"Mykolaivska oblast","name":"Snihurivka","lat":"47.07579000","lon":"32.80516000"},
{"state":"Mykolaivska oblast","name":"Veselynove","lat":"47.35666000","lon":"31.23488000"},
{"state":"Mykolaivska oblast","name":"Voznesensk","lat":"47.56494000","lon":"31.33078000"},
{"state":"Mykolaivska oblast","name":"Vradiyivka","lat":"47.86195000","lon":"30.59195000"},
{"state":"Mykolaivska oblast","name":"Yuzhnoukrains'k","lat":"47.81777000","lon":"31.18263000"},
{"state":"Odeska oblast","name":"Artsyz","lat":"45.99194000","lon":"29.41824000"},
{"state":"Odeska oblast","name":"Balta","lat":"47.93548000","lon":"29.61982000"},
{"state":"Odeska oblast","name":"Balts’kyy Rayon","lat":"47.99828000","lon":"29.64835000"},
{"state":"Odeska oblast","name":"Berezivka","lat":"47.20429000","lon":"30.90780000"},
{"state":"Odeska oblast","name":"Berezyne","lat":"46.22968000","lon":"29.20436000"},
{"state":"Odeska oblast","name":"Bilhorod-Dnistrovskyi","lat":"46.19520000","lon":"30.34938000"},
{"state":"Odeska oblast","name":"Bilyayivka","lat":"46.48319000","lon":"30.21678000"},
{"state":"Odeska oblast","name":"Bolhrad","lat":"45.68262000","lon":"28.61487000"},
{"state":"Odeska oblast","name":"Borodino","lat":"46.30250000","lon":"29.24167000"},
{"state":"Odeska oblast","name":"Broska","lat":"45.37327000","lon":"28.78300000"},
{"state":"Odeska oblast","name":"Chornomors’k","lat":"46.30495000","lon":"30.65478000"},
{"state":"Odeska oblast","name":"Dmytrivka","lat":"45.97167000","lon":"28.98639000"},
{"state":"Odeska oblast","name":"Fontanka","lat":"46.56646000","lon":"30.85965000"},
{"state":"Odeska oblast","name":"Horodnye","lat":"45.89083000","lon":"28.84833000"},
{"state":"Odeska oblast","name":"Ivanivka","lat":"46.97569000","lon":"30.46998000"},
{"state":"Odeska oblast","name":"Izmayil","lat":"45.34929000","lon":"28.84079000"},
{"state":"Odeska oblast","name":"Kalcheva","lat":"45.73746000","lon":"28.81441000"},
{"state":"Odeska oblast","name":"Kamyshevka Vtoraya","lat":"46.23333000","lon":"29.83333000"},
{"state":"Odeska oblast","name":"Karolino-Buhaz","lat":"46.14492000","lon":"30.52609000"},
{"state":"Odeska oblast","name":"Kiliya","lat":"45.45518000","lon":"29.26367000"},
{"state":"Odeska oblast","name":"Kodyma","lat":"48.09875000","lon":"29.12463000"},
{"state":"Odeska oblast","name":"Kodyms’kyy Rayon","lat":"48.02284000","lon":"29.14010000"},
{"state":"Odeska oblast","name":"Krasnosilka","lat":"46.62258000","lon":"30.77421000"},
{"state":"Odeska oblast","name":"Kremidivka","lat":"46.73351000","lon":"30.78472000"},
{"state":"Odeska oblast","name":"Kryzhanivka","lat":"46.56167000","lon":"30.79487000"},
{"state":"Odeska oblast","name":"Kuchurhan","lat":"47.16302000","lon":"29.78937000"},
{"state":"Odeska oblast","name":"Kulevcha","lat":"46.03034000","lon":"29.93614000"},
{"state":"Odeska oblast","name":"Kurisove","lat":"46.96951000","lon":"30.95914000"},
{"state":"Odeska oblast","name":"Lymanske","lat":"46.65570000","lon":"29.96722000"},
{"state":"Odeska oblast","name":"Lyubashivka","lat":"47.83716000","lon":"30.25976000"},
{"state":"Odeska oblast","name":"Mayaky","lat":"46.41748000","lon":"30.27413000"},
{"state":"Odeska oblast","name":"Mykolayivka","lat":"47.54135000","lon":"30.75615000"},
{"state":"Odeska oblast","name":"Mykolayivs’kyy Rayon","lat":"47.46720000","lon":"30.60283000"},
{"state":"Odeska oblast","name":"Novi Troyany","lat":"45.94275000","lon":"28.85628000"},
{"state":"Odeska oblast","name":"Odesa","lat":"46.47747000","lon":"30.73262000"},
{"state":"Odeska oblast","name":"Okny","lat":"47.54044000","lon":"29.46001000"},
{"state":"Odeska oblast","name":"Oleksandrivka","lat":"46.32893000","lon":"30.63481000"},
{"state":"Odeska oblast","name":"Ovidiopol","lat":"46.24998000","lon":"30.44127000"},
{"state":"Odeska oblast","name":"Ozerne","lat":"45.40300000","lon":"28.67546000"},
{"state":"Odeska oblast","name":"Peschana","lat":"48.12918000","lon":"29.73086000"},
{"state":"Odeska oblast","name":"Plakhtiyivka","lat":"46.10060000","lon":"29.72169000"},
{"state":"Odeska oblast","name":"Podil’s’k","lat":"47.75305000","lon":"29.53205000"},
{"state":"Odeska oblast","name":"Podilsk Raion","lat":"47.71642000","lon":"29.54509000"},
{"state":"Odeska oblast","name":"Reni","lat":"45.45623000","lon":"28.27914000"},
{"state":"Odeska oblast","name":"Rozdil’na","lat":"46.84334000","lon":"30.07919000"},
{"state":"Odeska oblast","name":"Salhany","lat":"46.14881000","lon":"30.34601000"},
{"state":"Odeska oblast","name":"Sarata","lat":"46.01966000","lon":"29.66567000"},
{"state":"Odeska oblast","name":"Savran","lat":"48.13219000","lon":"30.08247000"},
{"state":"Odeska oblast","name":"Serhiyivka","lat":"46.02720000","lon":"30.37682000"},
{"state":"Odeska oblast","name":"Serpneve","lat":"46.30094000","lon":"29.01958000"},
{"state":"Odeska oblast","name":"Shabo","lat":"46.13262000","lon":"30.38595000"},
{"state":"Odeska oblast","name":"Shevchenkove","lat":"45.55604000","lon":"29.33357000"},
{"state":"Odeska oblast","name":"Shyryayeve","lat":"47.38052000","lon":"30.19638000"},
{"state":"Odeska oblast","name":"Slobidka","lat":"47.88694000","lon":"29.34611000"},
{"state":"Odeska oblast","name":"Starokozache","lat":"46.33722000","lon":"29.98528000"},
{"state":"Odeska oblast","name":"Stepanivka","lat":"46.79489000","lon":"29.98684000"},
{"state":"Odeska oblast","name":"Stepove","lat":"46.70385000","lon":"30.07919000"},
{"state":"Odeska oblast","name":"Tarutyne","lat":"46.18636000","lon":"29.15203000"},
{"state":"Odeska oblast","name":"Tatarbunary","lat":"45.83731000","lon":"29.61424000"},
{"state":"Odeska oblast","name":"Tayirove","lat":"46.36313000","lon":"30.64891000"},
{"state":"Odeska oblast","name":"Teplodar","lat":"46.50585000","lon":"30.32521000"},
{"state":"Odeska oblast","name":"Usatove","lat":"46.53296000","lon":"30.65960000"},
{"state":"Odeska oblast","name":"Velyka Mykhaylivka","lat":"47.07971000","lon":"29.85753000"},
{"state":"Odeska oblast","name":"Velykoploske","lat":"47.01254000","lon":"29.67171000"},
{"state":"Odeska oblast","name":"Vylkove","lat":"45.40214000","lon":"29.58595000"},
{"state":"Odeska oblast","name":"Vynohradivka","lat":"45.68119000","lon":"28.57138000"},
{"state":"Odeska oblast","name":"Yuzhne","lat":"46.62211000","lon":"31.10131000"},
{"state":"Odeska oblast","name":"Zagnitkiv","lat":"48.04878000","lon":"28.89234000"},
{"state":"Odeska oblast","name":"Zakharivka","lat":"47.33232000","lon":"29.75903000"},
{"state":"Odeska oblast","name":"Zaliznychne","lat":"45.74890000","lon":"28.61466000"},
{"state":"Odeska oblast","name":"Zatoka","lat":"46.07251000","lon":"30.46538000"},
{"state":"Odeska oblast","name":"Zatyshshya","lat":"47.33351000","lon":"29.87327000"},
{"state":"Odeska oblast","name":"Zorya","lat":"45.99080000","lon":"29.69672000"},
{"state":"Poltavska oblast","name":"Abramok","lat":"50.63694444","lon":"27.90750000"},
{"state":"Poltavska oblast","name":"Adamivka","lat":"50.37694444","lon":"27.91527778"},
{"state":"Poltavska oblast","name":"Adamove","lat":"50.83111111","lon":"27.48305556"},
{"state":"Poltavska oblast","name":"Agativka","lat":"49.98611111","lon":"28.60500000"},
{"state":"Poltavska oblast","name":"Andriyivka","lat":"49.76293844","lon":"34.30037490"},
{"state":"Poltavska oblast","name":"Andrushivka","lat":"50.01666667","lon":"29.01666667"},
{"state":"Poltavska oblast","name":"Autozavodskoy Raion","lat":"49.07173000","lon":"33.41552000"},
{"state":"Poltavska oblast","name":"Avratin","lat":"49.87611111","lon":"27.82638889"},
{"state":"Poltavska oblast","name":"Bairak","lat":"49.72043437","lon":"34.37378921"},
{"state":"Poltavska oblast","name":"Baliasne","lat":"49.82119646","lon":"34.33881183"},
{"state":"Poltavska oblast","name":"Baranivka","lat":"50.30000000","lon":"27.66666667"},
{"state":"Poltavska oblast","name":"Baranivka","lat":"49.94809180","lon":"34.00827580"},
{"state":"Poltavska oblast","name":"Barashi","lat":"50.71555556","lon":"28.03083333"},
{"state":"Poltavska oblast","name":"Bazar","lat":"51.04388889","lon":"29.29361111"},
{"state":"Poltavska oblast","name":"Bekhi","lat":"51.01972222","lon":"28.69333333"},
{"state":"Poltavska oblast","name":"Berdychiv","lat":"49.89194444","lon":"28.60000000"},
{"state":"Poltavska oblast","name":"Berestivka","lat":"50.34055556","lon":"27.47611111"},
{"state":"Poltavska oblast","name":"Berestovets","lat":"51.02000000","lon":"28.87027778"},
{"state":"Poltavska oblast","name":"Berezianka","lat":"49.69194444","lon":"29.45305556"},
{"state":"Poltavska oblast","name":"Berezovii Grud","lat":"50.99666667","lon":"28.35888889"},
{"state":"Poltavska oblast","name":"Bereztsi","lat":"50.50555556","lon":"29.31750000"},
{"state":"Poltavska oblast","name":"Bicheva","lat":"49.75055556","lon":"27.77777778"},
{"state":"Poltavska oblast","name":"Bigun","lat":"51.40194444","lon":"28.28277778"},
{"state":"Poltavska oblast","name":"Bikiv","lat":"50.17833333","lon":"29.29638889"},
{"state":"Poltavska oblast","name":"Bila Krynytsia","lat":"50.63638889","lon":"29.46361111"},
{"state":"Poltavska oblast","name":"Bilii Bereg","lat":"50.75638889","lon":"29.47888889"},
{"state":"Poltavska oblast","name":"Bilka","lat":"50.81861111","lon":"28.18777778"},
{"state":"Poltavska oblast","name":"Bilylivka","lat":"49.68000000","lon":"29.03000000"},
{"state":"Poltavska oblast","name":"Bistrik","lat":"49.85638889","lon":"28.56638889"},
{"state":"Poltavska oblast","name":"Bistriyivka","lat":"50.47777778","lon":"29.16472222"},
{"state":"Poltavska oblast","name":"Borisivka","lat":"49.76934347","lon":"34.33837579"},
{"state":"Poltavska oblast","name":"Broniki","lat":"50.55361111","lon":"27.80777778"},
{"state":"Poltavska oblast","name":"Bronitsia","lat":"50.94666667","lon":"27.34527778"},
{"state":"Poltavska oblast","name":"Bronitska Guta","lat":"50.93138889","lon":"27.31388889"},
{"state":"Poltavska oblast","name":"Brovki Pershi","lat":"49.93194444","lon":"29.19750000"},
{"state":"Poltavska oblast","name":"Brusyliv","lat":"50.28333333","lon":"29.53333333"},
{"state":"Poltavska oblast","name":"Buchmany","lat":"51.07000000","lon":"28.04250000"},
{"state":"Poltavska oblast","name":"Buki","lat":"50.19638889","lon":"28.32500000"},
{"state":"Poltavska oblast","name":"Buldichiv","lat":"50.11361111","lon":"27.79666667"},
{"state":"Poltavska oblast","name":"Buriaki","lat":"49.81888889","lon":"28.28361111"},
{"state":"Poltavska oblast","name":"Burkivtsi","lat":"49.87888889","lon":"28.04444444"},
{"state":"Poltavska oblast","name":"Bykivka","lat":"50.29277778","lon":"27.98305556"},
{"state":"Poltavska oblast","name":"Chernechii Iar","lat":"49.83543000","lon":"34.59174000"},
{"state":"Poltavska oblast","name":"Cherniakhiv","lat":"50.45500000","lon":"28.66527778"},
{"state":"Poltavska oblast","name":"Chervone","lat":"49.94972222","lon":"28.86861111"},
{"state":"Poltavska oblast","name":"Chopovychi","lat":"50.83333333","lon":"28.95250000"},
{"state":"Poltavska oblast","name":"Chornukhy","lat":"50.26990573","lon":"32.94757796"},
{"state":"Poltavska oblast","name":"Chudniv","lat":"50.05277778","lon":"28.09694444"},
{"state":"Poltavska oblast","name":"Chutove","lat":"49.71689367","lon":"35.17463951"},
{"state":"Poltavska oblast","name":"Dashynka","lat":"50.64944444","lon":"28.39500000"},
{"state":"Poltavska oblast","name":"Davidivka","lat":"50.52694444","lon":"28.41000000"},
{"state":"Poltavska oblast","name":"Davydky","lat":"50.94888889","lon":"28.43861111"},
{"state":"Poltavska oblast","name":"Denyshi","lat":"50.21527778","lon":"28.40777778"},
{"state":"Poltavska oblast","name":"Derhanivka","lat":"49.69222222","lon":"29.06333333"},
{"state":"Poltavska oblast","name":"Dibrova","lat":"51.16027778","lon":"27.97277778"},
{"state":"Poltavska oblast","name":"Didkovichi","lat":"51.09972222","lon":"28.83194444"},
{"state":"Poltavska oblast","name":"Didovichi","lat":"50.60916667","lon":"27.35583333"},
{"state":"Poltavska oblast","name":"Divochki","lat":"50.44694444","lon":"28.74972222"},
{"state":"Poltavska oblast","name":"Dovbysh","lat":"50.37223889","lon":"27.98947500"},
{"state":"Poltavska oblast","name":"Druzhba","lat":"51.18611111","lon":"27.96611111"},
{"state":"Poltavska oblast","name":"Dubivka","lat":"49.90861111","lon":"28.78444444"},
{"state":"Poltavska oblast","name":"Dubnyki","lat":"50.87416667","lon":"27.34888889"},
{"state":"Poltavska oblast","name":"Dubrivka","lat":"50.28527778","lon":"29.59333333"},
{"state":"Poltavska oblast","name":"Dvorishche","lat":"50.56194444","lon":"28.39777778"},
{"state":"Poltavska oblast","name":"Dykanka","lat":"49.82223788","lon":"34.53408003"},
{"state":"Poltavska oblast","name":"Elivka","lat":"50.72722222","lon":"29.18388889"},
{"state":"Poltavska oblast","name":"Fedorivka","lat":"49.77617039","lon":"34.43944548"},
{"state":"Poltavska oblast","name":"Filenkove","lat":"49.83559723","lon":"35.00298408"},
{"state":"Poltavska oblast","name":"Glinivtsi","lat":"50.04611111","lon":"28.80416667"},
{"state":"Poltavska oblast","name":"Godikha","lat":"50.19027778","lon":"28.22194444"},
{"state":"Poltavska oblast","name":"Golovenka","lat":"50.15361111","lon":"28.54388889"},
{"state":"Poltavska oblast","name":"Golovki","lat":"50.83972222","lon":"29.13333333"},
{"state":"Poltavska oblast","name":"Golubyatin","lat":"49.85500000","lon":"29.51361111"},
{"state":"Poltavska oblast","name":"Gorbuliv","lat":"50.53750000","lon":"28.92333333"},
{"state":"Poltavska oblast","name":"Gordiyivka","lat":"50.05444444","lon":"27.87500000"},
{"state":"Poltavska oblast","name":"Gorianshchina","lat":"49.91185729","lon":"34.45818988"},
{"state":"Poltavska oblast","name":"Gorodkivka","lat":"49.90972222","lon":"28.99416667"},
{"state":"Poltavska oblast","name":"Gorodok","lat":"49.60027778","lon":"29.19500000"},
{"state":"Poltavska oblast","name":"Gorodske","lat":"50.37750000","lon":"29.16888889"},
{"state":"Poltavska oblast","name":"Goropayi","lat":"50.01388889","lon":"27.83388889"},
{"state":"Poltavska oblast","name":"Goshiv","lat":"51.23916667","lon":"28.71388889"},
{"state":"Poltavska oblast","name":"Gromada","lat":"49.94638889","lon":"27.76222222"},
{"state":"Poltavska oblast","name":"Grozyne","lat":"50.95888889","lon":"28.73055556"},
{"state":"Poltavska oblast","name":"Grushki","lat":"50.49277778","lon":"28.45500000"},
{"state":"Poltavska oblast","name":"Gubske","lat":"50.09951906","lon":"32.83123218"},
{"state":"Poltavska oblast","name":"Gulsk","lat":"50.51916667","lon":"27.72111111"},
{"state":"Poltavska oblast","name":"Gumenniki","lat":"50.39694444","lon":"28.92666667"},
{"state":"Poltavska oblast","name":"Guta-Potiyivka","lat":"50.69111111","lon":"28.87416667"},
{"state":"Poltavska oblast","name":"Guto-Mariatin","lat":"51.03000000","lon":"29.41666667"},
{"state":"Poltavska oblast","name":"Hadiach","lat":"50.36666667","lon":"34.00000000"},
{"state":"Poltavska oblast","name":"Hlobyne","lat":"49.38856468","lon":"33.26320863"},
{"state":"Poltavska oblast","name":"Holovyne","lat":"50.47250000","lon":"28.82805556"},
{"state":"Poltavska oblast","name":"Holubivka","lat":"49.68097000","lon":"29.16059000"},
{"state":"Poltavska oblast","name":"Horishni Plavni","lat":"49.01066008","lon":"33.65624556"},
{"state":"Poltavska oblast","name":"Horodets","lat":"51.37000000","lon":"28.24138889"},
{"state":"Poltavska oblast","name":"Horodnytsia","lat":"50.80944444","lon":"27.31833333"},
{"state":"Poltavska oblast","name":"Hradyzk","lat":"49.23306925","lon":"33.13203713"},
{"state":"Poltavska oblast","name":"Hranitne","lat":"50.74277778","lon":"29.35222222"},
{"state":"Poltavska oblast","name":"Hrebinka","lat":"50.11799594","lon":"32.43958508"},
{"state":"Poltavska oblast","name":"Hryshkivtsi","lat":"49.93555556","lon":"28.60166667"},
{"state":"Poltavska oblast","name":"Iemilivka","lat":"50.68777778","lon":"28.72805556"},
{"state":"Poltavska oblast","name":"Ievgenivka","lat":"50.63833333","lon":"27.99833333"},
{"state":"Poltavska oblast","name":"Irshansk","lat":"50.71666667","lon":"28.71666667"},
{"state":"Poltavska oblast","name":"Ivanivka","lat":"50.43777778","lon":"27.62944444"},
{"state":"Poltavska oblast","name":"Ivankiv","lat":"50.39611111","lon":"28.56888889"},
{"state":"Poltavska oblast","name":"Ivanopil","lat":"49.85861111","lon":"28.21555556"},
{"state":"Poltavska oblast","name":"Kamiani Potoky","lat":"48.98589514","lon":"33.51862610"},
{"state":"Poltavska oblast","name":"Kardashivka","lat":"49.88384899","lon":"34.64044604"},
{"state":"Poltavska oblast","name":"Karlivka","lat":"49.45474986","lon":"35.13079636"},
{"state":"Poltavska oblast","name":"Khodaky","lat":"50.97805556","lon":"28.80666667"},
{"state":"Poltavska oblast","name":"Khorol","lat":"49.78403100","lon":"33.25886100"},
{"state":"Poltavska oblast","name":"Khoroshiv","lat":"50.60000000","lon":"28.45000000"},
{"state":"Poltavska oblast","name":"Kobeliaky","lat":"49.14736024","lon":"34.19927008"},
{"state":"Poltavska oblast","name":"Kononenki","lat":"49.91143501","lon":"34.51172749"},
{"state":"Poltavska oblast","name":"Korchak","lat":"50.21250000","lon":"28.47638889"},
{"state":"Poltavska oblast","name":"Kornyn","lat":"50.09527778","lon":"29.53583333"},
{"state":"Poltavska oblast","name":"Korosten","lat":"50.95000000","lon":"28.65000000"},
{"state":"Poltavska oblast","name":"Korostyshiv","lat":"50.31861111","lon":"29.05916667"},
{"state":"Poltavska oblast","name":"Kotelva","lat":"50.06832759","lon":"34.75921130"},
{"state":"Poltavska oblast","name":"Kozelshchyna","lat":"49.21550000","lon":"33.85180000"},
{"state":"Poltavska oblast","name":"Kratova Govtva","lat":"49.87362868","lon":"34.50805284"},
{"state":"Poltavska oblast","name":"Kremenchuk","lat":"49.07750000","lon":"33.42388889"},
{"state":"Poltavska oblast","name":"Krukovskiy Raion","lat":"49.06672000","lon":"33.45320000"},
{"state":"Poltavska oblast","name":"Kucherivka","lat":"49.74801949","lon":"34.29072744"},
{"state":"Poltavska oblast","name":"Kupech","lat":"50.99611111","lon":"28.78472222"},
{"state":"Poltavska oblast","name":"Kvitneve","lat":"49.98472222","lon":"29.51583333"},
{"state":"Poltavska oblast","name":"Landari","lat":"49.78295521","lon":"34.38817299"},
{"state":"Poltavska oblast","name":"Lani","lat":"49.71283212","lon":"34.43433283"},
{"state":"Poltavska oblast","name":"Lasky","lat":"51.26555556","lon":"28.95638889"},
{"state":"Poltavska oblast","name":"Lazarivka","lat":"50.31250000","lon":"29.58583333"},
{"state":"Poltavska oblast","name":"Lisogirka","lat":"49.75916667","lon":"27.90305556"},
{"state":"Poltavska oblast","name":"Liubar","lat":"49.92138889","lon":"27.75833333"},
{"state":"Poltavska oblast","name":"Lokhvytsia","lat":"50.36104610","lon":"33.26517113"},
{"state":"Poltavska oblast","name":"Lubny","lat":"50.01856413","lon":"32.98686035"},
{"state":"Poltavska oblast","name":"Luhyny","lat":"51.06666667","lon":"28.38333333"},
{"state":"Poltavska oblast","name":"Lutovynivka","lat":"49.23722222","lon":"33.90500000"},
{"state":"Poltavska oblast","name":"Mala Rudka","lat":"49.73993159","lon":"34.44651297"},
{"state":"Poltavska oblast","name":"Malyn","lat":"50.76888889","lon":"29.27000000"},
{"state":"Poltavska oblast","name":"Marchenki","lat":"49.84310165","lon":"34.38291991"},
{"state":"Poltavska oblast","name":"Markivka","lat":"49.30247078","lon":"34.07348137"},
{"state":"Poltavska oblast","name":"Maschiwka","lat":"49.44491715","lon":"34.87575392"},
{"state":"Poltavska oblast","name":"Morozivka","lat":"50.67138889","lon":"27.45166667"},
{"state":"Poltavska oblast","name":"Myrhorod","lat":"49.96397912","lon":"33.61238091"},
{"state":"Poltavska oblast","name":"Myropil","lat":"50.10750000","lon":"27.70583333"},
{"state":"Poltavska oblast","name":"Narodychi","lat":"51.20231667","lon":"29.08139444"},
{"state":"Poltavska oblast","name":"Nedoharky","lat":"49.16921500","lon":"33.25495000"},
{"state":"Poltavska oblast","name":"Nemyryntsi","lat":"49.62000000","lon":"29.05000000"},
{"state":"Poltavska oblast","name":"Nova Borova","lat":"50.69222222","lon":"28.63666667"},
{"state":"Poltavska oblast","name":"Nova Chortoriia","lat":"50.02830000","lon":"27.70810000"},
{"state":"Poltavska oblast","name":"Novi Bilokorovychi","lat":"51.04750000","lon":"28.05194444"},
{"state":"Poltavska oblast","name":"Novi Sanzhary","lat":"49.33539098","lon":"34.31619855"},
{"state":"Poltavska oblast","name":"Novi Vorobyi","lat":"50.86972222","lon":"29.34333333"},
{"state":"Poltavska oblast","name":"Novohrad-Volynskyi","lat":"50.58333333","lon":"27.63333333"},
{"state":"Poltavska oblast","name":"Novoozerianka","lat":"51.21333333","lon":"28.00194444"},
{"state":"Poltavska oblast","name":"Nyvky","lat":"51.35000000","lon":"29.11666667"},
{"state":"Poltavska oblast","name":"Odariukivka","lat":"49.73973669","lon":"34.35914676"},
{"state":"Poltavska oblast","name":"Olefirshchina","lat":"49.88598650","lon":"34.58571058"},
{"state":"Poltavska oblast","name":"Olevsk","lat":"51.22777778","lon":"27.64805556"},
{"state":"Poltavska oblast","name":"Onatski","lat":"49.88676376","lon":"34.46003707"},
{"state":"Poltavska oblast","name":"Opishnia","lat":"49.95635316","lon":"34.61200414"},
{"state":"Poltavska oblast","name":"Orzhytsia","lat":"49.79097957","lon":"32.70152650"},
{"state":"Poltavska oblast","name":"Ovruch","lat":"51.32444444","lon":"28.80805556"},
{"state":"Poltavska oblast","name":"Ozerne","lat":"50.17944444","lon":"28.73611111"},
{"state":"Poltavska oblast","name":"Pavoloch","lat":"49.86916667","lon":"29.44916667"},
{"state":"Poltavska oblast","name":"Pershotravensk","lat":"50.20111111","lon":"27.63388889"},
{"state":"Poltavska oblast","name":"Pershotravneve","lat":"51.38916667","lon":"28.86250000"},
{"state":"Poltavska oblast","name":"Petrenki","lat":"49.73164740","lon":"34.33764355"},
{"state":"Poltavska oblast","name":"Pisarivshchina","lat":"49.85532915","lon":"34.63195588"},
{"state":"Poltavska oblast","name":"Pishchiv","lat":"50.60555556","lon":"27.31694444"},
{"state":"Poltavska oblast","name":"Polianka","lat":"50.25620278","lon":"27.69518889"},
{"state":"Poltavska oblast","name":"Poltava","lat":"49.57444444","lon":"34.56861111"},
{"state":"Poltavska oblast","name":"Popilnia","lat":"49.94583333","lon":"29.45944444"},
{"state":"Poltavska oblast","name":"Popivka","lat":"49.82284856","lon":"34.36835803"},
{"state":"Poltavska oblast","name":"Potiivka","lat":"50.61972222","lon":"28.96444444"},
{"state":"Poltavska oblast","name":"Proni","lat":"49.78629680","lon":"34.54425486"},
{"state":"Poltavska oblast","name":"Pyriatyn","lat":"50.24059547","lon":"32.50929941"},
{"state":"Poltavska oblast","name":"Radomyshl","lat":"50.49472222","lon":"29.23333333"},
{"state":"Poltavska oblast","name":"Reshetylivka","lat":"49.56360000","lon":"34.07630000"},
{"state":"Poltavska oblast","name":"Rohachi","lat":"49.64413000","lon":"29.36076000"},
{"state":"Poltavska oblast","name":"Romaniv","lat":"50.15166667","lon":"27.93916667"},
{"state":"Poltavska oblast","name":"Romodan","lat":"49.99487495","lon":"33.33073071"},
{"state":"Poltavska oblast","name":"Ruzhyn (settlement)","lat":"49.72333333","lon":"29.22138889"},
{"state":"Poltavska oblast","name":"Schyschaky","lat":"49.87689865","lon":"34.00709565"},
{"state":"Poltavska oblast","name":"Semenivka","lat":"49.60167044","lon":"33.18746872"},
{"state":"Poltavska oblast","name":"Sencha","lat":"50.25413446","lon":"33.35250701"},
{"state":"Poltavska oblast","name":"Shumsk","lat":"50.11944444","lon":"26.11666667"},
{"state":"Poltavska oblast","name":"Slovechne","lat":"51.38111111","lon":"28.35444444"},
{"state":"Poltavska oblast","name":"Smolovivshchina","lat":"49.06810000","lon":"34.43803000"},
{"state":"Poltavska oblast","name":"Sokhatska Balka","lat":"49.79953582","lon":"34.36245495"},
{"state":"Poltavska oblast","name":"Stepanivka","lat":"49.75900311","lon":"34.42956716"},
{"state":"Poltavska oblast","name":"Sudivka","lat":"49.75552151","lon":"34.49162461"},
{"state":"Poltavska oblast","name":"Tabory","lat":"50.27833333","lon":"27.59750000"},
{"state":"Poltavska oblast","name":"Taraschanka","lat":"50.64583333","lon":"27.51500000"},
{"state":"Poltavska oblast","name":"Topory","lat":"49.65361111","lon":"29.31333333"},
{"state":"Poltavska oblast","name":"Travneve","lat":"50.42611111","lon":"29.08000000"},
{"state":"Poltavska oblast","name":"Troiany","lat":"49.84137052","lon":"34.46811957"},
{"state":"Poltavska oblast","name":"Vasilivka","lat":"49.82960962","lon":"34.45204549"},
{"state":"Poltavska oblast","name":"Velika Rudka","lat":"49.74811105","lon":"34.46531945"},
{"state":"Poltavska oblast","name":"Veliki Budishcha","lat":"49.85606039","lon":"34.58307084"},
{"state":"Poltavska oblast","name":"Velyka Bahachka","lat":"49.79438338","lon":"33.72074263"},
{"state":"Poltavska oblast","name":"Velyki Korovyntsi","lat":"49.97138889","lon":"28.29472222"},
{"state":"Poltavska oblast","name":"Velyki Sorochyntsi","lat":"50.02530458","lon":"33.94765459"},
{"state":"Poltavska oblast","name":"Veresna","lat":"50.38222222","lon":"27.30750000"},
{"state":"Poltavska oblast","name":"Veselivka","lat":"49.73583840","lon":"34.49733875"},
{"state":"Poltavska oblast","name":"Virlya","lat":"50.34111111","lon":"27.70083333"},
{"state":"Poltavska oblast","name":"Vodiana Balka","lat":"49.90247078","lon":"34.48073506"},
{"state":"Poltavska oblast","name":"Yablunets","lat":"50.80000000","lon":"28.06666667"},
{"state":"Poltavska oblast","name":"Yarun","lat":"50.54333333","lon":"27.46611111"},
{"state":"Poltavska oblast","name":"Yemilchyne","lat":"50.87083333","lon":"27.80277778"},
{"state":"Poltavska oblast","name":"Zabaro-Davidivka","lat":"50.97027778","lon":"27.45305556"},
{"state":"Poltavska oblast","name":"Zadovga","lat":"49.27884000","lon":"33.91136000"},
{"state":"Poltavska oblast","name":"Zakrinichchia","lat":"50.40000000","lon":"27.28416667"},
{"state":"Poltavska oblast","name":"Zalissia","lat":"51.26444444","lon":"29.19805556"},
{"state":"Poltavska oblast","name":"Zaliznia","lat":"50.15000000","lon":"28.52222222"},
{"state":"Poltavska oblast","name":"Zaluzhne","lat":"50.23833333","lon":"27.96805556"},
{"state":"Poltavska oblast","name":"Zapadnia","lat":"50.19055556","lon":"29.32916667"},
{"state":"Poltavska oblast","name":"Zarichchia","lat":"49.71111111","lon":"29.22888889"},
{"state":"Poltavska oblast","name":"Zarudintsi","lat":"49.65333333","lon":"29.19222222"},
{"state":"Poltavska oblast","name":"Zavodske","lat":"50.40019868","lon":"33.39081277"},
{"state":"Poltavska oblast","name":"Zbranki","lat":"51.29833333","lon":"28.64583333"},
{"state":"Poltavska oblast","name":"Zdorovets","lat":"50.90694444","lon":"27.88611111"},
{"state":"Poltavska oblast","name":"Zherdeli","lat":"49.89888889","lon":"28.97000000"},
{"state":"Poltavska oblast","name":"Zhitintsi","lat":"49.91388889","lon":"27.57194444"},
{"state":"Poltavska oblast","name":"Zhovte","lat":"50.40444444","lon":"27.82166667"},
{"state":"Poltavska oblast","name":"Zhovtii Brid","lat":"50.28361111","lon":"28.10638889"},
{"state":"Poltavska oblast","name":"Zhupanivka","lat":"50.92750000","lon":"28.35500000"},
{"state":"Poltavska oblast","name":"Zhurbintsi","lat":"49.97944444","lon":"28.71583333"},
{"state":"Poltavska oblast","name":"Zhytomyr","lat":"50.25444444","lon":"28.65777778"},
{"state":"Poltavska oblast","name":"Zinkiv","lat":"50.20813908","lon":"34.36684182"},
{"state":"Poltavska oblast","name":"Zlobichi","lat":"50.85611111","lon":"28.69111111"},
{"state":"Poltavska oblast","name":"Zoriane","lat":"49.64916667","lon":"29.24444444"},
{"state":"Poltavska oblast","name":"Zorokiv","lat":"50.39416667","lon":"28.62388889"},
{"state":"Poltavska oblast","name":"Zosimivka","lat":"50.73888889","lon":"27.64888889"},
{"state":"Poltavska oblast","name":"Zubivshchina","lat":"50.95944444","lon":"28.81722222"},
{"state":"Poltavska oblast","name":"Zvizdal","lat":"51.17386000","lon":"29.24655000"},
{"state":"Rivnenska oblast","name":"Demydivs’kyy Rayon","lat":"50.44302000","lon":"25.29061000"},
{"state":"Rivnenska oblast","name":"Dubno","lat":"50.41694000","lon":"25.73432000"},
{"state":"Rivnenska oblast","name":"Dubrovytsya","lat":"51.57438000","lon":"26.56503000"},
{"state":"Rivnenska oblast","name":"Horodyshche","lat":"50.63965000","lon":"26.36573000"},
{"state":"Rivnenska oblast","name":"Hoshcha","lat":"50.60030000","lon":"26.67435000"},
{"state":"Rivnenska oblast","name":"Klevan","lat":"50.74305000","lon":"25.97628000"},
{"state":"Rivnenska oblast","name":"Kolodenka","lat":"50.58561000","lon":"26.31601000"},
{"state":"Rivnenska oblast","name":"Koloniya Zastav’ye","lat":"50.81667000","lon":"27.03333000"},
{"state":"Rivnenska oblast","name":"Korets","lat":"50.61655000","lon":"27.16055000"},
{"state":"Rivnenska oblast","name":"Kostopil’","lat":"50.87841000","lon":"26.45192000"},
{"state":"Rivnenska oblast","name":"Mizoch","lat":"50.40000000","lon":"26.15000000"},
{"state":"Rivnenska oblast","name":"Mlyniv","lat":"50.50900000","lon":"25.61675000"},
{"state":"Rivnenska oblast","name":"Mlynivs’kyy Rayon","lat":"50.55726000","lon":"25.57715000"},
{"state":"Rivnenska oblast","name":"Orzhiv","lat":"50.80000000","lon":"26.12000000"},
{"state":"Rivnenska oblast","name":"Ostroh","lat":"50.32942000","lon":"26.51425000"},
{"state":"Rivnenska oblast","name":"Ostroz’ka Mis’krada","lat":"50.32726000","lon":"26.51765000"},
{"state":"Rivnenska oblast","name":"Radyvyliv","lat":"50.12994000","lon":"25.25576000"},
{"state":"Rivnenska oblast","name":"Rivne","lat":"50.62308000","lon":"26.22743000"},
{"state":"Rivnenska oblast","name":"Rivnens’ka Mis’krada","lat":"50.61300000","lon":"26.24588000"},
{"state":"Rivnenska oblast","name":"Rokytne","lat":"51.27960000","lon":"27.21400000"},
{"state":"Rivnenska oblast","name":"Sarny","lat":"51.33795000","lon":"26.60191000"},
{"state":"Rivnenska oblast","name":"Tarakaniv","lat":"50.37961000","lon":"25.70843000"},
{"state":"Rivnenska oblast","name":"Tynne","lat":"50.60145000","lon":"26.18486000"},
{"state":"Rivnenska oblast","name":"Varash","lat":"51.35090000","lon":"25.84738000"},
{"state":"Rivnenska oblast","name":"Velyki Mezhyrichi","lat":"50.65431000","lon":"26.86626000"},
{"state":"Rivnenska oblast","name":"Volodymyrets’","lat":"51.42130000","lon":"26.14469000"},
{"state":"Rivnenska oblast","name":"Zarichne","lat":"51.81260000","lon":"26.12902000"},
{"state":"Rivnenska oblast","name":"Zdolbuniv","lat":"50.52060000","lon":"26.24251000"},
{"state":"Rivnenska oblast","name":"Zdovbytsya","lat":"50.49607000","lon":"26.24111000"},
{"state":"Sumska oblast","name":"Bilopillya","lat":"51.15016000","lon":"34.31287000"},
{"state":"Sumska oblast","name":"Boromlya","lat":"50.61839000","lon":"34.97042000"},
{"state":"Sumska oblast","name":"Buryn’","lat":"51.19912000","lon":"33.83523000"},
{"state":"Sumska oblast","name":"Druzhba","lat":"52.04545000","lon":"33.94517000"},
{"state":"Sumska oblast","name":"Hlukhiv","lat":"51.67822000","lon":"33.91620000"},
{"state":"Sumska oblast","name":"Konotop","lat":"51.24032000","lon":"33.20263000"},
{"state":"Sumska oblast","name":"Krasnopillya","lat":"50.77458000","lon":"35.25965000"},
{"state":"Sumska oblast","name":"Krolevets’","lat":"51.54775000","lon":"33.38475000"},
{"state":"Sumska oblast","name":"Kyrykivka","lat":"50.36408000","lon":"35.11490000"},
{"state":"Sumska oblast","name":"Lebedyn","lat":"50.58518000","lon":"34.48490000"},
{"state":"Sumska oblast","name":"Lypova Dolyna","lat":"50.56428000","lon":"33.79793000"},
{"state":"Sumska oblast","name":"Mezenivka","lat":"50.63486000","lon":"35.31340000"},
{"state":"Sumska oblast","name":"Nedryhayliv","lat":"50.83398000","lon":"33.87626000"},
{"state":"Sumska oblast","name":"Nyzy","lat":"50.78281000","lon":"34.78441000"},
{"state":"Sumska oblast","name":"Okhtyrka","lat":"50.31036000","lon":"34.89879000"},
{"state":"Sumska oblast","name":"Putyvl’","lat":"51.33745000","lon":"33.87066000"},
{"state":"Sumska oblast","name":"Romens’ka Mis’krada","lat":"50.74306000","lon":"33.48284000"},
{"state":"Sumska oblast","name":"Romny","lat":"50.75104000","lon":"33.47471000"},
{"state":"Sumska oblast","name":"Seredyna-Buda","lat":"52.18903000","lon":"34.03639000"},
{"state":"Sumska oblast","name":"Shalyhyne","lat":"51.57167000","lon":"34.12167000"},
{"state":"Sumska oblast","name":"Shostka","lat":"51.86296000","lon":"33.46980000"},
{"state":"Sumska oblast","name":"Sloboda","lat":"51.19806000","lon":"33.60695000"},
{"state":"Sumska oblast","name":"Sumy","lat":"50.92160000","lon":"34.80029000"},
{"state":"Sumska oblast","name":"Terny","lat":"50.98916000","lon":"33.97070000"},
{"state":"Sumska oblast","name":"Trostyanets’","lat":"50.48478000","lon":"34.96567000"},
{"state":"Sumska oblast","name":"Velyka Pysarivka","lat":"50.42430000","lon":"35.47989000"},
{"state":"Sumska oblast","name":"Verkhnya Syrovatka","lat":"50.82902000","lon":"34.95861000"},
{"state":"Sumska oblast","name":"Vorozhba","lat":"51.17334000","lon":"34.21917000"},
{"state":"Sumska oblast","name":"Yampil’","lat":"51.94765000","lon":"33.78759000"},
{"state":"Sumska oblast","name":"Yesman’","lat":"51.77006000","lon":"34.06729000"},
{"state":"Ternopilska oblast","name":"Belaya","lat":"49.02900000","lon":"25.77059000"},
{"state":"Ternopilska oblast","name":"Borshchiv","lat":"48.80332000","lon":"26.04347000"},
{"state":"Ternopilska oblast","name":"Buchach","lat":"49.06254000","lon":"25.38798000"},
{"state":"Ternopilska oblast","name":"Chortkiv","lat":"49.01709000","lon":"25.79804000"},
{"state":"Ternopilska oblast","name":"Druzhba","lat":"49.04251000","lon":"25.45055000"},
{"state":"Ternopilska oblast","name":"Hrymayliv","lat":"49.33208000","lon":"26.01112000"},
{"state":"Ternopilska oblast","name":"Husiatyn","lat":"49.07290000","lon":"26.18480000"},
{"state":"Ternopilska oblast","name":"Khorostkiv","lat":"49.21114000","lon":"25.92165000"},
{"state":"Ternopilska oblast","name":"Kopychyntsi","lat":"49.10441000","lon":"25.91026000"},
{"state":"Ternopilska oblast","name":"Kozova","lat":"49.43544000","lon":"25.15086000"},
{"state":"Ternopilska oblast","name":"Kremenets","lat":"50.09693000","lon":"25.72459000"},
{"state":"Ternopilska oblast","name":"Lanivtsi","lat":"49.86328000","lon":"26.09082000"},
{"state":"Ternopilska oblast","name":"Mikulintsy","lat":"49.39600000","lon":"25.60518000"},
{"state":"Ternopilska oblast","name":"Nyrkiv","lat":"48.81492000","lon":"25.59989000"},
{"state":"Ternopilska oblast","name":"Ozerna","lat":"49.62891000","lon":"25.32895000"},
{"state":"Ternopilska oblast","name":"Petrikov","lat":"49.53122000","lon":"25.57901000"},
{"state":"Ternopilska oblast","name":"Pidhaytsi","lat":"49.26853000","lon":"25.13341000"},
{"state":"Ternopilska oblast","name":"Pidvolochysk","lat":"49.53472000","lon":"26.14585000"},
{"state":"Ternopilska oblast","name":"Pochaiv","lat":"50.00509000","lon":"25.51183000"},
{"state":"Ternopilska oblast","name":"Skala-Podil’s’ka","lat":"48.85149000","lon":"26.19909000"},
{"state":"Ternopilska oblast","name":"Skalat","lat":"49.42732000","lon":"25.97869000"},
{"state":"Ternopilska oblast","name":"Terebovlya","lat":"49.30187000","lon":"25.70997000"},
{"state":"Ternopilska oblast","name":"Ternopil","lat":"49.55342000","lon":"25.58918000"},
{"state":"Ternopilska oblast","name":"Tovste","lat":"48.84663000","lon":"25.72621000"},
{"state":"Ternopilska oblast","name":"Velikiye Borki","lat":"49.52363000","lon":"25.75753000"},
{"state":"Ternopilska oblast","name":"Yahil’nytsya","lat":"48.94248000","lon":"25.74375000"},
{"state":"Ternopilska oblast","name":"Zalishchyky","lat":"48.64331000","lon":"25.73794000"},
{"state":"Ternopilska oblast","name":"Zaliztsi","lat":"49.79188000","lon":"25.37297000"},
{"state":"Ternopilska oblast","name":"Zbarazh","lat":"49.66357000","lon":"25.77616000"},
{"state":"Ternopilska oblast","name":"Zboriv","lat":"49.66484000","lon":"25.14097000"},
{"state":"Ternopilska oblast","name":"Zolotyy Potik","lat":"48.90950000","lon":"25.33926000"},
{"state":"Ternopilska oblast","name":"Бережани","lat":"49.45000000","lon":"24.93333000"},
{"state":"Vinnytska oblast","name":"Bar","lat":"49.07717000","lon":"27.68256000"},
{"state":"Vinnytska oblast","name":"Barskiy Rayon","lat":"49.06667000","lon":"27.68333000"},
{"state":"Vinnytska oblast","name":"Bershad","lat":"48.36782000","lon":"29.51726000"},
{"state":"Vinnytska oblast","name":"Brailiv","lat":"49.10986000","lon":"28.17459000"},
{"state":"Vinnytska oblast","name":"Bratslav","lat":"48.82257000","lon":"28.94070000"},
{"state":"Vinnytska oblast","name":"Chechelnyk","lat":"48.21509000","lon":"29.36728000"},
{"state":"Vinnytska oblast","name":"Chernivets’kyy Rayon","lat":"48.51106000","lon":"28.14191000"},
{"state":"Vinnytska oblast","name":"Chernivtsi","lat":"48.54225000","lon":"28.11473000"},
{"state":"Vinnytska oblast","name":"Dashiv","lat":"49.00449000","lon":"29.42559000"},
{"state":"Vinnytska oblast","name":"Haisyn","lat":"48.81143000","lon":"29.38977000"},
{"state":"Vinnytska oblast","name":"Illintsi","lat":"49.10479000","lon":"29.21773000"},
{"state":"Vinnytska oblast","name":"Kalynivka","lat":"49.45389000","lon":"28.52608000"},
{"state":"Vinnytska oblast","name":"Khmilnyk","lat":"49.55979000","lon":"27.95754000"},
{"state":"Vinnytska oblast","name":"Klembivka","lat":"48.39037000","lon":"28.41092000"},
{"state":"Vinnytska oblast","name":"Kopayhorod","lat":"48.85917000","lon":"27.79690000"},
{"state":"Vinnytska oblast","name":"Kozyatyn","lat":"49.71431000","lon":"28.83385000"},
{"state":"Vinnytska oblast","name":"Kryzhopil’","lat":"48.38289000","lon":"28.86622000"},
{"state":"Vinnytska oblast","name":"Ladyzhyn","lat":"48.68496000","lon":"29.23679000"},
{"state":"Vinnytska oblast","name":"Lityn","lat":"49.32509000","lon":"28.08094000"},
{"state":"Vinnytska oblast","name":"Lityns’kyy Rayon","lat":"49.37138000","lon":"28.07033000"},
{"state":"Vinnytska oblast","name":"Lypovets’kyy Rayon","lat":"49.28006000","lon":"28.93205000"},
{"state":"Vinnytska oblast","name":"Mohyliv-Podilskyi","lat":"48.44598000","lon":"27.79820000"},
{"state":"Vinnytska oblast","name":"Murafa","lat":"48.76763000","lon":"28.21569000"},
{"state":"Vinnytska oblast","name":"Murovani Kurylivtsi","lat":"48.72348000","lon":"27.51892000"},
{"state":"Vinnytska oblast","name":"Nemyriv","lat":"48.97076000","lon":"28.83779000"},
{"state":"Vinnytska oblast","name":"Nova Pryluka","lat":"49.37488000","lon":"28.69955000"},
{"state":"Vinnytska oblast","name":"Obodivka","lat":"48.40514000","lon":"29.24775000"},
{"state":"Vinnytska oblast","name":"Orativ","lat":"49.18889000","lon":"29.52697000"},
{"state":"Vinnytska oblast","name":"Pavlivka","lat":"49.44143000","lon":"28.45956000"},
{"state":"Vinnytska oblast","name":"Pohrebyshche","lat":"49.48639000","lon":"29.26361000"},
{"state":"Vinnytska oblast","name":"Pohrebyshchens’kyy Rayon","lat":"49.48126000","lon":"29.25953000"},
{"state":"Vinnytska oblast","name":"Serebriya","lat":"48.45593000","lon":"27.71923000"},
{"state":"Vinnytska oblast","name":"Sharhorod","lat":"48.75587000","lon":"28.07507000"},
{"state":"Vinnytska oblast","name":"Sobolivka","lat":"49.33604000","lon":"28.65096000"},
{"state":"Vinnytska oblast","name":"Sutysky","lat":"49.04245000","lon":"28.41733000"},
{"state":"Vinnytska oblast","name":"Teplyk","lat":"48.66566000","lon":"29.74504000"},
{"state":"Vinnytska oblast","name":"Tomashpil’","lat":"48.54256000","lon":"28.51684000"},
{"state":"Vinnytska oblast","name":"Torkanivka","lat":"48.32462000","lon":"29.14746000"},
{"state":"Vinnytska oblast","name":"Tsybulevka","lat":"48.38719000","lon":"29.10288000"},
{"state":"Vinnytska oblast","name":"Tulchyn","lat":"48.67448000","lon":"28.84641000"},
{"state":"Vinnytska oblast","name":"Turbiv","lat":"49.34788000","lon":"28.72117000"},
{"state":"Vinnytska oblast","name":"Tyvriv","lat":"49.01404000","lon":"28.50846000"},
{"state":"Vinnytska oblast","name":"Ulaniv","lat":"49.69512000","lon":"28.13298000"},
{"state":"Vinnytska oblast","name":"Vapnyarka","lat":"48.53479000","lon":"28.74358000"},
{"state":"Vinnytska oblast","name":"Vendychany","lat":"48.61176000","lon":"27.79324000"},
{"state":"Vinnytska oblast","name":"Vinnitskiy Rayon","lat":"49.23531000","lon":"28.47588000"},
{"state":"Vinnytska oblast","name":"Vinnytsia","lat":"49.23278000","lon":"28.48097000"},
{"state":"Vinnytska oblast","name":"Viytivka","lat":"48.42603000","lon":"29.54291000"},
{"state":"Vinnytska oblast","name":"Voronovytsya","lat":"49.10954000","lon":"28.68078000"},
{"state":"Vinnytska oblast","name":"Yampil’","lat":"48.24240000","lon":"28.28195000"},
{"state":"Vinnytska oblast","name":"Zhmerynka","lat":"49.03705000","lon":"28.11201000"},
{"state":"Volynska oblast","name":"Berestechko","lat":"50.36047000","lon":"25.11071000"},
{"state":"Volynska oblast","name":"Blahodatne","lat":"50.66365000","lon":"24.24918000"},
{"state":"Volynska oblast","name":"Hołoby","lat":"51.08651000","lon":"25.00767000"},
{"state":"Volynska oblast","name":"Horokhiv","lat":"50.50186000","lon":"24.76149000"},
{"state":"Volynska oblast","name":"Kamin-Kashyrskyi","lat":"51.62412000","lon":"24.95864000"},
{"state":"Volynska oblast","name":"Kivertsi","lat":"50.83425000","lon":"25.45821000"},
{"state":"Volynska oblast","name":"Kovel","lat":"51.21526000","lon":"24.70867000"},
{"state":"Volynska oblast","name":"Kovel’s’ka Mis’krada","lat":"51.21198000","lon":"24.70163000"},
{"state":"Volynska oblast","name":"Liuboml","lat":"51.22601000","lon":"24.03727000"},
{"state":"Volynska oblast","name":"Lokachi","lat":"50.73700000","lon":"24.64944000"},
{"state":"Volynska oblast","name":"Lukiv","lat":"51.05210000","lon":"25.40059000"},
{"state":"Volynska oblast","name":"Lutsk","lat":"50.75932000","lon":"25.34244000"},
{"state":"Volynska oblast","name":"Lyubeshivs’kyy Rayon","lat":"51.79639000","lon":"25.33133000"},
{"state":"Volynska oblast","name":"Lyuboml’s’kyy Rayon","lat":"51.25062000","lon":"24.01161000"},
{"state":"Volynska oblast","name":"Manevychi","lat":"51.29405000","lon":"25.53436000"},
{"state":"Volynska oblast","name":"Manevyts’kyy Rayon","lat":"51.24513000","lon":"25.60945000"},
{"state":"Volynska oblast","name":"Novovolyns’k","lat":"50.72576000","lon":"24.16265000"},
{"state":"Volynska oblast","name":"Nuyno","lat":"51.54628000","lon":"24.91018000"},
{"state":"Volynska oblast","name":"Olyka","lat":"50.71855000","lon":"25.81251000"},
{"state":"Volynska oblast","name":"Pishcha","lat":"51.60928000","lon":"23.82079000"},
{"state":"Volynska oblast","name":"Rakiv Lis","lat":"51.62174000","lon":"24.92427000"},
{"state":"Volynska oblast","name":"Ratne","lat":"51.66830000","lon":"24.53030000"},
{"state":"Volynska oblast","name":"Ratnivs’kyy Rayon","lat":"51.71712000","lon":"24.51959000"},
{"state":"Volynska oblast","name":"Rozhyshche","lat":"50.91542000","lon":"25.26906000"},
{"state":"Volynska oblast","name":"Shats’k","lat":"51.50208000","lon":"23.93806000"},
{"state":"Volynska oblast","name":"Shats’kyy Rayon","lat":"51.52237000","lon":"23.86522000"},
{"state":"Volynska oblast","name":"Stara Vyzhivka","lat":"51.43762000","lon":"24.43997000"},
{"state":"Volynska oblast","name":"Svityaz’","lat":"51.48211000","lon":"23.85904000"},
{"state":"Volynska oblast","name":"Volodymyr-Volynskyi","lat":"50.85253000","lon":"24.32364000"},
{"state":"Zakarpatska Oblast","name":"Batiovo","lat":"48.36166000","lon":"22.39970000"},
{"state":"Zakarpatska Oblast","name":"Berehivs’ka Mis’krada","lat":"48.21255000","lon":"22.65536000"},
{"state":"Zakarpatska Oblast","name":"Berehove","lat":"48.20555000","lon":"22.64418000"},
{"state":"Zakarpatska Oblast","name":"Berehove Raion","lat":"48.16667000","lon":"22.66667000"},
{"state":"Zakarpatska Oblast","name":"Bereznyky","lat":"48.51407000","lon":"23.21982000"},
{"state":"Zakarpatska Oblast","name":"Berezovo","lat":"48.30943000","lon":"23.47400000"},
{"state":"Zakarpatska Oblast","name":"Bilky","lat":"48.31503000","lon":"23.13248000"},
{"state":"Zakarpatska Oblast","name":"Bobovo","lat":"48.07166000","lon":"22.89585000"},
{"state":"Zakarpatska Oblast","name":"Bohdan","lat":"48.04122000","lon":"24.35222000"},
{"state":"Zakarpatska Oblast","name":"Bushtyno","lat":"48.05121000","lon":"23.48579000"},
{"state":"Zakarpatska Oblast","name":"Chop","lat":"48.43198000","lon":"22.20555000"},
{"state":"Zakarpatska Oblast","name":"Chynadiyovo","lat":"48.48179000","lon":"22.82170000"},
{"state":"Zakarpatska Oblast","name":"Dovhe","lat":"48.36527000","lon":"23.27904000"},
{"state":"Zakarpatska Oblast","name":"Drahovo","lat":"48.23573000","lon":"23.54914000"},
{"state":"Zakarpatska Oblast","name":"Dubove","lat":"48.17205000","lon":"23.88954000"},
{"state":"Zakarpatska Oblast","name":"Horinchovo","lat":"48.27076000","lon":"23.43475000"},
{"state":"Zakarpatska Oblast","name":"Irshava","lat":"48.31667000","lon":"23.03846000"},
{"state":"Zakarpatska Oblast","name":"Irshava Raion","lat":"48.33333000","lon":"23.08333000"},
{"state":"Zakarpatska Oblast","name":"Iza","lat":"48.21525000","lon":"23.32867000"},
{"state":"Zakarpatska Oblast","name":"Kalyny","lat":"48.14078000","lon":"23.87380000"},
{"state":"Zakarpatska Oblast","name":"Kamianytsia","lat":"48.69343000","lon":"22.39570000"},
{"state":"Zakarpatska Oblast","name":"Khust","lat":"48.17930000","lon":"23.29909000"},
{"state":"Zakarpatska Oblast","name":"Khust Raion","lat":"48.25000000","lon":"23.41667000"},
{"state":"Zakarpatska Oblast","name":"Khusts’ka Mis’krada","lat":"48.19058000","lon":"23.30322000"},
{"state":"Zakarpatska Oblast","name":"Kolochava","lat":"48.42851000","lon":"23.69590000"},
{"state":"Zakarpatska Oblast","name":"Kopashnovo","lat":"48.21970000","lon":"23.48457000"},
{"state":"Zakarpatska Oblast","name":"Korolevo","lat":"48.15247000","lon":"23.13659000"},
{"state":"Zakarpatska Oblast","name":"Koson’","lat":"48.25505000","lon":"22.45597000"},
{"state":"Zakarpatska Oblast","name":"Kryva","lat":"48.17234000","lon":"23.23647000"},
{"state":"Zakarpatska Oblast","name":"Kushnytsya","lat":"48.43988000","lon":"23.25816000"},
{"state":"Zakarpatska Oblast","name":"Kvasy","lat":"48.14973000","lon":"24.27995000"},
{"state":"Zakarpatska Oblast","name":"Lazeshchyna","lat":"48.26852000","lon":"24.42010000"},
{"state":"Zakarpatska Oblast","name":"Lazi","lat":"48.06667000","lon":"24.23333000"},
{"state":"Zakarpatska Oblast","name":"Lopukhiv","lat":"48.36527000","lon":"23.96382000"},
{"state":"Zakarpatska Oblast","name":"Lypcha","lat":"48.26107000","lon":"23.38336000"},
{"state":"Zakarpatska Oblast","name":"Lysychovo","lat":"48.49677000","lon":"23.28992000"},
{"state":"Zakarpatska Oblast","name":"Mizhhirya","lat":"48.52458000","lon":"23.50563000"},
{"state":"Zakarpatska Oblast","name":"Mizhhirya Raion","lat":"48.58333000","lon":"23.50000000"},
{"state":"Zakarpatska Oblast","name":"Mukacheve","lat":"48.43919000","lon":"22.71779000"},
{"state":"Zakarpatska Oblast","name":"Mukachevo Raion","lat":"48.41667000","lon":"22.66667000"},
{"state":"Zakarpatska Oblast","name":"Muzhiyevo","lat":"48.17959000","lon":"22.69943000"},
{"state":"Zakarpatska Oblast","name":"Mynay","lat":"48.58880000","lon":"22.27502000"},
{"state":"Zakarpatska Oblast","name":"Nelipyno","lat":"48.56101000","lon":"23.03146000"},
{"state":"Zakarpatska Oblast","name":"Neresnytsya","lat":"48.11814000","lon":"23.76588000"},
{"state":"Zakarpatska Oblast","name":"Nevyts’ke","lat":"48.67472000","lon":"22.38813000"},
{"state":"Zakarpatska Oblast","name":"Nove Davydkovo","lat":"48.44133000","lon":"22.62164000"},
{"state":"Zakarpatska Oblast","name":"Nyzhnye Selyshche","lat":"48.19911000","lon":"23.44757000"},
{"state":"Zakarpatska Oblast","name":"Oleshnyk","lat":"48.16406000","lon":"22.96167000"},
{"state":"Zakarpatska Oblast","name":"Onokivtsi","lat":"48.65763000","lon":"22.34183000"},
{"state":"Zakarpatska Oblast","name":"Perechyn","lat":"48.73616000","lon":"22.48200000"},
{"state":"Zakarpatska Oblast","name":"Perechyn Raion","lat":"48.75000000","lon":"22.66667000"},
{"state":"Zakarpatska Oblast","name":"Pidvynohradiv","lat":"48.13947000","lon":"22.97194000"},
{"state":"Zakarpatska Oblast","name":"Poroshkovo","lat":"48.66832000","lon":"22.75328000"},
{"state":"Zakarpatska Oblast","name":"Pylypets","lat":"48.65899000","lon":"23.28346000"},
{"state":"Zakarpatska Oblast","name":"Rakhiv","lat":"48.05260000","lon":"24.20089000"},
{"state":"Zakarpatska Oblast","name":"Rakhiv Raion","lat":"48.08333000","lon":"24.33333000"},
{"state":"Zakarpatska Oblast","name":"Rakoshyno","lat":"48.46713000","lon":"22.59687000"},
{"state":"Zakarpatska Oblast","name":"Rokosovo","lat":"48.21018000","lon":"23.17624000"},
{"state":"Zakarpatska Oblast","name":"Serednye","lat":"48.54043000","lon":"22.50696000"},
{"state":"Zakarpatska Oblast","name":"Serednye Vodyane","lat":"47.98159000","lon":"23.91041000"},
{"state":"Zakarpatska Oblast","name":"Solotvyno","lat":"47.94604000","lon":"23.87035000"},
{"state":"Zakarpatska Oblast","name":"Storozhnytsya","lat":"48.60403000","lon":"22.23269000"},
{"state":"Zakarpatska Oblast","name":"Strabychovo","lat":"48.39247000","lon":"22.54308000"},
{"state":"Zakarpatska Oblast","name":"Svaliava Raion","lat":"48.55000000","lon":"23.00000000"},
{"state":"Zakarpatska Oblast","name":"Svalyava","lat":"48.54853000","lon":"22.99578000"},
{"state":"Zakarpatska Oblast","name":"Synevyr","lat":"48.48745000","lon":"23.62575000"},
{"state":"Zakarpatska Oblast","name":"Synevyrska Poliana","lat":"48.58484000","lon":"23.68910000"},
{"state":"Zakarpatska Oblast","name":"Tiachiv Raion","lat":"48.08333000","lon":"23.58333000"},
{"state":"Zakarpatska Oblast","name":"Tyachiv","lat":"48.01179000","lon":"23.57061000"},
{"state":"Zakarpatska Oblast","name":"Uzhgorod","lat":"48.61667000","lon":"22.30000000"},
{"state":"Zakarpatska Oblast","name":"Uzhhorod Raion","lat":"48.58333000","lon":"22.33333000"},
{"state":"Zakarpatska Oblast","name":"Vary","lat":"48.12207000","lon":"22.71281000"},
{"state":"Zakarpatska Oblast","name":"Velyki Berehy","lat":"48.23187000","lon":"22.74591000"},
{"state":"Zakarpatska Oblast","name":"Velykyi Bereznyi","lat":"48.88831000","lon":"22.46052000"},
{"state":"Zakarpatska Oblast","name":"Velykyi Bereznyi Raion","lat":"48.91667000","lon":"22.58333000"},
{"state":"Zakarpatska Oblast","name":"Volovets","lat":"48.71090000","lon":"23.18510000"},
{"state":"Zakarpatska Oblast","name":"Volovets Raion","lat":"48.75000000","lon":"23.08333000"},
{"state":"Zakarpatska Oblast","name":"Vylok","lat":"48.10915000","lon":"22.83865000"},
{"state":"Zakarpatska Oblast","name":"Vynohradiv","lat":"48.14135000","lon":"23.02666000"},
{"state":"Zakarpatska Oblast","name":"Vynohradiv Raion","lat":"48.16667000","lon":"23.00000000"},
{"state":"Zakarpatska Oblast","name":"Vyshkovo","lat":"48.04911000","lon":"23.42113000"},
{"state":"Zakarpatska Oblast","name":"Yasinya","lat":"48.27937000","lon":"24.36042000"},
{"state":"Zaporizka oblast","name":"Balky","lat":"47.38336000","lon":"34.94396000"},
{"state":"Zaporizka oblast","name":"Berdiansk Raion","lat":"46.83333000","lon":"36.75000000"},
{"state":"Zaporizka oblast","name":"Berdyans’ka Mis’krada","lat":"46.81565000","lon":"36.77049000"},
{"state":"Zaporizka oblast","name":"Berdyansk","lat":"46.76644000","lon":"36.79872000"},
{"state":"Zaporizka oblast","name":"Chapayevka","lat":"47.47114000","lon":"36.34507000"},
{"state":"Zaporizka oblast","name":"Chernihivka Raion","lat":"47.16667000","lon":"36.25000000"},
{"state":"Zaporizka oblast","name":"Dniprorudne","lat":"47.38169000","lon":"34.97652000"},
{"state":"Zaporizka oblast","name":"Dniprovka","lat":"47.42945000","lon":"34.61805000"},
{"state":"Zaporizka oblast","name":"Energodar","lat":"47.49865000","lon":"34.65740000"},
{"state":"Zaporizka oblast","name":"Hulyaypole","lat":"47.66389000","lon":"36.25633000"},
{"state":"Zaporizka oblast","name":"Kirove","lat":"47.65311000","lon":"35.69512000"},
{"state":"Zaporizka oblast","name":"Komysh-Zorya","lat":"47.32755000","lon":"36.69298000"},
{"state":"Zaporizka oblast","name":"Komyshuvakha","lat":"47.71598000","lon":"35.52981000"},
{"state":"Zaporizka oblast","name":"Kostyantynivka","lat":"46.81673000","lon":"35.42287000"},
{"state":"Zaporizka oblast","name":"Kushuhum","lat":"47.71278000","lon":"35.20917000"},
{"state":"Zaporizka oblast","name":"Kuybysheve","lat":"47.35800000","lon":"36.64908000"},
{"state":"Zaporizka oblast","name":"Kyrylivka","lat":"46.37592000","lon":"35.36753000"},
{"state":"Zaporizka oblast","name":"Mala Bilozerka","lat":"47.24737000","lon":"34.93457000"},
{"state":"Zaporizka oblast","name":"Mala Tokmachka","lat":"47.53563000","lon":"35.89293000"},
{"state":"Zaporizka oblast","name":"Malokaterynivka","lat":"47.65550000","lon":"35.25649000"},
{"state":"Zaporizka oblast","name":"Matviyivka","lat":"47.07473000","lon":"35.14444000"},
{"state":"Zaporizka oblast","name":"Melitopol","lat":"46.84891000","lon":"35.36533000"},
{"state":"Zaporizka oblast","name":"Melitopol’s’kyy Rayon","lat":"46.90326000","lon":"35.34616000"},
{"state":"Zaporizka oblast","name":"Mykhaylivka","lat":"47.27235000","lon":"35.22235000"},
{"state":"Zaporizka oblast","name":"Mykhaylivs’kyy Rayon","lat":"47.22111000","lon":"35.26580000"},
{"state":"Zaporizka oblast","name":"Novobohdanivka","lat":"47.08524000","lon":"35.32945000"},
{"state":"Zaporizka oblast","name":"Novomykolayivka","lat":"47.97810000","lon":"35.91020000"},
{"state":"Zaporizka oblast","name":"Novovasylivka","lat":"46.83021000","lon":"35.75136000"},
{"state":"Zaporizka oblast","name":"Orikhiv","lat":"47.56731000","lon":"35.78575000"},
{"state":"Zaporizka oblast","name":"Osypenko","lat":"46.91360000","lon":"36.82530000"},
{"state":"Zaporizka oblast","name":"Polohy","lat":"47.48444000","lon":"36.25361000"},
{"state":"Zaporizka oblast","name":"Preobrazhenka","lat":"47.57194000","lon":"35.81667000"},
{"state":"Zaporizka oblast","name":"Pryazovske Raion","lat":"46.66667000","lon":"35.66667000"},
{"state":"Zaporizka oblast","name":"Prymors’k","lat":"46.73479000","lon":"36.34425000"},
{"state":"Zaporizka oblast","name":"Prymorsk Raion","lat":"46.83333000","lon":"36.25000000"},
{"state":"Zaporizka oblast","name":"Pryshyb","lat":"47.25927000","lon":"35.31953000"},
{"state":"Zaporizka oblast","name":"Rozivka","lat":"47.38484000","lon":"37.06792000"},
{"state":"Zaporizka oblast","name":"Rozivs’kyy Rayon","lat":"47.46956000","lon":"36.97192000"},
{"state":"Zaporizka oblast","name":"Ternuvate","lat":"47.83049000","lon":"36.12761000"},
{"state":"Zaporizka oblast","name":"Terpinnya","lat":"46.96942000","lon":"35.42100000"},
{"state":"Zaporizka oblast","name":"Tokmak","lat":"47.25522000","lon":"35.71238000"},
{"state":"Zaporizka oblast","name":"Tokmak Raion","lat":"47.25000000","lon":"35.75000000"},
{"state":"Zaporizka oblast","name":"Tymoshivka","lat":"47.18410000","lon":"35.11625000"},
{"state":"Zaporizka oblast","name":"Vasylivka","lat":"47.43694000","lon":"35.27417000"},
{"state":"Zaporizka oblast","name":"Velyka Bilozerka","lat":"47.27756000","lon":"34.70616000"},
{"state":"Zaporizka oblast","name":"Velykobilozers’kyy Rayon","lat":"47.24341000","lon":"34.66137000"},
{"state":"Zaporizka oblast","name":"Vesele","lat":"47.01479000","lon":"34.91504000"},
{"state":"Zaporizka oblast","name":"Vilniansk Raion","lat":"48.00000000","lon":"35.41667000"},
{"state":"Zaporizka oblast","name":"Vodyane","lat":"47.48746000","lon":"34.49235000"},
{"state":"Zaporizka oblast","name":"Voznesenka","lat":"46.87165000","lon":"35.46458000"},
{"state":"Zaporizka oblast","name":"Yakymivka","lat":"46.69972000","lon":"35.15916000"},
{"state":"Zaporizka oblast","name":"Yakymivka Raion","lat":"46.58333000","lon":"35.00000000"},
{"state":"Zaporizka oblast","name":"Zaliznychne","lat":"47.65238000","lon":"36.16524000"},
{"state":"Zaporizka oblast","name":"Zaporiz’ka Mis’krada","lat":"47.84634000","lon":"35.16824000"},
{"state":"Zaporizka oblast","name":"Zaporizhia","lat":"47.82289000","lon":"35.19031000"},
{"state":"Zhytomyrska oblast","name":"Andrushivka","lat":"50.02288000","lon":"29.02023000"},
{"state":"Zhytomyrska oblast","name":"Andrushivs’kyy Rayon","lat":"50.01709000","lon":"29.03215000"},
{"state":"Zhytomyrska oblast","name":"Baranivka","lat":"50.29691000","lon":"27.66220000"},
{"state":"Zhytomyrska oblast","name":"Berdychiv","lat":"49.89928000","lon":"28.60235000"},
{"state":"Zhytomyrska oblast","name":"Berdychivskyy Rayon","lat":"49.91667000","lon":"28.58333000"},
{"state":"Zhytomyrska oblast","name":"Bila Krynytsya","lat":"50.63982000","lon":"29.47041000"},
{"state":"Zhytomyrska oblast","name":"Brusyliv","lat":"50.28449000","lon":"29.52626000"},
{"state":"Zhytomyrska oblast","name":"Brusylivs’kyy Rayon","lat":"50.25638000","lon":"29.48742000"},
{"state":"Zhytomyrska oblast","name":"Bykivka","lat":"50.29285000","lon":"27.98314000"},
{"state":"Zhytomyrska oblast","name":"Cherniakhiv","lat":"50.45652000","lon":"28.67018000"},
{"state":"Zhytomyrska oblast","name":"Chernyakhivskyy Rayon","lat":"50.41667000","lon":"28.66667000"},
{"state":"Zhytomyrska oblast","name":"Chervone","lat":"49.94975000","lon":"28.86874000"},
{"state":"Zhytomyrska oblast","name":"Chopovychi","lat":"50.83325000","lon":"28.95334000"},
{"state":"Zhytomyrska oblast","name":"Chornorudka","lat":"49.84640000","lon":"29.06062000"},
{"state":"Zhytomyrska oblast","name":"Chudniv","lat":"50.05204000","lon":"28.11745000"},
{"state":"Zhytomyrska oblast","name":"Chudniv Raion","lat":"50.00000000","lon":"28.16667000"},
{"state":"Zhytomyrska oblast","name":"Denyshi","lat":"50.21415000","lon":"28.40395000"},
{"state":"Zhytomyrska oblast","name":"Dovbysh","lat":"50.37332000","lon":"27.98742000"},
{"state":"Zhytomyrska oblast","name":"Holovyne","lat":"50.47118000","lon":"28.82530000"},
{"state":"Zhytomyrska oblast","name":"Horodnytsya","lat":"50.80697000","lon":"27.31676000"},
{"state":"Zhytomyrska oblast","name":"Horodok","lat":"50.59483000","lon":"29.46070000"},
{"state":"Zhytomyrska oblast","name":"Hryshkivtsi","lat":"49.93529000","lon":"28.60383000"},
{"state":"Zhytomyrska oblast","name":"Khoroshiv Raion","lat":"50.66667000","lon":"28.50000000"},
{"state":"Zhytomyrska oblast","name":"Kornyn","lat":"50.09530000","lon":"29.53581000"},
{"state":"Zhytomyrska oblast","name":"Korosten’","lat":"50.95937000","lon":"28.63855000"},
{"state":"Zhytomyrska oblast","name":"Korostyshiv","lat":"50.31723000","lon":"29.05630000"},
{"state":"Zhytomyrska oblast","name":"Korostyshiv Raion","lat":"50.33333000","lon":"29.08333000"},
{"state":"Zhytomyrska oblast","name":"Liubar","lat":"49.92045000","lon":"27.75918000"},
{"state":"Zhytomyrska oblast","name":"Luhyny","lat":"51.08203000","lon":"28.40057000"},
{"state":"Zhytomyrska oblast","name":"Luhyny Raion","lat":"51.08333000","lon":"28.33333000"},
{"state":"Zhytomyrska oblast","name":"Malyn","lat":"50.77233000","lon":"29.23833000"},
{"state":"Zhytomyrska oblast","name":"Malyn Raion","lat":"50.83084000","lon":"29.19926000"},
{"state":"Zhytomyrska oblast","name":"Narodychi","lat":"51.20286000","lon":"29.08228000"},
{"state":"Zhytomyrska oblast","name":"Narodychi Raion","lat":"51.25000000","lon":"29.08333000"},
{"state":"Zhytomyrska oblast","name":"Nova Borova","lat":"50.69296000","lon":"28.63446000"},
{"state":"Zhytomyrska oblast","name":"Novi Bilokorovychi","lat":"51.11548000","lon":"28.05463000"},
{"state":"Zhytomyrska oblast","name":"Novohrad-Volynskyi","lat":"50.59412000","lon":"27.61650000"},
{"state":"Zhytomyrska oblast","name":"Olevs’k","lat":"51.22482000","lon":"27.65228000"},
{"state":"Zhytomyrska oblast","name":"Ovruch","lat":"51.32460000","lon":"28.80351000"},
{"state":"Zhytomyrska oblast","name":"Ovruch Raion","lat":"51.33333000","lon":"28.83333000"},
{"state":"Zhytomyrska oblast","name":"Ozerne","lat":"50.17816000","lon":"28.73384000"},
{"state":"Zhytomyrska oblast","name":"Pershotravneve","lat":"51.39287000","lon":"28.86837000"},
{"state":"Zhytomyrska oblast","name":"Polyanka","lat":"50.25836000","lon":"27.68809000"},
{"state":"Zhytomyrska oblast","name":"Popilnia","lat":"49.95320000","lon":"29.45265000"},
{"state":"Zhytomyrska oblast","name":"Popilnia Raion","lat":"49.91667000","lon":"29.50000000"},
{"state":"Zhytomyrska oblast","name":"Pulyny Raion","lat":"50.50000000","lon":"28.25000000"},
{"state":"Zhytomyrska oblast","name":"Radomyshl","lat":"50.49613000","lon":"29.22911000"},
{"state":"Zhytomyrska oblast","name":"Radomyshl Raion","lat":"50.50000000","lon":"29.25000000"},
{"state":"Zhytomyrska oblast","name":"Romaniv","lat":"50.14802000","lon":"27.93124000"},
{"state":"Zhytomyrska oblast","name":"Ruzhyn","lat":"49.72280000","lon":"29.20455000"},
{"state":"Zhytomyrska oblast","name":"Stavyshche","lat":"50.40051000","lon":"29.52796000"},
{"state":"Zhytomyrska oblast","name":"Topory","lat":"49.65186000","lon":"29.31741000"},
{"state":"Zhytomyrska oblast","name":"Yemil’chyne","lat":"50.87349000","lon":"27.80604000"},
{"state":"Zhytomyrska oblast","name":"Zhytomyr","lat":"50.26487000","lon":"28.67669000"},
{"state":"Zhytomyrska oblast","name":"Zhytomyr Raion","lat":"50.25000000","lon":"28.58333000"}]