[{"state":"Central Region","name":"Bukomansimbi District","lat":"-0.12855000","lon":"31.62527000"},
{"state":"Central Region","name":"Buvuma District","lat":"-0.36744000","lon":"33.20071000"},
{"state":"Central Region","name":"Bweyogerere","lat":"0.35773000","lon":"32.66332000"},
{"state":"Central Region","name":"Byakabanda","lat":"-0.74250000","lon":"31.40639000"},
{"state":"Central Region","name":"Entebbe","lat":"0.05621000","lon":"32.47949000"},
{"state":"Central Region","name":"Gomba District","lat":"0.20017000","lon":"31.75023000"},
{"state":"Central Region","name":"Kajansi","lat":"0.21548000","lon":"32.53453000"},
{"state":"Central Region","name":"Kampala","lat":"0.31628000","lon":"32.58219000"},
{"state":"Central Region","name":"Kampala District","lat":"0.33508000","lon":"32.58313000"},
{"state":"Central Region","name":"Kanoni","lat":"0.17722000","lon":"31.88111000"},
{"state":"Central Region","name":"Kayunga","lat":"0.70250000","lon":"32.88861000"},
{"state":"Central Region","name":"Kiboga","lat":"0.91611000","lon":"31.77417000"},
{"state":"Central Region","name":"Kireka","lat":"0.34750000","lon":"32.64917000"},
{"state":"Central Region","name":"Kyotera","lat":"-0.61556000","lon":"31.51750000"},
{"state":"Central Region","name":"Lugazi","lat":"0.36788000","lon":"32.93760000"},
{"state":"Central Region","name":"Luwero","lat":"0.84917000","lon":"32.47306000"},
{"state":"Central Region","name":"Lyantonde","lat":"-0.40306000","lon":"31.15722000"},
{"state":"Central Region","name":"Masaka","lat":"-0.33379000","lon":"31.73409000"},
{"state":"Central Region","name":"Mityana","lat":"0.41750000","lon":"32.02278000"},
{"state":"Central Region","name":"Mpigi","lat":"0.22500000","lon":"32.31361000"},
{"state":"Central Region","name":"Mubende","lat":"0.55849000","lon":"31.39489000"},
{"state":"Central Region","name":"Mubende District","lat":"0.50000000","lon":"31.50000000"},
{"state":"Central Region","name":"Mukono","lat":"0.35333000","lon":"32.75528000"},
{"state":"Central Region","name":"Nakasongola","lat":"1.30889000","lon":"32.45639000"},
{"state":"Central Region","name":"Namasuba","lat":"0.68944000","lon":"32.42139000"},
{"state":"Central Region","name":"Njeru","lat":"0.44166000","lon":"33.17917000"},
{"state":"Central Region","name":"Sembabule","lat":"-0.07722000","lon":"31.45667000"},
{"state":"Central Region","name":"Wakiso","lat":"0.40444000","lon":"32.45944000"},
{"state":"Central Region","name":"Wakiso District","lat":"0.23763000","lon":"32.47836000"},
{"state":"Central Region","name":"Wobulenzi","lat":"0.72833000","lon":"32.51222000"},
{"state":"Eastern Region","name":"Bugembe","lat":"0.48213000","lon":"33.24065000"},
{"state":"Eastern Region","name":"Bugiri","lat":"0.57139000","lon":"33.74167000"},
{"state":"Eastern Region","name":"Bukwa District","lat":"1.27115000","lon":"34.66778000"},
{"state":"Eastern Region","name":"Bulambuli District","lat":"1.32055000","lon":"34.28062000"},
{"state":"Eastern Region","name":"Busembatia","lat":"0.77725000","lon":"33.62364000"},
{"state":"Eastern Region","name":"Busia","lat":"0.46588000","lon":"34.09221000"},
{"state":"Eastern Region","name":"Buwenge","lat":"0.64996000","lon":"33.17128000"},
{"state":"Eastern Region","name":"Iganga","lat":"0.60917000","lon":"33.46861000"},
{"state":"Eastern Region","name":"Jinja","lat":"0.43902000","lon":"33.20317000"},
{"state":"Eastern Region","name":"Kamuli","lat":"0.94722000","lon":"33.11972000"},
{"state":"Eastern Region","name":"Kapchorwa","lat":"1.40096000","lon":"34.45038000"},
{"state":"Eastern Region","name":"Kibuku District","lat":"1.05000000","lon":"33.80879000"},
{"state":"Eastern Region","name":"Kumi","lat":"1.46083000","lon":"33.93611000"},
{"state":"Eastern Region","name":"Mayuge","lat":"0.45972000","lon":"33.48028000"},
{"state":"Eastern Region","name":"Mbale","lat":"1.08209000","lon":"34.17503000"},
{"state":"Eastern Region","name":"Pallisa","lat":"1.14500000","lon":"33.70944000"},
{"state":"Eastern Region","name":"Sironko","lat":"1.23132000","lon":"34.24773000"},
{"state":"Eastern Region","name":"Soroti","lat":"1.71464000","lon":"33.61113000"},
{"state":"Eastern Region","name":"Tororo","lat":"0.69299000","lon":"34.18085000"},
{"state":"Northern Region","name":"Adjumani","lat":"3.37786000","lon":"31.79090000"},
{"state":"Northern Region","name":"Amudat","lat":"1.95000000","lon":"34.95000000"},
{"state":"Northern Region","name":"Apac","lat":"1.97556000","lon":"32.53861000"},
{"state":"Northern Region","name":"Arua","lat":"3.02013000","lon":"30.91105000"},
{"state":"Northern Region","name":"Gulu","lat":"2.77457000","lon":"32.29899000"},
{"state":"Northern Region","name":"Kitgum","lat":"3.27833000","lon":"32.88667000"},
{"state":"Northern Region","name":"Kotido","lat":"2.98056000","lon":"34.13306000"},
{"state":"Northern Region","name":"Lira","lat":"2.24990000","lon":"32.89985000"},
{"state":"Northern Region","name":"Moroto","lat":"2.53453000","lon":"34.66659000"},
{"state":"Northern Region","name":"Moyo","lat":"3.66088000","lon":"31.72474000"},
{"state":"Northern Region","name":"Nebbi","lat":"2.47826000","lon":"31.08893000"},
{"state":"Northern Region","name":"Otuke District","lat":"2.48372000","lon":"33.34201000"},
{"state":"Northern Region","name":"Oyam District","lat":"2.38129000","lon":"32.50071000"},
{"state":"Northern Region","name":"Pader","lat":"3.05000000","lon":"33.21667000"},
{"state":"Northern Region","name":"Pader Palwo","lat":"2.80056000","lon":"33.13500000"},
{"state":"Northern Region","name":"Paidha","lat":"2.41669000","lon":"30.98551000"},
{"state":"Northern Region","name":"Yumbe","lat":"3.46506000","lon":"31.24689000"},
{"state":"Western Region","name":"Bundibugyo","lat":"0.71117000","lon":"30.06469000"},
{"state":"Western Region","name":"Bwizibwera","lat":"-0.59167000","lon":"30.62861000"},
{"state":"Western Region","name":"Fort Portal","lat":"0.66174000","lon":"30.27480000"},
{"state":"Western Region","name":"Hoima","lat":"1.43314000","lon":"31.35241000"},
{"state":"Western Region","name":"Ibanda","lat":"-0.13398000","lon":"30.49616000"},
{"state":"Western Region","name":"Ibanda District","lat":"-0.08100000","lon":"30.55600000"},
{"state":"Western Region","name":"Kabale","lat":"-1.24857000","lon":"29.98993000"},
{"state":"Western Region","name":"Kagadi","lat":"0.93778000","lon":"30.80889000"},
{"state":"Western Region","name":"Kamwenge","lat":"0.18660000","lon":"30.45393000"},
{"state":"Western Region","name":"Kanungu","lat":"-0.95750000","lon":"29.78972000"},
{"state":"Western Region","name":"Kasese","lat":"0.18333000","lon":"30.08333000"},
{"state":"Western Region","name":"Kibale","lat":"0.80000000","lon":"31.06667000"},
{"state":"Western Region","name":"Kigorobya","lat":"1.61620000","lon":"31.30890000"},
{"state":"Western Region","name":"Kilembe","lat":"0.19835000","lon":"30.01302000"},
{"state":"Western Region","name":"Kiruhura","lat":"-0.19664000","lon":"30.84446000"},
{"state":"Western Region","name":"Kisoro","lat":"-1.28538000","lon":"29.68497000"},
{"state":"Western Region","name":"Kyenjojo","lat":"0.63278000","lon":"30.62139000"},
{"state":"Western Region","name":"Margherita","lat":"0.41861000","lon":"29.89111000"},
{"state":"Western Region","name":"Masindi","lat":"1.67444000","lon":"31.71500000"},
{"state":"Western Region","name":"Masindi Port","lat":"1.69606000","lon":"32.08608000"},
{"state":"Western Region","name":"Mbarara","lat":"-0.60467000","lon":"30.64851000"},
{"state":"Western Region","name":"Muhororo","lat":"0.93806000","lon":"30.75944000"},
{"state":"Western Region","name":"Ntungamo","lat":"-0.87944000","lon":"30.26417000"},
{"state":"Western Region","name":"Nyachera","lat":"-0.90000000","lon":"30.41667000"},
{"state":"Western Region","name":"Rukungiri","lat":"-0.84111000","lon":"29.94194000"}]