[{"state":"Artigas Department","name":"Artigas","lat":"-30.40000000","lon":"-56.46667000"},
{"state":"Artigas Department","name":"Baltasar Brum","lat":"-30.71905000","lon":"-57.32596000"},
{"state":"Artigas Department","name":"Bella Unión","lat":"-30.25966000","lon":"-57.59919000"},
{"state":"Artigas Department","name":"Las Piedras","lat":"-30.26204000","lon":"-57.58174000"},
{"state":"Artigas Department","name":"Tomás Gomensoro","lat":"-30.42870000","lon":"-57.43609000"},
{"state":"Canelones Department","name":"Aguas Corrientes","lat":"-34.52194000","lon":"-56.39361000"},
{"state":"Canelones Department","name":"Atlántida","lat":"-34.77190000","lon":"-55.75840000"},
{"state":"Canelones Department","name":"Barra de Carrasco","lat":"-34.87722000","lon":"-56.02972000"},
{"state":"Canelones Department","name":"Barros Blancos","lat":"-34.75240000","lon":"-56.00259000"},
{"state":"Canelones Department","name":"Canelones","lat":"-34.52278000","lon":"-56.27778000"},
{"state":"Canelones Department","name":"Colonia Nicolich","lat":"-34.81516000","lon":"-56.02435000"},
{"state":"Canelones Department","name":"Empalme Olmos","lat":"-34.69753000","lon":"-55.89268000"},
{"state":"Canelones Department","name":"Joaquín Suárez","lat":"-34.73501000","lon":"-56.03470000"},
{"state":"Canelones Department","name":"Juanicó","lat":"-34.59454000","lon":"-56.25334000"},
{"state":"Canelones Department","name":"La Floresta","lat":"-34.75572000","lon":"-55.68141000"},
{"state":"Canelones Department","name":"La Paz","lat":"-34.76031000","lon":"-56.22590000"},
{"state":"Canelones Department","name":"Las Piedras","lat":"-34.73020000","lon":"-56.21915000"},
{"state":"Canelones Department","name":"Las Toscas","lat":"-34.73333000","lon":"-55.71667000"},
{"state":"Canelones Department","name":"Los Cerrillos","lat":"-34.60500000","lon":"-56.35639000"},
{"state":"Canelones Department","name":"Migues","lat":"-34.48759000","lon":"-55.62793000"},
{"state":"Canelones Department","name":"Montes","lat":"-34.49339000","lon":"-55.56219000"},
{"state":"Canelones Department","name":"Pando","lat":"-34.71716000","lon":"-55.95840000"},
{"state":"Canelones Department","name":"Paso de Carrasco","lat":"-34.86028000","lon":"-56.05222000"},
{"state":"Canelones Department","name":"Progreso","lat":"-34.66737000","lon":"-56.21758000"},
{"state":"Canelones Department","name":"San Antonio","lat":"-34.45130000","lon":"-56.08036000"},
{"state":"Canelones Department","name":"San Bautista","lat":"-34.44016000","lon":"-55.95861000"},
{"state":"Canelones Department","name":"San Jacinto","lat":"-34.54465000","lon":"-55.87151000"},
{"state":"Canelones Department","name":"San Ramón","lat":"-34.29155000","lon":"-55.95571000"},
{"state":"Canelones Department","name":"Santa Lucía","lat":"-34.45333000","lon":"-56.39056000"},
{"state":"Canelones Department","name":"Santa Rosa","lat":"-34.49819000","lon":"-56.03795000"},
{"state":"Canelones Department","name":"Sauce","lat":"-34.65191000","lon":"-56.06431000"},
{"state":"Canelones Department","name":"Soca","lat":"-34.68432000","lon":"-55.70200000"},
{"state":"Canelones Department","name":"Tala","lat":"-34.34349000","lon":"-55.76375000"},
{"state":"Canelones Department","name":"Toledo","lat":"-34.73807000","lon":"-56.09469000"},
{"state":"Cerro Largo Department","name":"Aceguá","lat":"-31.87178000","lon":"-54.16351000"},
{"state":"Cerro Largo Department","name":"Isidoro Noblía","lat":"-31.96218000","lon":"-54.12309000"},
{"state":"Cerro Largo Department","name":"Melo","lat":"-32.37028000","lon":"-54.16750000"},
{"state":"Cerro Largo Department","name":"Río Branco","lat":"-32.59802000","lon":"-53.38583000"},
{"state":"Cerro Largo Department","name":"Tupambaé","lat":"-32.83333000","lon":"-54.76667000"},
{"state":"Colonia Department","name":"Carmelo","lat":"-34.00023000","lon":"-58.28402000"},
{"state":"Colonia Department","name":"Colonia del Sacramento","lat":"-34.46262000","lon":"-57.83976000"},
{"state":"Colonia Department","name":"Florencio Sánchez","lat":"-33.87785000","lon":"-57.37166000"},
{"state":"Colonia Department","name":"Juan L. Lacaze","lat":"-34.41888000","lon":"-57.45285000"},
{"state":"Colonia Department","name":"Nueva Helvecia","lat":"-34.30000000","lon":"-57.23333000"},
{"state":"Colonia Department","name":"Nueva Palmira","lat":"-33.87031000","lon":"-58.41176000"},
{"state":"Colonia Department","name":"Ombúes de Lavalle","lat":"-33.93783000","lon":"-57.80959000"},
{"state":"Colonia Department","name":"Rosario","lat":"-34.31667000","lon":"-57.35000000"},
{"state":"Colonia Department","name":"Tarariras","lat":"-34.26555000","lon":"-57.61866000"},
{"state":"Durazno Department","name":"Blanquillo","lat":"-32.76667000","lon":"-55.63333000"},
{"state":"Durazno Department","name":"Carlos Reyles","lat":"-33.05658000","lon":"-56.47652000"},
{"state":"Durazno Department","name":"Durazno","lat":"-33.38056000","lon":"-56.52361000"},
{"state":"Durazno Department","name":"La Paloma","lat":"-32.72689000","lon":"-55.58270000"},
{"state":"Durazno Department","name":"Santa Bernardina","lat":"-33.35360000","lon":"-56.52498000"},
{"state":"Durazno Department","name":"Sarandí del Yi","lat":"-33.35000000","lon":"-55.63333000"},
{"state":"Durazno Department","name":"Villa del Carmen","lat":"-33.23943000","lon":"-56.00936000"},
{"state":"Flores Department","name":"Trinidad","lat":"-33.51650000","lon":"-56.89957000"},
{"state":"Florida Department","name":"25 de Agosto","lat":"-34.41167000","lon":"-56.40222000"},
{"state":"Florida Department","name":"25 de Mayo","lat":"-34.18917000","lon":"-56.33944000"},
{"state":"Florida Department","name":"Alejandro Gallinal","lat":"-33.86252000","lon":"-55.54264000"},
{"state":"Florida Department","name":"Cardal","lat":"-34.29056000","lon":"-56.38889000"},
{"state":"Florida Department","name":"Casupá","lat":"-34.09994000","lon":"-55.64811000"},
{"state":"Florida Department","name":"Florida","lat":"-34.09556000","lon":"-56.21417000"},
{"state":"Florida Department","name":"Sarandí Grande","lat":"-33.73333000","lon":"-56.33333000"},
{"state":"Lavalleja Department","name":"José Batlle y Ordóñez","lat":"-33.46667000","lon":"-55.11667000"},
{"state":"Lavalleja Department","name":"José Pedro Varela","lat":"-33.45451000","lon":"-54.53586000"},
{"state":"Lavalleja Department","name":"Mariscala","lat":"-34.04085000","lon":"-54.77732000"},
{"state":"Lavalleja Department","name":"Minas","lat":"-34.37589000","lon":"-55.23771000"},
{"state":"Lavalleja Department","name":"Solís de Mataojo","lat":"-34.59951000","lon":"-55.46808000"},
{"state":"Maldonado Department","name":"Aiguá","lat":"-34.20498000","lon":"-54.75665000"},
{"state":"Maldonado Department","name":"Maldonado","lat":"-34.90000000","lon":"-54.95000000"},
{"state":"Maldonado Department","name":"Pan de Azúcar","lat":"-34.77870000","lon":"-55.23582000"},
{"state":"Maldonado Department","name":"Piriápolis","lat":"-34.86287000","lon":"-55.27471000"},
{"state":"Maldonado Department","name":"Punta del Este","lat":"-34.94747000","lon":"-54.93382000"},
{"state":"Maldonado Department","name":"San Carlos","lat":"-34.79123000","lon":"-54.91824000"},
{"state":"Montevideo Department","name":"Bella Vista","lat":"-34.87527778","lon":"-56.18666667"},
{"state":"Montevideo Department","name":"Belvedere","lat":"-34.85155556","lon":"-56.21611111"},
{"state":"Montevideo Department","name":"Buceo","lat":"-34.90000000","lon":"-56.13305556"},
{"state":"Montevideo Department","name":"Capurro (Montevideo)","lat":"-34.87500000","lon":"-56.20555556"},
{"state":"Montevideo Department","name":"Carrasco","lat":"-34.88333333","lon":"-56.06666667"},
{"state":"Montevideo Department","name":"Casabó","lat":"-34.86388889","lon":"-56.34111111"},
{"state":"Montevideo Department","name":"Centro","lat":"-34.90361111","lon":"-56.18833333"},
{"state":"Montevideo Department","name":"Cerrito Montevideo","lat":"-34.85349444","lon":"-56.17282778"},
{"state":"Montevideo Department","name":"Colón Centro y Noroeste","lat":"-34.80230556","lon":"-56.22413889"},
{"state":"Montevideo Department","name":"Colón Sudeste","lat":"-34.76666667","lon":"-56.20277778"},
{"state":"Montevideo Department","name":"Conciliación","lat":"-34.82361111","lon":"-56.23194444"},
{"state":"Montevideo Department","name":"Cordón","lat":"-34.90000000","lon":"-56.17858333"},
{"state":"Montevideo Department","name":"Flor de Maroñas","lat":"-34.85055556","lon":"-56.12472222"},
{"state":"Montevideo Department","name":"Ituzaingó","lat":"-34.84750000","lon":"-56.14361111"},
{"state":"Montevideo Department","name":"La Unión","lat":"-34.87861111","lon":"-56.13583333"},
{"state":"Montevideo Department","name":"Malvín","lat":"-34.89352778","lon":"-56.09994444"},
{"state":"Montevideo Department","name":"Manga","lat":"-34.80722222","lon":"-56.13805556"},
{"state":"Montevideo Department","name":"Maroñas","lat":"-34.86338889","lon":"-56.12963889"},
{"state":"Montevideo Department","name":"Montevideo","lat":"-34.90328000","lon":"-56.18816000"},
{"state":"Montevideo Department","name":"Nuevo París","lat":"-34.83333333","lon":"-56.25000000"},
{"state":"Montevideo Department","name":"Pajas Blancas","lat":"-34.80167000","lon":"-56.33417000"},
{"state":"Montevideo Department","name":"Paso del Molino","lat":"-34.85000000","lon":"-56.21666667"},
{"state":"Montevideo Department","name":"Peñarol","lat":"-34.82519444","lon":"-56.19916667"},
{"state":"Montevideo Department","name":"Piedras Blancas","lat":"-34.82361111","lon":"-56.14027778"},
{"state":"Montevideo Department","name":"Pocitos","lat":"-34.90833333","lon":"-56.15000000"},
{"state":"Montevideo Department","name":"Punta Carretas","lat":"-34.92188889","lon":"-56.15944444"},
{"state":"Montevideo Department","name":"Punta Gorda","lat":"-34.88647222","lon":"-56.08983333"},
{"state":"Montevideo Department","name":"Reducto","lat":"-34.87831944","lon":"-56.18957778"},
{"state":"Montevideo Department","name":"Santiago Vázquez","lat":"-34.79028000","lon":"-56.35000000"},
{"state":"Montevideo Department","name":"Sayage","lat":"-34.83583333","lon":"-56.21250000"},
{"state":"Montevideo Department","name":"Tres Cruces","lat":"-34.89583333","lon":"-56.16805556"},
{"state":"Montevideo Department","name":"Villa del Cerro","lat":"-34.88444444","lon":"-56.25138889"},
{"state":"Montevideo Department","name":"Villa Española","lat":"-34.86388889","lon":"-56.14472222"},
{"state":"Montevideo Department","name":"Villa García","lat":"-34.78111000","lon":"-56.05333000"},
{"state":"Montevideo Department","name":"Villa Muñoz","lat":"-34.88781389","lon":"-56.17701389"},
{"state":"Paysandú Department","name":"Estación Porvenir","lat":"-32.37085000","lon":"-57.85371000"},
{"state":"Paysandú Department","name":"Guichón","lat":"-32.35846000","lon":"-57.19778000"},
{"state":"Paysandú Department","name":"Paysandú","lat":"-32.31710000","lon":"-58.08072000"},
{"state":"Paysandú Department","name":"Piedras Coloradas","lat":"-32.37183000","lon":"-57.60901000"},
{"state":"Paysandú Department","name":"Quebracho","lat":"-31.93526000","lon":"-57.90140000"},
{"state":"Paysandú Department","name":"San Félix","lat":"-32.34631000","lon":"-58.10094000"},
{"state":"Río Negro Department","name":"Fray Bentos","lat":"-33.11651000","lon":"-58.31067000"},
{"state":"Río Negro Department","name":"Nuevo Berlín","lat":"-32.97974000","lon":"-58.05858000"},
{"state":"Río Negro Department","name":"San Javier","lat":"-32.66523000","lon":"-58.13320000"},
{"state":"Río Negro Department","name":"Young","lat":"-32.69844000","lon":"-57.62693000"},
{"state":"Rivera Department","name":"Minas de Corrales","lat":"-31.57375000","lon":"-55.47075000"},
{"state":"Rivera Department","name":"Rivera","lat":"-30.90534000","lon":"-55.55076000"},
{"state":"Rivera Department","name":"Tranqueras","lat":"-31.20000000","lon":"-55.75000000"},
{"state":"Rivera Department","name":"Vichadero","lat":"-31.77794000","lon":"-54.69183000"},
{"state":"Rocha Department","name":"Castillos","lat":"-34.19871000","lon":"-53.85919000"},
{"state":"Rocha Department","name":"Cebollatí","lat":"-33.26703000","lon":"-53.79425000"},
{"state":"Rocha Department","name":"Chui","lat":"-33.69792000","lon":"-53.45926000"},
{"state":"Rocha Department","name":"Dieciocho de Julio","lat":"-33.68216000","lon":"-53.55325000"},
{"state":"Rocha Department","name":"La Paloma","lat":"-34.66268000","lon":"-54.16452000"},
{"state":"Rocha Department","name":"Lascano","lat":"-33.67235000","lon":"-54.20650000"},
{"state":"Rocha Department","name":"Rocha","lat":"-34.48333000","lon":"-54.33333000"},
{"state":"Rocha Department","name":"Velázquez","lat":"-34.03631000","lon":"-54.28054000"},
{"state":"Salto Department","name":"Belén","lat":"-30.78716000","lon":"-57.77577000"},
{"state":"Salto Department","name":"Salto","lat":"-31.38333000","lon":"-57.96667000"},
{"state":"Salto Department","name":"Villa Constitución","lat":"-31.06913000","lon":"-57.84946000"},
{"state":"San José Department","name":"Delta del Tigre","lat":"-34.76488000","lon":"-56.36450000"},
{"state":"San José Department","name":"Ecilda Paullier","lat":"-34.35778000","lon":"-57.04883000"},
{"state":"San José Department","name":"Libertad","lat":"-34.63459000","lon":"-56.61739000"},
{"state":"San José Department","name":"Puntas de Valdéz","lat":"-34.58550000","lon":"-56.70097000"},
{"state":"San José Department","name":"Rafael Perazza","lat":"-34.52335000","lon":"-56.79710000"},
{"state":"San José Department","name":"Rodríguez","lat":"-34.38100000","lon":"-56.53797000"},
{"state":"San José Department","name":"San José de Mayo","lat":"-34.33750000","lon":"-56.71361000"},
{"state":"Soriano Department","name":"Cardona","lat":"-33.87049000","lon":"-57.36954000"},
{"state":"Soriano Department","name":"Dolores","lat":"-33.53009000","lon":"-58.21701000"},
{"state":"Soriano Department","name":"José Enrique Rodó","lat":"-33.69618000","lon":"-57.53153000"},
{"state":"Soriano Department","name":"Mercedes","lat":"-33.25240000","lon":"-58.03047000"},
{"state":"Soriano Department","name":"Palmitas","lat":"-33.50719000","lon":"-57.80079000"},
{"state":"Soriano Department","name":"Santa Catalina","lat":"-33.79100000","lon":"-57.48824000"},
{"state":"Soriano Department","name":"Villa Soriano","lat":"-33.39811000","lon":"-58.32177000"},
{"state":"Tacuarembó Department","name":"Curtina","lat":"-32.15000000","lon":"-56.11667000"},
{"state":"Tacuarembó Department","name":"Paso de los Toros","lat":"-32.81667000","lon":"-56.51667000"},
{"state":"Tacuarembó Department","name":"Tacuarembó","lat":"-31.71694000","lon":"-55.98111000"},
{"state":"Treinta y Tres Department","name":"Santa Clara de Olimar","lat":"-32.92254000","lon":"-54.94447000"},
{"state":"Treinta y Tres Department","name":"Treinta y Tres","lat":"-33.23333000","lon":"-54.38333000"},
{"state":"Treinta y Tres Department","name":"Vergara","lat":"-32.94419000","lon":"-53.93810000"},
{"state":"Treinta y Tres Department","name":"Villa Sara","lat":"-33.25340000","lon":"-54.41947000"}]