[{"state":"Andijan Region","name":"Andijon","lat":"40.78206000","lon":"72.34424000"},
{"state":"Andijan Region","name":"Andijon Tumani","lat":"40.80000000","lon":"72.41667000"},
{"state":"Andijan Region","name":"Asaka","lat":"40.64153000","lon":"72.23868000"},
{"state":"Andijan Region","name":"Asaka Tumani","lat":"40.66667000","lon":"72.25000000"},
{"state":"Andijan Region","name":"Baliqchi Tumani","lat":"40.86667000","lon":"72.00000000"},
{"state":"Andijan Region","name":"Bo‘z Tumani","lat":"40.66667000","lon":"71.91667000"},
{"state":"Andijan Region","name":"Buloqboshi Tumani","lat":"40.61667000","lon":"72.46667000"},
{"state":"Andijan Region","name":"Izboskan Tumani","lat":"40.91667000","lon":"72.25000000"},
{"state":"Andijan Region","name":"Jalolkuduk Tumani","lat":"40.75000000","lon":"72.66667000"},
{"state":"Andijan Region","name":"Khŭjaobod Tumani","lat":"40.66667000","lon":"72.58333000"},
{"state":"Andijan Region","name":"Marhamat","lat":"40.48048000","lon":"72.31388000"},
{"state":"Andijan Region","name":"Marhamat Tumani","lat":"40.50000000","lon":"72.31667000"},
{"state":"Andijan Region","name":"Oltinkŭl Tumani","lat":"40.80000000","lon":"72.16667000"},
{"state":"Andijan Region","name":"Pakhtaobod Tumani","lat":"40.93333000","lon":"72.50000000"},
{"state":"Andijan Region","name":"Paxtaobod","lat":"40.92936000","lon":"72.49687000"},
{"state":"Andijan Region","name":"Qo‘rg‘ontepa","lat":"40.73192000","lon":"72.76177000"},
{"state":"Andijan Region","name":"Qŭrghontepa Tumani","lat":"40.75000000","lon":"72.83333000"},
{"state":"Andijan Region","name":"Shahrikhon Tumani","lat":"40.71667000","lon":"72.06667000"},
{"state":"Andijan Region","name":"Shahrixon","lat":"40.71331000","lon":"72.05706000"},
{"state":"Andijan Region","name":"Ulug‘nor Tumani","lat":"40.75000000","lon":"71.70000000"},
{"state":"Andijan Region","name":"Xo‘jaobod","lat":"40.66886000","lon":"72.56002000"},
{"state":"Bukhara Region","name":"Bukhara","lat":"39.77472000","lon":"64.42861000"},
{"state":"Bukhara Region","name":"Galaosiyo","lat":"39.85778000","lon":"64.44833000"},
{"state":"Bukhara Region","name":"Gazli","lat":"40.13333000","lon":"63.45000000"},
{"state":"Bukhara Region","name":"Ghijduwon","lat":"40.10000000","lon":"64.68333000"},
{"state":"Bukhara Region","name":"Karakul’","lat":"39.53333000","lon":"63.83333000"},
{"state":"Bukhara Region","name":"Kogon","lat":"39.72278000","lon":"64.55167000"},
{"state":"Bukhara Region","name":"Olot","lat":"39.41500000","lon":"63.80333000"},
{"state":"Bukhara Region","name":"Peshku Tumani","lat":"40.41667000","lon":"63.83333000"},
{"state":"Bukhara Region","name":"Qorako’l","lat":"39.49944000","lon":"63.85389000"},
{"state":"Bukhara Region","name":"Qorovulbozor","lat":"39.50056000","lon":"64.79361000"},
{"state":"Bukhara Region","name":"Romiton","lat":"39.92944000","lon":"64.37944000"},
{"state":"Bukhara Region","name":"Shofirkon","lat":"40.12000000","lon":"64.50139000"},
{"state":"Bukhara Region","name":"Wobkent","lat":"40.03028000","lon":"64.51500000"},
{"state":"Bukhara Region","name":"Wobkent Tumani","lat":"40.00000000","lon":"64.50000000"},
{"state":"Fergana Region","name":"Beshariq","lat":"40.43583000","lon":"70.61028000"},
{"state":"Fergana Region","name":"Fergana","lat":"40.38421000","lon":"71.78432000"},
{"state":"Fergana Region","name":"Hamza","lat":"40.42762000","lon":"71.50534000"},
{"state":"Fergana Region","name":"Kirguli","lat":"40.43553000","lon":"71.76721000"},
{"state":"Fergana Region","name":"Marg‘ilon","lat":"40.47237000","lon":"71.72463000"},
{"state":"Fergana Region","name":"Oltiariq","lat":"40.39194000","lon":"71.47417000"},
{"state":"Fergana Region","name":"Qo‘qon","lat":"40.52861000","lon":"70.94250000"},
{"state":"Fergana Region","name":"Quva","lat":"40.52204000","lon":"72.07292000"},
{"state":"Fergana Region","name":"Quvasoy","lat":"40.29721000","lon":"71.98026000"},
{"state":"Fergana Region","name":"Rishton","lat":"40.35667000","lon":"71.28472000"},
{"state":"Fergana Region","name":"Shohimardon","lat":"39.98322000","lon":"71.80512000"},
{"state":"Fergana Region","name":"So‘x Tumani","lat":"40.04417000","lon":"71.09417000"},
{"state":"Fergana Region","name":"Toshloq","lat":"40.47722000","lon":"71.76778000"},
{"state":"Fergana Region","name":"Yangi Marg‘ilon","lat":"40.42722000","lon":"71.71889000"},
{"state":"Fergana Region","name":"Yaypan","lat":"40.37583000","lon":"70.81556000"},
{"state":"Jizzakh Region","name":"Dashtobod","lat":"40.12694000","lon":"68.49444000"},
{"state":"Jizzakh Region","name":"Dŭstlik","lat":"40.52472000","lon":"68.03583000"},
{"state":"Jizzakh Region","name":"Gagarin","lat":"40.66194000","lon":"68.17222000"},
{"state":"Jizzakh Region","name":"Jizzax","lat":"40.11583000","lon":"67.84222000"},
{"state":"Jizzakh Region","name":"Paxtakor","lat":"40.31528000","lon":"67.95444000"},
{"state":"Jizzakh Region","name":"Zomin","lat":"39.96056000","lon":"68.39583000"},
{"state":"Karakalpakstan","name":"Beruniy","lat":"41.69111000","lon":"60.75250000"},
{"state":"Karakalpakstan","name":"Kegeyli Shahar","lat":"42.77667000","lon":"59.60778000"},
{"state":"Karakalpakstan","name":"Khŭjayli","lat":"42.40043000","lon":"59.46005000"},
{"state":"Karakalpakstan","name":"Manghit","lat":"42.11556000","lon":"60.05972000"},
{"state":"Karakalpakstan","name":"Mŭynoq","lat":"43.76833000","lon":"59.02139000"},
{"state":"Karakalpakstan","name":"Novyy Turtkul’","lat":"41.55000000","lon":"61.01667000"},
{"state":"Karakalpakstan","name":"Nukus","lat":"42.45306000","lon":"59.61028000"},
{"state":"Karakalpakstan","name":"Oltinko‘l","lat":"43.06874000","lon":"58.90372000"},
{"state":"Namangan Region","name":"Chortoq","lat":"41.06924000","lon":"71.82372000"},
{"state":"Namangan Region","name":"Chust","lat":"41.00329000","lon":"71.23791000"},
{"state":"Namangan Region","name":"Haqqulobod","lat":"40.91667000","lon":"72.11667000"},
{"state":"Namangan Region","name":"Kosonsoy","lat":"41.24944000","lon":"71.54738000"},
{"state":"Namangan Region","name":"Namangan","lat":"40.99830000","lon":"71.67257000"},
{"state":"Namangan Region","name":"Pop","lat":"40.87361000","lon":"71.10889000"},
{"state":"Namangan Region","name":"To‘rqao‘rg‘on","lat":"40.99984000","lon":"71.51162000"},
{"state":"Namangan Region","name":"Toshbuloq","lat":"40.91617000","lon":"71.57819000"},
{"state":"Namangan Region","name":"Uchqŭrghon Shahri","lat":"41.11371000","lon":"72.07915000"},
{"state":"Namangan Region","name":"Uychi","lat":"41.08073000","lon":"71.92331000"},
{"state":"Namangan Region","name":"Yangiqo‘rg‘on","lat":"41.19474000","lon":"71.72385000"},
{"state":"Navoiy Region","name":"Navoiy","lat":"40.08444000","lon":"65.37917000"},
{"state":"Navoiy Region","name":"Nurota","lat":"40.56139000","lon":"65.68861000"},
{"state":"Navoiy Region","name":"Qiziltepa","lat":"40.03306000","lon":"64.85000000"},
{"state":"Navoiy Region","name":"Yangirabot","lat":"40.02539000","lon":"65.96095000"},
{"state":"Qashqadaryo Region","name":"Beshkent","lat":"38.82139000","lon":"65.65306000"},
{"state":"Qashqadaryo Region","name":"Chiroqchi","lat":"39.03361000","lon":"66.57222000"},
{"state":"Qashqadaryo Region","name":"G‘uzor","lat":"38.62083000","lon":"66.24806000"},
{"state":"Qashqadaryo Region","name":"Kitob","lat":"39.08425000","lon":"66.83318000"},
{"state":"Qashqadaryo Region","name":"Koson","lat":"39.03750000","lon":"65.58500000"},
{"state":"Qashqadaryo Region","name":"Muborak","lat":"39.25528000","lon":"65.15278000"},
{"state":"Qashqadaryo Region","name":"Nishon Tumani","lat":"38.69395000","lon":"65.67512000"},
{"state":"Qashqadaryo Region","name":"Qarshi","lat":"38.86056000","lon":"65.78905000"},
{"state":"Qashqadaryo Region","name":"Shahrisabz","lat":"39.05778000","lon":"66.83417000"},
{"state":"Samarqand Region","name":"Bulung’ur","lat":"39.76472000","lon":"67.27139000"},
{"state":"Samarqand Region","name":"Charxin","lat":"39.69667000","lon":"66.76861000"},
{"state":"Samarqand Region","name":"Chelak","lat":"39.92028000","lon":"66.86111000"},
{"state":"Samarqand Region","name":"Daxbet","lat":"39.76389000","lon":"66.91250000"},
{"state":"Samarqand Region","name":"Ishtixon","lat":"39.96639000","lon":"66.48611000"},
{"state":"Samarqand Region","name":"Jomboy","lat":"39.69889000","lon":"67.09333000"},
{"state":"Samarqand Region","name":"Juma","lat":"39.71611000","lon":"66.66417000"},
{"state":"Samarqand Region","name":"Kattaqo‘rg‘on","lat":"39.89889000","lon":"66.25611000"},
{"state":"Samarqand Region","name":"Oqtosh","lat":"39.92139000","lon":"65.92528000"},
{"state":"Samarqand Region","name":"Payshanba","lat":"40.00778000","lon":"66.23694000"},
{"state":"Samarqand Region","name":"Samarkand","lat":"39.65417000","lon":"66.95972000"},
{"state":"Samarqand Region","name":"Urgut","lat":"39.40222000","lon":"67.24306000"},
{"state":"Sirdaryo Region","name":"Guliston","lat":"40.48972000","lon":"68.78417000"},
{"state":"Sirdaryo Region","name":"Sirdaryo","lat":"40.84361000","lon":"68.66167000"},
{"state":"Sirdaryo Region","name":"Yangiyer","lat":"40.27500000","lon":"68.82250000"},
{"state":"Surxondaryo Region","name":"Boysun","lat":"38.20835000","lon":"67.20664000"},
{"state":"Surxondaryo Region","name":"Denov","lat":"38.26746000","lon":"67.89886000"},
{"state":"Surxondaryo Region","name":"Sho‘rchi","lat":"37.99944000","lon":"67.78750000"},
{"state":"Surxondaryo Region","name":"Tirmiz","lat":"37.22417000","lon":"67.27833000"},
{"state":"Tashkent","name":"Bektemir","lat":"41.20972000","lon":"69.33417000"},
{"state":"Tashkent","name":"Tashkent","lat":"41.26465000","lon":"69.21627000"},
{"state":"Tashkent Region","name":"Angren","lat":"41.01667000","lon":"70.14361000"},
{"state":"Tashkent Region","name":"Bekobod","lat":"40.22083000","lon":"69.26972000"},
{"state":"Tashkent Region","name":"Bo‘ka","lat":"40.81108000","lon":"69.19417000"},
{"state":"Tashkent Region","name":"Chinoz","lat":"40.93633000","lon":"68.76128000"},
{"state":"Tashkent Region","name":"Chirchiq","lat":"41.46889000","lon":"69.58222000"},
{"state":"Tashkent Region","name":"G‘azalkent","lat":"41.55806000","lon":"69.77083000"},
{"state":"Tashkent Region","name":"Iskandar","lat":"41.55389000","lon":"69.70083000"},
{"state":"Tashkent Region","name":"Kyzyldzhar","lat":"41.56667000","lon":"70.01667000"},
{"state":"Tashkent Region","name":"Ohangaron","lat":"40.90639000","lon":"69.63833000"},
{"state":"Tashkent Region","name":"Olmaliq","lat":"40.84472000","lon":"69.59833000"},
{"state":"Tashkent Region","name":"Parkent","lat":"41.29444000","lon":"69.67639000"},
{"state":"Tashkent Region","name":"Piskent","lat":"40.89722000","lon":"69.35056000"},
{"state":"Tashkent Region","name":"Qibray","lat":"41.38972000","lon":"69.46500000"},
{"state":"Tashkent Region","name":"Salor","lat":"41.37222000","lon":"69.38167000"},
{"state":"Tashkent Region","name":"Tŭytepa","lat":"41.03210000","lon":"69.36253000"},
{"state":"Tashkent Region","name":"Ŭrtaowul","lat":"41.18667000","lon":"69.14528000"},
{"state":"Tashkent Region","name":"Yangiobod","lat":"41.11919000","lon":"70.09406000"},
{"state":"Tashkent Region","name":"Yangiyŭl","lat":"41.11202000","lon":"69.04710000"},
{"state":"Tashkent Region","name":"Zafar","lat":"40.98333000","lon":"68.90000000"},
{"state":"Xorazm Region","name":"Boghot Tumani","lat":"41.31495000","lon":"60.85327000"},
{"state":"Xorazm Region","name":"Gurlan","lat":"41.84472000","lon":"60.39194000"},
{"state":"Xorazm Region","name":"Hazorasp","lat":"41.31944000","lon":"61.07417000"},
{"state":"Xorazm Region","name":"Khiwa","lat":"41.37833000","lon":"60.36389000"},
{"state":"Xorazm Region","name":"Qŭshkŭpir","lat":"41.53500000","lon":"60.34556000"},
{"state":"Xorazm Region","name":"Showot","lat":"41.65583000","lon":"60.30250000"},
{"state":"Xorazm Region","name":"Urganch","lat":"41.55000000","lon":"60.63333000"}]