[{"state":"Amazonas","name":"Maroa","lat":"2.71880000","lon":"-67.56046000"},
{"state":"Amazonas","name":"Municipio Autónomo Alto Orinoco","lat":"2.73456000","lon":"-64.83032000"},
{"state":"Amazonas","name":"Puerto Ayacucho","lat":"5.66049000","lon":"-67.58343000"},
{"state":"Amazonas","name":"San Carlos de Río Negro","lat":"1.92027000","lon":"-67.06089000"},
{"state":"Amazonas","name":"San Fernando de Atabapo","lat":"4.04564000","lon":"-67.69934000"},
{"state":"Amazonas","name":"San Juan de Manapiare","lat":"5.32665000","lon":"-66.05402000"},
{"state":"Anzoátegui","name":"Anaco","lat":"9.42958000","lon":"-64.46428000"},
{"state":"Anzoátegui","name":"Aragua de Barcelona","lat":"9.45588000","lon":"-64.82928000"},
{"state":"Anzoátegui","name":"Barcelona","lat":"10.13625000","lon":"-64.68618000"},
{"state":"Anzoátegui","name":"Cantaura","lat":"9.30571000","lon":"-64.35841000"},
{"state":"Anzoátegui","name":"El Tigre","lat":"8.88902000","lon":"-64.25270000"},
{"state":"Anzoátegui","name":"Municipio José Gregorio Monagas","lat":"7.73874000","lon":"-64.71876000"},
{"state":"Anzoátegui","name":"Onoto","lat":"9.59714000","lon":"-65.19350000"},
{"state":"Anzoátegui","name":"Puerto La Cruz","lat":"10.21382000","lon":"-64.63280000"},
{"state":"Anzoátegui","name":"Puerto Píritu","lat":"10.05896000","lon":"-65.03698000"},
{"state":"Anzoátegui","name":"San José de Guanipa","lat":"8.88724000","lon":"-64.16512000"},
{"state":"Apure","name":"San Fernando de Apure","lat":"7.87266930","lon":"-67.48193280"},
{"state":"Aragua","name":"Cagua","lat":"10.18634000","lon":"-67.45935000"},
{"state":"Aragua","name":"El Limón","lat":"10.30589000","lon":"-67.63212000"},
{"state":"Aragua","name":"La Victoria","lat":"10.22677000","lon":"-67.33122000"},
{"state":"Aragua","name":"Las Tejerías","lat":"10.25416000","lon":"-67.17333000"},
{"state":"Aragua","name":"Maracay","lat":"10.23535000","lon":"-67.59113000"},
{"state":"Aragua","name":"Palo Negro","lat":"10.17389000","lon":"-67.54194000"},
{"state":"Aragua","name":"San Mateo","lat":"10.21302000","lon":"-67.42365000"},
{"state":"Aragua","name":"Santa Rita","lat":"10.20540000","lon":"-67.55948000"},
{"state":"Aragua","name":"Turmero","lat":"10.22856000","lon":"-67.47421000"},
{"state":"Aragua","name":"Villa de Cura","lat":"10.03863000","lon":"-67.48938000"},
{"state":"Barinas","name":"Alto Barinas","lat":"8.59310000","lon":"-70.22610000"},
{"state":"Barinas","name":"Barinas","lat":"8.62261000","lon":"-70.20749000"},
{"state":"Barinas","name":"Barinitas","lat":"8.76171000","lon":"-70.41199000"},
{"state":"Barinas","name":"Municipio Barinas","lat":"8.61497000","lon":"-70.19852000"},
{"state":"Bolívar","name":"Ciudad Bolívar","lat":"8.12923000","lon":"-63.54086000"},
{"state":"Bolívar","name":"Ciudad Guayana","lat":"8.35122000","lon":"-62.64102000"},
{"state":"Bolívar","name":"Municipio Padre Pedro Chien","lat":"8.02455000","lon":"-61.88187000"},
{"state":"Bolívar","name":"Santa Elena de Uairén","lat":"4.60226000","lon":"-61.11025000"},
{"state":"Bolívar","name":"Upata","lat":"8.01620000","lon":"-62.40561000"},
{"state":"Carabobo","name":"Guacara","lat":"10.22609000","lon":"-67.87700000"},
{"state":"Carabobo","name":"Güigüe","lat":"10.08344000","lon":"-67.77799000"},
{"state":"Carabobo","name":"Los Guayos","lat":"10.18932000","lon":"-67.93828000"},
{"state":"Carabobo","name":"Mariara","lat":"10.29532000","lon":"-67.71770000"},
{"state":"Carabobo","name":"Morón","lat":"10.48715000","lon":"-68.20078000"},
{"state":"Carabobo","name":"Puerto Cabello","lat":"10.47306000","lon":"-68.01250000"},
{"state":"Carabobo","name":"San Joaquín","lat":"10.26061000","lon":"-67.79348000"},
{"state":"Carabobo","name":"Tacarigua","lat":"10.08621000","lon":"-67.91982000"},
{"state":"Carabobo","name":"Tocuyito","lat":"10.11347000","lon":"-68.06783000"},
{"state":"Carabobo","name":"Valencia","lat":"10.16202000","lon":"-68.00765000"},
{"state":"Cojedes","name":"San Carlos","lat":"9.66124000","lon":"-68.58268000"},
{"state":"Cojedes","name":"Tinaquillo","lat":"9.91861000","lon":"-68.30472000"},
{"state":"Delta Amacuro","name":"Tucupita","lat":"9.05806000","lon":"-62.05000000"},
{"state":"Distrito Capital","name":"Caracas","lat":"10.50000000","lon":"-66.93333333"},
{"state":"Falcón","name":"Chichiriviche","lat":"10.92872000","lon":"-68.27283000"},
{"state":"Falcón","name":"Coro","lat":"11.40450000","lon":"-69.67344000"},
{"state":"Falcón","name":"Municipio Los Taques","lat":"11.82308000","lon":"-70.25353000"},
{"state":"Falcón","name":"Municipio Miranda","lat":"11.31667000","lon":"-69.86667000"},
{"state":"Falcón","name":"Punta Cardón","lat":"11.65806000","lon":"-70.21500000"},
{"state":"Falcón","name":"Punto Fijo","lat":"11.69152000","lon":"-70.19918000"},
{"state":"Falcón","name":"Tucacas","lat":"10.79006000","lon":"-68.32564000"},
{"state":"Guárico","name":"Altagracia de Orituco","lat":"9.86005000","lon":"-66.38139000"},
{"state":"Guárico","name":"Calabozo","lat":"8.92416000","lon":"-67.42929000"},
{"state":"Guárico","name":"San Juan de los Morros","lat":"9.91152000","lon":"-67.35381000"},
{"state":"Guárico","name":"Valle de La Pascua","lat":"9.21554000","lon":"-66.00734000"},
{"state":"Guárico","name":"Zaraza","lat":"9.35029000","lon":"-65.32452000"},
{"state":"La Guaira","name":"Caraballeda","lat":"10.61216000","lon":"-66.85192000"},
{"state":"La Guaira","name":"Catia La Mar","lat":"10.60545000","lon":"-67.03238000"},
{"state":"La Guaira","name":"La Guaira","lat":"10.60156000","lon":"-66.93293000"},
{"state":"La Guaira","name":"Maiquetía","lat":"10.59450000","lon":"-66.95624000"},
{"state":"Lara","name":"Barquisimeto","lat":"10.06470000","lon":"-69.35703000"},
{"state":"Lara","name":"Cabudare","lat":"10.02658000","lon":"-69.26203000"},
{"state":"Lara","name":"Carora","lat":"10.17283000","lon":"-70.08100000"},
{"state":"Lara","name":"El Tocuyo","lat":"9.78709000","lon":"-69.79294000"},
{"state":"Lara","name":"Los Rastrojos","lat":"10.02588000","lon":"-69.24166000"},
{"state":"Lara","name":"Quíbor","lat":"9.92866000","lon":"-69.62010000"},
{"state":"Mérida","name":"Ejido","lat":"8.54665000","lon":"-71.24087000"},
{"state":"Mérida","name":"El Vigía","lat":"8.61350000","lon":"-71.65702000"},
{"state":"Mérida","name":"Mérida","lat":"8.58972000","lon":"-71.15611000"},
{"state":"Mérida","name":"Mucumpiz","lat":"8.41667000","lon":"-71.13333000"},
{"state":"Mérida","name":"Municipio Libertador","lat":"8.33333000","lon":"-71.11667000"},
{"state":"Miranda","name":"Baruta","lat":"10.43424000","lon":"-66.87558000"},
{"state":"Miranda","name":"Carrizal","lat":"10.34985000","lon":"-66.98632000"},
{"state":"Miranda","name":"Caucaguita","lat":"10.35782000","lon":"-66.80252000"},
{"state":"Miranda","name":"Caucagüito","lat":"10.48666000","lon":"-66.73799000"},
{"state":"Miranda","name":"Chacao","lat":"10.49581000","lon":"-66.85367000"},
{"state":"Miranda","name":"Charallave","lat":"10.24247000","lon":"-66.85723000"},
{"state":"Miranda","name":"Cúa","lat":"10.16245000","lon":"-66.88248000"},
{"state":"Miranda","name":"El Cafetal","lat":"10.46541000","lon":"-66.82951000"},
{"state":"Miranda","name":"El Hatillo","lat":"10.42411000","lon":"-66.82581000"},
{"state":"Miranda","name":"Guarenas","lat":"10.47027000","lon":"-66.61934000"},
{"state":"Miranda","name":"Guatire","lat":"10.47400000","lon":"-66.54241000"},
{"state":"Miranda","name":"La Dolorita","lat":"10.48830000","lon":"-66.78608000"},
{"state":"Miranda","name":"Los Dos Caminos","lat":"10.49389000","lon":"-66.82863000"},
{"state":"Miranda","name":"Los Teques","lat":"10.34447000","lon":"-67.04325000"},
{"state":"Miranda","name":"Ocumare del Tuy","lat":"10.11820000","lon":"-66.77513000"},
{"state":"Miranda","name":"Petare","lat":"10.47679000","lon":"-66.80786000"},
{"state":"Miranda","name":"San Antonio de Los Altos","lat":"10.38853000","lon":"-66.95179000"},
{"state":"Miranda","name":"Santa Teresa del Tuy","lat":"10.23291000","lon":"-66.66474000"},
{"state":"Monagas","name":"Caripito","lat":"10.11135000","lon":"-63.09985000"},
{"state":"Monagas","name":"Maturín","lat":"9.74569000","lon":"-63.18323000"},
{"state":"Monagas","name":"Municipio Maturín","lat":"9.40000000","lon":"-63.03333000"},
{"state":"Monagas","name":"Municipio Uracoa","lat":"8.99960000","lon":"-62.35164000"},
{"state":"Nueva Esparta","name":"Juan Griego","lat":"11.08172000","lon":"-63.96549000"},
{"state":"Nueva Esparta","name":"La Asunción","lat":"11.03333000","lon":"-63.86278000"},
{"state":"Nueva Esparta","name":"Porlamar","lat":"10.95771000","lon":"-63.86971000"},
{"state":"Portuguesa","name":"Acarigua","lat":"9.55451000","lon":"-69.19564000"},
{"state":"Portuguesa","name":"Araure","lat":"9.58144000","lon":"-69.23851000"},
{"state":"Portuguesa","name":"Guanare","lat":"9.04183000","lon":"-69.74206000"},
{"state":"Portuguesa","name":"Villa Bruzual","lat":"9.33186000","lon":"-69.11968000"},
{"state":"Sucre","name":"Carúpano","lat":"10.66516000","lon":"-63.25387000"},
{"state":"Sucre","name":"Cumaná","lat":"10.45397000","lon":"-64.18256000"},
{"state":"Sucre","name":"Güiria","lat":"10.57721000","lon":"-62.29841000"},
{"state":"Sucre","name":"Municipio Valdez","lat":"10.57945000","lon":"-62.30029000"},
{"state":"Táchira","name":"Colón","lat":"8.03125000","lon":"-72.26053000"},
{"state":"Táchira","name":"La Fría","lat":"8.21523000","lon":"-72.24888000"},
{"state":"Táchira","name":"La Grita","lat":"8.13316000","lon":"-71.98390000"},
{"state":"Táchira","name":"Municipio José María Vargas","lat":"8.03514000","lon":"-72.05675000"},
{"state":"Táchira","name":"Rubio","lat":"7.70131000","lon":"-72.35569000"},
{"state":"Táchira","name":"San Antonio del Táchira","lat":"7.81454000","lon":"-72.44310000"},
{"state":"Táchira","name":"San Cristóbal","lat":"7.76694000","lon":"-72.22500000"},
{"state":"Táchira","name":"Táriba","lat":"7.81880000","lon":"-72.22427000"},
{"state":"Trujillo","name":"Boconó","lat":"9.25385000","lon":"-70.25105000"},
{"state":"Trujillo","name":"Municipio Pampanito","lat":"9.41147000","lon":"-70.49592000"},
{"state":"Trujillo","name":"Municipio San Rafael de Carvajal","lat":"9.30756000","lon":"-70.58965000"},
{"state":"Trujillo","name":"Trujillo","lat":"9.36583000","lon":"-70.43694000"},
{"state":"Trujillo","name":"Valera","lat":"9.31778000","lon":"-70.60361000"},
{"state":"Yaracuy","name":"Chivacoa","lat":"10.15951000","lon":"-68.89453000"},
{"state":"Yaracuy","name":"Municipio Independencia","lat":"10.33472000","lon":"-68.75555000"},
{"state":"Yaracuy","name":"Nirgua","lat":"10.15039000","lon":"-68.56478000"},
{"state":"Yaracuy","name":"San Felipe","lat":"10.33991000","lon":"-68.74247000"},
{"state":"Yaracuy","name":"Yaritagua","lat":"10.08081000","lon":"-69.12420000"},
{"state":"Zulia","name":"Cabimas","lat":"10.39907000","lon":"-71.45206000"},
{"state":"Zulia","name":"Ciudad Ojeda","lat":"10.20161000","lon":"-71.31480000"},
{"state":"Zulia","name":"La Villa del Rosario","lat":"10.32580000","lon":"-72.31343000"},
{"state":"Zulia","name":"Lagunillas","lat":"10.13008000","lon":"-71.25946000"},
{"state":"Zulia","name":"Machiques","lat":"10.06077000","lon":"-72.55212000"},
{"state":"Zulia","name":"Maracaibo","lat":"10.66663000","lon":"-71.61245000"},
{"state":"Zulia","name":"San Carlos del Zulia","lat":"9.00098000","lon":"-71.92683000"},
{"state":"Zulia","name":"Santa Rita","lat":"10.53642000","lon":"-71.51104000"}]