[{"state":"Saint Croix","name":"Christiansted","lat":"17.74403640","lon":"-64.71060860"},
{"state":"Saint Croix","name":"East End","lat":"17.75238820","lon":"-64.67030100"},
{"state":"Saint Croix","name":"Frederiksted","lat":"17.71246910","lon":"-64.88671920"},
{"state":"Saint Croix","name":"Good Hope","lat":"17.72234420","lon":"-64.71724940"},
{"state":"Saint Croix","name":"Northcentral","lat":"17.75011450","lon":"-64.82384910"},
{"state":"Saint Croix","name":"Northwest","lat":"17.73827820","lon":"-64.89063470"},
{"state":"Saint Croix","name":"Sion Farm","lat":"17.75432760","lon":"-64.77946110"},
{"state":"Saint Croix","name":"Southcentral","lat":"17.70649170","lon":"-64.81448650"},
{"state":"Saint Croix","name":"Southwest","lat":"17.69177870","lon":"-64.93559390"},
{"state":"Saint John","name":"Central","lat":"18.33568380","lon":"-64.79470780"},
{"state":"Saint John","name":"Coral Bay","lat":"18.34800890","lon":"-64.72196820"},
{"state":"Saint John","name":"Cruz Bay","lat":"18.31820370","lon":"-64.80242110"},
{"state":"Saint John","name":"East End","lat":"18.34036470","lon":"-64.68062660"},
{"state":"Saint Thomas","name":"Charlotte Amalie","lat":"18.34127610","lon":"-64.94838690"},
{"state":"Saint Thomas","name":"East End","lat":"18.32901620","lon":"-64.87047310"},
{"state":"Saint Thomas","name":"Northside","lat":"18.37380810","lon":"-64.95589090"},
{"state":"Saint Thomas","name":"Southside","lat":"18.30529120","lon":"-64.91724450"},
{"state":"Saint Thomas","name":"Tutu","lat":"18.33884270","lon":"-64.89530720"},
{"state":"Saint Thomas","name":"Water Island","lat":"18.32086530","lon":"-64.96932630"},
{"state":"Saint Thomas","name":"West End","lat":"18.37243670","lon":"-65.06490130"}]