[{"state":"An Giang","name":"Cho Dok","lat":"10.70000000","lon":"105.11667000"},
{"state":"An Giang","name":"Huyện An Phú","lat":"10.84274000","lon":"105.08990000"},
{"state":"An Giang","name":"Huyện Châu Phú","lat":"10.57166000","lon":"105.16991000"},
{"state":"An Giang","name":"Huyện Chợ Mới","lat":"10.47730000","lon":"105.49092000"},
{"state":"An Giang","name":"Huyện Phú Tân","lat":"10.65716000","lon":"105.28459000"},
{"state":"An Giang","name":"Huyện Tri Tôn","lat":"10.41416000","lon":"104.96136000"},
{"state":"An Giang","name":"Long Xuyên","lat":"10.38639000","lon":"105.43518000"},
{"state":"An Giang","name":"Long Xuyên City","lat":"10.36857000","lon":"105.42340000"},
{"state":"Bà Rịa-Vũng Tàu","name":"Côn Sơn","lat":"8.68641000","lon":"106.60824000"},
{"state":"Bà Rịa-Vũng Tàu","name":"Huyện Châu Đức","lat":"10.65805000","lon":"107.25098000"},
{"state":"Bà Rịa-Vũng Tàu","name":"Huyện Đất Đỏ","lat":"10.48025000","lon":"107.27879000"},
{"state":"Bà Rịa-Vũng Tàu","name":"Huyện Tân Thành","lat":"10.57381000","lon":"107.10189000"},
{"state":"Bà Rịa-Vũng Tàu","name":"Huyện Xuyên Mộc","lat":"10.63048000","lon":"107.46568000"},
{"state":"Bà Rịa-Vũng Tàu","name":"Thành Phố Vũng Tàu","lat":"10.40239000","lon":"107.14239000"},
{"state":"Bà Rịa-Vũng Tàu","name":"Thị Xã Phú Mỹ","lat":"10.56815000","lon":"107.12999000"},
{"state":"Bà Rịa-Vũng Tàu","name":"Vũng Tàu","lat":"10.34599000","lon":"107.08426000"},
{"state":"Bắc Giang","name":"Bắc Giang","lat":"21.27307000","lon":"106.19460000"},
{"state":"Bắc Giang","name":"Huyện Lục Nam","lat":"21.27548000","lon":"106.46519000"},
{"state":"Bắc Giang","name":"Huyện Lục Ngạn","lat":"21.43719000","lon":"106.65845000"},
{"state":"Bắc Giang","name":"Huyện Yên Thế","lat":"21.51667000","lon":"106.11689000"},
{"state":"Bắc Kạn","name":"Bắc Kạn","lat":"22.14701000","lon":"105.83481000"},
{"state":"Bắc Kạn","name":"Huyện Ba Bể","lat":"22.41667000","lon":"105.75000000"},
{"state":"Bắc Kạn","name":"Huyện Bạch Thông","lat":"22.25758000","lon":"105.83295000"},
{"state":"Bắc Kạn","name":"Huyện Chợ Đồn","lat":"22.18681000","lon":"105.57280000"},
{"state":"Bắc Kạn","name":"Huyện Na Rì","lat":"22.17883000","lon":"106.11221000"},
{"state":"Bắc Kạn","name":"Huyện Ngân Sơn","lat":"22.42962000","lon":"106.01030000"},
{"state":"Bắc Kạn","name":"Thị Xã Bắc Kạn","lat":"22.14130000","lon":"105.83867000"},
{"state":"Bạc Liêu","name":"Bạc Liêu","lat":"9.29414000","lon":"105.72776000"},
{"state":"Bạc Liêu","name":"Huyện Giá Rai","lat":"9.27162000","lon":"105.40017000"},
{"state":"Bạc Liêu","name":"Huyện Hồng Dân","lat":"9.53822000","lon":"105.42242000"},
{"state":"Bắc Ninh","name":"Bắc Ninh","lat":"21.18608000","lon":"106.07631000"},
{"state":"Bắc Ninh","name":"Cung Kiệm","lat":"21.18697000","lon":"106.16076000"},
{"state":"Bắc Ninh","name":"Huyện Gia Bình","lat":"21.07795000","lon":"106.20903000"},
{"state":"Bắc Ninh","name":"Huyện Thuận Thành","lat":"21.04085000","lon":"106.07515000"},
{"state":"Bắc Ninh","name":"Huyện Tiên Du","lat":"21.12195000","lon":"106.03995000"},
{"state":"Bắc Ninh","name":"Huyện Yên Phong","lat":"21.20676000","lon":"105.99427000"},
{"state":"Bến Tre","name":"Ấp Tân Ngãi","lat":"10.23333000","lon":"106.28333000"},
{"state":"Bến Tre","name":"Bến Tre","lat":"10.24147000","lon":"106.37585000"},
{"state":"Bến Tre","name":"Huyện Ba Tri","lat":"10.06627000","lon":"106.60554000"},
{"state":"Bến Tre","name":"Huyện Bình Đại","lat":"10.19354000","lon":"106.64455000"},
{"state":"Bến Tre","name":"Huyện Châu Thành","lat":"10.29212000","lon":"106.30827000"},
{"state":"Bến Tre","name":"Huyện Chợ Lách","lat":"10.22674000","lon":"106.17077000"},
{"state":"Bến Tre","name":"Huyện Giồng Trôm","lat":"10.15909000","lon":"106.47004000"},
{"state":"Bến Tre","name":"Huyện Thạnh Phú","lat":"9.92993000","lon":"106.54316000"},
{"state":"Bình Dương","name":"Dĩ An","lat":"10.90682000","lon":"106.76940000"},
{"state":"Bình Dương","name":"Thủ Dầu Một","lat":"10.98040000","lon":"106.65190000"},
{"state":"Bình Định","name":"Huyện An Lão","lat":"14.55676000","lon":"108.80100000"},
{"state":"Bình Định","name":"Huyện Hoài Nhơn","lat":"14.50535000","lon":"109.02315000"},
{"state":"Bình Định","name":"Huyện Phù Mỹ","lat":"14.22304000","lon":"109.08611000"},
{"state":"Bình Định","name":"Huyện Tây Sơn","lat":"13.94306000","lon":"108.87999000"},
{"state":"Bình Định","name":"Huyện Tuy Phước","lat":"13.84564000","lon":"109.15275000"},
{"state":"Bình Định","name":"Huyện Vĩnh Thạnh","lat":"14.21100000","lon":"108.74389000"},
{"state":"Bình Định","name":"Qui Nhon","lat":"13.77648000","lon":"109.22367000"},
{"state":"Bình Phước","name":"Bình Long","lat":"11.64711000","lon":"106.60586000"},
{"state":"Bình Phước","name":"Don Luan","lat":"11.53495000","lon":"106.88324000"},
{"state":"Bình Phước","name":"Huyện Bù Đốp","lat":"12.00374000","lon":"106.81545000"},
{"state":"Bình Phước","name":"Huyện Chơn Thành","lat":"11.46283000","lon":"106.66655000"},
{"state":"Bình Phước","name":"Huyện Đồng Phú","lat":"11.50071000","lon":"107.01192000"},
{"state":"Bình Phước","name":"Huyện Hớn Quản","lat":"11.59718000","lon":"106.62739000"},
{"state":"Bình Phước","name":"Thị Xã Phước Long","lat":"11.81142000","lon":"106.99670000"},
{"state":"Bình Thuận","name":"Huyện Bắc Bình","lat":"11.27571000","lon":"108.38506000"},
{"state":"Bình Thuận","name":"Huyện Hàm Tân","lat":"10.76856000","lon":"107.64233000"},
{"state":"Bình Thuận","name":"Huyện Hàm Thuận Bắc","lat":"11.14703000","lon":"108.08172000"},
{"state":"Bình Thuận","name":"Huyện Hàm Thuận Nam","lat":"10.92101000","lon":"107.93325000"},
{"state":"Bình Thuận","name":"Huyện Tánh Linh","lat":"11.11367000","lon":"107.68427000"},
{"state":"Bình Thuận","name":"Huyện Tuy Phong","lat":"11.34746000","lon":"108.70466000"},
{"state":"Bình Thuận","name":"La Gi","lat":"10.65993000","lon":"107.77206000"},
{"state":"Bình Thuận","name":"Phan Thiết","lat":"10.92889000","lon":"108.10208000"},
{"state":"Bình Thuận","name":"Thành Phố Phan Thiết","lat":"10.93700000","lon":"108.15778000"},
{"state":"Cà Mau","name":"Cà Mau","lat":"9.17682000","lon":"105.15242000"},
{"state":"Cà Mau","name":"Huyện Cái Nước","lat":"9.00094000","lon":"105.04201000"},
{"state":"Cà Mau","name":"Huyện Đầm Dơi","lat":"8.96029000","lon":"105.24107000"},
{"state":"Cà Mau","name":"Huyen Nam Can","lat":"8.81531000","lon":"105.05574000"},
{"state":"Cà Mau","name":"Huyện Thới Bình","lat":"9.35790000","lon":"105.16023000"},
{"state":"Cần Thơ","name":"Cần Thơ","lat":"10.11667000","lon":"105.50000000"},
{"state":"Cần Thơ","name":"Cờ Đỏ","lat":"10.09472222","lon":"105.43194444"},
{"state":"Cần Thơ","name":"Thới Lai","lat":"10.06305556","lon":"105.56083333"},
{"state":"Cần Thơ","name":"Vĩnh Thạnh","lat":"10.21916667","lon":"105.40111111"},
{"state":"Cao Bằng","name":"Cao Bằng","lat":"22.66568000","lon":"106.25786000"},
{"state":"Cao Bằng","name":"Huyện Bảo Lac","lat":"22.90085000","lon":"105.73332000"},
{"state":"Cao Bằng","name":"Huyện Bảo Lâm","lat":"22.87041000","lon":"105.48780000"},
{"state":"Cao Bằng","name":"Huyện Hạ Lang","lat":"22.70933000","lon":"106.67657000"},
{"state":"Cao Bằng","name":"Huyện Hà Quảng","lat":"22.90763000","lon":"106.12487000"},
{"state":"Cao Bằng","name":"Huyện Nguyên Bình","lat":"22.62400000","lon":"105.93248000"},
{"state":"Cao Bằng","name":"Huyen Phuc Hoa","lat":"22.53840000","lon":"106.51039000"},
{"state":"Cao Bằng","name":"Huyện Thạch An","lat":"22.47654000","lon":"106.34237000"},
{"state":"Cao Bằng","name":"Huyện Thông Nông","lat":"22.80735000","lon":"105.95846000"},
{"state":"Cao Bằng","name":"Huyện Trà Lĩnh","lat":"22.80961000","lon":"106.32543000"},
{"state":"Cao Bằng","name":"Huyện Trùng Khánh","lat":"22.83333000","lon":"106.56074000"},
{"state":"Đà Nẵng","name":"Da Nang","lat":"16.06778000","lon":"108.22083000"},
{"state":"Đắk Lắk","name":"Buôn Ma Thuột","lat":"12.66747000","lon":"108.03775000"},
{"state":"Đắk Lắk","name":"Huyện Buôn Đôn","lat":"12.90396000","lon":"107.73870000"},
{"state":"Đắk Lắk","name":"Huyện Ea H'Leo","lat":"13.31814000","lon":"108.07148000"},
{"state":"Đắk Lắk","name":"Huyện Ea Súp","lat":"13.18279000","lon":"107.79954000"},
{"state":"Đắk Nông","name":"Huyện Cư Jút","lat":"12.69591000","lon":"107.76316000"},
{"state":"Đắk Nông","name":"Huyện Đắk R’Lấp","lat":"11.87990000","lon":"107.52244000"},
{"state":"Đắk Nông","name":"Huyện Krông Nô","lat":"12.36285000","lon":"107.83445000"},
{"state":"Điện Biên","name":"Dien Bien Phu","lat":"21.38602000","lon":"103.02301000"},
{"state":"Điện Biên","name":"Huyện Điện Biên Đông","lat":"21.25266000","lon":"103.26900000"},
{"state":"Điện Biên","name":"Huyện Mường Nhé","lat":"22.10353000","lon":"102.58465000"},
{"state":"Điện Biên","name":"Huyện Tủa Chùa","lat":"21.95357000","lon":"103.37332000"},
{"state":"Điện Biên","name":"Huyện Tuần Giáo","lat":"21.69481000","lon":"103.41758000"},
{"state":"Điện Biên","name":"Thị Xã Mưòng Lay","lat":"22.03374000","lon":"103.12331000"},
{"state":"Đồng Nai","name":"Biên Hòa","lat":"10.94469000","lon":"106.82432000"},
{"state":"Đồng Nai","name":"Huyện Định Quán","lat":"11.21866000","lon":"107.33959000"},
{"state":"Đồng Nai","name":"Huyện Long Thành","lat":"10.76162000","lon":"107.02688000"},
{"state":"Đồng Nai","name":"Huyện Tân Phú","lat":"11.39867000","lon":"107.39976000"},
{"state":"Đồng Nai","name":"Huyện Thống Nhất","lat":"10.97764000","lon":"107.15909000"},
{"state":"Đồng Nai","name":"Huyện Trảng Bom","lat":"10.96624000","lon":"107.03614000"},
{"state":"Đồng Nai","name":"Huyện Vĩnh Cửu","lat":"11.25725000","lon":"107.02773000"},
{"state":"Đồng Tháp","name":"Cao Lãnh","lat":"10.46017000","lon":"105.63294000"},
{"state":"Đồng Tháp","name":"Huyện Châu Thành","lat":"10.22543000","lon":"105.82380000"},
{"state":"Đồng Tháp","name":"Huyện Lai Vung","lat":"10.24051000","lon":"105.66327000"},
{"state":"Đồng Tháp","name":"Huyện Lấp Vò","lat":"10.35918000","lon":"105.60611000"},
{"state":"Đồng Tháp","name":"Huyện Tam Nông","lat":"10.72761000","lon":"105.52522000"},
{"state":"Đồng Tháp","name":"Huyện Tân Hồng","lat":"10.87089000","lon":"105.49104000"},
{"state":"Đồng Tháp","name":"Huyện Thanh Bình","lat":"10.60137000","lon":"105.47811000"},
{"state":"Đồng Tháp","name":"Huyện Tháp Mười","lat":"10.54398000","lon":"105.81875000"},
{"state":"Đồng Tháp","name":"Sa Dec","lat":"10.29085000","lon":"105.75635000"},
{"state":"Đồng Tháp","name":"Sa Dec city","lat":"10.30550000","lon":"105.74757000"},
{"state":"Đồng Tháp","name":"Thị Trấn Tân Thành","lat":"10.25616000","lon":"105.59280000"},
{"state":"Gia Lai","name":"Huyện Chư Păh","lat":"14.15941000","lon":"107.98411000"},
{"state":"Gia Lai","name":"Huyện Chư Prông","lat":"13.59976000","lon":"107.81099000"},
{"state":"Gia Lai","name":"Huyện Chư Sê","lat":"13.74254000","lon":"108.08663000"},
{"state":"Gia Lai","name":"Huyện Đức Cơ","lat":"13.78454000","lon":"107.66970000"},
{"state":"Gia Lai","name":"Huyện Ia Grai","lat":"13.98937000","lon":"107.73740000"},
{"state":"Gia Lai","name":"Huyện KBang","lat":"14.30506000","lon":"108.49779000"},
{"state":"Gia Lai","name":"Huyện Kông Chro","lat":"13.73519000","lon":"108.59697000"},
{"state":"Gia Lai","name":"Huyện Krông Pa","lat":"13.23152000","lon":"108.65494000"},
{"state":"Gia Lai","name":"Huyện Mang Yang","lat":"13.92840000","lon":"108.30246000"},
{"state":"Gia Lai","name":"Pleiku","lat":"13.98333000","lon":"108.00000000"},
{"state":"Hà Giang","name":"Hà Giang","lat":"22.82333000","lon":"104.98357000"},
{"state":"Hà Giang","name":"Huyện Bắc Mê","lat":"22.75477000","lon":"105.29023000"},
{"state":"Hà Giang","name":"Huyện Bắc Quang","lat":"22.42301000","lon":"104.91831000"},
{"state":"Hà Giang","name":"Huyện Đồng Văn","lat":"23.25449000","lon":"105.27626000"},
{"state":"Hà Giang","name":"Huyện Quang Bình","lat":"22.41507000","lon":"104.66018000"},
{"state":"Hà Giang","name":"Huyện Vị Xuyên","lat":"22.73096000","lon":"104.90827000"},
{"state":"Hà Giang","name":"Huyện Xín Mần","lat":"22.64148000","lon":"104.52089000"},
{"state":"Hà Giang","name":"Huyện Yên Minh","lat":"23.06992000","lon":"105.17865000"},
{"state":"Hà Nam","name":"Huyện Bình Lục","lat":"20.50126000","lon":"106.02959000"},
{"state":"Hà Nam","name":"Huyện Duy Tiên","lat":"20.62803000","lon":"105.96193000"},
{"state":"Hà Nam","name":"Huyện Kim Bảng","lat":"20.57254000","lon":"105.85043000"},
{"state":"Hà Nam","name":"Huyện Lý Nhân","lat":"20.56422000","lon":"106.09455000"},
{"state":"Hà Nam","name":"Huyện Thanh Liêm","lat":"20.46249000","lon":"105.92100000"},
{"state":"Hà Nam","name":"Phủ Lý","lat":"20.54531000","lon":"105.91221000"},
{"state":"Hà Nội","name":"Hà Đông","lat":"20.97136000","lon":"105.77876000"},
{"state":"Hà Nội","name":"Hanoi","lat":"21.02450000","lon":"105.84117000"},
{"state":"Hà Nội","name":"Huyện Quốc Oai","lat":"20.97060000","lon":"105.61127000"},
{"state":"Hà Nội","name":"Quận Ba Đình","lat":"21.03587000","lon":"105.82163000"},
{"state":"Hà Nội","name":"Quận Hà Đông","lat":"20.95482000","lon":"105.76851000"},
{"state":"Hà Nội","name":"Sơn Tây","lat":"21.14053000","lon":"105.50686000"},
{"state":"Hà Tĩnh","name":"Hà Tĩnh","lat":"18.34282000","lon":"105.90569000"},
{"state":"Hà Tĩnh","name":"Huyện Cẩm Xuyên","lat":"18.19059000","lon":"106.00186000"},
{"state":"Hà Tĩnh","name":"Huyện Can Lộc","lat":"18.44414000","lon":"105.76350000"},
{"state":"Hà Tĩnh","name":"Huyện Ðức Thọ","lat":"18.49699000","lon":"105.61016000"},
{"state":"Hà Tĩnh","name":"Huyện Kỳ Anh","lat":"18.05805000","lon":"106.24580000"},
{"state":"Hà Tĩnh","name":"Huyện Nghi Xuân","lat":"18.62419000","lon":"105.76829000"},
{"state":"Hà Tĩnh","name":"Huyện Thạch Hà","lat":"18.35091000","lon":"105.81123000"},
{"state":"Hải Dương","name":"Hải Dương","lat":"20.94099000","lon":"106.33302000"},
{"state":"Hải Dương","name":"Huyện Bình Giang","lat":"20.87586000","lon":"106.19138000"},
{"state":"Hải Dương","name":"Huyện Cẩm Giàng","lat":"20.95000000","lon":"106.21667000"},
{"state":"Hải Dương","name":"Huyện Gia Lộc","lat":"20.85164000","lon":"106.29130000"},
{"state":"Hải Dương","name":"Huyện Kinh Môn","lat":"21.01634000","lon":"106.50384000"},
{"state":"Hải Dương","name":"Huyện Nam Sách","lat":"21.00484000","lon":"106.34042000"},
{"state":"Hải Dương","name":"Huyện Thanh Miện","lat":"20.77953000","lon":"106.22218000"},
{"state":"Hải Dương","name":"Thị Xã Chí Linh","lat":"21.13722000","lon":"106.39638000"},
{"state":"Hải Phòng","name":"Cát Bà","lat":"20.72779000","lon":"107.04819000"},
{"state":"Hải Phòng","name":"Haiphong","lat":"20.86481000","lon":"106.68345000"},
{"state":"Hậu Giang","name":"Huyện Châu Thành A","lat":"9.93056000","lon":"105.64194000"},
{"state":"Hậu Giang","name":"Vị Thanh","lat":"9.78449000","lon":"105.47012000"},
{"state":"Hồ Chí Minh","name":"Cần Giờ","lat":"10.41115000","lon":"106.95474000"},
{"state":"Hồ Chí Minh","name":"Củ Chi","lat":"10.97333000","lon":"106.49325000"},
{"state":"Hồ Chí Minh","name":"Ho Chi Minh City","lat":"10.82302000","lon":"106.62965000"},
{"state":"Hòa Bình","name":"Hòa Bình","lat":"20.81717000","lon":"105.33759000"},
{"state":"Hòa Bình","name":"Huyện Cao Phong","lat":"20.69532000","lon":"105.33559000"},
{"state":"Hòa Bình","name":"Huyện Kỳ Sơn","lat":"20.89631000","lon":"105.39659000"},
{"state":"Hòa Bình","name":"Huyện Lạc Thủy","lat":"20.49794000","lon":"105.74092000"},
{"state":"Hòa Bình","name":"Huyện Lương Sơn","lat":"20.87650000","lon":"105.51219000"},
{"state":"Hòa Bình","name":"Huyện Tân Lạc","lat":"20.60557000","lon":"105.23399000"},
{"state":"Hưng Yên","name":"Hưng Yên","lat":"20.64637000","lon":"106.05112000"},
{"state":"Hưng Yên","name":"Huyện Ân Thi","lat":"20.81086000","lon":"106.09995000"},
{"state":"Hưng Yên","name":"Huyện Khoái Châu","lat":"20.82170000","lon":"105.97455000"},
{"state":"Hưng Yên","name":"Huyện Kim Động","lat":"20.74645000","lon":"106.03632000"},
{"state":"Hưng Yên","name":"Huyện Mỹ Hào","lat":"20.93210000","lon":"106.10630000"},
{"state":"Hưng Yên","name":"Huyện Phù Cừ","lat":"20.70997000","lon":"106.19744000"},
{"state":"Hưng Yên","name":"Huyện Tiên Lữ","lat":"20.68490000","lon":"106.12513000"},
{"state":"Khánh Hòa","name":"Cam Ranh","lat":"11.92144000","lon":"109.15913000"},
{"state":"Khánh Hòa","name":"Huyện Diên Khánh","lat":"12.27341000","lon":"109.03890000"},
{"state":"Khánh Hòa","name":"Huyện Khánh Sơn","lat":"12.02858000","lon":"108.90814000"},
{"state":"Khánh Hòa","name":"Huyện Khánh Vĩnh","lat":"12.30593000","lon":"108.83073000"},
{"state":"Khánh Hòa","name":"Huyện Vạn Ninh","lat":"12.72344000","lon":"109.24586000"},
{"state":"Khánh Hòa","name":"Nha Trang","lat":"12.24507000","lon":"109.19432000"},
{"state":"Khánh Hòa","name":"Thành Phố Cam Ranh","lat":"11.90707000","lon":"109.14861000"},
{"state":"Khánh Hòa","name":"Thành Phố Nha Trang","lat":"12.25458000","lon":"109.16655000"},
{"state":"Khánh Hòa","name":"Thị Xã Ninh Hòa","lat":"12.53796000","lon":"109.06057000"},
{"state":"Kiên Giang","name":"Dương Đông","lat":"10.21716000","lon":"103.95929000"},
{"state":"Kiên Giang","name":"Hà Tiên","lat":"10.38310000","lon":"104.48753000"},
{"state":"Kiên Giang","name":"Huyện An Biên","lat":"9.81291000","lon":"105.05230000"},
{"state":"Kiên Giang","name":"Huyện An Minh","lat":"9.66704000","lon":"104.94848000"},
{"state":"Kiên Giang","name":"Huyện Châu Thành","lat":"9.94372000","lon":"105.16868000"},
{"state":"Kiên Giang","name":"Huyện Giồng Riềng","lat":"9.91224000","lon":"105.37311000"},
{"state":"Kiên Giang","name":"Huyện Gò Quao","lat":"9.74027000","lon":"105.29766000"},
{"state":"Kiên Giang","name":"Huyện Hòn Đất","lat":"10.22908000","lon":"104.95280000"},
{"state":"Kiên Giang","name":"Huyện Kiên Hải","lat":"9.83971000","lon":"104.61560000"},
{"state":"Kiên Giang","name":"Huyện Phú Quốc","lat":"10.25516000","lon":"104.01455000"},
{"state":"Kiên Giang","name":"Huyện Tân Hiệp","lat":"10.09540000","lon":"105.25936000"},
{"state":"Kiên Giang","name":"Huyện Vĩnh Thuận","lat":"9.53306000","lon":"105.24490000"},
{"state":"Kiên Giang","name":"Kien Luong Town","lat":"10.24892000","lon":"104.59000000"},
{"state":"Kiên Giang","name":"Rạch Giá","lat":"10.01245000","lon":"105.08091000"},
{"state":"Kon Tum","name":"Huyện Đắk Glei","lat":"15.11358000","lon":"107.75093000"},
{"state":"Kon Tum","name":"Huyện Đắk Hà","lat":"14.60326000","lon":"107.98547000"},
{"state":"Kon Tum","name":"Huyện Đắk Tô","lat":"14.70087000","lon":"107.80816000"},
{"state":"Kon Tum","name":"Huyện Ia H'Drai","lat":"14.06032000","lon":"107.46243000"},
{"state":"Kon Tum","name":"Huyện Kon Plông","lat":"14.75620000","lon":"108.32057000"},
{"state":"Kon Tum","name":"Huyện Ngọc Hồi","lat":"14.71940000","lon":"107.62636000"},
{"state":"Kon Tum","name":"Huyện Sa Thầy","lat":"14.32050000","lon":"107.59862000"},
{"state":"Kon Tum","name":"Kon Tum","lat":"14.35451000","lon":"108.00759000"},
{"state":"Lai Châu","name":"Huyện Mưòng Tè","lat":"22.37443000","lon":"102.73835000"},
{"state":"Lai Châu","name":"Huyện Tam Đường","lat":"22.35391000","lon":"103.59342000"},
{"state":"Lai Châu","name":"Huyện Than Uyên","lat":"21.91424000","lon":"103.82857000"},
{"state":"Lâm Đồng","name":"Bảo Lộc","lat":"11.54798000","lon":"107.80772000"},
{"state":"Lâm Đồng","name":"Đam Rong","lat":"12.05409000","lon":"108.14941000"},
{"state":"Lâm Đồng","name":"Đinh Văn","lat":"11.78624000","lon":"108.24282000"},
{"state":"Lâm Đồng","name":"Đưc Trọng","lat":"11.73559000","lon":"108.37330000"},
{"state":"Lâm Đồng","name":"Ðà Lạt","lat":"11.94646000","lon":"108.44193000"},
{"state":"Lâm Đồng","name":"Huyện Bảo Lâm","lat":"11.71163000","lon":"107.75338000"},
{"state":"Lâm Đồng","name":"Huyện Đạ Huoai","lat":"11.42465000","lon":"107.63825000"},
{"state":"Lâm Đồng","name":"Huyện Đạ Tẻh","lat":"11.58446000","lon":"107.52792000"},
{"state":"Lâm Đồng","name":"Huyện Đơn Dương","lat":"11.75308000","lon":"108.55397000"},
{"state":"Lâm Đồng","name":"Huyện Đức Trọng","lat":"11.62686000","lon":"108.35330000"},
{"state":"Lâm Đồng","name":"Huyện Lâm Hà","lat":"11.81890000","lon":"108.21215000"},
{"state":"Lạng Sơn","name":"Huyện Bắc Sơn","lat":"21.83801000","lon":"106.27690000"},
{"state":"Lạng Sơn","name":"Huyện Bình Gia","lat":"22.07281000","lon":"106.30410000"},
{"state":"Lạng Sơn","name":"Huyện Cao Lộc","lat":"21.89857000","lon":"106.85435000"},
{"state":"Lạng Sơn","name":"Huyện Chi Lăng","lat":"21.67602000","lon":"106.62925000"},
{"state":"Lạng Sơn","name":"Huyện Đình Lập","lat":"21.54210000","lon":"107.12925000"},
{"state":"Lạng Sơn","name":"Huyện Hũu Lũng","lat":"21.54474000","lon":"106.34386000"},
{"state":"Lạng Sơn","name":"Huyện Vặn Quan","lat":"21.83333000","lon":"106.54942000"},
{"state":"Lạng Sơn","name":"Lạng Sơn","lat":"21.85264000","lon":"106.76101000"},
{"state":"Lào Cai","name":"Huyện Bắc Hà","lat":"22.50998000","lon":"104.30769000"},
{"state":"Lào Cai","name":"Huyện Bảo Yên","lat":"22.26109000","lon":"104.46424000"},
{"state":"Lào Cai","name":"Huyện Bát Xát","lat":"22.56767000","lon":"103.71339000"},
{"state":"Lào Cai","name":"Huyện Mường Khương","lat":"22.67111000","lon":"104.11772000"},
{"state":"Lào Cai","name":"Huyện Sa Pa","lat":"22.33769000","lon":"103.84037000"},
{"state":"Lào Cai","name":"Huyện Si Ma Cai","lat":"22.67161000","lon":"104.27326000"},
{"state":"Lào Cai","name":"Huyện Văn Bàn","lat":"22.07002000","lon":"104.18122000"},
{"state":"Lào Cai","name":"Lào Cai","lat":"22.48556000","lon":"103.97066000"},
{"state":"Lào Cai","name":"Lao Chải","lat":"22.31377000","lon":"103.86844000"},
{"state":"Lào Cai","name":"Sa Pa","lat":"22.34023000","lon":"103.84415000"},
{"state":"Long An","name":"Cần Giuộc","lat":"10.60857000","lon":"106.67135000"},
{"state":"Long An","name":"Huyện Bến Lức","lat":"10.68858000","lon":"106.45484000"},
{"state":"Long An","name":"Huyện Cần Đước","lat":"10.54148000","lon":"106.59636000"},
{"state":"Long An","name":"Huyện Cần Giuộc","lat":"10.57742000","lon":"106.67279000"},
{"state":"Long An","name":"Huyện Châu Thành","lat":"10.45214000","lon":"106.49015000"},
{"state":"Long An","name":"Huyện Đức Hòa","lat":"10.87838000","lon":"106.42422000"},
{"state":"Long An","name":"Huyện Đức Huệ","lat":"10.86473000","lon":"106.25914000"},
{"state":"Long An","name":"Huyện Mộc Hóa","lat":"10.75166000","lon":"106.01729000"},
{"state":"Long An","name":"Huyện Tân Hưng","lat":"10.83380000","lon":"105.68848000"},
{"state":"Long An","name":"Huyện Tân Thạnh","lat":"10.60351000","lon":"105.96576000"},
{"state":"Long An","name":"Huyện Tân Trụ","lat":"10.53182000","lon":"106.51644000"},
{"state":"Long An","name":"Huyện Thạnh Hóa","lat":"10.66667000","lon":"106.16667000"},
{"state":"Long An","name":"Huyện Thủ Thừa","lat":"10.65639000","lon":"106.34580000"},
{"state":"Long An","name":"Huyện Vĩnh Hưng","lat":"10.88299000","lon":"105.80364000"},
{"state":"Long An","name":"Tân An","lat":"10.53589000","lon":"106.41366000"},
{"state":"Nam Định","name":"Huyện Giao Thủy","lat":"20.25706000","lon":"106.46245000"},
{"state":"Nam Định","name":"Huyện Hải Hậu","lat":"20.15057000","lon":"106.27161000"},
{"state":"Nam Định","name":"Huyện Mỹ Lộc","lat":"20.46079000","lon":"106.12319000"},
{"state":"Nam Định","name":"Huyện Nam Trực","lat":"20.34106000","lon":"106.20821000"},
{"state":"Nam Định","name":"Huyện Nghĩa Hưng","lat":"20.10598000","lon":"106.17345000"},
{"state":"Nam Định","name":"Huyện Trực Ninh","lat":"20.25690000","lon":"106.24582000"},
{"state":"Nam Định","name":"Huyện Vụ Bản","lat":"20.37705000","lon":"106.09707000"},
{"state":"Nam Định","name":"Huyện Ý Yên","lat":"20.31669000","lon":"106.02327000"},
{"state":"Nam Định","name":"Nam Định","lat":"20.43389000","lon":"106.17729000"},
{"state":"Nghệ An","name":"Huyện Anh Sơn","lat":"18.92902000","lon":"105.08294000"},
{"state":"Nghệ An","name":"Huyện Con Cuông","lat":"19.03898000","lon":"104.80353000"},
{"state":"Nghệ An","name":"Huyện Diễn Châu","lat":"18.98892000","lon":"105.57625000"},
{"state":"Nghệ An","name":"Huyện Đô Lương","lat":"18.89259000","lon":"105.34027000"},
{"state":"Nghệ An","name":"Huyện Hưng Nguyên","lat":"18.67811000","lon":"105.62523000"},
{"state":"Nghệ An","name":"Huyện Kỳ Sơn","lat":"19.42397000","lon":"104.22199000"},
{"state":"Nghệ An","name":"Huyện Nam Đàn","lat":"18.67041000","lon":"105.52575000"},
{"state":"Nghệ An","name":"Huyện Nghi Lộc","lat":"18.83131000","lon":"105.62411000"},
{"state":"Nghệ An","name":"Huyện Nghĩa Đàn","lat":"19.38234000","lon":"105.44072000"},
{"state":"Nghệ An","name":"Huyện Quế Phong","lat":"19.70177000","lon":"104.87913000"},
{"state":"Nghệ An","name":"Huyện Quỳ Châu","lat":"19.55707000","lon":"105.09173000"},
{"state":"Nghệ An","name":"Huyện Quỳ Hợp","lat":"19.32514000","lon":"105.16009000"},
{"state":"Nghệ An","name":"Huyện Quỳnh Lưu","lat":"19.22717000","lon":"105.64354000"},
{"state":"Nghệ An","name":"Huyện Thanh Chương","lat":"18.73929000","lon":"105.24053000"},
{"state":"Nghệ An","name":"Huyện Tương Dương","lat":"19.30979000","lon":"104.57788000"},
{"state":"Nghệ An","name":"Huyện Yên Thành","lat":"19.02724000","lon":"105.43649000"},
{"state":"Nghệ An","name":"Vinh","lat":"18.67337000","lon":"105.69232000"},
{"state":"Nghệ An","name":"Yên Vinh","lat":"18.66667000","lon":"105.66667000"},
{"state":"Ninh Bình","name":"Huyện Hoa Lư","lat":"20.25391000","lon":"105.90789000"},
{"state":"Ninh Bình","name":"Huyện Kim Sơn","lat":"20.06034000","lon":"106.09863000"},
{"state":"Ninh Bình","name":"Huyện Nho Quan","lat":"20.27606000","lon":"105.75442000"},
{"state":"Ninh Bình","name":"Huyện Yên Khánh","lat":"20.19017000","lon":"106.09605000"},
{"state":"Ninh Bình","name":"Huyện Yên Mô","lat":"20.12984000","lon":"106.00199000"},
{"state":"Ninh Bình","name":"Ninh Bình","lat":"20.25809000","lon":"105.97965000"},
{"state":"Ninh Thuận","name":"Phan Rang-Tháp Chàm","lat":"11.56432000","lon":"108.98858000"},
{"state":"Phú Thọ","name":"Huyện Cẩm Khê","lat":"21.40683000","lon":"105.09845000"},
{"state":"Phú Thọ","name":"Huyện Đoan Hùng","lat":"21.61776000","lon":"105.16110000"},
{"state":"Phú Thọ","name":"Huyện Hạ Hòa","lat":"21.57763000","lon":"104.99464000"},
{"state":"Phú Thọ","name":"Huyen Lam Thao","lat":"21.29971000","lon":"105.31119000"},
{"state":"Phú Thọ","name":"Huyện Thanh Ba","lat":"21.47816000","lon":"105.15881000"},
{"state":"Phú Thọ","name":"Huyện Yên Lập","lat":"21.35569000","lon":"105.00493000"},
{"state":"Phú Thọ","name":"Thành Phố Việt Trì","lat":"21.32958000","lon":"105.39217000"},
{"state":"Phú Thọ","name":"Thị xã Phú Thọ","lat":"21.41664000","lon":"105.23636000"},
{"state":"Phú Thọ","name":"Việt Trì","lat":"21.32274000","lon":"105.40198000"},
{"state":"Phú Yên","name":"Huyện Sơn Hòa","lat":"13.15868000","lon":"108.97281000"},
{"state":"Phú Yên","name":"Huyện Sông Hinh","lat":"12.91667000","lon":"108.91667000"},
{"state":"Phú Yên","name":"Sông Cầu","lat":"13.45560000","lon":"109.22348000"},
{"state":"Phú Yên","name":"Tuy Hòa","lat":"13.09546000","lon":"109.32094000"},
{"state":"Quảng Bình","name":"Huyện Lệ Thủy","lat":"17.11239000","lon":"106.70471000"},
{"state":"Quảng Bình","name":"Huyện Quảng Ninh","lat":"17.27067000","lon":"106.51387000"},
{"state":"Quảng Bình","name":"Huyện Quảng Trạch","lat":"17.83447000","lon":"106.36705000"},
{"state":"Quảng Bình","name":"Huyện Tuyên Hóa","lat":"17.91323000","lon":"106.02678000"},
{"state":"Quảng Bình","name":"Kwang Binh","lat":"17.46885000","lon":"106.62226000"},
{"state":"Quảng Nam","name":"Hội An","lat":"15.87944000","lon":"108.33500000"},
{"state":"Quảng Nam","name":"Huyện Duy Xuyên","lat":"15.78970000","lon":"108.20247000"},
{"state":"Quảng Nam","name":"Huyện Đại Lộc","lat":"15.83721000","lon":"107.97894000"},
{"state":"Quảng Nam","name":"Huyện Điện Bàn","lat":"15.89917000","lon":"108.22470000"},
{"state":"Quảng Nam","name":"Huyện Hiệp Đức","lat":"15.53857000","lon":"108.09539000"},
{"state":"Quảng Nam","name":"Huyện Nam Giang","lat":"15.63201000","lon":"107.60267000"},
{"state":"Quảng Nam","name":"Huyện Núi Thành","lat":"15.43345000","lon":"108.57438000"},
{"state":"Quảng Nam","name":"Huyện Phước Sơn","lat":"15.38806000","lon":"107.85766000"},
{"state":"Quảng Nam","name":"Huyện Tiên Phước","lat":"15.47090000","lon":"108.28257000"},
{"state":"Quảng Nam","name":"Huyện Trà My","lat":"15.25000000","lon":"108.08333000"},
{"state":"Quảng Nam","name":"Tam Kỳ","lat":"15.57364000","lon":"108.47403000"},
{"state":"Quảng Ngãi","name":"Huyện Ba Tơ","lat":"14.73973000","lon":"108.69326000"},
{"state":"Quảng Ngãi","name":"Huyện Bình Sơn","lat":"15.31899000","lon":"108.76383000"},
{"state":"Quảng Ngãi","name":"Huyện Đức Phổ","lat":"14.78000000","lon":"108.97857000"},
{"state":"Quảng Ngãi","name":"Huyện Lý Sơn","lat":"15.40608000","lon":"109.09707000"},
{"state":"Quảng Ngãi","name":"Huyện Minh Long","lat":"14.95375000","lon":"108.67724000"},
{"state":"Quảng Ngãi","name":"Huyện Mộ Đức","lat":"14.95515000","lon":"108.88841000"},
{"state":"Quảng Ngãi","name":"Huyện Nghĩa Hành","lat":"14.98712000","lon":"108.80036000"},
{"state":"Quảng Ngãi","name":"Huyện Sơn Hà","lat":"14.98427000","lon":"108.53643000"},
{"state":"Quảng Ngãi","name":"Huyện Sơn Tây","lat":"14.96392000","lon":"108.36419000"},
{"state":"Quảng Ngãi","name":"Huyện Sơn Tịnh","lat":"15.19090000","lon":"108.74295000"},
{"state":"Quảng Ngãi","name":"Huyện Trà Bồng","lat":"15.23752000","lon":"108.52633000"},
{"state":"Quảng Ngãi","name":"Huyện Tư Nghĩa","lat":"15.09499000","lon":"108.77053000"},
{"state":"Quảng Ngãi","name":"Quảng Ngãi","lat":"15.12047000","lon":"108.79232000"},
{"state":"Quảng Ninh","name":"Cẩm Phả","lat":"21.01004000","lon":"107.27345000"},
{"state":"Quảng Ninh","name":"Cẩm Phả Mines","lat":"21.01667000","lon":"107.30000000"},
{"state":"Quảng Ninh","name":"Hạ Long","lat":"20.95045000","lon":"107.07336000"},
{"state":"Quảng Ninh","name":"Huyện Ba Chẽ","lat":"21.29503000","lon":"107.19298000"},
{"state":"Quảng Ninh","name":"Huyện Bình Liêu","lat":"21.54389000","lon":"107.44047000"},
{"state":"Quảng Ninh","name":"Huyện Cô Tô","lat":"21.05418000","lon":"107.80698000"},
{"state":"Quảng Ninh","name":"Huyện Đầm Hà","lat":"21.39689000","lon":"107.56175000"},
{"state":"Quảng Ninh","name":"Huyện Đông Triều","lat":"21.11043000","lon":"106.59662000"},
{"state":"Quảng Ninh","name":"Huyện Hải Hà","lat":"21.49537000","lon":"107.66790000"},
{"state":"Quảng Ninh","name":"Huyện Hoành Bồ","lat":"21.11888000","lon":"107.03149000"},
{"state":"Quảng Ninh","name":"Huyện Tiên Yên","lat":"21.37571000","lon":"107.37468000"},
{"state":"Quảng Ninh","name":"Huyện Vân Đồn","lat":"21.04921000","lon":"107.50971000"},
{"state":"Quảng Ninh","name":"Móng Cái","lat":"21.52471000","lon":"107.96619000"},
{"state":"Quảng Ninh","name":"Thành Phố Uông Bí","lat":"21.03433000","lon":"106.77049000"},
{"state":"Quảng Trị","name":"Ðông Hà","lat":"16.81625000","lon":"107.10031000"},
{"state":"Quảng Trị","name":"Huyện Cam Lộ","lat":"16.79335000","lon":"106.96175000"},
{"state":"Quảng Trị","name":"Huyện Đa Krông","lat":"16.55543000","lon":"106.97208000"},
{"state":"Quảng Trị","name":"Huyện Gio Linh","lat":"16.91667000","lon":"107.00000000"},
{"state":"Quảng Trị","name":"Huyện Hải Lăng","lat":"16.67574000","lon":"107.23388000"},
{"state":"Quảng Trị","name":"Huyện Hướng Hóa","lat":"16.70132000","lon":"106.67036000"},
{"state":"Quảng Trị","name":"Huyện Triệu Phong","lat":"16.78132000","lon":"107.16034000"},
{"state":"Quảng Trị","name":"Huyện Vĩnh Linh","lat":"17.01600000","lon":"106.93384000"},
{"state":"Sóc Trăng","name":"Huyện Kế Sách","lat":"9.81771000","lon":"105.94190000"},
{"state":"Sóc Trăng","name":"Huyện Long Phú","lat":"9.63715000","lon":"106.08226000"},
{"state":"Sóc Trăng","name":"Huyện Mỹ Tú","lat":"9.60849000","lon":"105.80681000"},
{"state":"Sóc Trăng","name":"Huyện Mỹ Xuyên","lat":"9.44200000","lon":"105.88546000"},
{"state":"Sóc Trăng","name":"Huyen Nga Nam","lat":"9.56127000","lon":"105.59476000"},
{"state":"Sóc Trăng","name":"Huyện Thạnh Trị","lat":"9.46939000","lon":"105.71196000"},
{"state":"Sóc Trăng","name":"Sóc Trăng","lat":"9.59995000","lon":"105.97193000"},
{"state":"Sơn La","name":"Huyện Bắc Yên","lat":"21.25042000","lon":"104.38501000"},
{"state":"Sơn La","name":"Huyện Mai Sơn","lat":"21.15884000","lon":"104.04821000"},
{"state":"Sơn La","name":"Huyện Mộc Châu","lat":"21.83333000","lon":"104.75000000"},
{"state":"Sơn La","name":"Huyện Mường La","lat":"21.52960000","lon":"104.11113000"},
{"state":"Sơn La","name":"Huyện Phù Yên","lat":"21.21412000","lon":"104.68993000"},
{"state":"Sơn La","name":"Huyện Quỳnh Nhai","lat":"21.77224000","lon":"103.64920000"},
{"state":"Sơn La","name":"Huyện Sông Mã","lat":"21.06971000","lon":"103.68727000"},
{"state":"Sơn La","name":"Huyện Thuận Châu","lat":"21.42319000","lon":"103.64408000"},
{"state":"Sơn La","name":"Huyện Yên Châu","lat":"21.00500000","lon":"104.33264000"},
{"state":"Sơn La","name":"Sơn La","lat":"21.32560000","lon":"103.91882000"},
{"state":"Tây Ninh","name":"Huyện Bến Cầu","lat":"11.12889000","lon":"106.14296000"},
{"state":"Tây Ninh","name":"Huyện Dương Minh Châu","lat":"11.31833000","lon":"106.25697000"},
{"state":"Tây Ninh","name":"Huyện Gò Dầu","lat":"11.15737000","lon":"106.27307000"},
{"state":"Tây Ninh","name":"Huyện Hòa Thành","lat":"11.26706000","lon":"106.14486000"},
{"state":"Tây Ninh","name":"Huyện Tân Châu","lat":"11.58739000","lon":"106.28270000"},
{"state":"Tây Ninh","name":"Huyện Trảng Bàng","lat":"11.05720000","lon":"106.37539000"},
{"state":"Tây Ninh","name":"Phú Khương","lat":"11.28333000","lon":"106.13333000"},
{"state":"Tây Ninh","name":"Tây Ninh","lat":"11.31004000","lon":"106.09828000"},
{"state":"Thái Bình","name":"Huyện Ðông Hưng","lat":"20.54388000","lon":"106.34090000"},
{"state":"Thái Bình","name":"Huyện Hưng Hà","lat":"20.59464000","lon":"106.21230000"},
{"state":"Thái Bình","name":"Huyện Kiến Xương","lat":"20.40081000","lon":"106.42032000"},
{"state":"Thái Bình","name":"Huyện Quỳnh Phụ","lat":"20.65095000","lon":"106.36359000"},
{"state":"Thái Bình","name":"Huyện Thái Thụy","lat":"20.53916000","lon":"106.51688000"},
{"state":"Thái Bình","name":"Huyện Tiền Hải","lat":"20.38465000","lon":"106.52882000"},
{"state":"Thái Bình","name":"Huyện Vũ Thư","lat":"20.43732000","lon":"106.26529000"},
{"state":"Thái Bình","name":"Thái Bình","lat":"20.45000000","lon":"106.34002000"},
{"state":"Thái Nguyên","name":"Thái Nguyên","lat":"21.59422000","lon":"105.84817000"},
{"state":"Thanh Hóa","name":"Bỉm Sơn","lat":"20.07806000","lon":"105.86028000"},
{"state":"Thanh Hóa","name":"Huyện Bá Thước","lat":"20.35767000","lon":"105.25301000"},
{"state":"Thanh Hóa","name":"Huyện Cẩm Thủy","lat":"20.19586000","lon":"105.46817000"},
{"state":"Thanh Hóa","name":"Huyện Đông Sơn","lat":"19.79742000","lon":"105.72465000"},
{"state":"Thanh Hóa","name":"Huyện Hà Trung","lat":"20.02654000","lon":"105.81931000"},
{"state":"Thanh Hóa","name":"Huyện Hậu Lộc","lat":"19.93337000","lon":"105.88894000"},
{"state":"Thanh Hóa","name":"Huyện Lang Chánh","lat":"20.15926000","lon":"105.15071000"},
{"state":"Thanh Hóa","name":"Huyện Mường Lát","lat":"20.52763000","lon":"104.62941000"},
{"state":"Thanh Hóa","name":"Huyện Nga Sơn","lat":"20.01561000","lon":"105.98975000"},
{"state":"Thanh Hóa","name":"Huyện Ngọc Lặc","lat":"20.06777000","lon":"105.37386000"},
{"state":"Thanh Hóa","name":"Huyện Như Thanh","lat":"19.57798000","lon":"105.55616000"},
{"state":"Thanh Hóa","name":"Huyện Như Xuân","lat":"19.62527000","lon":"105.38856000"},
{"state":"Thanh Hóa","name":"Huyện Nông Cống","lat":"19.61376000","lon":"105.68279000"},
{"state":"Thanh Hóa","name":"Huyện Quan Hóa","lat":"20.47565000","lon":"104.95335000"},
{"state":"Thanh Hóa","name":"Huyện Quan Sơn","lat":"20.25758000","lon":"104.83416000"},
{"state":"Thanh Hóa","name":"Huyện Quảng Xương","lat":"19.70252000","lon":"105.79298000"},
{"state":"Thanh Hóa","name":"Huyện Thiệu Hóa","lat":"19.89713000","lon":"105.68144000"},
{"state":"Thanh Hóa","name":"Huyện Thọ Xuân","lat":"19.93114000","lon":"105.48284000"},
{"state":"Thanh Hóa","name":"Huyện Thường Xuân","lat":"19.93684000","lon":"105.24109000"},
{"state":"Thanh Hóa","name":"Huyện Triệu Sơn","lat":"19.82578000","lon":"105.58293000"},
{"state":"Thanh Hóa","name":"Huyện Vĩnh Lộc","lat":"20.03482000","lon":"105.65755000"},
{"state":"Thanh Hóa","name":"Huyện Yên Định","lat":"19.98666000","lon":"105.61482000"},
{"state":"Thanh Hóa","name":"Thanh Hóa","lat":"19.80000000","lon":"105.76667000"},
{"state":"Thừa Thiên-Huế","name":"Huế","lat":"16.46190000","lon":"107.59546000"},
{"state":"Thừa Thiên-Huế","name":"Huyện A Lưới","lat":"16.23422000","lon":"107.30650000"},
{"state":"Thừa Thiên-Huế","name":"Huyện Nam Đông","lat":"16.12396000","lon":"107.69270000"},
{"state":"Thừa Thiên-Huế","name":"Huyện Phong Điền","lat":"16.48769000","lon":"107.28889000"},
{"state":"Thừa Thiên-Huế","name":"Huyện Phú Lộc","lat":"16.27066000","lon":"107.88545000"},
{"state":"Thừa Thiên-Huế","name":"Huyện Phú Vang","lat":"16.47007000","lon":"107.71458000"},
{"state":"Thừa Thiên-Huế","name":"Huyện Quảng Ðiền","lat":"16.57941000","lon":"107.49370000"},
{"state":"Tiền Giang","name":"Huyện Cái Bè","lat":"10.38824000","lon":"105.94620000"},
{"state":"Tiền Giang","name":"Huyện Cai Lậy","lat":"10.38943000","lon":"106.06774000"},
{"state":"Tiền Giang","name":"Huyện Châu Thành","lat":"10.38600000","lon":"106.27311000"},
{"state":"Tiền Giang","name":"Huyện Chợ Gạo","lat":"10.37373000","lon":"106.44341000"},
{"state":"Tiền Giang","name":"Huyện Gò Công Đông","lat":"10.36784000","lon":"106.74592000"},
{"state":"Tiền Giang","name":"Huyện Gò Công Tây","lat":"10.34527000","lon":"106.59851000"},
{"state":"Tiền Giang","name":"Huyện Tân Phước","lat":"10.51489000","lon":"106.23312000"},
{"state":"Tiền Giang","name":"Mỹ Tho","lat":"10.36004000","lon":"106.35996000"},
{"state":"Tiền Giang","name":"Thành Phố Mỹ Tho","lat":"10.36221000","lon":"106.36824000"},
{"state":"Tiền Giang","name":"Thị Xã Gò Công","lat":"10.40005000","lon":"106.65847000"},
{"state":"Trà Vinh","name":"Huyện Càng Long","lat":"9.95883000","lon":"106.21395000"},
{"state":"Trà Vinh","name":"Huyện Cầu Kè","lat":"9.86738000","lon":"106.07916000"},
{"state":"Trà Vinh","name":"Huyện Cầu Ngang","lat":"9.77186000","lon":"106.43654000"},
{"state":"Trà Vinh","name":"Huyện Tiểu Cần","lat":"9.80350000","lon":"106.20594000"},
{"state":"Trà Vinh","name":"Huyện Trà Cú","lat":"9.69706000","lon":"106.29423000"},
{"state":"Trà Vinh","name":"Trà Vinh","lat":"9.94719000","lon":"106.34225000"},
{"state":"Tuyên Quang","name":"Huyện Chiêm Hóa","lat":"22.17895000","lon":"105.27671000"},
{"state":"Tuyên Quang","name":"Huyện Hàm Yên","lat":"22.10935000","lon":"105.01630000"},
{"state":"Tuyên Quang","name":"Huyện Lâm Bình","lat":"22.46411000","lon":"105.21903000"},
{"state":"Tuyên Quang","name":"Huyện Na Hang","lat":"22.47522000","lon":"105.48380000"},
{"state":"Tuyên Quang","name":"Huyện Sơn Dương","lat":"21.63623000","lon":"105.38901000"},
{"state":"Tuyên Quang","name":"Huyện Yên Sơn","lat":"21.88363000","lon":"105.27656000"},
{"state":"Tuyên Quang","name":"Tuyên Quang","lat":"21.82356000","lon":"105.21424000"},
{"state":"Vĩnh Long","name":"Huyện Long Hồ","lat":"10.21640000","lon":"105.98483000"},
{"state":"Vĩnh Long","name":"Huyện Mang Thít","lat":"10.18731000","lon":"106.07472000"},
{"state":"Vĩnh Long","name":"Huyện Tam Bình","lat":"10.08127000","lon":"105.95352000"},
{"state":"Vĩnh Long","name":"Huyện Trà Ôn","lat":"9.97522000","lon":"106.00957000"},
{"state":"Vĩnh Long","name":"Huyện Vũng Liêm","lat":"10.08717000","lon":"106.16038000"},
{"state":"Vĩnh Long","name":"Vĩnh Long","lat":"10.25369000","lon":"105.97220000"},
{"state":"Vĩnh Phúc","name":"Huyện Bình Xuyên","lat":"21.30561000","lon":"105.66225000"},
{"state":"Vĩnh Phúc","name":"Huyện Tam Dương","lat":"21.36189000","lon":"105.55690000"},
{"state":"Vĩnh Phúc","name":"Huyện Tam Đảo","lat":"21.45690000","lon":"105.59460000"},
{"state":"Vĩnh Phúc","name":"Huyện Yên Lạc","lat":"21.21845000","lon":"105.57586000"},
{"state":"Vĩnh Phúc","name":"Vĩnh Yên","lat":"21.30891000","lon":"105.60489000"},
{"state":"Yên Bái","name":"Huyện Lục Yên","lat":"22.10235000","lon":"104.72538000"},
{"state":"Yên Bái","name":"Huyện Mù Cang Chải","lat":"21.78815000","lon":"104.11998000"},
{"state":"Yên Bái","name":"Huyện Trạm Tấu","lat":"21.48553000","lon":"104.42756000"},
{"state":"Yên Bái","name":"Huyện Trấn Yên","lat":"21.66586000","lon":"104.79702000"},
{"state":"Yên Bái","name":"Huyện Văn Chấn","lat":"21.55722000","lon":"104.64038000"},
{"state":"Yên Bái","name":"Huyện Văn Yên","lat":"21.90022000","lon":"104.56669000"},
{"state":"Yên Bái","name":"Yên Bái","lat":"21.72288000","lon":"104.91130000"}]