[{"state":"A'ana","name":"Fasito‘outa","lat":"-13.81163000","lon":"-171.94063000"},
{"state":"A'ana","name":"Leulumoega","lat":"-13.82297000","lon":"-171.96127000"},
{"state":"A'ana","name":"Nofoali‘i","lat":"-13.82170000","lon":"-171.95873000"},
{"state":"A'ana","name":"Satapuala","lat":"-13.83535000","lon":"-171.97963000"},
{"state":"Aiga-i-le-Tai","name":"Mulifanua","lat":"-13.83183000","lon":"-172.03602000"},
{"state":"Atua","name":"Falefa","lat":"-13.88695000","lon":"-171.58805000"},
{"state":"Atua","name":"Lotofagā","lat":"-13.97643000","lon":"-171.85781000"},
{"state":"Atua","name":"Lufilufi","lat":"-13.87449000","lon":"-171.59857000"},
{"state":"Atua","name":"Solosolo","lat":"-13.87504000","lon":"-171.64181000"},
{"state":"Gaga'ifomauga","name":"Matavai","lat":"-14.03208000","lon":"-171.64768000"},
{"state":"Gaga'ifomauga","name":"Safotu","lat":"-13.45132000","lon":"-172.40177000"},
{"state":"Palauli","name":"Gataivai","lat":"-13.77360000","lon":"-172.38802000"},
{"state":"Palauli","name":"Vailoa","lat":"-13.75551000","lon":"-172.30698000"},
{"state":"Tuamasaga","name":"Afega","lat":"-13.79726000","lon":"-171.85308000"},
{"state":"Tuamasaga","name":"Apia","lat":"-13.83333000","lon":"-171.76666000"},
{"state":"Tuamasaga","name":"Malie","lat":"-13.80044000","lon":"-171.84690000"},
{"state":"Tuamasaga","name":"Vailima","lat":"-13.86417000","lon":"-171.76126000"},
{"state":"Tuamasaga","name":"Vaiusu","lat":"-13.82678000","lon":"-171.79333000"},
{"state":"Va'a-o-Fonoti","name":"Samamea","lat":"-13.93375000","lon":"-171.53122000"},
{"state":"Vaisigano","name":"Asau","lat":"-13.51963000","lon":"-172.63784000"}]