[{"name":"'Adan","native":null,"cities":[{"name":"Aden","native":null,"lat":"12.77944000","lon":"45.03667000"},{"name":"Al Buraiqeh","native":null,"lat":"12.80377000","lon":"44.77615000"},{"name":"Al Mansura","native":null,"lat":"12.85320000","lon":"44.97240000"},{"name":"Al Mualla","native":null,"lat":"12.65843000","lon":"43.42743000"},{"name":"Ash Shaikh Outhman","native":null,"lat":"12.88640000","lon":"45.01560000"},{"name":"Attawahi","native":null,"lat":"12.77410000","lon":"44.99410000"},{"name":"Craiter","native":null,"lat":"12.77310000","lon":"45.03810000"},{"name":"Dar Sad","native":null,"lat":"12.90700000","lon":"44.97840000"}]},{"name":"'Amran","native":null,"cities":[{"name":"‘Amrān","native":null,"lat":"15.65940000","lon":"43.94385000"},{"name":"Al Ashah","native":null,"lat":"16.32400000","lon":"43.78740000"},{"name":"Al Madan","native":null,"lat":"16.23280000","lon":"43.63900000"},{"name":"Al Qaflah","native":null,"lat":"16.33859000","lon":"43.70361000"},{"name":"As Sawd","native":null,"lat":"15.81340000","lon":"43.77700000"},{"name":"As Sudah","native":null,"lat":"15.96640000","lon":"43.77560000"},{"name":"Bani Suraim","native":null,"lat":"16.12530000","lon":"43.96020000"},{"name":"Dhi Bin","native":null,"lat":"16.02760000","lon":"44.15150000"},{"name":"Habur Zulaymah","native":null,"lat":"16.03500000","lon":"43.73380000"},{"name":"Harf Sufyan","native":null,"lat":"16.41389000","lon":"43.98571000"},{"name":"Hooth","native":null,"lat":"16.28397000","lon":"43.97811000"},{"name":"Iyal Surayh","native":null,"lat":"15.71460000","lon":"43.99740000"},{"name":"Jabal Iyal Yazid","native":null,"lat":"15.77170000","lon":"43.90510000"},{"name":"Khamir","native":null,"lat":"15.97653000","lon":"43.93371000"},{"name":"Kharif","native":null,"lat":"15.84700000","lon":"44.08220000"},{"name":"Maswar","native":null,"lat":"15.59860000","lon":"43.69250000"},{"name":"Raydah","native":null,"lat":"15.74056000","lon":"44.05634000"},{"name":"Shahārah","native":null,"lat":"16.18000000","lon":"43.70942000"},{"name":"Suwayr","native":null,"lat":"16.06110000","lon":"43.62120000"},{"name":"Thula","native":null,"lat":"15.60100000","lon":"43.82520000"}]},{"name":"Abyan","native":null,"cities":[{"name":"Ahwar","native":null,"lat":"13.68530000","lon":"46.75560000"},{"name":"Al Mahfad","native":null,"lat":"13.97050000","lon":"46.75600000"},{"name":"Al Wade'a","native":null,"lat":"13.71360000","lon":"46.01220000"},{"name":"Jawf al Maqbābah","native":null,"lat":"13.83783000","lon":"45.83488000"},{"name":"Jayshan","native":null,"lat":"14.16620000","lon":"46.17230000"},{"name":"Khanfir","native":null,"lat":"13.42049000","lon":"45.68707000"},{"name":"Lawdar","native":null,"lat":"13.80590000","lon":"45.80080000"},{"name":"Mudiyah","native":null,"lat":"13.90960000","lon":"46.21960000"},{"name":"Rasad","native":null,"lat":"13.72310000","lon":"45.28140000"},{"name":"Sarar","native":null,"lat":"13.58300000","lon":"45.35080000"},{"name":"Sibah","native":null,"lat":"13.80910000","lon":"45.40230000"},{"name":"Zingibar","native":null,"lat":"13.13420000","lon":"45.43040000"},{"name":"Zinjibār","native":null,"lat":"13.12871000","lon":"45.38073000"}]},{"name":"Al Bayda'","native":null,"cities":[{"name":"Al A'rsh","native":null,"lat":"14.36560000","lon":"44.77780000"},{"name":"Al Bayda","native":null,"lat":"13.98523000","lon":"45.57272000"},{"name":"Al Bayda City","native":null,"lat":"13.98490000","lon":"45.55660000"},{"name":"Al Bayḑā’","native":null,"lat":"13.93666000","lon":"45.54822000"},{"name":"Al Malagim","native":null,"lat":"14.36540000","lon":"45.38510000"},{"name":"Al Quraishyah","native":null,"lat":"14.60500000","lon":"44.88960000"},{"name":"Ar Ryashyyah","native":null,"lat":"14.24240000","lon":"44.77540000"},{"name":"As Sawadiyah","native":null,"lat":"14.45198000","lon":"45.36973000"},{"name":"As Sawma'ah","native":null,"lat":"14.16670000","lon":"45.83110000"},{"name":"Ash Sharafayn","native":null,"lat":"14.30697000","lon":"45.12634000"},{"name":"At Taffah","native":null,"lat":"14.19830000","lon":"45.35810000"},{"name":"Az Zahir","native":null,"lat":"13.99180000","lon":"45.42180000"},{"name":"Dhi Na'im","native":null,"lat":"14.11110000","lon":"45.46420000"},{"name":"Maswarah","native":null,"lat":"14.40270000","lon":"45.70330000"},{"name":"Mukayras","native":null,"lat":"14.03200000","lon":"45.79640000"},{"name":"Na'man","native":null,"lat":"14.59390000","lon":"45.52860000"},{"name":"Nati'","native":null,"lat":"14.55390000","lon":"45.58500000"},{"name":"Radā‘","native":null,"lat":"14.34000000","lon":"44.90874000"},{"name":"Radman Al Awad","native":null,"lat":"14.48360000","lon":"45.27440000"},{"name":"Sabah","native":null,"lat":"14.27590000","lon":"44.67000000"},{"name":"Wald Rabi'","native":null,"lat":"14.55574000","lon":"44.90596000"}]},{"name":"Al Hudaydah","native":null,"cities":[{"name":"Ad Dahi","native":null,"lat":"15.22320000","lon":"43.19350000"},{"name":"Ad Durayhimi","native":null,"lat":"14.60460000","lon":"43.07180000"},{"name":"Al Garrahi","native":null,"lat":"14.10580000","lon":"43.40940000"},{"name":"Al Hajjaylah","native":null,"lat":"14.99070000","lon":"43.58230000"},{"name":"Al Hali","native":null,"lat":"14.82500000","lon":"43.00140000"},{"name":"Al Hawak","native":null,"lat":"14.76010000","lon":"42.99780000"},{"name":"Al Ḩudaydah","native":null,"lat":"14.79781000","lon":"42.95452000"},{"name":"Al Mansuriyah","native":null,"lat":"14.69030000","lon":"43.36820000"},{"name":"Al Marawi'ah","native":null,"lat":"14.83460000","lon":"43.19650000"},{"name":"Al Mighlaf","native":null,"lat":"15.31110000","lon":"43.18360000"},{"name":"Al Mina","native":null,"lat":"14.80775000","lon":"42.93732000"},{"name":"Al Munirah","native":null,"lat":"15.35280000","lon":"42.90620000"},{"name":"Al Qanawis","native":null,"lat":"15.49206000","lon":"43.13782000"},{"name":"Alluheyah","native":null,"lat":"15.63628000","lon":"42.87157000"},{"name":"As Salif","native":null,"lat":"15.22882000","lon":"42.72542000"},{"name":"As Sukhnah","native":null,"lat":"14.74840000","lon":"43.33420000"},{"name":"At Tuhayat","native":null,"lat":"14.10994000","lon":"43.15979000"},{"name":"Az Zaydīyah","native":null,"lat":"15.29586000","lon":"43.06452000"},{"name":"Az Zuhrah","native":null,"lat":"15.71730000","lon":"43.06370000"},{"name":"Bājil","native":null,"lat":"15.07561000","lon":"43.17350000"},{"name":"Bayt al Faqīh","native":null,"lat":"14.48738000","lon":"43.27815000"},{"name":"Bura","native":null,"lat":"14.89820000","lon":"43.47530000"},{"name":"Hays","native":null,"lat":"13.93320000","lon":"43.49840000"},{"name":"Jabal Ra's","native":null,"lat":"14.03090000","lon":"43.62780000"},{"name":"Kamaran","native":null,"lat":"15.36050000","lon":"42.58540000"},{"name":"Zabīd","native":null,"lat":"14.27742000","lon":"43.36841000"}]},{"name":"Al Jawf","native":null,"cities":[{"name":"Al ‘Inān","native":null,"lat":"16.72189000","lon":"44.31252000"},{"name":"Al Ghayl","native":null,"lat":"16.09140000","lon":"44.68520000"},{"name":"Al Hazm","native":null,"lat":"16.03780000","lon":"44.95850000"},{"name":"Al Humaydat","native":null,"lat":"16.46670000","lon":"44.42990000"},{"name":"Al Khalq","native":null,"lat":"16.06810000","lon":"44.79700000"},{"name":"Al Maslub","native":null,"lat":"16.09610000","lon":"44.56670000"},{"name":"Al Matammah","native":null,"lat":"16.19840000","lon":"44.39020000"},{"name":"Al Maton","native":null,"lat":"16.28720000","lon":"44.63890000"},{"name":"Az Zahir","native":null,"lat":"16.33080000","lon":"44.52440000"},{"name":"Barţ al ‘Anān","native":null,"lat":"16.91972000","lon":"44.51882000"},{"name":"Khabb wa ash Sha'af","native":null,"lat":"16.59750000","lon":"45.78530000"},{"name":"Kharab Al Marashi","native":null,"lat":"16.61070000","lon":"44.22550000"},{"name":"Rajuzah","native":null,"lat":"16.63420000","lon":"44.50420000"}]},{"name":"Al Mahrah","native":null,"cities":[{"name":"Al Ghaydah","native":null,"lat":"16.26180000","lon":"52.08160000"},{"name":"Al Ghayz̧ah","native":null,"lat":"16.20787000","lon":"52.17605000"},{"name":"Al Masilah","native":null,"lat":"15.63990000","lon":"50.64450000"},{"name":"Hat","native":null,"lat":"17.80310000","lon":"51.67500000"},{"name":"Hawf","native":null,"lat":"16.69530000","lon":"52.81820000"},{"name":"Huswain","native":null,"lat":"15.72300000","lon":"51.91240000"},{"name":"Man'ar","native":null,"lat":"16.55050000","lon":"50.98790000"},{"name":"Qishn","native":null,"lat":"15.69990000","lon":"51.32400000"},{"name":"Sayhut","native":null,"lat":"15.53450000","lon":"51.28690000"},{"name":"Shahan","native":null,"lat":"17.59230000","lon":"52.59400000"}]},{"name":"Al Mahwit","native":null,"cities":[{"name":"Al Khabt","native":null,"lat":"15.48170000","lon":"43.36770000"},{"name":"Al Mahwait","native":null,"lat":"15.41170000","lon":"43.56630000"},{"name":"Al Maḩwīt","native":null,"lat":"15.47007000","lon":"43.54481000"},{"name":"Ar Rujum","native":null,"lat":"15.41010000","lon":"43.66060000"},{"name":"Aţ Ţawīlah","native":null,"lat":"15.44165000","lon":"43.77484000"},{"name":"Bani Sa'd","native":null,"lat":"15.23550000","lon":"43.51560000"},{"name":"Hufash","native":null,"lat":"15.37470000","lon":"43.42650000"},{"name":"Milhan","native":null,"lat":"15.32240000","lon":"43.33180000"},{"name":"Shibām Kawkabān","native":null,"lat":"15.50277000","lon":"43.84237000"}]},{"name":"Dhamar","native":null,"cities":[{"name":"‘Ans","native":null,"lat":"14.43606000","lon":"44.38889000"},{"name":"Al Hada","native":null,"lat":"14.80760000","lon":"44.56790000"},{"name":"Al Manar","native":null,"lat":"14.65300000","lon":"44.11640000"},{"name":"Al-Medy Village قرية المدي","native":null,"lat":"14.40152000","lon":"43.79178000"},{"name":"Dawran Aness","native":null,"lat":"14.82880000","lon":"44.11430000"},{"name":"Dhamār","native":null,"lat":"14.54274000","lon":"44.40514000"},{"name":"Jabal Ash sharq","native":null,"lat":"14.72960000","lon":"43.90620000"},{"name":"Jahran","native":null,"lat":"14.73310000","lon":"44.31430000"},{"name":"Maghirib Ans","native":null,"lat":"14.46530000","lon":"44.12330000"},{"name":"Mayfa'at Anss","native":null,"lat":"14.51520000","lon":"44.61060000"},{"name":"Utmah","native":null,"lat":"14.47380000","lon":"43.94830000"},{"name":"Wusab Al Ali","native":null,"lat":"14.33440000","lon":"43.79470000"},{"name":"Wusab As Safil","native":null,"lat":"14.25480000","lon":"43.63250000"}]},{"name":"Hadhramaut","native":null,"cities":[{"name":"Ad Dis","native":null,"lat":"15.09490000","lon":"50.01590000"},{"name":"Ad Dīs ash Sharqīyah","native":null,"lat":"14.90840000","lon":"49.94847000"},{"name":"Adh Dhlia'ah","native":null,"lat":"15.01390000","lon":"47.89720000"},{"name":"Al Abr","native":null,"lat":"15.91370000","lon":"47.22880000"},{"name":"Al Ḩamdī","native":null,"lat":"15.94727000","lon":"48.77965000"},{"name":"Al Mukalla","native":null,"lat":"14.72920000","lon":"48.91990000"},{"name":"Al Mukalla City","native":null,"lat":"14.62033000","lon":"49.24800000"},{"name":"Al Qaf","native":null,"lat":"17.42870000","lon":"48.94050000"},{"name":"Al Qatn","native":null,"lat":"15.92320000","lon":"48.21460000"},{"name":"Amd","native":null,"lat":"15.34860000","lon":"47.92860000"},{"name":"Ar Raydah Wa Qusayar","native":null,"lat":"15.18410000","lon":"50.31330000"},{"name":"As Sawm","native":null,"lat":"15.99800000","lon":"49.66860000"},{"name":"Ash Shihr","native":null,"lat":"14.97230000","lon":"49.55260000"},{"name":"At Taḩāluf","native":null,"lat":"15.93786000","lon":"48.78641000"},{"name":"Brom Mayfa","native":null,"lat":"14.34230000","lon":"48.72810000"},{"name":"Daw'an","native":null,"lat":"15.05070000","lon":"48.30720000"},{"name":"Ghayl Ba Wazir","native":null,"lat":"14.87780000","lon":"49.02450000"},{"name":"Ghayl Bin Yamin","native":null,"lat":"15.38960000","lon":"49.28540000"},{"name":"Hagr As Sai'ar","native":null,"lat":"16.30560000","lon":"47.95370000"},{"name":"Hajr","native":null,"lat":"14.47080000","lon":"48.27740000"},{"name":"Huraidhah","native":null,"lat":"15.55425000","lon":"48.17505000"},{"name":"Kilmia","native":null,"lat":"12.18576000","lon":"52.23332000"},{"name":"Mukalla","native":null,"lat":"14.54248000","lon":"49.12424000"},{"name":"Rakhyah","native":null,"lat":"15.46180000","lon":"47.77280000"},{"name":"Rumah","native":null,"lat":"17.81450000","lon":"51.07590000"},{"name":"Sah","native":null,"lat":"15.53420000","lon":"48.89550000"},{"name":"Sayun","native":null,"lat":"15.98310000","lon":"48.83150000"},{"name":"Shibam","native":null,"lat":"15.87030000","lon":"48.65340000"},{"name":"Suḩayl Shibām","native":null,"lat":"15.91448000","lon":"48.63864000"},{"name":"Tarim","native":null,"lat":"16.06600000","lon":"49.02290000"},{"name":"Thamud","native":null,"lat":"17.60310000","lon":"49.73610000"},{"name":"Wadi Al Ayn","native":null,"lat":"15.74033000","lon":"48.14747000"},{"name":"Yabuth","native":null,"lat":"14.71820000","lon":"47.73580000"},{"name":"Zamakh wa Manwakh","native":null,"lat":"17.20320000","lon":"47.70330000"}]},{"name":"Hajjah","native":null,"cities":[{"name":"Abs","native":null,"lat":"16.02150000","lon":"43.04850000"},{"name":"Aflah Al Yaman","native":null,"lat":"15.97890000","lon":"43.41110000"},{"name":"Aflah Ash Shawm","native":null,"lat":"16.05280000","lon":"43.41200000"},{"name":"Al Jamimah","native":null,"lat":"16.02840000","lon":"43.52970000"},{"name":"Al Maghrabah","native":null,"lat":"15.89370000","lon":"43.60910000"},{"name":"Al Mahabishah","native":null,"lat":"15.92870000","lon":"43.44800000"},{"name":"Al Miftah","native":null,"lat":"15.96100000","lon":"43.51470000"},{"name":"Ash Shaghadirah","native":null,"lat":"15.60610000","lon":"43.49920000"},{"name":"Ash Shahil","native":null,"lat":"15.85530000","lon":"43.45160000"},{"name":"Aslem","native":null,"lat":"16.06000000","lon":"43.29390000"},{"name":"Bakil Al Mir","native":null,"lat":"16.50690000","lon":"43.36150000"},{"name":"Banī al ‘Awwām","native":null,"lat":"15.58119000","lon":"43.58727000"},{"name":"Bani Al Awam","native":null,"lat":"15.58100000","lon":"43.60790000"},{"name":"Bani Qa'is","native":null,"lat":"15.63460000","lon":"43.33720000"},{"name":"Hajjah","native":null,"lat":"15.68160000","lon":"43.44996000"},{"name":"Harad District","native":null,"lat":"16.40447000","lon":"43.07739000"},{"name":"Hayran","native":null,"lat":"16.25080000","lon":"43.05990000"},{"name":"Khayran Al Muharraq","native":null,"lat":"16.08964000","lon":"43.35755000"},{"name":"Ku'aydinah","native":null,"lat":"15.81830000","lon":"43.35990000"},{"name":"Kuhlan Affar","native":null,"lat":"15.75540000","lon":"43.69700000"},{"name":"Kuhlan Ash Sharaf","native":null,"lat":"16.02310000","lon":"43.48630000"},{"name":"Kushar","native":null,"lat":"16.17090000","lon":"43.47200000"},{"name":"Mabyan","native":null,"lat":"15.77170000","lon":"43.55100000"},{"name":"Midi","native":null,"lat":"16.19202000","lon":"42.88913000"},{"name":"Mustaba","native":null,"lat":"16.27360000","lon":"43.26850000"},{"name":"Najrah","native":null,"lat":"15.65270000","lon":"43.54520000"},{"name":"Qafl Shamer","native":null,"lat":"15.90870000","lon":"43.36400000"},{"name":"Qarah","native":null,"lat":"16.40190000","lon":"43.47400000"},{"name":"Sharas","native":null,"lat":"15.72860000","lon":"43.65460000"},{"name":"Wadhrah","native":null,"lat":"15.71420000","lon":"43.46670000"},{"name":"Washḩah","native":null,"lat":"16.32158000","lon":"43.37555000"}]},{"name":"Ibb","native":null,"cities":[{"name":"Al ‘Udayn","native":null,"lat":"13.96112000","lon":"43.96608000"},{"name":"Al Dhihar","native":null,"lat":"13.97900000","lon":"44.15260000"},{"name":"Al Makhādir","native":null,"lat":"14.13965000","lon":"44.20330000"},{"name":"Al Mashannah","native":null,"lat":"13.95730000","lon":"44.17000000"},{"name":"Al Qafr","native":null,"lat":"14.31290000","lon":"44.03000000"},{"name":"An Nādirah","native":null,"lat":"14.07398000","lon":"44.49925000"},{"name":"Ar Radmah","native":null,"lat":"14.21200000","lon":"44.56420000"},{"name":"As Sabrah","native":null,"lat":"13.84270000","lon":"44.33860000"},{"name":"As Saddah","native":null,"lat":"14.16610000","lon":"44.37510000"},{"name":"As Sayyani","native":null,"lat":"13.82240000","lon":"44.21180000"},{"name":"Ash Sha'ir","native":null,"lat":"14.03180000","lon":"44.36190000"},{"name":"Ba'dan","native":null,"lat":"13.98870000","lon":"44.32360000"},{"name":"Dhī as Sufāl","native":null,"lat":"13.82137000","lon":"44.07775000"},{"name":"Far Al Udayn","native":null,"lat":"13.95780000","lon":"43.78270000"},{"name":"Hazm Al Udayn","native":null,"lat":"14.16984000","lon":"43.93814000"},{"name":"Hubaysh","native":null,"lat":"14.11600000","lon":"44.08240000"},{"name":"Ibb","native":null,"lat":"13.96667000","lon":"44.18333000"},{"name":"Jiblah","native":null,"lat":"13.91480000","lon":"44.12130000"},{"name":"Mudhaykhirah","native":null,"lat":"13.86608000","lon":"43.96866000"},{"name":"Yarīm","native":null,"lat":"14.25388000","lon":"44.31176000"}]},{"name":"Lahij","native":null,"cities":[{"name":"Al  Hawtah","native":null,"lat":"13.06240000","lon":"44.88160000"},{"name":"Al Ḩabīlayn","native":null,"lat":"13.52002000","lon":"44.85076000"},{"name":"Al Had","native":null,"lat":"13.97830000","lon":"45.25530000"},{"name":"Al Madaribah Wa Al Arah","native":null,"lat":"12.85690000","lon":"43.99060000"},{"name":"Al Maflahy","native":null,"lat":"13.77670000","lon":"45.10880000"},{"name":"Al Maqatirah","native":null,"lat":"13.13720000","lon":"44.14040000"},{"name":"Al Milah","native":null,"lat":"13.32020000","lon":"44.92670000"},{"name":"Al Musaymir","native":null,"lat":"13.42910000","lon":"44.59140000"},{"name":"Al Qabbaytah","native":null,"lat":"13.32750000","lon":"44.50250000"},{"name":"Habil Jabr","native":null,"lat":"13.59210000","lon":"45.07370000"},{"name":"Halimayn","native":null,"lat":"13.70880000","lon":"44.94430000"},{"name":"Laḩij","native":null,"lat":"13.05667000","lon":"44.88194000"},{"name":"Radfan","native":null,"lat":"13.46670000","lon":"44.99000000"},{"name":"Tuban","native":null,"lat":"13.09210000","lon":"44.87840000"},{"name":"Tur Al Bahah","native":null,"lat":"13.04269000","lon":"44.41154000"},{"name":"Yafa'a","native":null,"lat":"13.86200000","lon":"45.20140000"},{"name":"Yahr","native":null,"lat":"13.72270000","lon":"45.13050000"}]},{"name":"Ma'rib","native":null,"cities":[{"name":"Al Abdiyah","native":null,"lat":"14.71700000","lon":"45.39340000"},{"name":"Al Jubah","native":null,"lat":"15.12490000","lon":"45.28680000"},{"name":"Bidbadah","native":null,"lat":"15.39810000","lon":"44.74730000"},{"name":"Ḩarīb","native":null,"lat":"14.93045000","lon":"45.36820000"},{"name":"Harib Al Qaramish","native":null,"lat":"15.47350000","lon":"44.61530000"},{"name":"Jabal Murad","native":null,"lat":"15.04740000","lon":"45.18870000"},{"name":"Ma'rib","native":null,"lat":"15.46253000","lon":"45.32581000"},{"name":"Mahliyah","native":null,"lat":"14.68210000","lon":"45.18320000"},{"name":"Majzar","native":null,"lat":"15.82770000","lon":"44.79410000"},{"name":"Marib","native":null,"lat":"15.62130000","lon":"46.01110000"},{"name":"Marib City","native":null,"lat":"15.41560000","lon":"45.30340000"},{"name":"Medghal","native":null,"lat":"15.63840000","lon":"45.00380000"},{"name":"Raghwan","native":null,"lat":"15.79020000","lon":"45.06940000"},{"name":"Rahabah","native":null,"lat":"14.95100000","lon":"45.08850000"},{"name":"Sirwah","native":null,"lat":"15.43690000","lon":"45.01150000"}]},{"name":"Raymah","native":null,"cities":[{"name":"Al Jabin","native":null,"lat":"14.68990000","lon":"43.61960000"},{"name":"Al Jafariyah","native":null,"lat":"14.51960000","lon":"43.58170000"},{"name":"As Salafiyah","native":null,"lat":"14.68660000","lon":"43.82160000"},{"name":"Bilad At Ta'am","native":null,"lat":"14.83820000","lon":"43.60780000"},{"name":"Kusmah","native":null,"lat":"14.54740000","lon":"43.68330000"},{"name":"Mazhar","native":null,"lat":"14.57090000","lon":"43.76070000"}]},{"name":"Saada","native":null,"cities":[{"name":"Al Dhaher","native":null,"lat":"16.73140000","lon":"43.27530000"},{"name":"Al Hashwah","native":null,"lat":"16.88840000","lon":"44.27380000"},{"name":"As Safra","native":null,"lat":"17.01420000","lon":"43.85660000"},{"name":"Ash Shawātī","native":null,"lat":"16.78314000","lon":"43.81265000"},{"name":"Baqim","native":null,"lat":"17.37810000","lon":"43.46350000"},{"name":"Ghamr","native":null,"lat":"16.98301000","lon":"43.31608000"},{"name":"Haydan","native":null,"lat":"16.72870000","lon":"43.48490000"},{"name":"Kitaf wa Al Boqe'e","native":null,"lat":"17.08080000","lon":"44.39620000"},{"name":"Majz","native":null,"lat":"17.09230000","lon":"43.51040000"},{"name":"Monabbih","native":null,"lat":"17.16930000","lon":"43.27910000"},{"name":"Qatabir","native":null,"lat":"17.33680000","lon":"43.33110000"},{"name":"Rāziḩ","native":null,"lat":"16.93704000","lon":"43.26080000"},{"name":"Sa'dah","native":null,"lat":"16.94021000","lon":"43.76393000"},{"name":"Şa‘dah","native":null,"lat":"16.91733000","lon":"43.76000000"},{"name":"Saḩār","native":null,"lat":"16.88522000","lon":"43.68306000"},{"name":"Saqayn","native":null,"lat":"16.86010000","lon":"43.47160000"},{"name":"Shada'a","native":null,"lat":"16.89130000","lon":"43.18710000"}]},{"name":"Sana'a","native":null,"cities":[{"name":"Al Haymah Ad Dakhiliyah","native":null,"lat":"15.27220000","lon":"43.83930000"},{"name":"Al Haymah Al Kharijiyah","native":null,"lat":"15.02670000","lon":"43.85000000"},{"name":"Al Husn","native":null,"lat":"15.02060000","lon":"44.50440000"},{"name":"Al Khāniq","native":null,"lat":"15.50253000","lon":"44.18158000"},{"name":"Arhab","native":null,"lat":"15.79950000","lon":"44.24660000"},{"name":"Attyal","native":null,"lat":"15.32931000","lon":"44.57739000"},{"name":"Bani Dhabyan","native":null,"lat":"15.04810000","lon":"44.87180000"},{"name":"Bani Hushaysh","native":null,"lat":"15.45050000","lon":"44.37820000"},{"name":"Bani Matar","native":null,"lat":"15.21500000","lon":"44.04980000"},{"name":"Bilad Ar Rus","native":null,"lat":"15.03510000","lon":"44.25140000"},{"name":"Hamdān","native":null,"lat":"15.50662000","lon":"44.06030000"},{"name":"Jihanah","native":null,"lat":"15.19190000","lon":"44.51950000"},{"name":"Khwlan","native":null,"lat":"15.27490000","lon":"44.76860000"},{"name":"Manakhah","native":null,"lat":"15.07170000","lon":"43.68620000"},{"name":"Nihm","native":null,"lat":"15.75160000","lon":"44.57460000"},{"name":"Sa'fan","native":null,"lat":"15.07120000","lon":"43.58270000"},{"name":"Saḩar","native":null,"lat":"15.31637000","lon":"44.30880000"},{"name":"Sanaa","native":null,"lat":"15.35472000","lon":"44.20667000"},{"name":"Sanhan","native":null,"lat":"15.22520000","lon":"44.30570000"},{"name":"Sayyān","native":null,"lat":"15.17177000","lon":"44.32442000"}]},{"name":"Sana'a","native":null,"cities":[]},{"name":"Shabwah","native":null,"cities":[{"name":"Ain","native":null,"lat":"14.95030000","lon":"45.60040000"},{"name":"Al ‘Āqir","native":null,"lat":"14.56816000","lon":"45.91156000"},{"name":"Al Talh","native":null,"lat":"15.08260000","lon":"47.35140000"},{"name":"AL-khashā upper","native":null,"lat":"14.34044000","lon":"46.71365000"},{"name":"Ar Rawdah","native":null,"lat":"14.49560000","lon":"47.27460000"},{"name":"Arma","native":null,"lat":"15.41270000","lon":"47.23450000"},{"name":"As Said","native":null,"lat":"14.27660000","lon":"46.86930000"},{"name":"Ataq","native":null,"lat":"14.53767000","lon":"46.83187000"},{"name":"Bayhan","native":null,"lat":"14.76190000","lon":"45.74820000"},{"name":"Dhar","native":null,"lat":"15.50360000","lon":"47.60580000"},{"name":"Habban","native":null,"lat":"14.28780000","lon":"47.13610000"},{"name":"Hatib","native":null,"lat":"14.18020000","lon":"46.44390000"},{"name":"Jardan","native":null,"lat":"15.19000000","lon":"46.73380000"},{"name":"Khimār","native":null,"lat":"14.31980000","lon":"46.73922000"},{"name":"Mayfa'a","native":null,"lat":"14.39780000","lon":"47.74040000"},{"name":"Merkhah Al Ulya","native":null,"lat":"14.48470000","lon":"45.92990000"},{"name":"Merkhah As Sufla","native":null,"lat":"14.69990000","lon":"46.15630000"},{"name":"Nisab","native":null,"lat":"14.52570000","lon":"46.44770000"},{"name":"Rudum","native":null,"lat":"14.03759000","lon":"47.83824000"},{"name":"Usaylan","native":null,"lat":"15.17030000","lon":"46.02740000"}]},{"name":"Socotra","native":null,"cities":[{"name":"Hadibu","native":null,"lat":"12.64881000","lon":"54.01895000"},{"name":"Hidaybu","native":null,"lat":"12.50250000","lon":"54.00820000"},{"name":"Qalansīyah","native":null,"lat":"12.68958000","lon":"53.48709000"},{"name":"Qulensya Wa Abd Al Kuri","native":null,"lat":"12.55479000","lon":"53.58671000"}]},{"name":"Ta'izz","native":null,"cities":[{"name":"Al Ma'afer","native":null,"lat":"13.37420000","lon":"43.92620000"},{"name":"Al Mawasit","native":null,"lat":"13.30420000","lon":"44.10050000"},{"name":"Al Misrakh","native":null,"lat":"13.47020000","lon":"44.03770000"},{"name":"Al Mudhaffar","native":null,"lat":"13.58310000","lon":"43.99270000"},{"name":"Al Mukhā’","native":null,"lat":"13.51998000","lon":"43.42798000"},{"name":"Al Qahirah","native":null,"lat":"13.58490000","lon":"44.01010000"},{"name":"Al Wazi'iyah","native":null,"lat":"13.18460000","lon":"43.72980000"},{"name":"As Silw","native":null,"lat":"13.34590000","lon":"44.20720000"},{"name":"Ash Shamayatayn","native":null,"lat":"13.18220000","lon":"43.98000000"},{"name":"At Ta‘izzīyah","native":null,"lat":"13.69479000","lon":"44.00941000"},{"name":"Dhubab","native":null,"lat":"12.96590000","lon":"43.47240000"},{"name":"Dimnat Khadir","native":null,"lat":"13.43860000","lon":"44.25420000"},{"name":"Hayfan","native":null,"lat":"13.29060000","lon":"44.26070000"},{"name":"Jabal Habashy","native":null,"lat":"13.46650000","lon":"43.88100000"},{"name":"Maqbanah","native":null,"lat":"13.62120000","lon":"43.66740000"},{"name":"Mashra'a Wa Hadnan","native":null,"lat":"13.54170000","lon":"43.99830000"},{"name":"Māwīyah","native":null,"lat":"13.58461000","lon":"44.31912000"},{"name":"Mawza","native":null,"lat":"13.37820000","lon":"43.61450000"},{"name":"Sabir Al Mawadim","native":null,"lat":"13.53180000","lon":"44.04620000"},{"name":"Salh","native":null,"lat":"13.58390000","lon":"44.04020000"},{"name":"Sama","native":null,"lat":"13.38090000","lon":"44.11660000"},{"name":"Shara'b Ar Rawnah","native":null,"lat":"13.73360000","lon":"43.76720000"},{"name":"Shara'b As Salam","native":null,"lat":"13.78320000","lon":"43.88610000"},{"name":"Ta‘izz","native":null,"lat":"13.57952000","lon":"44.02091000"},{"name":"Village of ALAMRAH","native":null,"lat":"13.74318000","lon":"43.72992000"}]}]