[{"state":"'Adan","name":"Aden","lat":"12.77944000","lon":"45.03667000"},
{"state":"'Adan","name":"Al Buraiqeh","lat":"12.80377000","lon":"44.77615000"},
{"state":"'Adan","name":"Al Mansura","lat":"12.85320000","lon":"44.97240000"},
{"state":"'Adan","name":"Al Mualla","lat":"12.65843000","lon":"43.42743000"},
{"state":"'Adan","name":"Ash Shaikh Outhman","lat":"12.88640000","lon":"45.01560000"},
{"state":"'Adan","name":"Attawahi","lat":"12.77410000","lon":"44.99410000"},
{"state":"'Adan","name":"Craiter","lat":"12.77310000","lon":"45.03810000"},
{"state":"'Adan","name":"Dar Sad","lat":"12.90700000","lon":"44.97840000"},
{"state":"'Amran","name":"‘Amrān","lat":"15.65940000","lon":"43.94385000"},
{"state":"'Amran","name":"Al Ashah","lat":"16.32400000","lon":"43.78740000"},
{"state":"'Amran","name":"Al Madan","lat":"16.23280000","lon":"43.63900000"},
{"state":"'Amran","name":"Al Qaflah","lat":"16.33859000","lon":"43.70361000"},
{"state":"'Amran","name":"As Sawd","lat":"15.81340000","lon":"43.77700000"},
{"state":"'Amran","name":"As Sudah","lat":"15.96640000","lon":"43.77560000"},
{"state":"'Amran","name":"Bani Suraim","lat":"16.12530000","lon":"43.96020000"},
{"state":"'Amran","name":"Dhi Bin","lat":"16.02760000","lon":"44.15150000"},
{"state":"'Amran","name":"Habur Zulaymah","lat":"16.03500000","lon":"43.73380000"},
{"state":"'Amran","name":"Harf Sufyan","lat":"16.41389000","lon":"43.98571000"},
{"state":"'Amran","name":"Hooth","lat":"16.28397000","lon":"43.97811000"},
{"state":"'Amran","name":"Iyal Surayh","lat":"15.71460000","lon":"43.99740000"},
{"state":"'Amran","name":"Jabal Iyal Yazid","lat":"15.77170000","lon":"43.90510000"},
{"state":"'Amran","name":"Khamir","lat":"15.97653000","lon":"43.93371000"},
{"state":"'Amran","name":"Kharif","lat":"15.84700000","lon":"44.08220000"},
{"state":"'Amran","name":"Maswar","lat":"15.59860000","lon":"43.69250000"},
{"state":"'Amran","name":"Raydah","lat":"15.74056000","lon":"44.05634000"},
{"state":"'Amran","name":"Shahārah","lat":"16.18000000","lon":"43.70942000"},
{"state":"'Amran","name":"Suwayr","lat":"16.06110000","lon":"43.62120000"},
{"state":"'Amran","name":"Thula","lat":"15.60100000","lon":"43.82520000"},
{"state":"Abyan","name":"Ahwar","lat":"13.68530000","lon":"46.75560000"},
{"state":"Abyan","name":"Al Mahfad","lat":"13.97050000","lon":"46.75600000"},
{"state":"Abyan","name":"Al Wade'a","lat":"13.71360000","lon":"46.01220000"},
{"state":"Abyan","name":"Jawf al Maqbābah","lat":"13.83783000","lon":"45.83488000"},
{"state":"Abyan","name":"Jayshan","lat":"14.16620000","lon":"46.17230000"},
{"state":"Abyan","name":"Khanfir","lat":"13.42049000","lon":"45.68707000"},
{"state":"Abyan","name":"Lawdar","lat":"13.80590000","lon":"45.80080000"},
{"state":"Abyan","name":"Mudiyah","lat":"13.90960000","lon":"46.21960000"},
{"state":"Abyan","name":"Rasad","lat":"13.72310000","lon":"45.28140000"},
{"state":"Abyan","name":"Sarar","lat":"13.58300000","lon":"45.35080000"},
{"state":"Abyan","name":"Sibah","lat":"13.80910000","lon":"45.40230000"},
{"state":"Abyan","name":"Zingibar","lat":"13.13420000","lon":"45.43040000"},
{"state":"Abyan","name":"Zinjibār","lat":"13.12871000","lon":"45.38073000"},
{"state":"Al Bayda'","name":"Al A'rsh","lat":"14.36560000","lon":"44.77780000"},
{"state":"Al Bayda'","name":"Al Bayda","lat":"13.98523000","lon":"45.57272000"},
{"state":"Al Bayda'","name":"Al Bayda City","lat":"13.98490000","lon":"45.55660000"},
{"state":"Al Bayda'","name":"Al Bayḑā’","lat":"13.93666000","lon":"45.54822000"},
{"state":"Al Bayda'","name":"Al Malagim","lat":"14.36540000","lon":"45.38510000"},
{"state":"Al Bayda'","name":"Al Quraishyah","lat":"14.60500000","lon":"44.88960000"},
{"state":"Al Bayda'","name":"Ar Ryashyyah","lat":"14.24240000","lon":"44.77540000"},
{"state":"Al Bayda'","name":"As Sawadiyah","lat":"14.45198000","lon":"45.36973000"},
{"state":"Al Bayda'","name":"As Sawma'ah","lat":"14.16670000","lon":"45.83110000"},
{"state":"Al Bayda'","name":"Ash Sharafayn","lat":"14.30697000","lon":"45.12634000"},
{"state":"Al Bayda'","name":"At Taffah","lat":"14.19830000","lon":"45.35810000"},
{"state":"Al Bayda'","name":"Az Zahir","lat":"13.99180000","lon":"45.42180000"},
{"state":"Al Bayda'","name":"Dhi Na'im","lat":"14.11110000","lon":"45.46420000"},
{"state":"Al Bayda'","name":"Maswarah","lat":"14.40270000","lon":"45.70330000"},
{"state":"Al Bayda'","name":"Mukayras","lat":"14.03200000","lon":"45.79640000"},
{"state":"Al Bayda'","name":"Na'man","lat":"14.59390000","lon":"45.52860000"},
{"state":"Al Bayda'","name":"Nati'","lat":"14.55390000","lon":"45.58500000"},
{"state":"Al Bayda'","name":"Radā‘","lat":"14.34000000","lon":"44.90874000"},
{"state":"Al Bayda'","name":"Radman Al Awad","lat":"14.48360000","lon":"45.27440000"},
{"state":"Al Bayda'","name":"Sabah","lat":"14.27590000","lon":"44.67000000"},
{"state":"Al Bayda'","name":"Wald Rabi'","lat":"14.55574000","lon":"44.90596000"},
{"state":"Al Hudaydah","name":"Ad Dahi","lat":"15.22320000","lon":"43.19350000"},
{"state":"Al Hudaydah","name":"Ad Durayhimi","lat":"14.60460000","lon":"43.07180000"},
{"state":"Al Hudaydah","name":"Al Garrahi","lat":"14.10580000","lon":"43.40940000"},
{"state":"Al Hudaydah","name":"Al Hajjaylah","lat":"14.99070000","lon":"43.58230000"},
{"state":"Al Hudaydah","name":"Al Hali","lat":"14.82500000","lon":"43.00140000"},
{"state":"Al Hudaydah","name":"Al Hawak","lat":"14.76010000","lon":"42.99780000"},
{"state":"Al Hudaydah","name":"Al Ḩudaydah","lat":"14.79781000","lon":"42.95452000"},
{"state":"Al Hudaydah","name":"Al Mansuriyah","lat":"14.69030000","lon":"43.36820000"},
{"state":"Al Hudaydah","name":"Al Marawi'ah","lat":"14.83460000","lon":"43.19650000"},
{"state":"Al Hudaydah","name":"Al Mighlaf","lat":"15.31110000","lon":"43.18360000"},
{"state":"Al Hudaydah","name":"Al Mina","lat":"14.80775000","lon":"42.93732000"},
{"state":"Al Hudaydah","name":"Al Munirah","lat":"15.35280000","lon":"42.90620000"},
{"state":"Al Hudaydah","name":"Al Qanawis","lat":"15.49206000","lon":"43.13782000"},
{"state":"Al Hudaydah","name":"Alluheyah","lat":"15.63628000","lon":"42.87157000"},
{"state":"Al Hudaydah","name":"As Salif","lat":"15.22882000","lon":"42.72542000"},
{"state":"Al Hudaydah","name":"As Sukhnah","lat":"14.74840000","lon":"43.33420000"},
{"state":"Al Hudaydah","name":"At Tuhayat","lat":"14.10994000","lon":"43.15979000"},
{"state":"Al Hudaydah","name":"Az Zaydīyah","lat":"15.29586000","lon":"43.06452000"},
{"state":"Al Hudaydah","name":"Az Zuhrah","lat":"15.71730000","lon":"43.06370000"},
{"state":"Al Hudaydah","name":"Bājil","lat":"15.07561000","lon":"43.17350000"},
{"state":"Al Hudaydah","name":"Bayt al Faqīh","lat":"14.48738000","lon":"43.27815000"},
{"state":"Al Hudaydah","name":"Bura","lat":"14.89820000","lon":"43.47530000"},
{"state":"Al Hudaydah","name":"Hays","lat":"13.93320000","lon":"43.49840000"},
{"state":"Al Hudaydah","name":"Jabal Ra's","lat":"14.03090000","lon":"43.62780000"},
{"state":"Al Hudaydah","name":"Kamaran","lat":"15.36050000","lon":"42.58540000"},
{"state":"Al Hudaydah","name":"Zabīd","lat":"14.27742000","lon":"43.36841000"},
{"state":"Al Jawf","name":"Al ‘Inān","lat":"16.72189000","lon":"44.31252000"},
{"state":"Al Jawf","name":"Al Ghayl","lat":"16.09140000","lon":"44.68520000"},
{"state":"Al Jawf","name":"Al Hazm","lat":"16.03780000","lon":"44.95850000"},
{"state":"Al Jawf","name":"Al Humaydat","lat":"16.46670000","lon":"44.42990000"},
{"state":"Al Jawf","name":"Al Khalq","lat":"16.06810000","lon":"44.79700000"},
{"state":"Al Jawf","name":"Al Maslub","lat":"16.09610000","lon":"44.56670000"},
{"state":"Al Jawf","name":"Al Matammah","lat":"16.19840000","lon":"44.39020000"},
{"state":"Al Jawf","name":"Al Maton","lat":"16.28720000","lon":"44.63890000"},
{"state":"Al Jawf","name":"Az Zahir","lat":"16.33080000","lon":"44.52440000"},
{"state":"Al Jawf","name":"Barţ al ‘Anān","lat":"16.91972000","lon":"44.51882000"},
{"state":"Al Jawf","name":"Khabb wa ash Sha'af","lat":"16.59750000","lon":"45.78530000"},
{"state":"Al Jawf","name":"Kharab Al Marashi","lat":"16.61070000","lon":"44.22550000"},
{"state":"Al Jawf","name":"Rajuzah","lat":"16.63420000","lon":"44.50420000"},
{"state":"Al Mahrah","name":"Al Ghaydah","lat":"16.26180000","lon":"52.08160000"},
{"state":"Al Mahrah","name":"Al Ghayz̧ah","lat":"16.20787000","lon":"52.17605000"},
{"state":"Al Mahrah","name":"Al Masilah","lat":"15.63990000","lon":"50.64450000"},
{"state":"Al Mahrah","name":"Hat","lat":"17.80310000","lon":"51.67500000"},
{"state":"Al Mahrah","name":"Hawf","lat":"16.69530000","lon":"52.81820000"},
{"state":"Al Mahrah","name":"Huswain","lat":"15.72300000","lon":"51.91240000"},
{"state":"Al Mahrah","name":"Man'ar","lat":"16.55050000","lon":"50.98790000"},
{"state":"Al Mahrah","name":"Qishn","lat":"15.69990000","lon":"51.32400000"},
{"state":"Al Mahrah","name":"Sayhut","lat":"15.53450000","lon":"51.28690000"},
{"state":"Al Mahrah","name":"Shahan","lat":"17.59230000","lon":"52.59400000"},
{"state":"Al Mahwit","name":"Al Khabt","lat":"15.48170000","lon":"43.36770000"},
{"state":"Al Mahwit","name":"Al Mahwait","lat":"15.41170000","lon":"43.56630000"},
{"state":"Al Mahwit","name":"Al Maḩwīt","lat":"15.47007000","lon":"43.54481000"},
{"state":"Al Mahwit","name":"Ar Rujum","lat":"15.41010000","lon":"43.66060000"},
{"state":"Al Mahwit","name":"Aţ Ţawīlah","lat":"15.44165000","lon":"43.77484000"},
{"state":"Al Mahwit","name":"Bani Sa'd","lat":"15.23550000","lon":"43.51560000"},
{"state":"Al Mahwit","name":"Hufash","lat":"15.37470000","lon":"43.42650000"},
{"state":"Al Mahwit","name":"Milhan","lat":"15.32240000","lon":"43.33180000"},
{"state":"Al Mahwit","name":"Shibām Kawkabān","lat":"15.50277000","lon":"43.84237000"},
{"state":"Dhamar","name":"‘Ans","lat":"14.43606000","lon":"44.38889000"},
{"state":"Dhamar","name":"Al Hada","lat":"14.80760000","lon":"44.56790000"},
{"state":"Dhamar","name":"Al Manar","lat":"14.65300000","lon":"44.11640000"},
{"state":"Dhamar","name":"Al-Medy Village قرية المدي","lat":"14.40152000","lon":"43.79178000"},
{"state":"Dhamar","name":"Dawran Aness","lat":"14.82880000","lon":"44.11430000"},
{"state":"Dhamar","name":"Dhamār","lat":"14.54274000","lon":"44.40514000"},
{"state":"Dhamar","name":"Jabal Ash sharq","lat":"14.72960000","lon":"43.90620000"},
{"state":"Dhamar","name":"Jahran","lat":"14.73310000","lon":"44.31430000"},
{"state":"Dhamar","name":"Maghirib Ans","lat":"14.46530000","lon":"44.12330000"},
{"state":"Dhamar","name":"Mayfa'at Anss","lat":"14.51520000","lon":"44.61060000"},
{"state":"Dhamar","name":"Utmah","lat":"14.47380000","lon":"43.94830000"},
{"state":"Dhamar","name":"Wusab Al Ali","lat":"14.33440000","lon":"43.79470000"},
{"state":"Dhamar","name":"Wusab As Safil","lat":"14.25480000","lon":"43.63250000"},
{"state":"Hadhramaut","name":"Ad Dis","lat":"15.09490000","lon":"50.01590000"},
{"state":"Hadhramaut","name":"Ad Dīs ash Sharqīyah","lat":"14.90840000","lon":"49.94847000"},
{"state":"Hadhramaut","name":"Adh Dhlia'ah","lat":"15.01390000","lon":"47.89720000"},
{"state":"Hadhramaut","name":"Al Abr","lat":"15.91370000","lon":"47.22880000"},
{"state":"Hadhramaut","name":"Al Ḩamdī","lat":"15.94727000","lon":"48.77965000"},
{"state":"Hadhramaut","name":"Al Mukalla","lat":"14.72920000","lon":"48.91990000"},
{"state":"Hadhramaut","name":"Al Mukalla City","lat":"14.62033000","lon":"49.24800000"},
{"state":"Hadhramaut","name":"Al Qaf","lat":"17.42870000","lon":"48.94050000"},
{"state":"Hadhramaut","name":"Al Qatn","lat":"15.92320000","lon":"48.21460000"},
{"state":"Hadhramaut","name":"Amd","lat":"15.34860000","lon":"47.92860000"},
{"state":"Hadhramaut","name":"Ar Raydah Wa Qusayar","lat":"15.18410000","lon":"50.31330000"},
{"state":"Hadhramaut","name":"As Sawm","lat":"15.99800000","lon":"49.66860000"},
{"state":"Hadhramaut","name":"Ash Shihr","lat":"14.97230000","lon":"49.55260000"},
{"state":"Hadhramaut","name":"At Taḩāluf","lat":"15.93786000","lon":"48.78641000"},
{"state":"Hadhramaut","name":"Brom Mayfa","lat":"14.34230000","lon":"48.72810000"},
{"state":"Hadhramaut","name":"Daw'an","lat":"15.05070000","lon":"48.30720000"},
{"state":"Hadhramaut","name":"Ghayl Ba Wazir","lat":"14.87780000","lon":"49.02450000"},
{"state":"Hadhramaut","name":"Ghayl Bin Yamin","lat":"15.38960000","lon":"49.28540000"},
{"state":"Hadhramaut","name":"Hagr As Sai'ar","lat":"16.30560000","lon":"47.95370000"},
{"state":"Hadhramaut","name":"Hajr","lat":"14.47080000","lon":"48.27740000"},
{"state":"Hadhramaut","name":"Huraidhah","lat":"15.55425000","lon":"48.17505000"},
{"state":"Hadhramaut","name":"Kilmia","lat":"12.18576000","lon":"52.23332000"},
{"state":"Hadhramaut","name":"Mukalla","lat":"14.54248000","lon":"49.12424000"},
{"state":"Hadhramaut","name":"Rakhyah","lat":"15.46180000","lon":"47.77280000"},
{"state":"Hadhramaut","name":"Rumah","lat":"17.81450000","lon":"51.07590000"},
{"state":"Hadhramaut","name":"Sah","lat":"15.53420000","lon":"48.89550000"},
{"state":"Hadhramaut","name":"Sayun","lat":"15.98310000","lon":"48.83150000"},
{"state":"Hadhramaut","name":"Shibam","lat":"15.87030000","lon":"48.65340000"},
{"state":"Hadhramaut","name":"Suḩayl Shibām","lat":"15.91448000","lon":"48.63864000"},
{"state":"Hadhramaut","name":"Tarim","lat":"16.06600000","lon":"49.02290000"},
{"state":"Hadhramaut","name":"Thamud","lat":"17.60310000","lon":"49.73610000"},
{"state":"Hadhramaut","name":"Wadi Al Ayn","lat":"15.74033000","lon":"48.14747000"},
{"state":"Hadhramaut","name":"Yabuth","lat":"14.71820000","lon":"47.73580000"},
{"state":"Hadhramaut","name":"Zamakh wa Manwakh","lat":"17.20320000","lon":"47.70330000"},
{"state":"Hajjah","name":"Abs","lat":"16.02150000","lon":"43.04850000"},
{"state":"Hajjah","name":"Aflah Al Yaman","lat":"15.97890000","lon":"43.41110000"},
{"state":"Hajjah","name":"Aflah Ash Shawm","lat":"16.05280000","lon":"43.41200000"},
{"state":"Hajjah","name":"Al Jamimah","lat":"16.02840000","lon":"43.52970000"},
{"state":"Hajjah","name":"Al Maghrabah","lat":"15.89370000","lon":"43.60910000"},
{"state":"Hajjah","name":"Al Mahabishah","lat":"15.92870000","lon":"43.44800000"},
{"state":"Hajjah","name":"Al Miftah","lat":"15.96100000","lon":"43.51470000"},
{"state":"Hajjah","name":"Ash Shaghadirah","lat":"15.60610000","lon":"43.49920000"},
{"state":"Hajjah","name":"Ash Shahil","lat":"15.85530000","lon":"43.45160000"},
{"state":"Hajjah","name":"Aslem","lat":"16.06000000","lon":"43.29390000"},
{"state":"Hajjah","name":"Bakil Al Mir","lat":"16.50690000","lon":"43.36150000"},
{"state":"Hajjah","name":"Banī al ‘Awwām","lat":"15.58119000","lon":"43.58727000"},
{"state":"Hajjah","name":"Bani Al Awam","lat":"15.58100000","lon":"43.60790000"},
{"state":"Hajjah","name":"Bani Qa'is","lat":"15.63460000","lon":"43.33720000"},
{"state":"Hajjah","name":"Hajjah","lat":"15.68160000","lon":"43.44996000"},
{"state":"Hajjah","name":"Harad District","lat":"16.40447000","lon":"43.07739000"},
{"state":"Hajjah","name":"Hayran","lat":"16.25080000","lon":"43.05990000"},
{"state":"Hajjah","name":"Khayran Al Muharraq","lat":"16.08964000","lon":"43.35755000"},
{"state":"Hajjah","name":"Ku'aydinah","lat":"15.81830000","lon":"43.35990000"},
{"state":"Hajjah","name":"Kuhlan Affar","lat":"15.75540000","lon":"43.69700000"},
{"state":"Hajjah","name":"Kuhlan Ash Sharaf","lat":"16.02310000","lon":"43.48630000"},
{"state":"Hajjah","name":"Kushar","lat":"16.17090000","lon":"43.47200000"},
{"state":"Hajjah","name":"Mabyan","lat":"15.77170000","lon":"43.55100000"},
{"state":"Hajjah","name":"Midi","lat":"16.19202000","lon":"42.88913000"},
{"state":"Hajjah","name":"Mustaba","lat":"16.27360000","lon":"43.26850000"},
{"state":"Hajjah","name":"Najrah","lat":"15.65270000","lon":"43.54520000"},
{"state":"Hajjah","name":"Qafl Shamer","lat":"15.90870000","lon":"43.36400000"},
{"state":"Hajjah","name":"Qarah","lat":"16.40190000","lon":"43.47400000"},
{"state":"Hajjah","name":"Sharas","lat":"15.72860000","lon":"43.65460000"},
{"state":"Hajjah","name":"Wadhrah","lat":"15.71420000","lon":"43.46670000"},
{"state":"Hajjah","name":"Washḩah","lat":"16.32158000","lon":"43.37555000"},
{"state":"Ibb","name":"Al ‘Udayn","lat":"13.96112000","lon":"43.96608000"},
{"state":"Ibb","name":"Al Dhihar","lat":"13.97900000","lon":"44.15260000"},
{"state":"Ibb","name":"Al Makhādir","lat":"14.13965000","lon":"44.20330000"},
{"state":"Ibb","name":"Al Mashannah","lat":"13.95730000","lon":"44.17000000"},
{"state":"Ibb","name":"Al Qafr","lat":"14.31290000","lon":"44.03000000"},
{"state":"Ibb","name":"An Nādirah","lat":"14.07398000","lon":"44.49925000"},
{"state":"Ibb","name":"Ar Radmah","lat":"14.21200000","lon":"44.56420000"},
{"state":"Ibb","name":"As Sabrah","lat":"13.84270000","lon":"44.33860000"},
{"state":"Ibb","name":"As Saddah","lat":"14.16610000","lon":"44.37510000"},
{"state":"Ibb","name":"As Sayyani","lat":"13.82240000","lon":"44.21180000"},
{"state":"Ibb","name":"Ash Sha'ir","lat":"14.03180000","lon":"44.36190000"},
{"state":"Ibb","name":"Ba'dan","lat":"13.98870000","lon":"44.32360000"},
{"state":"Ibb","name":"Dhī as Sufāl","lat":"13.82137000","lon":"44.07775000"},
{"state":"Ibb","name":"Far Al Udayn","lat":"13.95780000","lon":"43.78270000"},
{"state":"Ibb","name":"Hazm Al Udayn","lat":"14.16984000","lon":"43.93814000"},
{"state":"Ibb","name":"Hubaysh","lat":"14.11600000","lon":"44.08240000"},
{"state":"Ibb","name":"Ibb","lat":"13.96667000","lon":"44.18333000"},
{"state":"Ibb","name":"Jiblah","lat":"13.91480000","lon":"44.12130000"},
{"state":"Ibb","name":"Mudhaykhirah","lat":"13.86608000","lon":"43.96866000"},
{"state":"Ibb","name":"Yarīm","lat":"14.25388000","lon":"44.31176000"},
{"state":"Lahij","name":"Al  Hawtah","lat":"13.06240000","lon":"44.88160000"},
{"state":"Lahij","name":"Al Ḩabīlayn","lat":"13.52002000","lon":"44.85076000"},
{"state":"Lahij","name":"Al Had","lat":"13.97830000","lon":"45.25530000"},
{"state":"Lahij","name":"Al Madaribah Wa Al Arah","lat":"12.85690000","lon":"43.99060000"},
{"state":"Lahij","name":"Al Maflahy","lat":"13.77670000","lon":"45.10880000"},
{"state":"Lahij","name":"Al Maqatirah","lat":"13.13720000","lon":"44.14040000"},
{"state":"Lahij","name":"Al Milah","lat":"13.32020000","lon":"44.92670000"},
{"state":"Lahij","name":"Al Musaymir","lat":"13.42910000","lon":"44.59140000"},
{"state":"Lahij","name":"Al Qabbaytah","lat":"13.32750000","lon":"44.50250000"},
{"state":"Lahij","name":"Habil Jabr","lat":"13.59210000","lon":"45.07370000"},
{"state":"Lahij","name":"Halimayn","lat":"13.70880000","lon":"44.94430000"},
{"state":"Lahij","name":"Laḩij","lat":"13.05667000","lon":"44.88194000"},
{"state":"Lahij","name":"Radfan","lat":"13.46670000","lon":"44.99000000"},
{"state":"Lahij","name":"Tuban","lat":"13.09210000","lon":"44.87840000"},
{"state":"Lahij","name":"Tur Al Bahah","lat":"13.04269000","lon":"44.41154000"},
{"state":"Lahij","name":"Yafa'a","lat":"13.86200000","lon":"45.20140000"},
{"state":"Lahij","name":"Yahr","lat":"13.72270000","lon":"45.13050000"},
{"state":"Ma'rib","name":"Al Abdiyah","lat":"14.71700000","lon":"45.39340000"},
{"state":"Ma'rib","name":"Al Jubah","lat":"15.12490000","lon":"45.28680000"},
{"state":"Ma'rib","name":"Bidbadah","lat":"15.39810000","lon":"44.74730000"},
{"state":"Ma'rib","name":"Ḩarīb","lat":"14.93045000","lon":"45.36820000"},
{"state":"Ma'rib","name":"Harib Al Qaramish","lat":"15.47350000","lon":"44.61530000"},
{"state":"Ma'rib","name":"Jabal Murad","lat":"15.04740000","lon":"45.18870000"},
{"state":"Ma'rib","name":"Ma'rib","lat":"15.46253000","lon":"45.32581000"},
{"state":"Ma'rib","name":"Mahliyah","lat":"14.68210000","lon":"45.18320000"},
{"state":"Ma'rib","name":"Majzar","lat":"15.82770000","lon":"44.79410000"},
{"state":"Ma'rib","name":"Marib","lat":"15.62130000","lon":"46.01110000"},
{"state":"Ma'rib","name":"Marib City","lat":"15.41560000","lon":"45.30340000"},
{"state":"Ma'rib","name":"Medghal","lat":"15.63840000","lon":"45.00380000"},
{"state":"Ma'rib","name":"Raghwan","lat":"15.79020000","lon":"45.06940000"},
{"state":"Ma'rib","name":"Rahabah","lat":"14.95100000","lon":"45.08850000"},
{"state":"Ma'rib","name":"Sirwah","lat":"15.43690000","lon":"45.01150000"},
{"state":"Raymah","name":"Al Jabin","lat":"14.68990000","lon":"43.61960000"},
{"state":"Raymah","name":"Al Jafariyah","lat":"14.51960000","lon":"43.58170000"},
{"state":"Raymah","name":"As Salafiyah","lat":"14.68660000","lon":"43.82160000"},
{"state":"Raymah","name":"Bilad At Ta'am","lat":"14.83820000","lon":"43.60780000"},
{"state":"Raymah","name":"Kusmah","lat":"14.54740000","lon":"43.68330000"},
{"state":"Raymah","name":"Mazhar","lat":"14.57090000","lon":"43.76070000"},
{"state":"Saada","name":"Al Dhaher","lat":"16.73140000","lon":"43.27530000"},
{"state":"Saada","name":"Al Hashwah","lat":"16.88840000","lon":"44.27380000"},
{"state":"Saada","name":"As Safra","lat":"17.01420000","lon":"43.85660000"},
{"state":"Saada","name":"Ash Shawātī","lat":"16.78314000","lon":"43.81265000"},
{"state":"Saada","name":"Baqim","lat":"17.37810000","lon":"43.46350000"},
{"state":"Saada","name":"Ghamr","lat":"16.98301000","lon":"43.31608000"},
{"state":"Saada","name":"Haydan","lat":"16.72870000","lon":"43.48490000"},
{"state":"Saada","name":"Kitaf wa Al Boqe'e","lat":"17.08080000","lon":"44.39620000"},
{"state":"Saada","name":"Majz","lat":"17.09230000","lon":"43.51040000"},
{"state":"Saada","name":"Monabbih","lat":"17.16930000","lon":"43.27910000"},
{"state":"Saada","name":"Qatabir","lat":"17.33680000","lon":"43.33110000"},
{"state":"Saada","name":"Rāziḩ","lat":"16.93704000","lon":"43.26080000"},
{"state":"Saada","name":"Sa'dah","lat":"16.94021000","lon":"43.76393000"},
{"state":"Saada","name":"Şa‘dah","lat":"16.91733000","lon":"43.76000000"},
{"state":"Saada","name":"Saḩār","lat":"16.88522000","lon":"43.68306000"},
{"state":"Saada","name":"Saqayn","lat":"16.86010000","lon":"43.47160000"},
{"state":"Saada","name":"Shada'a","lat":"16.89130000","lon":"43.18710000"},
{"state":"Sana'a","name":"Al Haymah Ad Dakhiliyah","lat":"15.27220000","lon":"43.83930000"},
{"state":"Sana'a","name":"Al Haymah Al Kharijiyah","lat":"15.02670000","lon":"43.85000000"},
{"state":"Sana'a","name":"Al Husn","lat":"15.02060000","lon":"44.50440000"},
{"state":"Sana'a","name":"Al Khāniq","lat":"15.50253000","lon":"44.18158000"},
{"state":"Sana'a","name":"Arhab","lat":"15.79950000","lon":"44.24660000"},
{"state":"Sana'a","name":"Attyal","lat":"15.32931000","lon":"44.57739000"},
{"state":"Sana'a","name":"Bani Dhabyan","lat":"15.04810000","lon":"44.87180000"},
{"state":"Sana'a","name":"Bani Hushaysh","lat":"15.45050000","lon":"44.37820000"},
{"state":"Sana'a","name":"Bani Matar","lat":"15.21500000","lon":"44.04980000"},
{"state":"Sana'a","name":"Bilad Ar Rus","lat":"15.03510000","lon":"44.25140000"},
{"state":"Sana'a","name":"Hamdān","lat":"15.50662000","lon":"44.06030000"},
{"state":"Sana'a","name":"Jihanah","lat":"15.19190000","lon":"44.51950000"},
{"state":"Sana'a","name":"Khwlan","lat":"15.27490000","lon":"44.76860000"},
{"state":"Sana'a","name":"Manakhah","lat":"15.07170000","lon":"43.68620000"},
{"state":"Sana'a","name":"Nihm","lat":"15.75160000","lon":"44.57460000"},
{"state":"Sana'a","name":"Sa'fan","lat":"15.07120000","lon":"43.58270000"},
{"state":"Sana'a","name":"Saḩar","lat":"15.31637000","lon":"44.30880000"},
{"state":"Sana'a","name":"Sanaa","lat":"15.35472000","lon":"44.20667000"},
{"state":"Sana'a","name":"Sanhan","lat":"15.22520000","lon":"44.30570000"},
{"state":"Sana'a","name":"Sayyān","lat":"15.17177000","lon":"44.32442000"},
{"state":"Shabwah","name":"Ain","lat":"14.95030000","lon":"45.60040000"},
{"state":"Shabwah","name":"Al ‘Āqir","lat":"14.56816000","lon":"45.91156000"},
{"state":"Shabwah","name":"Al Talh","lat":"15.08260000","lon":"47.35140000"},
{"state":"Shabwah","name":"AL-khashā upper","lat":"14.34044000","lon":"46.71365000"},
{"state":"Shabwah","name":"Ar Rawdah","lat":"14.49560000","lon":"47.27460000"},
{"state":"Shabwah","name":"Arma","lat":"15.41270000","lon":"47.23450000"},
{"state":"Shabwah","name":"As Said","lat":"14.27660000","lon":"46.86930000"},
{"state":"Shabwah","name":"Ataq","lat":"14.53767000","lon":"46.83187000"},
{"state":"Shabwah","name":"Bayhan","lat":"14.76190000","lon":"45.74820000"},
{"state":"Shabwah","name":"Dhar","lat":"15.50360000","lon":"47.60580000"},
{"state":"Shabwah","name":"Habban","lat":"14.28780000","lon":"47.13610000"},
{"state":"Shabwah","name":"Hatib","lat":"14.18020000","lon":"46.44390000"},
{"state":"Shabwah","name":"Jardan","lat":"15.19000000","lon":"46.73380000"},
{"state":"Shabwah","name":"Khimār","lat":"14.31980000","lon":"46.73922000"},
{"state":"Shabwah","name":"Mayfa'a","lat":"14.39780000","lon":"47.74040000"},
{"state":"Shabwah","name":"Merkhah Al Ulya","lat":"14.48470000","lon":"45.92990000"},
{"state":"Shabwah","name":"Merkhah As Sufla","lat":"14.69990000","lon":"46.15630000"},
{"state":"Shabwah","name":"Nisab","lat":"14.52570000","lon":"46.44770000"},
{"state":"Shabwah","name":"Rudum","lat":"14.03759000","lon":"47.83824000"},
{"state":"Shabwah","name":"Usaylan","lat":"15.17030000","lon":"46.02740000"},
{"state":"Socotra","name":"Hadibu","lat":"12.64881000","lon":"54.01895000"},
{"state":"Socotra","name":"Hidaybu","lat":"12.50250000","lon":"54.00820000"},
{"state":"Socotra","name":"Qalansīyah","lat":"12.68958000","lon":"53.48709000"},
{"state":"Socotra","name":"Qulensya Wa Abd Al Kuri","lat":"12.55479000","lon":"53.58671000"},
{"state":"Ta'izz","name":"Al Ma'afer","lat":"13.37420000","lon":"43.92620000"},
{"state":"Ta'izz","name":"Al Mawasit","lat":"13.30420000","lon":"44.10050000"},
{"state":"Ta'izz","name":"Al Misrakh","lat":"13.47020000","lon":"44.03770000"},
{"state":"Ta'izz","name":"Al Mudhaffar","lat":"13.58310000","lon":"43.99270000"},
{"state":"Ta'izz","name":"Al Mukhā’","lat":"13.51998000","lon":"43.42798000"},
{"state":"Ta'izz","name":"Al Qahirah","lat":"13.58490000","lon":"44.01010000"},
{"state":"Ta'izz","name":"Al Wazi'iyah","lat":"13.18460000","lon":"43.72980000"},
{"state":"Ta'izz","name":"As Silw","lat":"13.34590000","lon":"44.20720000"},
{"state":"Ta'izz","name":"Ash Shamayatayn","lat":"13.18220000","lon":"43.98000000"},
{"state":"Ta'izz","name":"At Ta‘izzīyah","lat":"13.69479000","lon":"44.00941000"},
{"state":"Ta'izz","name":"Dhubab","lat":"12.96590000","lon":"43.47240000"},
{"state":"Ta'izz","name":"Dimnat Khadir","lat":"13.43860000","lon":"44.25420000"},
{"state":"Ta'izz","name":"Hayfan","lat":"13.29060000","lon":"44.26070000"},
{"state":"Ta'izz","name":"Jabal Habashy","lat":"13.46650000","lon":"43.88100000"},
{"state":"Ta'izz","name":"Maqbanah","lat":"13.62120000","lon":"43.66740000"},
{"state":"Ta'izz","name":"Mashra'a Wa Hadnan","lat":"13.54170000","lon":"43.99830000"},
{"state":"Ta'izz","name":"Māwīyah","lat":"13.58461000","lon":"44.31912000"},
{"state":"Ta'izz","name":"Mawza","lat":"13.37820000","lon":"43.61450000"},
{"state":"Ta'izz","name":"Sabir Al Mawadim","lat":"13.53180000","lon":"44.04620000"},
{"state":"Ta'izz","name":"Salh","lat":"13.58390000","lon":"44.04020000"},
{"state":"Ta'izz","name":"Sama","lat":"13.38090000","lon":"44.11660000"},
{"state":"Ta'izz","name":"Shara'b Ar Rawnah","lat":"13.73360000","lon":"43.76720000"},
{"state":"Ta'izz","name":"Shara'b As Salam","lat":"13.78320000","lon":"43.88610000"},
{"state":"Ta'izz","name":"Ta‘izz","lat":"13.57952000","lon":"44.02091000"},
{"state":"Ta'izz","name":"Village of ALAMRAH","lat":"13.74318000","lon":"43.72992000"}]