[{"state":"Central Province","name":"Chibombo","lat":"-14.65685000","lon":"28.07057000"},
{"state":"Central Province","name":"Chibombo District","lat":"-14.65808000","lon":"28.07376000"},
{"state":"Central Province","name":"Kabwe","lat":"-14.44690000","lon":"28.44644000"},
{"state":"Central Province","name":"Kapiri Mposhi","lat":"-13.97147000","lon":"28.66985000"},
{"state":"Central Province","name":"Mkushi","lat":"-13.62015000","lon":"29.39390000"},
{"state":"Central Province","name":"Mumbwa","lat":"-14.98293000","lon":"27.06190000"},
{"state":"Central Province","name":"Serenje","lat":"-13.23251000","lon":"30.23522000"},
{"state":"Copperbelt Province","name":"Chambishi","lat":"-12.63247000","lon":"28.05367000"},
{"state":"Copperbelt Province","name":"Chililabombwe","lat":"-12.36475000","lon":"27.82286000"},
{"state":"Copperbelt Province","name":"Chingola","lat":"-12.52897000","lon":"27.88382000"},
{"state":"Copperbelt Province","name":"Chingola District","lat":"-12.48478000","lon":"27.66313000"},
{"state":"Copperbelt Province","name":"Kalulushi","lat":"-12.84151000","lon":"28.09479000"},
{"state":"Copperbelt Province","name":"Kataba","lat":"-11.88333000","lon":"29.78333000"},
{"state":"Copperbelt Province","name":"Kitwe","lat":"-12.80243000","lon":"28.21323000"},
{"state":"Copperbelt Province","name":"Luanshya","lat":"-13.13667000","lon":"28.41661000"},
{"state":"Copperbelt Province","name":"Mpongwe","lat":"-13.50914000","lon":"28.15504000"},
{"state":"Copperbelt Province","name":"Mufulira","lat":"-12.54982000","lon":"28.24071000"},
{"state":"Copperbelt Province","name":"Ndola","lat":"-12.95867000","lon":"28.63659000"},
{"state":"Eastern Province","name":"Chadiza","lat":"-14.06779000","lon":"32.43917000"},
{"state":"Eastern Province","name":"Chipata","lat":"-13.63333000","lon":"32.65000000"},
{"state":"Eastern Province","name":"Lundazi","lat":"-12.29292000","lon":"33.17820000"},
{"state":"Eastern Province","name":"Nyimba","lat":"-14.55656000","lon":"30.81490000"},
{"state":"Eastern Province","name":"Petauke","lat":"-14.24117000","lon":"31.31975000"},
{"state":"Luapula Province","name":"Kawambwa","lat":"-9.79150000","lon":"29.07913000"},
{"state":"Luapula Province","name":"Mansa","lat":"-11.19976000","lon":"28.89431000"},
{"state":"Luapula Province","name":"Mwense","lat":"-10.38447000","lon":"28.69800000"},
{"state":"Luapula Province","name":"Nchelenge","lat":"-9.34506000","lon":"28.73396000"},
{"state":"Luapula Province","name":"Samfya","lat":"-11.36491000","lon":"29.55652000"},
{"state":"Lusaka Province","name":"Chongwe","lat":"-15.32916000","lon":"28.68204000"},
{"state":"Lusaka Province","name":"Kafue","lat":"-15.76911000","lon":"28.18136000"},
{"state":"Lusaka Province","name":"Luangwa","lat":"-15.61667000","lon":"30.41667000"},
{"state":"Lusaka Province","name":"Lusaka","lat":"-15.40669000","lon":"28.28713000"},
{"state":"Muchinga Province","name":"Chama","lat":"-11.21303000","lon":"33.15210000"},
{"state":"Muchinga Province","name":"Chinsali","lat":"-10.54142000","lon":"32.08162000"},
{"state":"Muchinga Province","name":"Isoka","lat":"-10.16062000","lon":"32.63353000"},
{"state":"Muchinga Province","name":"Mpika","lat":"-11.83431000","lon":"31.45287000"},
{"state":"Muchinga Province","name":"Nakonde","lat":"-9.34213000","lon":"32.74500000"},
{"state":"Northern Province","name":"Kaputa","lat":"-8.46887000","lon":"29.66193000"},
{"state":"Northern Province","name":"Kasama","lat":"-10.21289000","lon":"31.18084000"},
{"state":"Northern Province","name":"Luwingu","lat":"-10.26210000","lon":"29.92712000"},
{"state":"Northern Province","name":"Mbala","lat":"-8.84024000","lon":"31.36587000"},
{"state":"Northern Province","name":"Mporokoso","lat":"-9.37273000","lon":"30.12501000"},
{"state":"Northern Province","name":"Mpulungu","lat":"-8.76234000","lon":"31.11405000"},
{"state":"Northern Province","name":"Mungwi","lat":"-10.17320000","lon":"31.36942000"},
{"state":"Northwestern Province","name":"Kabompo","lat":"-13.59268000","lon":"24.20081000"},
{"state":"Northwestern Province","name":"Kalengwa","lat":"-13.46586000","lon":"25.00271000"},
{"state":"Northwestern Province","name":"Kansanshi","lat":"-12.09514000","lon":"26.42727000"},
{"state":"Northwestern Province","name":"Kasempa","lat":"-13.45836000","lon":"25.83380000"},
{"state":"Northwestern Province","name":"Mufumbwe","lat":"-13.68333000","lon":"24.80000000"},
{"state":"Northwestern Province","name":"Mwinilunga","lat":"-11.73584000","lon":"24.42926000"},
{"state":"Northwestern Province","name":"Solwezi","lat":"-12.16880000","lon":"26.38938000"},
{"state":"Northwestern Province","name":"Zambezi","lat":"-13.54323000","lon":"23.10467000"},
{"state":"Southern Province","name":"Choma","lat":"-16.80889000","lon":"26.98750000"},
{"state":"Southern Province","name":"Gwembe","lat":"-16.49755000","lon":"27.60691000"},
{"state":"Southern Province","name":"Itezhi-Tezhi District","lat":"-15.74092000","lon":"26.04146000"},
{"state":"Southern Province","name":"Livingstone","lat":"-17.84194000","lon":"25.85425000"},
{"state":"Southern Province","name":"Maamba","lat":"-17.36667000","lon":"27.15000000"},
{"state":"Southern Province","name":"Mazabuka","lat":"-15.85601000","lon":"27.74800000"},
{"state":"Southern Province","name":"Monze","lat":"-16.28333000","lon":"27.48333000"},
{"state":"Southern Province","name":"Nakambala","lat":"-15.83244000","lon":"27.77994000"},
{"state":"Southern Province","name":"Namwala","lat":"-15.75042000","lon":"26.43839000"},
{"state":"Southern Province","name":"Siavonga","lat":"-16.53818000","lon":"28.70876000"},
{"state":"Southern Province","name":"Siavonga District","lat":"-16.26742000","lon":"28.55036000"},
{"state":"Southern Province","name":"Sinazongwe","lat":"-17.26140000","lon":"27.46179000"},
{"state":"Western Province","name":"Kalabo","lat":"-14.99307000","lon":"22.67926000"},
{"state":"Western Province","name":"Kaoma","lat":"-14.78333000","lon":"24.80000000"},
{"state":"Western Province","name":"Limulunga","lat":"-15.09691000","lon":"23.13757000"},
{"state":"Western Province","name":"Lukulu","lat":"-14.37067000","lon":"23.24196000"},
{"state":"Western Province","name":"Mongu","lat":"-15.24835000","lon":"23.12741000"},
{"state":"Western Province","name":"Senanga","lat":"-16.11667000","lon":"23.26667000"},
{"state":"Western Province","name":"Sesheke","lat":"-17.47593000","lon":"24.29684000"}]