[{"state":"Bulawayo Province","name":"Bulawayo","lat":"-20.15000000","lon":"28.58333000"},
{"state":"Harare Province","name":"Chitungwiza","lat":"-18.01274000","lon":"31.07555000"},
{"state":"Harare Province","name":"Epworth","lat":"-17.89000000","lon":"31.14750000"},
{"state":"Harare Province","name":"Harare","lat":"-17.82772000","lon":"31.05337000"},
{"state":"Manicaland","name":"Buhera District","lat":"-19.45658000","lon":"31.93156000"},
{"state":"Manicaland","name":"Chimanimani","lat":"-19.80000000","lon":"32.86667000"},
{"state":"Manicaland","name":"Chimanimani District","lat":"-19.78295000","lon":"32.73338000"},
{"state":"Manicaland","name":"Chipinge","lat":"-20.18833000","lon":"32.62365000"},
{"state":"Manicaland","name":"Chipinge District","lat":"-20.54959000","lon":"32.43110000"},
{"state":"Manicaland","name":"Dorowa Mining Lease","lat":"-19.06667000","lon":"31.75000000"},
{"state":"Manicaland","name":"Headlands","lat":"-18.27733000","lon":"32.05150000"},
{"state":"Manicaland","name":"Makoni District","lat":"-18.33550000","lon":"32.14650000"},
{"state":"Manicaland","name":"Mutare","lat":"-18.97070000","lon":"32.67086000"},
{"state":"Manicaland","name":"Mutare District","lat":"-19.25512000","lon":"32.44327000"},
{"state":"Manicaland","name":"Mutasa District","lat":"-18.66283000","lon":"32.74547000"},
{"state":"Manicaland","name":"Nyanga","lat":"-18.21667000","lon":"32.75000000"},
{"state":"Manicaland","name":"Nyanga District","lat":"-17.92951000","lon":"32.76561000"},
{"state":"Manicaland","name":"Nyazura","lat":"-18.70587000","lon":"32.16796000"},
{"state":"Manicaland","name":"Odzi","lat":"-18.96167000","lon":"32.40557000"},
{"state":"Manicaland","name":"Penhalonga","lat":"-18.89112000","lon":"32.69781000"},
{"state":"Manicaland","name":"Rusape","lat":"-18.52785000","lon":"32.12843000"},
{"state":"Mashonaland Central Province","name":"Bindura","lat":"-17.30192000","lon":"31.33056000"},
{"state":"Mashonaland Central Province","name":"Bindura District","lat":"-17.21230000","lon":"31.30300000"},
{"state":"Mashonaland Central Province","name":"Centenary","lat":"-16.72289000","lon":"31.11462000"},
{"state":"Mashonaland Central Province","name":"Centenary District","lat":"-16.41667000","lon":"31.16667000"},
{"state":"Mashonaland Central Province","name":"Concession","lat":"-17.38333000","lon":"30.95000000"},
{"state":"Mashonaland Central Province","name":"Glendale","lat":"-17.35514000","lon":"31.06718000"},
{"state":"Mashonaland Central Province","name":"Guruve District","lat":"-16.37206000","lon":"30.60607000"},
{"state":"Mashonaland Central Province","name":"Mazowe","lat":"-17.50404000","lon":"30.97388000"},
{"state":"Mashonaland Central Province","name":"Mazowe District","lat":"-17.28080000","lon":"30.93231000"},
{"state":"Mashonaland Central Province","name":"Mount Darwin","lat":"-16.77251000","lon":"31.58381000"},
{"state":"Mashonaland Central Province","name":"Mvurwi","lat":"-17.03333000","lon":"30.85000000"},
{"state":"Mashonaland Central Province","name":"Rushinga District","lat":"-16.60792000","lon":"32.31434000"},
{"state":"Mashonaland Central Province","name":"Shamva","lat":"-17.31159000","lon":"31.57561000"},
{"state":"Mashonaland Central Province","name":"Shamva District","lat":"-17.12366000","lon":"31.64146000"},
{"state":"Mashonaland East Province","name":"Beatrice","lat":"-18.25283000","lon":"30.84730000"},
{"state":"Mashonaland East Province","name":"Chivhu","lat":"-19.02112000","lon":"30.89218000"},
{"state":"Mashonaland East Province","name":"Goromonzi District","lat":"-17.80695000","lon":"31.36372000"},
{"state":"Mashonaland East Province","name":"Macheke","lat":"-18.13901000","lon":"31.84933000"},
{"state":"Mashonaland East Province","name":"Marondera","lat":"-18.18527000","lon":"31.55193000"},
{"state":"Mashonaland East Province","name":"Marondera District","lat":"-18.29214000","lon":"31.51252000"},
{"state":"Mashonaland East Province","name":"Mudzi District","lat":"-17.04711000","lon":"32.65279000"},
{"state":"Mashonaland East Province","name":"Murehwa","lat":"-17.64322000","lon":"31.78400000"},
{"state":"Mashonaland East Province","name":"Murehwa District","lat":"-17.80057000","lon":"31.83083000"},
{"state":"Mashonaland East Province","name":"Mutoko","lat":"-17.39699000","lon":"32.22677000"},
{"state":"Mashonaland East Province","name":"Ruwa","lat":"-17.88972000","lon":"31.24472000"},
{"state":"Mashonaland West Province","name":"Banket","lat":"-17.38333000","lon":"30.40000000"},
{"state":"Mashonaland West Province","name":"Chakari","lat":"-18.06294000","lon":"29.89246000"},
{"state":"Mashonaland West Province","name":"Chegutu","lat":"-18.13021000","lon":"30.14074000"},
{"state":"Mashonaland West Province","name":"Chegutu District","lat":"-18.13097000","lon":"30.40046000"},
{"state":"Mashonaland West Province","name":"Chinhoyi","lat":"-17.36667000","lon":"30.20000000"},
{"state":"Mashonaland West Province","name":"Chirundu","lat":"-16.03333000","lon":"28.85000000"},
{"state":"Mashonaland West Province","name":"Hurungwe District","lat":"-16.41301000","lon":"29.58580000"},
{"state":"Mashonaland West Province","name":"Kadoma","lat":"-18.33328000","lon":"29.91534000"},
{"state":"Mashonaland West Province","name":"Kadoma District","lat":"-18.34049000","lon":"29.82831000"},
{"state":"Mashonaland West Province","name":"Kariba","lat":"-16.51667000","lon":"28.80000000"},
{"state":"Mashonaland West Province","name":"Kariba District","lat":"-16.91011000","lon":"28.65983000"},
{"state":"Mashonaland West Province","name":"Karoi","lat":"-16.80993000","lon":"29.69247000"},
{"state":"Mashonaland West Province","name":"Makonde District","lat":"-17.16667000","lon":"30.08333000"},
{"state":"Mashonaland West Province","name":"Mhangura","lat":"-16.89387000","lon":"30.16828000"},
{"state":"Mashonaland West Province","name":"Norton","lat":"-17.88333000","lon":"30.70000000"},
{"state":"Mashonaland West Province","name":"Raffingora","lat":"-17.03333000","lon":"30.43333000"},
{"state":"Masvingo Province","name":"Bikita District","lat":"-20.13752000","lon":"31.93156000"},
{"state":"Masvingo Province","name":"Chiredzi","lat":"-21.05000000","lon":"31.66667000"},
{"state":"Masvingo Province","name":"Chiredzi District","lat":"-21.28585000","lon":"31.77039000"},
{"state":"Masvingo Province","name":"Chivi District","lat":"-20.50000000","lon":"30.58333000"},
{"state":"Masvingo Province","name":"Gutu District","lat":"-19.60884000","lon":"31.25059000"},
{"state":"Masvingo Province","name":"Mashava","lat":"-20.03665000","lon":"30.48225000"},
{"state":"Masvingo Province","name":"Masvingo","lat":"-20.06373000","lon":"30.82766000"},
{"state":"Masvingo Province","name":"Masvingo District","lat":"-20.31481000","lon":"30.90008000"},
{"state":"Masvingo Province","name":"Mwenezi District","lat":"-21.35838000","lon":"30.70668000"},
{"state":"Masvingo Province","name":"Zvishavane","lat":"-20.32674000","lon":"30.06648000"},
{"state":"Matabeleland North Province","name":"Binga","lat":"-17.62027000","lon":"27.34139000"},
{"state":"Matabeleland North Province","name":"Binga District","lat":"-17.80460000","lon":"27.70088000"},
{"state":"Matabeleland North Province","name":"Bubi District","lat":"-19.52508000","lon":"28.67998000"},
{"state":"Matabeleland North Province","name":"Dete","lat":"-18.61667000","lon":"26.86667000"},
{"state":"Matabeleland North Province","name":"Hwange","lat":"-18.36446000","lon":"26.49877000"},
{"state":"Matabeleland North Province","name":"Hwange District","lat":"-18.75000000","lon":"26.50000000"},
{"state":"Matabeleland North Province","name":"Inyati","lat":"-19.67563000","lon":"28.84687000"},
{"state":"Matabeleland North Province","name":"Kamativi Mine","lat":"-18.31563000","lon":"27.05729000"},
{"state":"Matabeleland North Province","name":"Lupane","lat":"-18.93149000","lon":"27.80696000"},
{"state":"Matabeleland North Province","name":"Lupane District","lat":"-18.83608000","lon":"27.99098000"},
{"state":"Matabeleland North Province","name":"Nkayi District","lat":"-18.92472000","lon":"28.71221000"},
{"state":"Matabeleland North Province","name":"Victoria Falls","lat":"-17.93285000","lon":"25.83066000"},
{"state":"Matabeleland South Province","name":"Beitbridge","lat":"-22.21667000","lon":"30.00000000"},
{"state":"Matabeleland South Province","name":"Beitbridge District","lat":"-21.89829000","lon":"30.07409000"},
{"state":"Matabeleland South Province","name":"Esigodini","lat":"-20.28979000","lon":"28.92261000"},
{"state":"Matabeleland South Province","name":"Filabusi","lat":"-20.53333000","lon":"29.28502000"},
{"state":"Matabeleland South Province","name":"Gwanda","lat":"-20.93622000","lon":"29.00698000"},
{"state":"Matabeleland South Province","name":"Gwanda District","lat":"-21.20929000","lon":"29.17557000"},
{"state":"Matabeleland South Province","name":"Insiza","lat":"-19.78333000","lon":"29.20000000"},
{"state":"Matabeleland South Province","name":"Insiza District","lat":"-20.26431000","lon":"29.47392000"},
{"state":"Matabeleland South Province","name":"Mangwe District","lat":"-20.95545000","lon":"27.98292000"},
{"state":"Matabeleland South Province","name":"Matobo","lat":"-20.95545000","lon":"28.49463000"},
{"state":"Matabeleland South Province","name":"Plumtree","lat":"-20.48333000","lon":"27.81667000"},
{"state":"Matabeleland South Province","name":"Umzingwane District","lat":"-20.34704000","lon":"28.94994000"},
{"state":"Midlands Province","name":"Gokwe","lat":"-18.20476000","lon":"28.93490000"},
{"state":"Midlands Province","name":"Gweru","lat":"-19.45000000","lon":"29.81667000"},
{"state":"Midlands Province","name":"Gweru District","lat":"-19.45665000","lon":"29.64495000"},
{"state":"Midlands Province","name":"Kwekwe","lat":"-18.92809000","lon":"29.81486000"},
{"state":"Midlands Province","name":"Kwekwe District","lat":"-18.75000000","lon":"29.50000000"},
{"state":"Midlands Province","name":"Lalapanzi","lat":"-19.33225000","lon":"30.17768000"},
{"state":"Midlands Province","name":"Mberengwa District","lat":"-20.72579000","lon":"30.00962000"},
{"state":"Midlands Province","name":"Mvuma","lat":"-19.27924000","lon":"30.52828000"},
{"state":"Midlands Province","name":"Redcliff","lat":"-19.03333000","lon":"29.78333000"},
{"state":"Midlands Province","name":"Shangani","lat":"-19.78333000","lon":"29.36667000"},
{"state":"Midlands Province","name":"Shurugwi","lat":"-19.67016000","lon":"30.00589000"},
{"state":"Midlands Province","name":"Shurugwi District","lat":"-19.75000000","lon":"30.16667000"},
{"state":"Midlands Province","name":"Zvishavane District","lat":"-20.30345000","lon":"30.07514000"}]