[{"name":"Andorra la Vella","native":null,"cities":[{"name":"Andorra la Vella","native":null,"lat":"42.50779000","lon":"1.52109000"}]},{"name":"Canillo","native":null,"cities":[{"name":"Canillo","native":null,"lat":"42.56760000","lon":"1.59756000"},{"name":"El Tarter","native":null,"lat":"42.57952000","lon":"1.65362000"}]},{"name":"Encamp","native":null,"cities":[{"name":"Encamp","native":null,"lat":"42.53474000","lon":"1.58014000"},{"name":"Pas de la Casa","native":null,"lat":"42.54277000","lon":"1.73361000"}]},{"name":"Escaldes-Engordany","native":null,"cities":[{"name":"les Escaldes","native":null,"lat":"42.50729000","lon":"1.53414000"}]},{"name":"La Massana","native":null,"cities":[{"name":"Arinsal","native":null,"lat":"42.57205000","lon":"1.48453000"},{"name":"la Massana","native":null,"lat":"42.54499000","lon":"1.51483000"}]},{"name":"Ordino","native":null,"cities":[{"name":"Ordino","native":null,"lat":"42.55623000","lon":"1.53319000"}]},{"name":"Sant Julià de Lòria","native":null,"cities":[{"name":"Sant Julià de Lòria","native":null,"lat":"42.46372000","lon":"1.49129000"}]}]