[{"id":488,"name":"Andorra la Vella","native":null,"cities":[{"id":1,"name":"Andorra la Vella","native":null,"lat":"42.50779000","lon":"1.52109000"}]},{"id":489,"name":"Canillo","native":null,"cities":[{"id":3,"name":"Canillo","native":null,"lat":"42.56760000","lon":"1.59756000"},{"id":4,"name":"El Tarter","native":null,"lat":"42.57952000","lon":"1.65362000"}]},{"id":487,"name":"Encamp","native":null,"cities":[{"id":5,"name":"Encamp","native":null,"lat":"42.53474000","lon":"1.58014000"},{"id":7,"name":"Pas de la Casa","native":null,"lat":"42.54277000","lon":"1.73361000"}]},{"id":492,"name":"Escaldes-Engordany","native":null,"cities":[{"id":10,"name":"les Escaldes","native":null,"lat":"42.50729000","lon":"1.53414000"}]},{"id":493,"name":"La Massana","native":null,"cities":[{"id":2,"name":"Arinsal","native":null,"lat":"42.57205000","lon":"1.48453000"},{"id":9,"name":"la Massana","native":null,"lat":"42.54499000","lon":"1.51483000"}]},{"id":491,"name":"Ordino","native":null,"cities":[{"id":6,"name":"Ordino","native":null,"lat":"42.55623000","lon":"1.53319000"}]},{"id":490,"name":"Sant Julià de Lòria","native":null,"cities":[{"id":8,"name":"Sant Julià de Lòria","native":null,"lat":"42.46372000","lon":"1.49129000"}]}]