[{"id":603,"name":"Berat County","native":null,"cities":[]},{"id":629,"name":"Berat District","native":null,"cities":[{"id":153,"name":"Banaj","native":null,"lat":"40.82492000","lon":"19.84074000"},{"id":154,"name":"Bashkia Berat","native":null,"lat":"40.69997000","lon":"19.94983000"},{"id":170,"name":"Bashkia Kuçovë","native":null,"lat":"40.82489000","lon":"19.95350000"},{"id":180,"name":"Bashkia Poliçan","native":null,"lat":"40.58608000","lon":"20.04535000"},{"id":186,"name":"Bashkia Skrapar","native":null,"lat":"40.56036000","lon":"20.25477000"},{"id":191,"name":"Berat","native":null,"lat":"40.70583000","lon":"19.95222000"},{"id":280,"name":"Çorovodë","native":null,"lat":"40.50417000","lon":"20.22722000"},{"id":219,"name":"Kuçovë","native":null,"lat":"40.80028000","lon":"19.91667000"},{"id":238,"name":"Poliçan","native":null,"lat":"40.61222000","lon":"20.09806000"},{"id":242,"name":"Rrethi i Beratit","native":null,"lat":"40.66667000","lon":"20.00000000"},{"id":253,"name":"Rrethi i Kuçovës","native":null,"lat":"40.83333000","lon":"19.91667000"},{"id":258,"name":"Rrethi i Skraparit","native":null,"lat":"40.55000000","lon":"20.26667000"},{"id":273,"name":"Ura Vajgurore","native":null,"lat":"40.76889000","lon":"19.87778000"}]},{"id":607,"name":"Bulqizë District","native":null,"cities":[]},{"id":618,"name":"Delvinë District","native":null,"cities":[]},{"id":608,"name":"Devoll District","native":null,"cities":[]},{"id":610,"name":"Dibër County","native":null,"cities":[{"id":155,"name":"Bashkia Bulqizë","native":null,"lat":"41.47152000","lon":"20.33192000"},{"id":165,"name":"Bashkia Klos","native":null,"lat":"41.50826000","lon":"20.07107000"},{"id":176,"name":"Bashkia Mat","native":null,"lat":"41.63317000","lon":"20.01228000"},{"id":193,"name":"Bulqizë","native":null,"lat":"41.49167000","lon":"20.22194000"},{"id":194,"name":"Burrel","native":null,"lat":"41.61028000","lon":"20.00889000"},{"id":209,"name":"Klos","native":null,"lat":"41.50694000","lon":"20.08667000"},{"id":236,"name":"Peshkopi","native":null,"lat":"41.68500000","lon":"20.42889000"},{"id":243,"name":"Rrethi i Bulqizës","native":null,"lat":"41.50000000","lon":"20.33333000"},{"id":246,"name":"Rrethi i Dibrës","native":null,"lat":"41.75000000","lon":"20.33333000"},{"id":256,"name":"Rrethi i Matit","native":null,"lat":"41.58333000","lon":"20.08333000"},{"id":272,"name":"Ulëz","native":null,"lat":"41.68278000","lon":"19.89333000"}]},{"id":605,"name":"Dibër District","native":null,"cities":[]},{"id":632,"name":"Durrës County","native":null,"cities":[]},{"id":639,"name":"Durrës District","native":null,"cities":[{"id":159,"name":"Bashkia Durrës","native":null,"lat":"41.42743000","lon":"19.48690000"},{"id":168,"name":"Bashkia Krujë","native":null,"lat":"41.50091000","lon":"19.72571000"},{"id":185,"name":"Bashkia Shijak","native":null,"lat":"41.33558000","lon":"19.58977000"},{"id":197,"name":"Durrës","native":null,"lat":"41.32355000","lon":"19.45469000"},{"id":198,"name":"Durrës District","native":null,"lat":"41.31660000","lon":"19.45000000"},{"id":203,"name":"Fushë-Krujë","native":null,"lat":"41.47833000","lon":"19.71778000"},{"id":214,"name":"Krujë","native":null,"lat":"41.50917000","lon":"19.79278000"},{"id":250,"name":"Rrethi i Krujës","native":null,"lat":"41.55000000","lon":"19.75000000"},{"id":265,"name":"Shijak","native":null,"lat":"41.34556000","lon":"19.56722000"},{"id":269,"name":"Sukth","native":null,"lat":"41.38056000","lon":"19.53778000"}]},{"id":598,"name":"Elbasan County","native":null,"cities":[]},{"id":631,"name":"Fier County","native":null,"cities":[{"id":152,"name":"Ballsh","native":null,"lat":"40.59889000","lon":"19.73472000"},{"id":157,"name":"Bashkia Divjakë","native":null,"lat":"40.95716000","lon":"19.52364000"},{"id":160,"name":"Bashkia Fier","native":null,"lat":"40.72937000","lon":"19.48690000"},{"id":174,"name":"Bashkia Mallakastër","native":null,"lat":"40.55669000","lon":"19.77347000"},{"id":179,"name":"Bashkia Patos","native":null,"lat":"40.67793000","lon":"19.65591000"},{"id":196,"name":"Divjakë","native":null,"lat":"40.99667000","lon":"19.52944000"},{"id":200,"name":"Fier","native":null,"lat":"40.72389000","lon":"19.55611000"},{"id":201,"name":"Fier-Çifçi","native":null,"lat":"40.71667000","lon":"19.56667000"},{"id":227,"name":"Lushnjë","native":null,"lat":"40.94194000","lon":"19.70500000"},{"id":234,"name":"Patos","native":null,"lat":"40.68333000","lon":"19.61944000"},{"id":235,"name":"Patos Fshat","native":null,"lat":"40.64278000","lon":"19.65083000"},{"id":241,"name":"Roskovec","native":null,"lat":"40.73750000","lon":"19.70222000"},{"id":254,"name":"Rrethi i Mallakastrës","native":null,"lat":"40.55000000","lon":"19.78333000"}]},{"id":627,"name":"Fier District","native":null,"cities":[]},{"id":604,"name":"Gjirokastër County","native":null,"cities":[]},{"id":621,"name":"Gjirokastër District","native":null,"cities":[{"id":158,"name":"Bashkia Dropull","native":null,"lat":"39.98584000","lon":"20.30529000"},{"id":164,"name":"Bashkia Kelcyrë","native":null,"lat":"40.36196000","lon":"20.16476000"},{"id":172,"name":"Bashkia Libohovë","native":null,"lat":"40.10754000","lon":"20.25753000"},{"id":177,"name":"Bashkia Memaliaj","native":null,"lat":"40.41524000","lon":"19.96911000"},{"id":183,"name":"Bashkia Përmet","native":null,"lat":"40.23246000","lon":"20.41091000"},{"id":187,"name":"Bashkia Tepelenë","native":null,"lat":"40.26736000","lon":"19.97003000"},{"id":204,"name":"Gjinkar","native":null,"lat":"40.19944000","lon":"20.40611000"},{"id":205,"name":"Gjirokastër","native":null,"lat":"40.07583000","lon":"20.13889000"},{"id":220,"name":"Këlcyrë","native":null,"lat":"40.31306000","lon":"20.18944000"},{"id":221,"name":"Lazarat","native":null,"lat":"40.04667000","lon":"20.14750000"},{"id":225,"name":"Libohovë","native":null,"lat":"40.03111000","lon":"20.26306000"},{"id":231,"name":"Memaliaj","native":null,"lat":"40.35167000","lon":"19.98028000"},{"id":240,"name":"Përmet","native":null,"lat":"40.23361000","lon":"20.35167000"},{"id":270,"name":"Tepelenë","native":null,"lat":"40.29583000","lon":"20.01917000"}]},{"id":617,"name":"Gramsh District","native":null,"cities":[]},{"id":600,"name":"Has District","native":null,"cities":[]},{"id":594,"name":"Kavajë District","native":null,"cities":[]},{"id":628,"name":"Kolonjë District","native":null,"cities":[]},{"id":630,"name":"Korçë County","native":null,"cities":[{"id":156,"name":"Bashkia Devoll","native":null,"lat":"40.60078000","lon":"20.93814000"},{"id":166,"name":"Bashkia Kolonjë","native":null,"lat":"40.31420000","lon":"20.61482000"},{"id":173,"name":"Bashkia Maliq","native":null,"lat":"40.75508000","lon":"20.60748000"},{"id":182,"name":"Bashkia Pustec","native":null,"lat":"40.83591000","lon":"20.89405000"},{"id":192,"name":"Bilisht","native":null,"lat":"40.62750000","lon":"20.99000000"},{"id":199,"name":"Ersekë","native":null,"lat":"40.33778000","lon":"20.67889000"},{"id":212,"name":"Korçë","native":null,"lat":"40.61861000","lon":"20.78083000"},{"id":223,"name":"Leskovik","native":null,"lat":"40.15139000","lon":"20.59722000"},{"id":226,"name":"Libonik","native":null,"lat":"40.70444000","lon":"20.70861000"},{"id":228,"name":"Maliq","native":null,"lat":"40.70583000","lon":"20.69972000"},{"id":230,"name":"Mborje","native":null,"lat":"40.60333000","lon":"20.80306000"},{"id":237,"name":"Pogradec","native":null,"lat":"40.90250000","lon":"20.65250000"},{"id":245,"name":"Rrethi i Devollit","native":null,"lat":"40.58333000","lon":"20.91667000"},{"id":249,"name":"Rrethi i Kolonjës","native":null,"lat":"40.25000000","lon":"20.66667000"},{"id":275,"name":"Velçan","native":null,"lat":"40.95472000","lon":"20.46222000"},{"id":278,"name":"Voskopojë","native":null,"lat":"40.63306000","lon":"20.58889000"}]},{"id":597,"name":"Korçë District","native":null,"cities":[]},{"id":614,"name":"Krujë District","native":null,"cities":[]},{"id":612,"name":"Kuçovë District","native":null,"cities":[]},{"id":601,"name":"Kukës County","native":null,"cities":[]},{"id":623,"name":"Kukës District","native":null,"cities":[{"id":151,"name":"Bajram Curri","native":null,"lat":"42.35734000","lon":"20.07679000"},{"id":215,"name":"Krumë","native":null,"lat":"42.19694000","lon":"20.41333000"},{"id":217,"name":"Kukës","native":null,"lat":"42.07694000","lon":"20.42194000"},{"id":247,"name":"Rrethi i Hasit","native":null,"lat":"42.16667000","lon":"20.33333000"},{"id":251,"name":"Rrethi i Kukësit","native":null,"lat":"42.00000000","lon":"20.33333000"}]},{"id":622,"name":"Kurbin District","native":null,"cities":[]},{"id":609,"name":"Lezhë County","native":null,"cities":[{"id":169,"name":"Bashkia Kurbin","native":null,"lat":"41.62215000","lon":"19.70734000"},{"id":171,"name":"Bashkia Lezhë","native":null,"lat":"41.81320000","lon":"19.64121000"},{"id":178,"name":"Bashkia Mirditë","native":null,"lat":"41.80953000","lon":"19.99024000"},{"id":218,"name":"Kurbnesh","native":null,"lat":"41.77972000","lon":"20.08361000"},{"id":222,"name":"Laç","native":null,"lat":"41.63556000","lon":"19.71306000"},{"id":224,"name":"Lezhë","native":null,"lat":"41.78361000","lon":"19.64361000"},{"id":229,"name":"Mamurras","native":null,"lat":"41.57750000","lon":"19.69222000"},{"id":232,"name":"Milot","native":null,"lat":"41.68389000","lon":"19.71556000"},{"id":261,"name":"Rrëshen","native":null,"lat":"41.76750000","lon":"19.87556000"},{"id":252,"name":"Rrethi i Kurbinit","native":null,"lat":"41.63333000","lon":"19.71667000"},{"id":262,"name":"Rubik","native":null,"lat":"41.77444000","lon":"19.78611000"},{"id":267,"name":"Shëngjin","native":null,"lat":"41.81361000","lon":"19.59389000"}]},{"id":595,"name":"Lezhë District","native":null,"cities":[]},{"id":596,"name":"Librazhd District","native":null,"cities":[]},{"id":599,"name":"Lushnjë District","native":null,"cities":[]},{"id":602,"name":"Malësi e Madhe District","native":null,"cities":[]},{"id":637,"name":"Mallakastër District","native":null,"cities":[]},{"id":635,"name":"Mat District","native":null,"cities":[]},{"id":638,"name":"Mirditë District","native":null,"cities":[]},{"id":619,"name":"Peqin District","native":null,"cities":[]},{"id":625,"name":"Përmet District","native":null,"cities":[]},{"id":606,"name":"Pogradec District","native":null,"cities":[]},{"id":620,"name":"Pukë District","native":null,"cities":[]},{"id":624,"name":"Sarandë District","native":null,"cities":[]},{"id":611,"name":"Shkodër County","native":null,"cities":[]},{"id":626,"name":"Shkodër District","native":null,"cities":[{"id":175,"name":"Bashkia Malësi e Madhe","native":null,"lat":"42.36798000","lon":"19.58977000"},{"id":181,"name":"Bashkia Pukë","native":null,"lat":"42.02997000","lon":"19.92778000"},{"id":188,"name":"Bashkia Vau i Dejës","native":null,"lat":"42.04834000","lon":"19.69999000"},{"id":202,"name":"Fushë-Arrëz","native":null,"lat":"42.06222000","lon":"20.01667000"},{"id":211,"name":"Koplik","native":null,"lat":"42.21361000","lon":"19.43639000"},{"id":239,"name":"Pukë","native":null,"lat":"42.04444000","lon":"19.89972000"},{"id":255,"name":"Rrethi i Malësia e Madhe","native":null,"lat":"42.33333000","lon":"19.58333000"},{"id":257,"name":"Rrethi i Shkodrës","native":null,"lat":"42.06917000","lon":"19.53506000"},{"id":266,"name":"Shkodër","native":null,"lat":"42.06828000","lon":"19.51258000"},{"id":274,"name":"Vau i Dejës","native":null,"lat":"42.01000000","lon":"19.62472000"},{"id":279,"name":"Vukatanë","native":null,"lat":"42.02806000","lon":"19.54778000"}]},{"id":593,"name":"Skrapar District","native":null,"cities":[]},{"id":616,"name":"Tepelenë District","native":null,"cities":[]},{"id":615,"name":"Tirana County","native":null,"cities":[]},{"id":633,"name":"Tirana District","native":null,"cities":[{"id":163,"name":"Bashkia Kavajë","native":null,"lat":"41.18127000","lon":"19.55579000"},{"id":190,"name":"Bashkia Vorë","native":null,"lat":"41.39804000","lon":"19.67703000"},{"id":207,"name":"Kamëz","native":null,"lat":"41.38167000","lon":"19.76028000"},{"id":208,"name":"Kavajë","native":null,"lat":"41.18556000","lon":"19.55694000"},{"id":213,"name":"Krrabë","native":null,"lat":"41.21556000","lon":"19.97139000"},{"id":248,"name":"Rrethi i Kavajës","native":null,"lat":"41.16667000","lon":"19.58333000"},{"id":259,"name":"Rrethi i Tiranës","native":null,"lat":"41.33333000","lon":"19.91667000"},{"id":260,"name":"Rrogozhinë","native":null,"lat":"41.07639000","lon":"19.66528000"},{"id":268,"name":"Sinaballaj","native":null,"lat":"41.06889000","lon":"19.69944000"},{"id":271,"name":"Tirana","native":null,"lat":"41.32750000","lon":"19.81889000"},{"id":277,"name":"Vorë","native":null,"lat":"41.39083000","lon":"19.65500000"}]},{"id":636,"name":"Tropojë District","native":null,"cities":[]},{"id":634,"name":"Vlorë County","native":null,"cities":[{"id":161,"name":"Bashkia Finiq","native":null,"lat":"39.84393000","lon":"20.16659000"},{"id":162,"name":"Bashkia Himarë","native":null,"lat":"40.11581000","lon":"19.81389000"},{"id":167,"name":"Bashkia Konispol","native":null,"lat":"39.70064000","lon":"20.13353000"},{"id":184,"name":"Bashkia Selenicë","native":null,"lat":"40.39503000","lon":"19.65958000"},{"id":189,"name":"Bashkia Vlorë","native":null,"lat":"40.41340000","lon":"19.49792000"},{"id":195,"name":"Delvinë","native":null,"lat":"39.95111000","lon":"20.09778000"},{"id":206,"name":"Himarë","native":null,"lat":"40.10167000","lon":"19.74472000"},{"id":210,"name":"Konispol","native":null,"lat":"39.65889000","lon":"20.18139000"},{"id":216,"name":"Ksamil","native":null,"lat":"39.76889000","lon":"19.99972000"},{"id":233,"name":"Orikum","native":null,"lat":"40.32528000","lon":"19.47139000"},{"id":244,"name":"Rrethi i Delvinës","native":null,"lat":"39.91667000","lon":"20.08333000"},{"id":263,"name":"Sarandë","native":null,"lat":"39.87534000","lon":"20.00477000"},{"id":264,"name":"Selenicë","native":null,"lat":"40.53056000","lon":"19.63583000"},{"id":276,"name":"Vlorë","native":null,"lat":"40.46860000","lon":"19.48318000"}]},{"id":613,"name":"Vlorë District","native":null,"cities":[]}]