[{"id":3656,"name":"Buenos Aires","native":null,"cities":[{"id":682,"name":"Balvanera","native":null,"lat":"-34.61032000","lon":"-58.39766000"},{"id":683,"name":"Barracas","native":null,"lat":"-34.64966000","lon":"-58.38341000"},{"id":687,"name":"Belgrano","native":null,"lat":"-34.56270000","lon":"-58.45829000"},{"id":697,"name":"Boedo","native":null,"lat":"-34.63333000","lon":"-58.41667000"},{"id":704,"name":"Buenos Aires","native":null,"lat":"-34.61315000","lon":"-58.37723000"},{"id":773,"name":"Colegiales","native":null,"lat":"-34.57365000","lon":"-58.44924000"},{"id":1380,"name":"Retiro","native":null,"lat":"-34.58333000","lon":"-58.38333000"},{"id":1561,"name":"Villa Lugano","native":null,"lat":"-34.67907000","lon":"-58.47263000"},{"id":1570,"name":"Villa Ortúzar","native":null,"lat":"-34.57973000","lon":"-58.46829000"},{"id":1576,"name":"Villa Santa Rita","native":null,"lat":"-34.61082000","lon":"-58.48100000"}]},{"id":3647,"name":"Catamarca","native":null,"cities":[{"id":659,"name":"Ancasti","native":null,"lat":"-28.81247000","lon":"-65.50145000"},{"id":661,"name":"Andalgalá","native":null,"lat":"-27.58185000","lon":"-66.31626000"},{"id":663,"name":"Antofagasta de la Sierra","native":null,"lat":"-26.05940000","lon":"-67.40636000"},{"id":726,"name":"Capayán","native":null,"lat":"-28.77436000","lon":"-66.04749000"},{"id":824,"name":"Departamento de Ambato","native":null,"lat":"-28.00000000","lon":"-65.91667000"},{"id":825,"name":"Departamento de Ancasti","native":null,"lat":"-29.00000000","lon":"-65.50000000"},{"id":826,"name":"Departamento de Andalgalá","native":null,"lat":"-27.58333000","lon":"-66.46667000"},{"id":829,"name":"Departamento de Antofagasta de la Sierra","native":null,"lat":"-26.00000000","lon":"-67.58333000"},{"id":846,"name":"Departamento de Capayán","native":null,"lat":"-28.83333000","lon":"-66.00000000"},{"id":849,"name":"Departamento de Capital","native":null,"lat":"-28.41667000","lon":"-65.80000000"},{"id":877,"name":"Departamento de El Alto","native":null,"lat":"-28.41667000","lon":"-65.41667000"},{"id":884,"name":"Departamento de Fray Mamerto Esquiú","native":null,"lat":"-28.30000000","lon":"-65.75000000"},{"id":918,"name":"Departamento de La Paz","native":null,"lat":"-29.25000000","lon":"-65.25000000"},{"id":959,"name":"Departamento de Pomán","native":null,"lat":"-28.25000000","lon":"-66.41667000"},{"id":1006,"name":"Departamento de Santa María","native":null,"lat":"-26.66667000","lon":"-66.41667000"},{"id":1007,"name":"Departamento de Santa Rosa","native":null,"lat":"-28.08333000","lon":"-65.25000000"},{"id":1020,"name":"Departamento de Tinogasta","native":null,"lat":"-27.50000000","lon":"-68.00000000"},{"id":1030,"name":"Departamento de Valle Viejo","native":null,"lat":"-28.58333000","lon":"-65.75000000"},{"id":1060,"name":"El Rodeo","native":null,"lat":"-28.21518000","lon":"-65.87420000"},{"id":1078,"name":"Fiambalá","native":null,"lat":"-27.67225000","lon":"-67.61870000"},{"id":1142,"name":"Hualfín","native":null,"lat":"-27.22896000","lon":"-66.83131000"},{"id":1145,"name":"Huillapima","native":null,"lat":"-28.72533000","lon":"-65.97870000"},{"id":1149,"name":"Icaño","native":null,"lat":"-28.91934000","lon":"-65.32817000"},{"id":1197,"name":"La Puerta de San José","native":null,"lat":"-27.55000000","lon":"-67.01667000"},{"id":1239,"name":"Londres","native":null,"lat":"-27.71439000","lon":"-67.13349000"},{"id":1243,"name":"Los Altos","native":null,"lat":"-28.04845000","lon":"-65.49945000"},{"id":1256,"name":"Los Varela","native":null,"lat":"-27.93003000","lon":"-65.87153000"},{"id":1294,"name":"Mutquín","native":null,"lat":"-28.32104000","lon":"-66.14253000"},{"id":1340,"name":"Pomán","native":null,"lat":"-28.39455000","lon":"-66.22052000"},{"id":1350,"name":"Puerta de Corral Quemado","native":null,"lat":"-27.23000000","lon":"-66.93635000"},{"id":1378,"name":"Recreo","native":null,"lat":"-29.28184000","lon":"-65.06096000"},{"id":1408,"name":"San Antonio","native":null,"lat":"-28.01009000","lon":"-65.70874000"},{"id":1421,"name":"San Fernando del Valle de Catamarca","native":null,"lat":"-28.46957000","lon":"-65.78524000"},{"id":1464,"name":"Santa María","native":null,"lat":"-26.69547000","lon":"-66.04732000"},{"id":1505,"name":"Tinogasta","native":null,"lat":"-28.06319000","lon":"-67.56488000"}]},{"id":3640,"name":"Chaco","native":null,"cities":[{"id":677,"name":"Aviá Terai","native":null,"lat":"-26.68532000","lon":"-60.72920000"},{"id":685,"name":"Barranqueras","native":null,"lat":"-27.48132000","lon":"-58.93925000"},{"id":686,"name":"Basail","native":null,"lat":"-27.88539000","lon":"-59.28245000"},{"id":719,"name":"Campo Largo","native":null,"lat":"-26.80077000","lon":"-60.84215000"},{"id":730,"name":"Capitán Solari","native":null,"lat":"-26.80215000","lon":"-59.56089000"},{"id":737,"name":"Castelli","native":null,"lat":"-25.94679000","lon":"-60.61947000"},{"id":753,"name":"Charadai","native":null,"lat":"-27.65503000","lon":"-59.86291000"},{"id":754,"name":"Charata","native":null,"lat":"-27.21438000","lon":"-61.18795000"},{"id":765,"name":"Chorotis","native":null,"lat":"-27.91578000","lon":"-61.39982000"},{"id":767,"name":"Ciervo Petiso","native":null,"lat":"-26.58041000","lon":"-59.63094000"},{"id":776,"name":"Colonia Benítez","native":null,"lat":"-27.33099000","lon":"-58.94622000"},{"id":778,"name":"Colonia Elisa","native":null,"lat":"-26.93041000","lon":"-59.51861000"},{"id":782,"name":"Colonias Unidas","native":null,"lat":"-26.69825000","lon":"-59.63154000"},{"id":791,"name":"Concepción del Bermejo","native":null,"lat":"-26.59926000","lon":"-60.94617000"},{"id":799,"name":"Coronel Du Graty","native":null,"lat":"-27.68038000","lon":"-60.91462000"},{"id":804,"name":"Corzuela","native":null,"lat":"-26.95374000","lon":"-60.96928000"},{"id":807,"name":"Coté-Lai","native":null,"lat":"-27.50000000","lon":"-59.60000000"},{"id":822,"name":"Departamento de Almirante Brown","native":null,"lat":"-25.81662000","lon":"-61.45576000"},{"id":837,"name":"Departamento de Bermejo","native":null,"lat":"-27.00000000","lon":"-58.66667000"},{"id":865,"name":"Departamento de Comandante Fernández","native":null,"lat":"-26.83333000","lon":"-60.50000000"},{"id":875,"name":"Departamento de Doce de Octubre","native":null,"lat":"-27.41667000","lon":"-61.33333000"},{"id":876,"name":"Departamento de Dos de Abril","native":null,"lat":"-27.60932000","lon":"-61.34473000"},{"id":890,"name":"Departamento de General Donovan","native":null,"lat":"-27.16667000","lon":"-59.33333000"},{"id":892,"name":"Departamento de General Güemes","native":null,"lat":"-25.16667000","lon":"-61.41667000"},{"id":909,"name":"Departamento de Independencia","native":null,"lat":"-26.66667000","lon":"-60.66667000"},{"id":928,"name":"Departamento de Libertad","native":null,"lat":"-27.33333000","lon":"-59.33333000"},{"id":937,"name":"Departamento de Maipú","native":null,"lat":"-26.33333000","lon":"-60.41667000"},{"id":950,"name":"Departamento de Nueve de Julio","native":null,"lat":"-26.95331000","lon":"-61.27627000"},{"id":954,"name":"Departamento de O’Higgins","native":null,"lat":"-27.25000000","lon":"-60.66667000"},{"id":960,"name":"Departamento de Presidencia de la Plaza","native":null,"lat":"-27.00000000","lon":"-59.75000000"},{"id":962,"name":"Departamento de Quitilipi","native":null,"lat":"-26.66667000","lon":"-60.16667000"},{"id":986,"name":"Departamento de San Fernando","native":null,"lat":"-27.66667000","lon":"-59.16667000"},{"id":994,"name":"Departamento de San Lorenzo","native":null,"lat":"-27.33333000","lon":"-60.41667000"},{"id":1010,"name":"Departamento de Sargento Cabral","native":null,"lat":"-26.83333000","lon":"-59.50000000"},{"id":1017,"name":"Departamento de Tapenagá","native":null,"lat":"-27.50000000","lon":"-59.75000000"},{"id":1081,"name":"Fontana","native":null,"lat":"-27.41813000","lon":"-59.02392000"},{"id":1088,"name":"Gancedo","native":null,"lat":"-27.49038000","lon":"-61.67571000"},{"id":1105,"name":"General José de San Martín","native":null,"lat":"-26.53743000","lon":"-59.34158000"},{"id":1109,"name":"General Pinedo","native":null,"lat":"-27.31667000","lon":"-61.28333000"},{"id":1114,"name":"General Vedia","native":null,"lat":"-26.93382000","lon":"-58.66040000"},{"id":1135,"name":"Hermoso Campo","native":null,"lat":"-27.60816000","lon":"-61.34441000"},{"id":1181,"name":"La Clotilde","native":null,"lat":"-27.13333000","lon":"-60.66667000"},{"id":1186,"name":"La Eduvigis","native":null,"lat":"-26.83607000","lon":"-59.06211000"},{"id":1187,"name":"La Escondida","native":null,"lat":"-27.10724000","lon":"-59.44784000"},{"id":1191,"name":"La Leonesa","native":null,"lat":"-27.03786000","lon":"-58.70347000"},{"id":1201,"name":"La Tigra","native":null,"lat":"-27.10996000","lon":"-60.58719000"},{"id":1203,"name":"La Verde","native":null,"lat":"-27.12634000","lon":"-59.37352000"},{"id":1208,"name":"Laguna Limpia","native":null,"lat":"-26.49565000","lon":"-59.68083000"},{"id":1213,"name":"Lapachito","native":null,"lat":"-27.15997000","lon":"-59.38605000"},{"id":1216,"name":"Las Breñas","native":null,"lat":"-27.08966000","lon":"-61.08161000"},{"id":1218,"name":"Las Garcitas","native":null,"lat":"-26.61802000","lon":"-59.80135000"},{"id":1249,"name":"Los Frentones","native":null,"lat":"-26.40770000","lon":"-61.41367000"},{"id":1260,"name":"Machagai","native":null,"lat":"-26.92614000","lon":"-60.04955000"},{"id":1264,"name":"Makallé","native":null,"lat":"-27.20687000","lon":"-59.28696000"},{"id":1270,"name":"Margarita Belén","native":null,"lat":"-27.26160000","lon":"-58.97219000"},{"id":1296,"name":"Napenay","native":null,"lat":"-26.73333000","lon":"-60.61667000"},{"id":1314,"name":"Pampa Almirón","native":null,"lat":"-26.70039000","lon":"-59.12331000"},{"id":1316,"name":"Pampa del Indio","native":null,"lat":"-26.04982000","lon":"-59.93728000"},{"id":1317,"name":"Pampa del Infierno","native":null,"lat":"-26.50517000","lon":"-61.17436000"},{"id":1347,"name":"Presidencia de la Plaza","native":null,"lat":"-27.00147000","lon":"-59.84243000"},{"id":1345,"name":"Presidencia Roca","native":null,"lat":"-26.14090000","lon":"-59.59541000"},{"id":1346,"name":"Presidencia Roque Sáenz Peña","native":null,"lat":"-26.78522000","lon":"-60.43876000"},{"id":1351,"name":"Puerto Bermejo","native":null,"lat":"-26.92739000","lon":"-58.50917000"},{"id":1363,"name":"Puerto Tirol","native":null,"lat":"-27.37218000","lon":"-59.08206000"},{"id":1364,"name":"Puerto Vilelas","native":null,"lat":"-27.51414000","lon":"-58.93906000"},{"id":1370,"name":"Quitilipi","native":null,"lat":"-26.86913000","lon":"-60.21683000"},{"id":1379,"name":"Resistencia","native":null,"lat":"-27.46056000","lon":"-58.98389000"},{"id":1405,"name":"Samuhú","native":null,"lat":"-27.52116000","lon":"-60.39167000"},{"id":1414,"name":"San Bernardo","native":null,"lat":"-27.28782000","lon":"-60.71252000"},{"id":1471,"name":"Santa Sylvina","native":null,"lat":"-27.83261000","lon":"-61.13747000"},{"id":1493,"name":"Taco Pozo","native":null,"lat":"-25.61557000","lon":"-63.26708000"},{"id":1515,"name":"Tres Isletas","native":null,"lat":"-26.34067000","lon":"-60.43207000"},{"id":1586,"name":"Villa Ángela","native":null,"lat":"-27.57383000","lon":"-60.71526000"},{"id":1542,"name":"Villa Berthet","native":null,"lat":"-27.29174000","lon":"-60.41263000"}]},{"id":3651,"name":"Chubut","native":null,"cities":[{"id":655,"name":"Alto Río Senguer","native":null,"lat":"-45.04105000","lon":"-70.81982000"},{"id":715,"name":"Camarones","native":null,"lat":"-44.79709000","lon":"-65.70994000"},{"id":787,"name":"Comodoro Rivadavia","native":null,"lat":"-45.86413000","lon":"-67.49656000"},{"id":839,"name":"Departamento de Biedma","native":null,"lat":"-42.41667000","lon":"-65.00000000"},{"id":873,"name":"Departamento de Cushamen","native":null,"lat":"-42.50000000","lon":"-70.83333000"},{"id":880,"name":"Departamento de Escalante","native":null,"lat":"-45.33333000","lon":"-67.33333000"},{"id":883,"name":"Departamento de Florentino Ameghino","native":null,"lat":"-44.41667000","lon":"-66.16667000"},{"id":885,"name":"Departamento de Futaleufú","native":null,"lat":"-43.08333000","lon":"-71.41667000"},{"id":886,"name":"Departamento de Gaimán","native":null,"lat":"-43.33333000","lon":"-66.33333000"},{"id":887,"name":"Departamento de Gastre","native":null,"lat":"-42.83333000","lon":"-68.66667000"},{"id":923,"name":"Departamento de Languiñeo","native":null,"lat":"-43.33333000","lon":"-70.66667000"},{"id":949,"name":"Departamento de Mártires","native":null,"lat":"-43.83333000","lon":"-67.16667000"},{"id":956,"name":"Departamento de Paso de Indios","native":null,"lat":"-44.00000000","lon":"-68.83333000"},{"id":963,"name":"Departamento de Rawson","native":null,"lat":"-43.12342000","lon":"-65.10179000"},{"id":979,"name":"Departamento de Río Senguerr","native":null,"lat":"-45.33333000","lon":"-70.83333000"},{"id":1012,"name":"Departamento de Sarmiento","native":null,"lat":"-45.33333000","lon":"-69.00000000"},{"id":1018,"name":"Departamento de Tehuelches","native":null,"lat":"-44.22132000","lon":"-70.25260000"},{"id":1019,"name":"Departamento de Telsen","native":null,"lat":"-42.41667000","lon":"-67.16667000"},{"id":1042,"name":"Dolavón","native":null,"lat":"-43.30684000","lon":"-65.70651000"},{"id":1058,"name":"El Maitén","native":null,"lat":"-42.04924000","lon":"-71.16693000"},{"id":1070,"name":"Esquel","native":null,"lat":"-42.91147000","lon":"-71.31947000"},{"id":1087,"name":"Gaimán","native":null,"lat":"-43.28970000","lon":"-65.49290000"},{"id":1092,"name":"Gastre","native":null,"lat":"-42.26186000","lon":"-69.22112000"},{"id":1115,"name":"Gobernador Costa","native":null,"lat":"-44.04992000","lon":"-70.59798000"},{"id":1141,"name":"Hoyo de Epuyén","native":null,"lat":"-42.07189000","lon":"-71.50811000"},{"id":1169,"name":"José de San Martín","native":null,"lat":"-44.05032000","lon":"-70.46967000"},{"id":1206,"name":"Lago Puelo","native":null,"lat":"-42.06684000","lon":"-71.60384000"},{"id":1229,"name":"Las Plumas","native":null,"lat":"-43.72058000","lon":"-67.28319000"},{"id":1359,"name":"Puerto Madryn","native":null,"lat":"-42.76920000","lon":"-65.03851000"},{"id":1371,"name":"Rada Tilly","native":null,"lat":"-45.92462000","lon":"-67.55424000"},{"id":1374,"name":"Rawson","native":null,"lat":"-43.30016000","lon":"-65.10228000"},{"id":1393,"name":"Río Mayo","native":null,"lat":"-45.68573000","lon":"-70.25797000"},{"id":1394,"name":"Río Pico","native":null,"lat":"-44.17905000","lon":"-71.36847000"},{"id":1477,"name":"Sarmiento","native":null,"lat":"-45.58815000","lon":"-69.06996000"},{"id":1499,"name":"Tecka","native":null,"lat":"-43.49489000","lon":"-70.81020000"},{"id":1512,"name":"Trelew","native":null,"lat":"-43.24895000","lon":"-65.30505000"},{"id":1516,"name":"Trevelin","native":null,"lat":"-43.08580000","lon":"-71.46386000"}]},{"id":4880,"name":"Ciudad Autónoma de Buenos Aires","native":null,"cities":[]},{"id":3642,"name":"Córdoba","native":null,"cities":[{"id":639,"name":"Achiras","native":null,"lat":"-33.17538000","lon":"-64.99331000"},{"id":640,"name":"Adelia María","native":null,"lat":"-33.63152000","lon":"-64.02097000"},{"id":641,"name":"Agua de Oro","native":null,"lat":"-31.06661000","lon":"-64.30017000"},{"id":647,"name":"Alejandro Roca","native":null,"lat":"-33.35369000","lon":"-63.71849000"},{"id":648,"name":"Alejo Ledesma","native":null,"lat":"-33.60643000","lon":"-62.62304000"},{"id":651,"name":"Almafuerte","native":null,"lat":"-32.19296000","lon":"-64.25559000"},{"id":653,"name":"Alta Gracia","native":null,"lat":"-31.65292000","lon":"-64.42826000"},{"id":656,"name":"Altos de Chipión","native":null,"lat":"-30.95590000","lon":"-62.33727000"},{"id":668,"name":"Arias","native":null,"lat":"-33.64411000","lon":"-62.40272000"},{"id":671,"name":"Arroyito","native":null,"lat":"-31.42022000","lon":"-63.05002000"},{"id":672,"name":"Arroyo Cabral","native":null,"lat":"-32.49119000","lon":"-63.40126000"},{"id":681,"name":"Balnearia","native":null,"lat":"-31.00880000","lon":"-62.66733000"},{"id":688,"name":"Bell Ville","native":null,"lat":"-32.62591000","lon":"-62.68873000"},{"id":695,"name":"Berrotarán","native":null,"lat":"-32.45100000","lon":"-64.38867000"},{"id":701,"name":"Brinkmann","native":null,"lat":"-30.86589000","lon":"-62.03742000"},{"id":702,"name":"Buchardo","native":null,"lat":"-34.72263000","lon":"-63.50920000"},{"id":716,"name":"Camilo Aldao","native":null,"lat":"-33.12745000","lon":"-62.09453000"},{"id":744,"name":"Cañada de Luque","native":null,"lat":"-30.73341000","lon":"-63.72375000"},{"id":723,"name":"Canals","native":null,"lat":"-33.56542000","lon":"-62.88927000"},{"id":727,"name":"Capilla del Monte","native":null,"lat":"-30.86088000","lon":"-64.52515000"},{"id":733,"name":"Carnerillo","native":null,"lat":"-32.91371000","lon":"-64.02175000"},{"id":734,"name":"Carrilobo","native":null,"lat":"-31.87296000","lon":"-63.11715000"},{"id":742,"name":"Cavanagh","native":null,"lat":"-33.47606000","lon":"-62.33888000"},{"id":755,"name":"Charras","native":null,"lat":"-33.02400000","lon":"-64.04719000"},{"id":757,"name":"Chazón","native":null,"lat":"-33.07872000","lon":"-63.27657000"},{"id":769,"name":"Cintra","native":null,"lat":"-32.30673000","lon":"-62.65214000"},{"id":780,"name":"Colonia La Tordilla","native":null,"lat":"-31.23746000","lon":"-63.06134000"},{"id":781,"name":"Colonia San Bartolomé","native":null,"lat":"-31.52780000","lon":"-62.72436000"},{"id":815,"name":"Córdoba","native":null,"lat":"-31.41350000","lon":"-64.18105000"},{"id":797,"name":"Coronel Baigorria","native":null,"lat":"-32.84770000","lon":"-64.36107000"},{"id":800,"name":"Coronel Moldes","native":null,"lat":"-33.62270000","lon":"-64.59711000"},{"id":801,"name":"Corral de Bustos","native":null,"lat":"-33.28205000","lon":"-62.18463000"},{"id":802,"name":"Corralito","native":null,"lat":"-32.02462000","lon":"-64.19216000"},{"id":805,"name":"Cosquín","native":null,"lat":"-31.24508000","lon":"-64.46563000"},{"id":806,"name":"Costa Sacate","native":null,"lat":"-31.64770000","lon":"-63.75935000"},{"id":809,"name":"Cruz Alta","native":null,"lat":"-33.00887000","lon":"-61.80746000"},{"id":811,"name":"Cruz del Eje","native":null,"lat":"-30.72644000","lon":"-64.80387000"},{"id":812,"name":"Cuesta Blanca","native":null,"lat":"-31.48658000","lon":"-64.57150000"},{"id":816,"name":"Dalmacio Vélez Sársfield","native":null,"lat":"-32.61072000","lon":"-63.58038000"},{"id":1039,"name":"Deán Funes","native":null,"lat":"-30.42036000","lon":"-64.34984000"},{"id":818,"name":"Del Campillo","native":null,"lat":"-34.37659000","lon":"-64.49504000"},{"id":842,"name":"Departamento de Calamuchita","native":null,"lat":"-32.25000000","lon":"-64.58333000"},{"id":864,"name":"Departamento de Colón","native":null,"lat":"-31.16667000","lon":"-64.16667000"},{"id":871,"name":"Departamento de Cruz del Eje","native":null,"lat":"-30.75000000","lon":"-65.00000000"},{"id":896,"name":"Departamento de General Roca","native":null,"lat":"-34.66667000","lon":"-64.25000000"},{"id":897,"name":"Departamento de General San Martín","native":null,"lat":"-32.50000000","lon":"-63.33333000"},{"id":914,"name":"Departamento de Juárez Celman","native":null,"lat":"-33.33333000","lon":"-63.66667000"},{"id":939,"name":"Departamento de Marcos Juárez","native":null,"lat":"-33.00000000","lon":"-62.25000000"},{"id":943,"name":"Departamento de Minas","native":null,"lat":"-31.00000000","lon":"-65.33333000"},{"id":961,"name":"Departamento de Presidente Roque Sáenz Peña","native":null,"lat":"-34.25000000","lon":"-63.50000000"},{"id":974,"name":"Departamento de Río Cuarto","native":null,"lat":"-33.33333000","lon":"-64.50000000"},{"id":976,"name":"Departamento de Río Primero","native":null,"lat":"-31.08333000","lon":"-63.50000000"},{"id":977,"name":"Departamento de Río Seco","native":null,"lat":"-30.08333000","lon":"-63.00000000"},{"id":978,"name":"Departamento de Río Segundo","native":null,"lat":"-31.75000000","lon":"-63.50000000"},{"id":981,"name":"Departamento de San Alberto","native":null,"lat":"-31.75000000","lon":"-65.25000000"},{"id":990,"name":"Departamento de San Javier","native":null,"lat":"-32.08333000","lon":"-65.16667000"},{"id":991,"name":"Departamento de San Justo","native":null,"lat":"-31.33333000","lon":"-62.66667000"},{"id":1016,"name":"Departamento de Sobremonte","native":null,"lat":"-29.66667000","lon":"-64.08333000"},{"id":1022,"name":"Departamento de Totoral","native":null,"lat":"-30.83333000","lon":"-63.91667000"},{"id":1024,"name":"Departamento de Tulumba","native":null,"lat":"-30.25000000","lon":"-63.91667000"},{"id":1029,"name":"Departamento de Unión","native":null,"lat":"-32.83333000","lon":"-62.75000000"},{"id":1037,"name":"Despeñaderos","native":null,"lat":"-31.81626000","lon":"-64.28989000"},{"id":1038,"name":"Devoto","native":null,"lat":"-31.40431000","lon":"-62.30634000"},{"id":1049,"name":"El Arañado","native":null,"lat":"-31.74120000","lon":"-62.89322000"},{"id":1063,"name":"El Tío","native":null,"lat":"-31.38357000","lon":"-62.82938000"},{"id":1064,"name":"Elena","native":null,"lat":"-32.57205000","lon":"-64.39481000"},{"id":1066,"name":"Embalse","native":null,"lat":"-32.18000000","lon":"-64.41809000"},{"id":1073,"name":"Etruria","native":null,"lat":"-32.94008000","lon":"-63.24660000"},{"id":1096,"name":"General Baldissera","native":null,"lat":"-33.12246000","lon":"-62.30630000"},{"id":1097,"name":"General Cabrera","native":null,"lat":"-32.81313000","lon":"-63.87243000"},{"id":1106,"name":"General Levalle","native":null,"lat":"-34.01472000","lon":"-63.92413000"},{"id":1111,"name":"General Roca","native":null,"lat":"-32.73196000","lon":"-61.91599000"},{"id":1129,"name":"Guatimozín","native":null,"lat":"-33.46149000","lon":"-62.43844000"},{"id":1136,"name":"Hernando","native":null,"lat":"-32.42657000","lon":"-63.73333000"},{"id":1143,"name":"Huanchillas","native":null,"lat":"-33.66653000","lon":"-63.63701000"},{"id":1144,"name":"Huerta Grande","native":null,"lat":"-31.07524000","lon":"-64.49063000"},{"id":1146,"name":"Huinca Renancó","native":null,"lat":"-34.84038000","lon":"-64.37580000"},{"id":1150,"name":"Idiazábal","native":null,"lat":"-32.81411000","lon":"-63.03252000"},{"id":1156,"name":"Inriville","native":null,"lat":"-32.94424000","lon":"-62.23028000"},{"id":1159,"name":"Isla Verde","native":null,"lat":"-33.24104000","lon":"-62.40297000"},{"id":1160,"name":"Italó","native":null,"lat":"-34.79237000","lon":"-63.78199000"},{"id":1165,"name":"James Craik","native":null,"lat":"-32.16120000","lon":"-63.46688000"},{"id":1167,"name":"Jesús María","native":null,"lat":"-30.98153000","lon":"-64.09424000"},{"id":1173,"name":"Justiniano Posse","native":null,"lat":"-32.88411000","lon":"-62.67788000"},{"id":1178,"name":"La Calera","native":null,"lat":"-31.34377000","lon":"-64.33529000"},{"id":1179,"name":"La Carlota","native":null,"lat":"-33.41993000","lon":"-63.29769000"},{"id":1180,"name":"La Cesira","native":null,"lat":"-33.95115000","lon":"-62.97238000"},{"id":1185,"name":"La Cumbre","native":null,"lat":"-30.98201000","lon":"-64.49139000"},{"id":1188,"name":"La Falda","native":null,"lat":"-31.08841000","lon":"-64.48987000"},{"id":1189,"name":"La Francia","native":null,"lat":"-31.40675000","lon":"-62.63396000"},{"id":1190,"name":"La Granja","native":null,"lat":"-31.00919000","lon":"-64.26869000"},{"id":1194,"name":"La Para","native":null,"lat":"-30.89416000","lon":"-63.00107000"},{"id":1196,"name":"La Playosa","native":null,"lat":"-32.10002000","lon":"-63.03088000"},{"id":1204,"name":"Laborde","native":null,"lat":"-33.15319000","lon":"-62.85661000"},{"id":1205,"name":"Laboulaye","native":null,"lat":"-34.12662000","lon":"-63.39119000"},{"id":1207,"name":"Laguna Larga","native":null,"lat":"-31.77652000","lon":"-63.80104000"},{"id":1215,"name":"Las Acequias","native":null,"lat":"-33.28155000","lon":"-63.97610000"},{"id":1221,"name":"Las Higueras","native":null,"lat":"-33.09231000","lon":"-64.28899000"},{"id":1222,"name":"Las Junturas","native":null,"lat":"-31.83125000","lon":"-63.45016000"},{"id":1228,"name":"Las Perdices","native":null,"lat":"-32.69794000","lon":"-63.70634000"},{"id":1232,"name":"Las Varas","native":null,"lat":"-31.80260000","lon":"-62.61655000"},{"id":1233,"name":"Las Varillas","native":null,"lat":"-31.87208000","lon":"-62.71946000"},{"id":1234,"name":"Leones","native":null,"lat":"-32.66174000","lon":"-62.29678000"},{"id":1246,"name":"Los Cocos","native":null,"lat":"-30.92497000","lon":"-64.50207000"},{"id":1248,"name":"Los Cóndores","native":null,"lat":"-32.31983000","lon":"-64.27751000"},{"id":1254,"name":"Los Surgentes","native":null,"lat":"-32.98454000","lon":"-62.02191000"},{"id":1266,"name":"Malagueño","native":null,"lat":"-31.46467000","lon":"-64.35840000"},{"id":1267,"name":"Malvinas Argentinas","native":null,"lat":"-31.38194000","lon":"-64.05545000"},{"id":1269,"name":"Marcos Juárez","native":null,"lat":"-32.69780000","lon":"-62.10672000"},{"id":1273,"name":"Marull","native":null,"lat":"-30.99471000","lon":"-62.82576000"},{"id":1274,"name":"Mattaldi","native":null,"lat":"-34.48194000","lon":"-64.17255000"},{"id":1277,"name":"Mendiolaza","native":null,"lat":"-31.26738000","lon":"-64.30087000"},{"id":1282,"name":"Mina Clavero","native":null,"lat":"-31.72101000","lon":"-65.00619000"},{"id":1283,"name":"Miramar","native":null,"lat":"-30.91859000","lon":"-62.67814000"},{"id":1286,"name":"Monte Buey","native":null,"lat":"-32.91642000","lon":"-62.45669000"},{"id":1288,"name":"Monte Cristo","native":null,"lat":"-31.34312000","lon":"-63.94437000"},{"id":1289,"name":"Monte Maíz","native":null,"lat":"-33.20462000","lon":"-62.60085000"},{"id":1292,"name":"Morrison","native":null,"lat":"-32.59480000","lon":"-62.83455000"},{"id":1293,"name":"Morteros","native":null,"lat":"-30.71164000","lon":"-61.99862000"},{"id":1299,"name":"Noetinger","native":null,"lat":"-32.36597000","lon":"-62.31126000"},{"id":1305,"name":"Obispo Trejo","native":null,"lat":"-30.78128000","lon":"-63.41349000"},{"id":1306,"name":"Oliva","native":null,"lat":"-32.04158000","lon":"-63.56978000"},{"id":1307,"name":"Oncativo","native":null,"lat":"-31.91353000","lon":"-63.68201000"},{"id":1308,"name":"Ordóñez","native":null,"lat":"-32.84057000","lon":"-62.86552000"},{"id":1321,"name":"Pascanas","native":null,"lat":"-33.12550000","lon":"-63.04084000"},{"id":1322,"name":"Pasco","native":null,"lat":"-32.74733000","lon":"-63.34232000"},{"id":1333,"name":"Pilar","native":null,"lat":"-31.67890000","lon":"-63.87964000"},{"id":1335,"name":"Piquillín","native":null,"lat":"-31.30158000","lon":"-63.75788000"},{"id":1341,"name":"Porteña","native":null,"lat":"-31.01391000","lon":"-62.06650000"},{"id":1343,"name":"Pozo del Molle","native":null,"lat":"-32.01860000","lon":"-62.91984000"},{"id":1368,"name":"Quilino","native":null,"lat":"-30.21397000","lon":"-64.50063000"},{"id":1388,"name":"Río Ceballos","native":null,"lat":"-31.16486000","lon":"-64.32241000"},{"id":1390,"name":"Río Cuarto","native":null,"lat":"-33.13067000","lon":"-64.34992000"},{"id":1395,"name":"Río Segundo","native":null,"lat":"-31.65260000","lon":"-63.90990000"},{"id":1396,"name":"Río Tercero","native":null,"lat":"-32.17301000","lon":"-64.11405000"},{"id":1398,"name":"Sacanta","native":null,"lat":"-31.66300000","lon":"-63.04505000"},{"id":1400,"name":"Saldán","native":null,"lat":"-31.30262000","lon":"-64.30700000"},{"id":1401,"name":"Salsacate","native":null,"lat":"-31.31842000","lon":"-65.09003000"},{"id":1402,"name":"Salsipuedes","native":null,"lat":"-31.13725000","lon":"-64.29589000"},{"id":1404,"name":"Sampacho","native":null,"lat":"-33.38390000","lon":"-64.72211000"},{"id":1406,"name":"San Agustín","native":null,"lat":"-31.97681000","lon":"-64.37400000"},{"id":1410,"name":"San Antonio de Litín","native":null,"lat":"-32.21377000","lon":"-62.63237000"},{"id":1412,"name":"San Basilio","native":null,"lat":"-33.49763000","lon":"-64.31495000"},{"id":1415,"name":"San Carlos","native":null,"lat":"-31.17761000","lon":"-65.10245000"},{"id":1422,"name":"San Francisco","native":null,"lat":"-31.42797000","lon":"-62.08266000"},{"id":1424,"name":"San Francisco del Chañar","native":null,"lat":"-29.78830000","lon":"-63.94411000"},{"id":1432,"name":"San José de la Dormida","native":null,"lat":"-30.35440000","lon":"-63.94871000"},{"id":1457,"name":"Santa Eufemia","native":null,"lat":"-33.17659000","lon":"-63.28281000"},{"id":1462,"name":"Santa Magdalena","native":null,"lat":"-34.51776000","lon":"-63.94409000"},{"id":1467,"name":"Santa Rosa de Calamuchita","native":null,"lat":"-32.06905000","lon":"-64.53631000"},{"id":1468,"name":"Santa Rosa de Río Primero","native":null,"lat":"-31.15231000","lon":"-63.40191000"},{"id":1472,"name":"Santiago Temple","native":null,"lat":"-31.38731000","lon":"-63.41821000"},{"id":1479,"name":"Saturnino M. Laspiur","native":null,"lat":"-31.70287000","lon":"-62.48202000"},{"id":1481,"name":"Sebastián Elcano","native":null,"lat":"-30.16105000","lon":"-63.59360000"},{"id":1484,"name":"Serrano","native":null,"lat":"-34.46971000","lon":"-63.53842000"},{"id":1485,"name":"Serrezuela","native":null,"lat":"-30.63761000","lon":"-65.38692000"},{"id":1497,"name":"Tancacha","native":null,"lat":"-32.24309000","lon":"-63.98070000"},{"id":1502,"name":"Ticino","native":null,"lat":"-32.69350000","lon":"-63.43606000"},{"id":1517,"name":"Tío Pujio","native":null,"lat":"-32.28790000","lon":"-63.35598000"},{"id":1507,"name":"Toledo","native":null,"lat":"-31.55574000","lon":"-64.00947000"},{"id":1519,"name":"Ucacha","native":null,"lat":"-33.03203000","lon":"-63.50666000"},{"id":1521,"name":"Unquillo","native":null,"lat":"-31.23073000","lon":"-64.31615000"},{"id":1526,"name":"Valle Hermoso","native":null,"lat":"-31.11732000","lon":"-64.48084000"},{"id":1532,"name":"Viamonte","native":null,"lat":"-33.74647000","lon":"-63.09764000"},{"id":1535,"name":"Vicuña Mackenna","native":null,"lat":"-33.91965000","lon":"-64.39215000"},{"id":1537,"name":"Villa Allende","native":null,"lat":"-31.29458000","lon":"-64.29538000"},{"id":1538,"name":"Villa Ascasubi","native":null,"lat":"-32.16351000","lon":"-63.89157000"},{"id":1541,"name":"Villa Berna","native":null,"lat":"-31.91419000","lon":"-64.73249000"},{"id":1544,"name":"Villa Carlos Paz","native":null,"lat":"-31.42414000","lon":"-64.49778000"},{"id":1546,"name":"Villa Concepción del Tío","native":null,"lat":"-31.32259000","lon":"-62.81354000"},{"id":1548,"name":"Villa Cura Brochero","native":null,"lat":"-31.70578000","lon":"-65.01796000"},{"id":1581,"name":"Villa de Soto","native":null,"lat":"-30.85523000","lon":"-64.99947000"},{"id":1582,"name":"Villa del Dique","native":null,"lat":"-32.17667000","lon":"-64.45543000"},{"id":1583,"name":"Villa del Rosario","native":null,"lat":"-31.55660000","lon":"-63.53452000"},{"id":1585,"name":"Villa del Totoral","native":null,"lat":"-30.81667000","lon":"-63.71667000"},{"id":1549,"name":"Villa Dolores","native":null,"lat":"-31.94585000","lon":"-65.18958000"},{"id":1552,"name":"Villa General Belgrano","native":null,"lat":"-31.97828000","lon":"-64.55627000"},{"id":1556,"name":"Villa Giardino","native":null,"lat":"-31.03333000","lon":"-64.48333000"},{"id":1558,"name":"Villa Huidobro","native":null,"lat":"-34.83826000","lon":"-64.58686000"},{"id":1560,"name":"Villa Las Rosas","native":null,"lat":"-31.95021000","lon":"-65.05354000"},{"id":1563,"name":"Villa María","native":null,"lat":"-32.40751000","lon":"-63.24016000"},{"id":1567,"name":"Villa Nueva","native":null,"lat":"-32.43293000","lon":"-63.24763000"},{"id":1573,"name":"Villa Reducción","native":null,"lat":"-33.20105000","lon":"-63.86234000"},{"id":1575,"name":"Villa Rumipal","native":null,"lat":"-32.18790000","lon":"-64.48027000"},{"id":1578,"name":"Villa Tulumba","native":null,"lat":"-30.39552000","lon":"-64.12241000"},{"id":1580,"name":"Villa Valeria","native":null,"lat":"-34.34093000","lon":"-64.92030000"},{"id":1591,"name":"Wenceslao Escalante","native":null,"lat":"-33.17303000","lon":"-62.77078000"}]},{"id":3638,"name":"Corrientes","native":null,"cities":[{"id":658,"name":"Alvear","native":null,"lat":"-29.09683000","lon":"-56.55043000"},{"id":696,"name":"Berón de Astrada","native":null,"lat":"-27.55067000","lon":"-57.53460000"},{"id":698,"name":"Bonpland","native":null,"lat":"-29.81708000","lon":"-57.42974000"},{"id":756,"name":"Chavarría","native":null,"lat":"-28.95489000","lon":"-58.57277000"},{"id":789,"name":"Concepción","native":null,"lat":"-28.39175000","lon":"-57.88777000"},{"id":803,"name":"Corrientes","native":null,"lat":"-27.46784000","lon":"-58.83440000"},{"id":810,"name":"Cruz de los Milagros","native":null,"lat":"-28.83646000","lon":"-59.00476000"},{"id":813,"name":"Curuzú Cuatiá","native":null,"lat":"-29.79171000","lon":"-58.05460000"},{"id":836,"name":"Departamento de Bella Vista","native":null,"lat":"-28.50000000","lon":"-58.83333000"},{"id":838,"name":"Departamento de Berón de Astrada","native":null,"lat":"-27.50000000","lon":"-57.66667000"},{"id":847,"name":"Departamento de Capital","native":null,"lat":"-27.50000000","lon":"-58.75000000"},{"id":866,"name":"Departamento de Concepción","native":null,"lat":"-28.33333000","lon":"-58.00000000"},{"id":872,"name":"Departamento de Curuzú Cuatiá","native":null,"lat":"-29.50000000","lon":"-58.50000000"},{"id":879,"name":"Departamento de Empedrado","native":null,"lat":"-27.83333000","lon":"-58.66667000"},{"id":881,"name":"Departamento de Esquina","native":null,"lat":"-30.00000000","lon":"-59.33333000"},{"id":888,"name":"Departamento de General Alvear","native":null,"lat":"-28.83333000","lon":"-56.50000000"},{"id":895,"name":"Departamento de General Paz","native":null,"lat":"-27.75000000","lon":"-57.83333000"},{"id":899,"name":"Departamento de Goya","native":null,"lat":"-29.50000000","lon":"-59.50000000"},{"id":912,"name":"Departamento de Itatí","native":null,"lat":"-27.33333000","lon":"-58.00000000"},{"id":913,"name":"Departamento de Ituzaingó","native":null,"lat":"-27.90085000","lon":"-56.86604000"},{"id":925,"name":"Departamento de Lavalle","native":null,"lat":"-29.00000000","lon":"-58.91667000"},{"id":940,"name":"Departamento de Mburucuyá","native":null,"lat":"-28.00000000","lon":"-58.25000000"},{"id":941,"name":"Departamento de Mercedes","native":null,"lat":"-29.00000000","lon":"-57.83333000"},{"id":945,"name":"Departamento de Monte Caseros","native":null,"lat":"-30.25000000","lon":"-57.83333000"},{"id":957,"name":"Departamento de Paso de los Libres","native":null,"lat":"-29.66667000","lon":"-57.25000000"},{"id":980,"name":"Departamento de Saladas","native":null,"lat":"-28.25000000","lon":"-58.75000000"},{"id":984,"name":"Departamento de San Cosme","native":null,"lat":"-27.33333000","lon":"-58.50000000"},{"id":995,"name":"Departamento de San Luis del Palmar","native":null,"lat":"-27.50000000","lon":"-58.25000000"},{"id":996,"name":"Departamento de San Martín","native":null,"lat":"-28.83333000","lon":"-56.91667000"},{"id":1001,"name":"Departamento de San Miguel","native":null,"lat":"-27.91667000","lon":"-57.50000000"},{"id":1004,"name":"Departamento de San Roque","native":null,"lat":"-28.66667000","lon":"-58.75000000"},{"id":1009,"name":"Departamento de Santo Tomé","native":null,"lat":"-28.25000000","lon":"-56.25000000"},{"id":1014,"name":"Departamento de Sauce","native":null,"lat":"-30.00000000","lon":"-58.66667000"},{"id":1068,"name":"Empedrado","native":null,"lat":"-27.95178000","lon":"-58.80584000"},{"id":1071,"name":"Esquina","native":null,"lat":"-30.01476000","lon":"-59.52890000"},{"id":1077,"name":"Felipe Yofré","native":null,"lat":"-29.10226000","lon":"-58.33772000"},{"id":1089,"name":"Garruchos","native":null,"lat":"-28.17208000","lon":"-55.65406000"},{"id":1118,"name":"Gobernador Juan E. Martínez","native":null,"lat":"-28.91161000","lon":"-58.93594000"},{"id":1121,"name":"Gobernador Virasora","native":null,"lat":"-28.05000000","lon":"-56.03333000"},{"id":1123,"name":"Goya","native":null,"lat":"-29.13995000","lon":"-59.26343000"},{"id":1134,"name":"Herlitzka","native":null,"lat":"-27.56516000","lon":"-58.25557000"},{"id":1163,"name":"Itá Ibaté","native":null,"lat":"-27.42573000","lon":"-57.33758000"},{"id":1161,"name":"Itatí","native":null,"lat":"-27.27043000","lon":"-58.24458000"},{"id":1162,"name":"Ituzaingó","native":null,"lat":"-27.58162000","lon":"-56.68231000"},{"id":1171,"name":"Juan Pujol","native":null,"lat":"-30.41873000","lon":"-57.85612000"},{"id":1184,"name":"La Cruz","native":null,"lat":"-29.17443000","lon":"-56.64326000"},{"id":1235,"name":"Libertad","native":null,"lat":"-30.04300000","lon":"-57.82020000"},{"id":1237,"name":"Lomas de Vallejos","native":null,"lat":"-27.73501000","lon":"-57.91850000"},{"id":1242,"name":"Loreto","native":null,"lat":"-27.76834000","lon":"-57.27531000"},{"id":1271,"name":"Mariano I. Loza","native":null,"lat":"-29.37667000","lon":"-58.19436000"},{"id":1275,"name":"Mburucuyá","native":null,"lat":"-28.04532000","lon":"-58.22835000"},{"id":1279,"name":"Mercedes","native":null,"lat":"-29.18416000","lon":"-58.07519000"},{"id":1284,"name":"Mocoretá","native":null,"lat":"-30.61891000","lon":"-57.96344000"},{"id":1287,"name":"Monte Caseros","native":null,"lat":"-30.25359000","lon":"-57.63626000"},{"id":1301,"name":"Nuestra Señora del Rosario de Caa Catí","native":null,"lat":"-27.75072000","lon":"-57.62073000"},{"id":1303,"name":"Nueve de Julio","native":null,"lat":"-28.84051000","lon":"-58.82650000"},{"id":1311,"name":"Palmar Grande","native":null,"lat":"-27.94195000","lon":"-57.90057000"},{"id":1323,"name":"Paso de la Patria","native":null,"lat":"-27.31676000","lon":"-58.57197000"},{"id":1324,"name":"Paso de los Libres","native":null,"lat":"-29.71251000","lon":"-57.08771000"},{"id":1325,"name":"Pedro R. Fernández","native":null,"lat":"-28.75097000","lon":"-58.65583000"},{"id":1327,"name":"Perugorría","native":null,"lat":"-29.34132000","lon":"-58.61059000"},{"id":1349,"name":"Pueblo Libertador","native":null,"lat":"-30.22087000","lon":"-59.38981000"},{"id":1382,"name":"Riachuelo","native":null,"lat":"-27.58191000","lon":"-58.74497000"},{"id":1399,"name":"Saladas","native":null,"lat":"-28.25384000","lon":"-58.62591000"},{"id":1416,"name":"San Carlos","native":null,"lat":"-27.74586000","lon":"-55.89731000"},{"id":1419,"name":"San Cosme","native":null,"lat":"-27.37123000","lon":"-58.51214000"},{"id":1437,"name":"San Lorenzo","native":null,"lat":"-28.13306000","lon":"-58.76733000"},{"id":1439,"name":"San Luis del Palmar","native":null,"lat":"-27.50790000","lon":"-58.55454000"},{"id":1443,"name":"San Miguel","native":null,"lat":"-27.99585000","lon":"-57.58964000"},{"id":1461,"name":"Santa Lucía","native":null,"lat":"-28.98746000","lon":"-59.10287000"},{"id":1466,"name":"Santa Rosa","native":null,"lat":"-28.26318000","lon":"-58.11891000"},{"id":1476,"name":"Santo Tomé","native":null,"lat":"-28.54939000","lon":"-56.04077000"},{"id":1594,"name":"Yapeyú","native":null,"lat":"-29.46914000","lon":"-56.81841000"},{"id":1595,"name":"Yataity Calle","native":null,"lat":"-29.01913000","lon":"-58.90846000"}]},{"id":3654,"name":"Entre Ríos","native":null,"cities":[{"id":645,"name":"Aldea San Antonio","native":null,"lat":"-32.62317000","lon":"-58.70512000"},{"id":665,"name":"Aranguren","native":null,"lat":"-32.24252000","lon":"-60.16107000"},{"id":700,"name":"Bovril","native":null,"lat":"-31.34311000","lon":"-59.44512000"},{"id":735,"name":"Caseros","native":null,"lat":"-32.46325000","lon":"-58.47872000"},{"id":745,"name":"Ceibas","native":null,"lat":"-33.43333000","lon":"-58.75000000"},{"id":751,"name":"Chajarí","native":null,"lat":"-30.75048000","lon":"-57.97962000"},{"id":783,"name":"Colón","native":null,"lat":"-32.22312000","lon":"-58.14426000"},{"id":779,"name":"Colonia Elía","native":null,"lat":"-32.67144000","lon":"-58.32538000"},{"id":792,"name":"Concepción del Uruguay","native":null,"lat":"-32.48463000","lon":"-58.23217000"},{"id":793,"name":"Concordia","native":null,"lat":"-31.39296000","lon":"-58.02089000"},{"id":794,"name":"Conscripto Bernardi","native":null,"lat":"-31.04837000","lon":"-59.08435000"},{"id":808,"name":"Crespo","native":null,"lat":"-32.02873000","lon":"-60.30658000"},{"id":902,"name":"Departamento de Gualeguaychú","native":null,"lat":"-33.25000000","lon":"-59.00000000"},{"id":955,"name":"Departamento de Paraná","native":null,"lat":"-31.66667000","lon":"-60.00000000"},{"id":1040,"name":"Diamante","native":null,"lat":"-32.06641000","lon":"-60.63837000"},{"id":1043,"name":"Domínguez","native":null,"lat":"-31.98710000","lon":"-58.96197000"},{"id":1075,"name":"Federación","native":null,"lat":"-31.00621000","lon":"-57.89962000"},{"id":1076,"name":"Federal","native":null,"lat":"-30.95465000","lon":"-58.78326000"},{"id":1098,"name":"General Campos","native":null,"lat":"-31.52311000","lon":"-58.40490000"},{"id":1104,"name":"General Galarza","native":null,"lat":"-32.72034000","lon":"-59.39615000"},{"id":1110,"name":"General Ramírez","native":null,"lat":"-32.17601000","lon":"-60.20079000"},{"id":1119,"name":"Gobernador Mansilla","native":null,"lat":"-32.54453000","lon":"-59.35480000"},{"id":1126,"name":"Gualeguay","native":null,"lat":"-33.14156000","lon":"-59.30966000"},{"id":1127,"name":"Gualeguaychú","native":null,"lat":"-33.00937000","lon":"-58.51722000"},{"id":1132,"name":"Hasenkamp","native":null,"lat":"-31.51226000","lon":"-59.83545000"},{"id":1137,"name":"Hernández","native":null,"lat":"-32.33730000","lon":"-60.02160000"},{"id":1139,"name":"Herrera","native":null,"lat":"-32.43401000","lon":"-58.63177000"},{"id":1183,"name":"La Criolla","native":null,"lat":"-31.26904000","lon":"-58.10558000"},{"id":1195,"name":"La Paz","native":null,"lat":"-30.74179000","lon":"-59.64517000"},{"id":1214,"name":"Larroque","native":null,"lat":"-33.03595000","lon":"-59.00125000"},{"id":1245,"name":"Los Charrúas","native":null,"lat":"-31.17548000","lon":"-58.18774000"},{"id":1247,"name":"Los Conquistadores","native":null,"lat":"-30.59080000","lon":"-58.46773000"},{"id":1257,"name":"Lucas González","native":null,"lat":"-32.38430000","lon":"-59.53013000"},{"id":1261,"name":"Maciá","native":null,"lat":"-32.17220000","lon":"-59.39947000"},{"id":1300,"name":"Nogoyá","native":null,"lat":"-32.39387000","lon":"-59.78953000"},{"id":1309,"name":"Oro Verde","native":null,"lat":"-31.82508000","lon":"-60.51749000"},{"id":1319,"name":"Paraná","native":null,"lat":"-31.73271000","lon":"-60.52897000"},{"id":1332,"name":"Piedras Blancas","native":null,"lat":"-31.18592000","lon":"-59.95181000"},{"id":1348,"name":"Pronunciamiento","native":null,"lat":"-32.34480000","lon":"-58.44268000"},{"id":1355,"name":"Puerto Ibicuy","native":null,"lat":"-33.75305000","lon":"-59.17762000"},{"id":1365,"name":"Puerto Yeruá","native":null,"lat":"-31.53713000","lon":"-58.01527000"},{"id":1385,"name":"Rosario del Tala","native":null,"lat":"-32.30286000","lon":"-59.14545000"},{"id":1413,"name":"San Benito","native":null,"lat":"-31.78371000","lon":"-60.44156000"},{"id":1426,"name":"San Gustavo","native":null,"lat":"-30.68961000","lon":"-59.39840000"},{"id":1430,"name":"San José de Feliciano","native":null,"lat":"-30.38452000","lon":"-58.75167000"},{"id":1435,"name":"San Justo","native":null,"lat":"-32.44654000","lon":"-58.43569000"},{"id":1450,"name":"San Salvador","native":null,"lat":"-31.62487000","lon":"-58.50524000"},{"id":1453,"name":"Santa Ana","native":null,"lat":"-30.90004000","lon":"-57.93162000"},{"id":1454,"name":"Santa Anita","native":null,"lat":"-32.17476000","lon":"-58.78622000"},{"id":1456,"name":"Santa Elena","native":null,"lat":"-30.94432000","lon":"-59.78832000"},{"id":1480,"name":"Sauce de Luna","native":null,"lat":"-31.23794000","lon":"-59.21872000"},{"id":1482,"name":"Seguí","native":null,"lat":"-31.95642000","lon":"-60.12488000"},{"id":1492,"name":"Tabossi","native":null,"lat":"-31.80135000","lon":"-59.93477000"},{"id":1518,"name":"Ubajay","native":null,"lat":"-31.79358000","lon":"-58.31350000"},{"id":1522,"name":"Urdinarrain","native":null,"lat":"-32.68573000","lon":"-58.89323000"},{"id":1531,"name":"Viale","native":null,"lat":"-31.86782000","lon":"-60.00722000"},{"id":1533,"name":"Victoria","native":null,"lat":"-32.61841000","lon":"-60.15478000"},{"id":1584,"name":"Villa del Rosario","native":null,"lat":"-30.79567000","lon":"-57.91257000"},{"id":1550,"name":"Villa Elisa","native":null,"lat":"-32.16320000","lon":"-58.40082000"},{"id":1557,"name":"Villa Hernandarias","native":null,"lat":"-31.23097000","lon":"-59.98464000"},{"id":1562,"name":"Villa Mantero","native":null,"lat":"-32.39727000","lon":"-58.74596000"},{"id":1564,"name":"Villa María Grande","native":null,"lat":"-31.66565000","lon":"-59.90182000"},{"id":1571,"name":"Villa Paranacito","native":null,"lat":"-33.71381000","lon":"-58.65844000"},{"id":1579,"name":"Villa Urquiza","native":null,"lat":"-31.64757000","lon":"-60.37516000"},{"id":1587,"name":"Villaguay","native":null,"lat":"-31.86530000","lon":"-59.02689000"}]},{"id":3652,"name":"Formosa","native":null,"cities":[{"id":772,"name":"Clorinda","native":null,"lat":"-25.28481000","lon":"-57.71851000"},{"id":785,"name":"Comandante Fontana","native":null,"lat":"-25.33453000","lon":"-59.68212000"},{"id":958,"name":"Departamento de Pilcomayo","native":null,"lat":"-25.50000000","lon":"-58.08333000"},{"id":1053,"name":"El Colorado","native":null,"lat":"-26.30808000","lon":"-59.37291000"},{"id":1072,"name":"Estanislao del Campo","native":null,"lat":"-25.05504000","lon":"-60.09218000"},{"id":1082,"name":"Formosa","native":null,"lat":"-26.18489000","lon":"-58.17313000"},{"id":1102,"name":"General Enrique Mosconi","native":null,"lat":"-23.21667000","lon":"-62.30000000"},{"id":1138,"name":"Herradura","native":null,"lat":"-26.48705000","lon":"-58.31198000"},{"id":1148,"name":"Ibarreta","native":null,"lat":"-25.21438000","lon":"-59.85851000"},{"id":1151,"name":"Ingeniero Guillermo N. Juárez","native":null,"lat":"-23.90000000","lon":"-61.85000000"},{"id":1209,"name":"Laguna Naick-Neck","native":null,"lat":"-25.24769000","lon":"-58.09383000"},{"id":1211,"name":"Laguna Yema","native":null,"lat":"-24.25391000","lon":"-61.24466000"},{"id":1225,"name":"Las Lomitas","native":null,"lat":"-24.70955000","lon":"-60.59303000"},{"id":1312,"name":"Palo Santo","native":null,"lat":"-25.56332000","lon":"-59.33781000"},{"id":1336,"name":"Pirané","native":null,"lat":"-25.73239000","lon":"-59.10879000"},{"id":1344,"name":"Pozo del Tigre","native":null,"lat":"-24.89682000","lon":"-60.32359000"},{"id":1381,"name":"Riacho Eh-Eh","native":null,"lat":"-25.36209000","lon":"-58.27750000"},{"id":1423,"name":"San Francisco de Laishí","native":null,"lat":"-26.24262000","lon":"-58.63039000"},{"id":1551,"name":"Villa Escolar","native":null,"lat":"-26.62209000","lon":"-58.67134000"},{"id":1553,"name":"Villa General Guemes","native":null,"lat":"-24.75530000","lon":"-59.48940000"}]},{"id":3645,"name":"Jujuy","native":null,"cities":[{"id":638,"name":"Abra Pampa","native":null,"lat":"-22.72049000","lon":"-65.69697000"},{"id":709,"name":"Caimancito","native":null,"lat":"-23.74069000","lon":"-64.59370000"},{"id":713,"name":"Calilegua","native":null,"lat":"-23.77368000","lon":"-64.77002000"},{"id":862,"name":"Departamento de Cochinoca","native":null,"lat":"-23.00000000","lon":"-65.83333000"},{"id":965,"name":"Departamento de Rinconada","native":null,"lat":"-22.50000000","lon":"-66.50000000"},{"id":1025,"name":"Departamento de Tumbaya","native":null,"lat":"-23.71667000","lon":"-65.66667000"},{"id":1047,"name":"El Aguilar","native":null,"lat":"-23.21572000","lon":"-65.68005000"},{"id":1083,"name":"Fraile Pintado","native":null,"lat":"-23.94079000","lon":"-64.79943000"},{"id":1147,"name":"Humahuaca","native":null,"lat":"-23.20544000","lon":"-65.35048000"},{"id":1155,"name":"Ingenio La Esperanza","native":null,"lat":"-24.22554000","lon":"-64.83896000"},{"id":1193,"name":"La Mendieta","native":null,"lat":"-24.31187000","lon":"-64.96377000"},{"id":1199,"name":"La Quiaca","native":null,"lat":"-22.10236000","lon":"-65.59299000"},{"id":1236,"name":"Libertador General San Martín","native":null,"lat":"-23.80644000","lon":"-64.78757000"},{"id":1262,"name":"Maimará","native":null,"lat":"-23.62392000","lon":"-65.40797000"},{"id":1310,"name":"Palma Sola","native":null,"lat":"-23.97771000","lon":"-64.30311000"},{"id":1313,"name":"Palpalá","native":null,"lat":"-24.25647000","lon":"-65.21163000"},{"id":1447,"name":"San Pedro de Jujuy","native":null,"lat":"-24.23127000","lon":"-64.86614000"},{"id":1451,"name":"San Salvador de Jujuy","native":null,"lat":"-24.19457000","lon":"-65.29712000"},{"id":1455,"name":"Santa Clara","native":null,"lat":"-24.30921000","lon":"-64.66253000"},{"id":1503,"name":"Tilcara","native":null,"lat":"-23.57817000","lon":"-65.39516000"},{"id":1597,"name":"Yuto","native":null,"lat":"-23.64342000","lon":"-64.47194000"}]},{"id":3655,"name":"La Pampa","native":null,"cities":[{"id":652,"name":"Alpachiri","native":null,"lat":"-37.37704000","lon":"-63.77445000"},{"id":654,"name":"Alta Italia","native":null,"lat":"-35.33350000","lon":"-64.11496000"},{"id":662,"name":"Anguil","native":null,"lat":"-36.52567000","lon":"-64.01025000"},{"id":666,"name":"Arata","native":null,"lat":"-35.63895000","lon":"-64.35621000"},{"id":692,"name":"Bernardo Larroudé","native":null,"lat":"-35.02449000","lon":"-63.58253000"},{"id":694,"name":"Bernasconi","native":null,"lat":"-37.90459000","lon":"-63.74240000"},{"id":712,"name":"Caleufú","native":null,"lat":"-35.59559000","lon":"-64.55778000"},{"id":740,"name":"Catriló","native":null,"lat":"-36.40597000","lon":"-63.42168000"},{"id":775,"name":"Colonia Barón","native":null,"lat":"-36.15152000","lon":"-63.85404000"},{"id":843,"name":"Departamento de Caleu-Caleu","native":null,"lat":"-38.58333000","lon":"-64.00000000"},{"id":1021,"name":"Departamento de Toay","native":null,"lat":"-36.58333000","lon":"-64.80000000"},{"id":1041,"name":"Doblas","native":null,"lat":"-37.14967000","lon":"-64.01183000"},{"id":1046,"name":"Eduardo Castex","native":null,"lat":"-35.91501000","lon":"-64.29448000"},{"id":1065,"name":"Embajador Martini","native":null,"lat":"-35.38633000","lon":"-64.28092000"},{"id":1094,"name":"General Acha","native":null,"lat":"-37.37698000","lon":"-64.60431000"},{"id":1107,"name":"General Manuel J. Campos","native":null,"lat":"-37.46025000","lon":"-63.58537000"},{"id":1108,"name":"General Pico","native":null,"lat":"-35.65662000","lon":"-63.75682000"},{"id":1113,"name":"General San Martín","native":null,"lat":"-37.97904000","lon":"-63.60449000"},{"id":1130,"name":"Guatraché","native":null,"lat":"-37.66776000","lon":"-63.53021000"},{"id":1153,"name":"Ingeniero Luiggi","native":null,"lat":"-35.38585000","lon":"-64.46519000"},{"id":1157,"name":"Intendente Alvear","native":null,"lat":"-35.23383000","lon":"-63.59205000"},{"id":1164,"name":"Jacinto Arauz","native":null,"lat":"-38.08606000","lon":"-63.43169000"},{"id":1175,"name":"La Adela","native":null,"lat":"-38.98333000","lon":"-64.08333000"},{"id":1192,"name":"La Maruja","native":null,"lat":"-35.67360000","lon":"-64.93997000"},{"id":1240,"name":"Lonquimay","native":null,"lat":"-36.46546000","lon":"-63.62429000"},{"id":1259,"name":"Macachín","native":null,"lat":"-37.13598000","lon":"-63.66650000"},{"id":1281,"name":"Miguel Riglos","native":null,"lat":"-36.85398000","lon":"-63.68842000"},{"id":1320,"name":"Parera","native":null,"lat":"-35.14600000","lon":"-64.50089000"},{"id":1367,"name":"Quemú Quemú","native":null,"lat":"-36.05463000","lon":"-63.56428000"},{"id":1373,"name":"Rancul","native":null,"lat":"-35.06862000","lon":"-64.68107000"},{"id":1375,"name":"Realicó","native":null,"lat":"-35.03658000","lon":"-64.24470000"},{"id":1459,"name":"Santa Isabel","native":null,"lat":"-36.22724000","lon":"-66.94240000"},{"id":1465,"name":"Santa Rosa","native":null,"lat":"-36.61667000","lon":"-64.28333000"},{"id":1500,"name":"Telén","native":null,"lat":"-36.26429000","lon":"-65.51018000"},{"id":1513,"name":"Trenel","native":null,"lat":"-35.69837000","lon":"-64.13218000"},{"id":1523,"name":"Uriburu","native":null,"lat":"-36.50682000","lon":"-63.86225000"},{"id":1527,"name":"Veinticinco de Mayo","native":null,"lat":"-37.77410000","lon":"-67.71638000"},{"id":1534,"name":"Victorica","native":null,"lat":"-36.21505000","lon":"-65.43586000"},{"id":1592,"name":"Winifreda","native":null,"lat":"-36.22643000","lon":"-64.23388000"}]},{"id":3653,"name":"La Rioja","native":null,"cities":[{"id":667,"name":"Arauco","native":null,"lat":"-28.58071000","lon":"-66.79250000"},{"id":738,"name":"Castro Barros","native":null,"lat":"-30.57952000","lon":"-65.72696000"},{"id":752,"name":"Chamical","native":null,"lat":"-30.36002000","lon":"-66.31399000"},{"id":761,"name":"Chilecito","native":null,"lat":"-29.16195000","lon":"-67.49740000"},{"id":831,"name":"Departamento de Arauco","native":null,"lat":"-28.50000000","lon":"-66.83333000"},{"id":893,"name":"Departamento de General Lamadrid","native":null,"lat":"-28.83333000","lon":"-68.66667000"},{"id":910,"name":"Departamento de Independencia","native":null,"lat":"-30.16667000","lon":"-67.41667000"},{"id":1200,"name":"La Rioja","native":null,"lat":"-29.41105000","lon":"-66.85067000"},{"id":1543,"name":"Villa Bustos","native":null,"lat":"-29.28636000","lon":"-67.02067000"},{"id":1588,"name":"Vinchina","native":null,"lat":"-28.75964000","lon":"-68.20692000"}]},{"id":3646,"name":"Mendoza","native":null,"cities":[{"id":850,"name":"Departamento de Capital","native":null,"lat":"-32.88469000","lon":"-68.85826000"},{"id":889,"name":"Departamento de General Alvear","native":null,"lat":"-35.16667000","lon":"-67.33333000"},{"id":898,"name":"Departamento de Godoy Cruz","native":null,"lat":"-32.93333000","lon":"-68.86667000"},{"id":905,"name":"Departamento de Guaymallén","native":null,"lat":"-32.88333000","lon":"-68.70000000"},{"id":919,"name":"Departamento de La Paz","native":null,"lat":"-33.66667000","lon":"-67.25000000"},{"id":924,"name":"Departamento de Las Heras","native":null,"lat":"-32.50000000","lon":"-69.50000000"},{"id":926,"name":"Departamento de Lavalle","native":null,"lat":"-32.50000000","lon":"-68.00000000"},{"id":932,"name":"Departamento de Luján","native":null,"lat":"-33.00000000","lon":"-69.33333000"},{"id":936,"name":"Departamento de Maipú","native":null,"lat":"-33.00000000","lon":"-68.58333000"},{"id":938,"name":"Departamento de Malargüe","native":null,"lat":"-36.25000000","lon":"-69.25000000"},{"id":967,"name":"Departamento de Rivadavia","native":null,"lat":"-33.18000000","lon":"-68.46600000"},{"id":983,"name":"Departamento de San Carlos","native":null,"lat":"-34.00000000","lon":"-69.00000000"},{"id":999,"name":"Departamento de San Martín","native":null,"lat":"-32.83730000","lon":"-68.24922000"},{"id":1003,"name":"Departamento de San Rafael","native":null,"lat":"-35.00000000","lon":"-68.83333000"},{"id":1008,"name":"Departamento de Santa Rosa","native":null,"lat":"-33.50000000","lon":"-68.00000000"},{"id":1026,"name":"Departamento de Tunuyán","native":null,"lat":"-33.66667000","lon":"-69.50000000"},{"id":1027,"name":"Departamento de Tupungato","native":null,"lat":"-33.25000000","lon":"-69.25000000"},{"id":1122,"name":"Godoy Cruz","native":null,"lat":"-32.92863000","lon":"-68.83510000"},{"id":1219,"name":"Las Heras","native":null,"lat":"-32.85273000","lon":"-68.82837000"},{"id":1278,"name":"Mendoza","native":null,"lat":"-32.89084000","lon":"-68.82717000"},{"id":1440,"name":"San Martín","native":null,"lat":"-33.08103000","lon":"-68.46814000"},{"id":1448,"name":"San Rafael","native":null,"lat":"-34.61772000","lon":"-68.33007000"}]},{"id":3644,"name":"Misiones","native":null,"cities":[{"id":643,"name":"Alba Posse","native":null,"lat":"-27.56978000","lon":"-54.68262000"},{"id":650,"name":"Almafuerte","native":null,"lat":"-27.50825000","lon":"-55.40258000"},{"id":669,"name":"Aristóbulo del Valle","native":null,"lat":"-27.09625000","lon":"-54.89626000"},{"id":674,"name":"Arroyo del Medio","native":null,"lat":"-27.69748000","lon":"-55.40376000"},{"id":678,"name":"Azara","native":null,"lat":"-28.06160000","lon":"-55.67797000"},{"id":693,"name":"Bernardo de Irigoyen","native":null,"lat":"-26.25520000","lon":"-53.64581000"},{"id":699,"name":"Bonpland","native":null,"lat":"-27.48218000","lon":"-55.47756000"},{"id":718,"name":"Campo Grande","native":null,"lat":"-27.20770000","lon":"-54.97977000"},{"id":721,"name":"Campo Ramón","native":null,"lat":"-27.45490000","lon":"-55.02122000"},{"id":722,"name":"Campo Viera","native":null,"lat":"-27.33271000","lon":"-55.05651000"},{"id":724,"name":"Candelaria","native":null,"lat":"-27.45950000","lon":"-55.74536000"},{"id":728,"name":"Capioví","native":null,"lat":"-26.92998000","lon":"-55.06084000"},{"id":731,"name":"Caraguatay","native":null,"lat":"-26.60587000","lon":"-54.78093000"},{"id":748,"name":"Cerro Azul","native":null,"lat":"-27.63310000","lon":"-55.49620000"},{"id":749,"name":"Cerro Corá","native":null,"lat":"-27.51310000","lon":"-55.60896000"},{"id":774,"name":"Colonia Aurora","native":null,"lat":"-27.47428000","lon":"-54.52498000"},{"id":790,"name":"Concepción de la Sierra","native":null,"lat":"-27.98311000","lon":"-55.52031000"},{"id":830,"name":"Departamento de Apóstoles","native":null,"lat":"-27.91667000","lon":"-55.75000000"},{"id":841,"name":"Departamento de Cainguás","native":null,"lat":"-27.16667000","lon":"-54.83333000"},{"id":845,"name":"Departamento de Candelaria","native":null,"lat":"-27.50000000","lon":"-55.50000000"},{"id":848,"name":"Departamento de Capital","native":null,"lat":"-27.50000000","lon":"-55.83333000"},{"id":867,"name":"Departamento de Concepción de la Sierra","native":null,"lat":"-27.83333000","lon":"-55.41667000"},{"id":878,"name":"Departamento de Eldorado","native":null,"lat":"-26.25000000","lon":"-54.41667000"},{"id":894,"name":"Departamento de General Manuel Belgrano","native":null,"lat":"-26.16667000","lon":"-53.91667000"},{"id":903,"name":"Departamento de Guaraní","native":null,"lat":"-27.16667000","lon":"-54.16667000"},{"id":908,"name":"Departamento de Iguazú","native":null,"lat":"-25.86667000","lon":"-54.36667000"},{"id":927,"name":"Departamento de Leandro N. Alem","native":null,"lat":"-27.56667000","lon":"-55.33333000"},{"id":929,"name":"Departamento de Libertador General San Martín","native":null,"lat":"-26.91667000","lon":"-54.91667000"},{"id":946,"name":"Departamento de Montecarlo","native":null,"lat":"-26.71667000","lon":"-54.58333000"},{"id":953,"name":"Departamento de Oberá","native":null,"lat":"-27.55000000","lon":"-55.08333000"},{"id":987,"name":"Departamento de San Ignacio","native":null,"lat":"-27.25000000","lon":"-55.33333000"},{"id":989,"name":"Departamento de San Javier","native":null,"lat":"-27.77806000","lon":"-55.13004000"},{"id":1002,"name":"Departamento de San Pedro","native":null,"lat":"-26.66667000","lon":"-54.00000000"},{"id":1031,"name":"Departamento de Veinticinco de Mayo","native":null,"lat":"-27.41667000","lon":"-54.66667000"},{"id":1044,"name":"Dos Arroyos","native":null,"lat":"-27.69946000","lon":"-55.25207000"},{"id":1045,"name":"Dos de Mayo","native":null,"lat":"-27.02277000","lon":"-54.68669000"},{"id":1048,"name":"El Alcázar","native":null,"lat":"-26.71459000","lon":"-54.81523000"},{"id":1061,"name":"El Soberbio","native":null,"lat":"-27.29847000","lon":"-54.19877000"},{"id":1080,"name":"Florentino Ameghino","native":null,"lat":"-27.56667000","lon":"-55.13333000"},{"id":1090,"name":"Garuhapé","native":null,"lat":"-26.81768000","lon":"-54.95665000"},{"id":1091,"name":"Garupá","native":null,"lat":"-27.48171000","lon":"-55.82921000"},{"id":1095,"name":"General Alvear","native":null,"lat":"-27.42611000","lon":"-55.16916000"},{"id":1120,"name":"Gobernador Roca","native":null,"lat":"-27.18636000","lon":"-55.46433000"},{"id":1128,"name":"Guaraní","native":null,"lat":"-27.52323000","lon":"-55.16077000"},{"id":1166,"name":"Jardín América","native":null,"lat":"-27.04346000","lon":"-55.22698000"},{"id":1241,"name":"Loreto","native":null,"lat":"-27.33177000","lon":"-55.52499000"},{"id":1250,"name":"Los Helechos","native":null,"lat":"-27.55051000","lon":"-55.07908000"},{"id":1295,"name":"Mártires","native":null,"lat":"-27.42265000","lon":"-55.37659000"},{"id":1285,"name":"Mojón Grande","native":null,"lat":"-27.71165000","lon":"-55.15631000"},{"id":1290,"name":"Montecarlo","native":null,"lat":"-26.56620000","lon":"-54.75700000"},{"id":1304,"name":"Oberá","native":null,"lat":"-27.48706000","lon":"-55.11994000"},{"id":1318,"name":"Panambí","native":null,"lat":"-27.72369000","lon":"-54.91515000"},{"id":1328,"name":"Picada Gobernador López","native":null,"lat":"-27.67069000","lon":"-55.24585000"},{"id":1342,"name":"Posadas","native":null,"lat":"-27.36708000","lon":"-55.89608000"},{"id":1353,"name":"Puerto Eldorado","native":null,"lat":"-26.40843000","lon":"-54.69463000"},{"id":1354,"name":"Puerto Esperanza","native":null,"lat":"-26.02267000","lon":"-54.61356000"},{"id":1356,"name":"Puerto Iguazú","native":null,"lat":"-25.59912000","lon":"-54.57355000"},{"id":1357,"name":"Puerto Leoni","native":null,"lat":"-26.98762000","lon":"-55.16569000"},{"id":1358,"name":"Puerto Libertad","native":null,"lat":"-25.91958000","lon":"-54.58229000"},{"id":1360,"name":"Puerto Piray","native":null,"lat":"-26.46937000","lon":"-54.70736000"},{"id":1361,"name":"Puerto Rico","native":null,"lat":"-26.79598000","lon":"-55.02402000"},{"id":1387,"name":"Ruiz de Montoya","native":null,"lat":"-26.98333000","lon":"-55.05000000"},{"id":1429,"name":"San José","native":null,"lat":"-27.76979000","lon":"-55.78260000"},{"id":1446,"name":"San Pedro","native":null,"lat":"-26.62207000","lon":"-54.10842000"},{"id":1452,"name":"San Vicente","native":null,"lat":"-26.61667000","lon":"-54.13333000"},{"id":1463,"name":"Santa María","native":null,"lat":"-27.93490000","lon":"-55.40742000"},{"id":1474,"name":"Santo Pipó","native":null,"lat":"-27.14132000","lon":"-55.40867000"},{"id":1514,"name":"Tres Capones","native":null,"lat":"-28.00641000","lon":"-55.60471000"},{"id":1528,"name":"Veinticinco de Mayo","native":null,"lat":"-27.37679000","lon":"-54.74312000"},{"id":1590,"name":"Wanda","native":null,"lat":"-25.96879000","lon":"-54.56285000"}]},{"id":3648,"name":"Neuquén","native":null,"cities":[{"id":657,"name":"Aluminé","native":null,"lat":"-39.23686000","lon":"-70.91970000"},{"id":660,"name":"Andacollo","native":null,"lat":"-37.17945000","lon":"-70.66912000"},{"id":680,"name":"Añelo","native":null,"lat":"-38.35441000","lon":"-68.78840000"},{"id":684,"name":"Barrancas","native":null,"lat":"-36.82344000","lon":"-69.91564000"},{"id":706,"name":"Buta Ranquil","native":null,"lat":"-37.05222000","lon":"-69.87713000"},{"id":746,"name":"Centenario","native":null,"lat":"-38.82955000","lon":"-68.13180000"},{"id":766,"name":"Chos Malal","native":null,"lat":"-37.37809000","lon":"-70.27085000"},{"id":814,"name":"Cutral-Có","native":null,"lat":"-38.93424000","lon":"-69.23052000"},{"id":823,"name":"Departamento de Aluminé","native":null,"lat":"-39.16667000","lon":"-71.00000000"},{"id":833,"name":"Departamento de Añelo","native":null,"lat":"-38.16667000","lon":"-69.00000000"},{"id":855,"name":"Departamento de Catán-Lil","native":null,"lat":"-39.50000000","lon":"-70.33333000"},{"id":860,"name":"Departamento de Chos-Malal","native":null,"lat":"-36.91667000","lon":"-70.16667000"},{"id":863,"name":"Departamento de Collón-Curá","native":null,"lat":"-40.08333000","lon":"-70.16667000"},{"id":868,"name":"Departamento de Confluencia","native":null,"lat":"-38.83333000","lon":"-68.83333000"},{"id":934,"name":"Departamento de Lácar","native":null,"lat":"-40.25000000","lon":"-71.20000000"},{"id":944,"name":"Departamento de Minas","native":null,"lat":"-36.83333000","lon":"-70.83333000"},{"id":1035,"name":"Departamento de Zapala","native":null,"lat":"-39.00000000","lon":"-69.83333000"},{"id":1057,"name":"El Huecú","native":null,"lat":"-37.64522000","lon":"-70.58006000"},{"id":1172,"name":"Junín de los Andes","native":null,"lat":"-39.95043000","lon":"-71.06936000"},{"id":1217,"name":"Las Coloradas","native":null,"lat":"-39.55534000","lon":"-70.59491000"},{"id":1223,"name":"Las Lajas","native":null,"lat":"-38.52322000","lon":"-70.36745000"},{"id":1226,"name":"Las Ovejas","native":null,"lat":"-36.98881000","lon":"-70.74991000"},{"id":1238,"name":"Loncopué","native":null,"lat":"-38.07284000","lon":"-70.61609000"},{"id":1272,"name":"Mariano Moreno","native":null,"lat":"-38.75029000","lon":"-70.02367000"},{"id":1298,"name":"Neuquén","native":null,"lat":"-38.95161000","lon":"-68.05910000"},{"id":1330,"name":"Picún Leufú","native":null,"lat":"-39.51614000","lon":"-69.28765000"},{"id":1331,"name":"Piedra del Águila","native":null,"lat":"-40.04811000","lon":"-70.07410000"},{"id":1337,"name":"Plaza Huincul","native":null,"lat":"-38.92598000","lon":"-69.20863000"},{"id":1338,"name":"Plottier","native":null,"lat":"-38.96667000","lon":"-68.23333000"},{"id":1442,"name":"San Martín de los Andes","native":null,"lat":"-40.15789000","lon":"-71.35337000"},{"id":1483,"name":"Senillosa","native":null,"lat":"-39.01412000","lon":"-68.43281000"},{"id":1559,"name":"Villa La Angostura","native":null,"lat":"-40.76173000","lon":"-71.64631000"},{"id":1589,"name":"Vista Alegre","native":null,"lat":"-38.75000000","lon":"-68.18333000"},{"id":1598,"name":"Zapala","native":null,"lat":"-38.89916000","lon":"-70.05442000"}]},{"id":3639,"name":"Río Negro","native":null,"cities":[{"id":649,"name":"Allen","native":null,"lat":"-38.97736000","lon":"-67.82714000"},{"id":739,"name":"Catriel","native":null,"lat":"-37.87907000","lon":"-67.79560000"},{"id":750,"name":"Cervantes","native":null,"lat":"-39.05444000","lon":"-67.39426000"},{"id":759,"name":"Chichinales","native":null,"lat":"-39.11505000","lon":"-66.92714000"},{"id":763,"name":"Chimpay","native":null,"lat":"-39.16482000","lon":"-66.14236000"},{"id":764,"name":"Choele Choel","native":null,"lat":"-39.28941000","lon":"-65.66060000"},{"id":768,"name":"Cinco Saltos","native":null,"lat":"-38.82225000","lon":"-68.06293000"},{"id":770,"name":"Cipolletti","native":null,"lat":"-38.93392000","lon":"-67.99032000"},{"id":784,"name":"Comallo","native":null,"lat":"-41.02993000","lon":"-70.26784000"},{"id":795,"name":"Contraalmirante Cordero","native":null,"lat":"-38.72423000","lon":"-68.15284000"},{"id":798,"name":"Coronel Belisle","native":null,"lat":"-39.18688000","lon":"-65.95422000"},{"id":817,"name":"Darwin","native":null,"lat":"-39.20334000","lon":"-65.73952000"},{"id":832,"name":"Departamento de Avellaneda","native":null,"lat":"-39.50000000","lon":"-66.50000000"},{"id":1032,"name":"Departamento de Veinticinco de Mayo","native":null,"lat":"-41.25000000","lon":"-69.00000000"},{"id":1050,"name":"El Bolsón","native":null,"lat":"-41.96051000","lon":"-71.53336000"},{"id":1054,"name":"El Cuy","native":null,"lat":"-39.92685000","lon":"-68.34208000"},{"id":1085,"name":"Fray Luis Beltrán","native":null,"lat":"-39.31369000","lon":"-65.76002000"},{"id":1099,"name":"General Conesa","native":null,"lat":"-40.10408000","lon":"-64.45592000"},{"id":1100,"name":"General Enrique Godoy","native":null,"lat":"-39.07891000","lon":"-67.15807000"},{"id":1103,"name":"General Fernández Oro","native":null,"lat":"-38.95297000","lon":"-67.92489000"},{"id":1112,"name":"General Roca","native":null,"lat":"-39.03333000","lon":"-67.58333000"},{"id":1152,"name":"Ingeniero Jacobacci","native":null,"lat":"-41.32920000","lon":"-69.55015000"},{"id":1154,"name":"Ingeniero Luis A. Huergo","native":null,"lat":"-39.07146000","lon":"-67.23790000"},{"id":1212,"name":"Lamarque","native":null,"lat":"-39.42304000","lon":"-65.70208000"},{"id":1253,"name":"Los Menucos","native":null,"lat":"-40.84402000","lon":"-68.08718000"},{"id":1263,"name":"Mainque","native":null,"lat":"-39.06667000","lon":"-67.30000000"},{"id":1268,"name":"Maquinchao","native":null,"lat":"-41.24912000","lon":"-68.70321000"},{"id":1599,"name":"Ñorquinco","native":null,"lat":"-41.85072000","lon":"-70.90173000"},{"id":1334,"name":"Pilcaniyeu","native":null,"lat":"-41.12288000","lon":"-70.72152000"},{"id":1389,"name":"Río Colorado","native":null,"lat":"-38.99397000","lon":"-64.09295000"},{"id":1409,"name":"San Antonio Oeste","native":null,"lat":"-40.73193000","lon":"-64.94769000"},{"id":1418,"name":"San Carlos de Bariloche","native":null,"lat":"-41.14557000","lon":"-71.30822000"},{"id":1486,"name":"Sierra Colorada","native":null,"lat":"-40.58487000","lon":"-67.75674000"},{"id":1487,"name":"Sierra Grande","native":null,"lat":"-41.60603000","lon":"-65.35574000"},{"id":1525,"name":"Valcheta","native":null,"lat":"-40.67989000","lon":"-66.16283000"},{"id":1536,"name":"Viedma","native":null,"lat":"-40.81345000","lon":"-62.99668000"},{"id":1574,"name":"Villa Regina","native":null,"lat":"-39.10000000","lon":"-67.06667000"}]},{"id":3643,"name":"Salta","native":null,"cities":[{"id":664,"name":"Apolinario Saravia","native":null,"lat":"-24.43276000","lon":"-63.99535000"},{"id":707,"name":"Cachí","native":null,"lat":"-25.12033000","lon":"-66.16519000"},{"id":708,"name":"Cafayate","native":null,"lat":"-26.08333000","lon":"-65.83333000"},{"id":720,"name":"Campo Quijano","native":null,"lat":"-24.90982000","lon":"-65.63656000"},{"id":760,"name":"Chicoana","native":null,"lat":"-25.10502000","lon":"-65.53473000"},{"id":819,"name":"Departamento Capital","native":null,"lat":"-24.83333000","lon":"-65.33333000"},{"id":828,"name":"Departamento de Anta","native":null,"lat":"-24.91667000","lon":"-64.00000000"},{"id":857,"name":"Departamento de Cerrillos","native":null,"lat":"-25.00000000","lon":"-65.41667000"},{"id":858,"name":"Departamento de Chicoana","native":null,"lat":"-25.11583000","lon":"-65.59466000"},{"id":891,"name":"Departamento de General Güemes","native":null,"lat":"-24.79464000","lon":"-64.94393000"},{"id":901,"name":"Departamento de Guachipas","native":null,"lat":"-25.66667000","lon":"-65.50000000"},{"id":911,"name":"Departamento de Iruya","native":null,"lat":"-22.80000000","lon":"-64.91667000"},{"id":920,"name":"Departamento de La Poma","native":null,"lat":"-24.16667000","lon":"-66.16667000"},{"id":921,"name":"Departamento de La Viña","native":null,"lat":"-25.50000000","lon":"-65.66667000"},{"id":931,"name":"Departamento de Los Andes","native":null,"lat":"-24.50000000","lon":"-67.33333000"},{"id":942,"name":"Departamento de Metán","native":null,"lat":"-25.50000000","lon":"-64.66667000"},{"id":968,"name":"Departamento de Rivadavia","native":null,"lat":"-23.66667000","lon":"-62.91667000"},{"id":971,"name":"Departamento de Rosario de la Frontera","native":null,"lat":"-25.91667000","lon":"-64.83333000"},{"id":970,"name":"Departamento de Rosario de Lerma","native":null,"lat":"-24.58333000","lon":"-65.83333000"},{"id":982,"name":"Departamento de San Carlos","native":null,"lat":"-25.75000000","lon":"-66.08333000"},{"id":1052,"name":"El Carril","native":null,"lat":"-25.07410000","lon":"-65.49174000"},{"id":1055,"name":"El Galpón","native":null,"lat":"-25.38069000","lon":"-64.65259000"},{"id":1059,"name":"El Quebrachal","native":null,"lat":"-25.28333000","lon":"-64.06667000"},{"id":1067,"name":"Embarcación","native":null,"lat":"-23.21003000","lon":"-64.09965000"},{"id":1101,"name":"General Enrique Mosconi","native":null,"lat":"-22.59588000","lon":"-63.81255000"},{"id":1168,"name":"Joaquín V. González","native":null,"lat":"-25.11364000","lon":"-64.12628000"},{"id":1177,"name":"La Caldera","native":null,"lat":"-24.58333000","lon":"-65.41667000"},{"id":1224,"name":"Las Lajitas","native":null,"lat":"-24.72762000","lon":"-64.19335000"},{"id":1403,"name":"Salta","native":null,"lat":"-24.78590000","lon":"-65.41166000"},{"id":1411,"name":"San Antonio de los Cobres","native":null,"lat":"-24.21804000","lon":"-66.31877000"},{"id":1449,"name":"San Ramón de la Nueva Orán","native":null,"lat":"-23.13705000","lon":"-64.32426000"},{"id":1469,"name":"Santa Rosa de Tastil","native":null,"lat":"-24.45166000","lon":"-65.97452000"},{"id":1498,"name":"Tartagal","native":null,"lat":"-22.51637000","lon":"-63.80131000"}]},{"id":3634,"name":"San Juan","native":null,"cities":[{"id":644,"name":"Albardón","native":null,"lat":"-31.43722000","lon":"-68.52556000"},{"id":714,"name":"Calingasta","native":null,"lat":"-31.33394000","lon":"-69.42080000"},{"id":741,"name":"Caucete","native":null,"lat":"-31.65179000","lon":"-68.28105000"},{"id":762,"name":"Chimbas","native":null,"lat":"-31.48333000","lon":"-68.53333000"},{"id":821,"name":"Departamento de Albardón","native":null,"lat":"-31.28333000","lon":"-68.41667000"},{"id":827,"name":"Departamento de Angaco","native":null,"lat":"-31.20000000","lon":"-68.13333000"},{"id":844,"name":"Departamento de Calingasta","native":null,"lat":"-31.50000000","lon":"-69.75000000"},{"id":851,"name":"Departamento de Capital","native":null,"lat":"-31.53333000","lon":"-68.53333000"},{"id":856,"name":"Departamento de Caucete","native":null,"lat":"-31.45000000","lon":"-67.66667000"},{"id":859,"name":"Departamento de Chimbas","native":null,"lat":"-31.48738000","lon":"-68.52691000"},{"id":907,"name":"Departamento de Iglesia","native":null,"lat":"-29.33333000","lon":"-69.58333000"},{"id":915,"name":"Departamento de Jáchal","native":null,"lat":"-30.50000000","lon":"-68.50000000"},{"id":952,"name":"Departamento de Nueve de Julio","native":null,"lat":"-31.65072000","lon":"-68.38925000"},{"id":964,"name":"Departamento de Rawson","native":null,"lat":"-31.70000000","lon":"-68.46667000"},{"id":966,"name":"Departamento de Rivadavia","native":null,"lat":"-31.56450000","lon":"-68.65219000"},{"id":998,"name":"Departamento de San Martín","native":null,"lat":"-31.50000000","lon":"-68.25000000"},{"id":1005,"name":"Departamento de Santa Lucía","native":null,"lat":"-31.53333000","lon":"-68.46667000"},{"id":1013,"name":"Departamento de Sarmiento","native":null,"lat":"-32.00000000","lon":"-68.66667000"},{"id":1028,"name":"Departamento de Ullúm","native":null,"lat":"-31.00000000","lon":"-68.91667000"},{"id":1036,"name":"Departamento de Zonda","native":null,"lat":"-31.68260000","lon":"-68.89938000"},{"id":1302,"name":"Nueve de Julio","native":null,"lat":"-31.66914000","lon":"-68.39023000"},{"id":1339,"name":"Pocito","native":null,"lat":"-31.68333000","lon":"-68.58333000"},{"id":1407,"name":"San Agustín de Valle Fértil","native":null,"lat":"-30.63353000","lon":"-67.46821000"},{"id":1431,"name":"San José de Jáchal","native":null,"lat":"-30.24057000","lon":"-68.74693000"},{"id":1433,"name":"San Juan","native":null,"lat":"-31.53750000","lon":"-68.53639000"},{"id":1441,"name":"San Martín","native":null,"lat":"-31.42957000","lon":"-68.50065000"},{"id":1460,"name":"Santa Lucía","native":null,"lat":"-31.53987000","lon":"-68.49503000"},{"id":1540,"name":"Villa Basilio Nievas","native":null,"lat":"-31.55000000","lon":"-68.73333000"},{"id":1572,"name":"Villa Paula de Sarmiento","native":null,"lat":"-31.49330000","lon":"-68.53838000"}]},{"id":3636,"name":"San Luis","native":null,"cities":[{"id":703,"name":"Buena Esperanza","native":null,"lat":"-34.75647000","lon":"-65.25379000"},{"id":725,"name":"Candelaria","native":null,"lat":"-32.06036000","lon":"-65.82477000"},{"id":788,"name":"Concarán","native":null,"lat":"-32.56009000","lon":"-65.24270000"},{"id":1170,"name":"Juan Martín de Pueyrredón","native":null,"lat":"-33.27544000","lon":"-66.32017000"},{"id":1174,"name":"Justo Daract","native":null,"lat":"-33.85940000","lon":"-65.18277000"},{"id":1198,"name":"La Punta","native":null,"lat":"-33.18368000","lon":"-66.31270000"},{"id":1202,"name":"La Toma","native":null,"lat":"-33.05258000","lon":"-65.62385000"},{"id":1258,"name":"Luján","native":null,"lat":"-32.36674000","lon":"-65.93642000"},{"id":1280,"name":"Merlo","native":null,"lat":"-32.34288000","lon":"-65.01396000"},{"id":1297,"name":"Naschel","native":null,"lat":"-32.91656000","lon":"-65.37535000"},{"id":1425,"name":"San Francisco del Monte de Oro","native":null,"lat":"-32.59825000","lon":"-66.12539000"},{"id":1438,"name":"San Luis","native":null,"lat":"-33.29501000","lon":"-66.33563000"},{"id":1470,"name":"Santa Rosa del Conlara","native":null,"lat":"-32.34286000","lon":"-65.20323000"},{"id":1504,"name":"Tilisarao","native":null,"lat":"-32.73292000","lon":"-65.29109000"},{"id":1520,"name":"Unión","native":null,"lat":"-35.15282000","lon":"-65.94602000"},{"id":1555,"name":"Villa General Roca","native":null,"lat":"-32.66535000","lon":"-66.45052000"},{"id":1565,"name":"Villa Mercedes","native":null,"lat":"-33.67571000","lon":"-65.45783000"}]},{"id":3649,"name":"Santa Cruz","native":null,"cities":[{"id":637,"name":"28 de Noviembre","native":null,"lat":"-51.58390000","lon":"-72.21382000"},{"id":711,"name":"Caleta Olivia","native":null,"lat":"-46.43929000","lon":"-67.52814000"},{"id":786,"name":"Comandante Luis Piedra Buena","native":null,"lat":"-49.98513000","lon":"-68.91467000"},{"id":874,"name":"Departamento de Deseado","native":null,"lat":"-47.33333000","lon":"-67.83333000"},{"id":906,"name":"Departamento de Güer Aike","native":null,"lat":"-51.33333000","lon":"-70.33333000"},{"id":922,"name":"Departamento de Lago Argentino","native":null,"lat":"-49.75000000","lon":"-72.00000000"},{"id":935,"name":"Departamento de Magallanes","native":null,"lat":"-48.75000000","lon":"-68.50000000"},{"id":972,"name":"Departamento de Río Chico","native":null,"lat":"-48.25000000","lon":"-71.00000000"},{"id":1051,"name":"El Calafate","native":null,"lat":"-50.34075000","lon":"-72.27682000"},{"id":1116,"name":"Gobernador Gregores","native":null,"lat":"-48.75057000","lon":"-70.24741000"},{"id":1220,"name":"Las Heras","native":null,"lat":"-46.54186000","lon":"-68.93593000"},{"id":1244,"name":"Los Antiguos","native":null,"lat":"-46.54972000","lon":"-71.63086000"},{"id":1326,"name":"Perito Moreno","native":null,"lat":"-46.58995000","lon":"-70.92975000"},{"id":1329,"name":"Pico Truncado","native":null,"lat":"-46.79490000","lon":"-67.95731000"},{"id":1352,"name":"Puerto Deseado","native":null,"lat":"-47.75034000","lon":"-65.89382000"},{"id":1362,"name":"Puerto Santa Cruz","native":null,"lat":"-50.01910000","lon":"-68.52321000"},{"id":1391,"name":"Río Gallegos","native":null,"lat":"-51.62261000","lon":"-69.21813000"},{"id":1397,"name":"Río Turbio","native":null,"lat":"-51.53587000","lon":"-72.33673000"},{"id":1434,"name":"San Julián","native":null,"lat":"-49.30554000","lon":"-67.72743000"},{"id":1593,"name":"Yacimiento Río Turbio","native":null,"lat":"-51.57321000","lon":"-72.35080000"}]},{"id":3641,"name":"Santa Fe","native":null,"cities":[{"id":670,"name":"Armstrong","native":null,"lat":"-32.78215000","lon":"-61.60222000"},{"id":673,"name":"Arroyo Seco","native":null,"lat":"-33.15489000","lon":"-60.50863000"},{"id":675,"name":"Arrufó","native":null,"lat":"-30.23281000","lon":"-61.72862000"},{"id":676,"name":"Avellaneda","native":null,"lat":"-29.11761000","lon":"-59.65834000"},{"id":689,"name":"Bella Italia","native":null,"lat":"-31.28182000","lon":"-61.41092000"},{"id":710,"name":"Calchaquí","native":null,"lat":"-29.88767000","lon":"-60.28697000"},{"id":743,"name":"Cañada de Gómez","native":null,"lat":"-32.81636000","lon":"-61.39493000"},{"id":729,"name":"Capitán Bermúdez","native":null,"lat":"-32.82262000","lon":"-60.71852000"},{"id":732,"name":"Carcarañá","native":null,"lat":"-32.85679000","lon":"-61.15331000"},{"id":736,"name":"Casilda","native":null,"lat":"-33.04417000","lon":"-61.16806000"},{"id":747,"name":"Ceres","native":null,"lat":"-29.88100000","lon":"-61.94504000"},{"id":758,"name":"Chañar Ladeado","native":null,"lat":"-33.32524000","lon":"-62.03831000"},{"id":796,"name":"Coronda","native":null,"lat":"-31.97263000","lon":"-60.91983000"},{"id":835,"name":"Departamento de Belgrano","native":null,"lat":"-32.50000000","lon":"-61.75000000"},{"id":853,"name":"Departamento de Caseros","native":null,"lat":"-33.25000000","lon":"-61.66667000"},{"id":854,"name":"Departamento de Castellanos","native":null,"lat":"-31.16667000","lon":"-61.66667000"},{"id":869,"name":"Departamento de Constitución","native":null,"lat":"-33.50000000","lon":"-60.91667000"},{"id":916,"name":"Departamento de La Capital","native":null,"lat":"-31.50000000","lon":"-60.66667000"},{"id":951,"name":"Departamento de Nueve de Julio","native":null,"lat":"-28.83333000","lon":"-61.33333000"},{"id":985,"name":"Departamento de San Cristóbal","native":null,"lat":"-30.33333000","lon":"-61.33333000"},{"id":988,"name":"Departamento de San Javier","native":null,"lat":"-30.33333000","lon":"-59.91667000"},{"id":992,"name":"Departamento de San Justo","native":null,"lat":"-30.66667000","lon":"-60.50000000"},{"id":993,"name":"Departamento de San Lorenzo","native":null,"lat":"-33.00000000","lon":"-61.00000000"},{"id":1000,"name":"Departamento de San Martín","native":null,"lat":"-32.00000000","lon":"-61.83333000"},{"id":1033,"name":"Departamento de Vera","native":null,"lat":"-29.00000000","lon":"-60.50000000"},{"id":1062,"name":"El Trébol","native":null,"lat":"-32.20080000","lon":"-61.70140000"},{"id":1069,"name":"Esperanza","native":null,"lat":"-31.44880000","lon":"-60.93173000"},{"id":1079,"name":"Firmat","native":null,"lat":"-33.45937000","lon":"-61.48320000"},{"id":1084,"name":"Fray Luis A. Beltrán","native":null,"lat":"-32.79122000","lon":"-60.72819000"},{"id":1086,"name":"Funes","native":null,"lat":"-32.91568000","lon":"-60.80995000"},{"id":1131,"name":"Gálvez","native":null,"lat":"-32.02927000","lon":"-61.22103000"},{"id":1093,"name":"Gato Colorado","native":null,"lat":"-28.02219000","lon":"-61.18663000"},{"id":1117,"name":"Gobernador Gálvez","native":null,"lat":"-33.03016000","lon":"-60.64045000"},{"id":1124,"name":"Granadero Baigorria","native":null,"lat":"-32.85683000","lon":"-60.71754000"},{"id":1133,"name":"Helvecia","native":null,"lat":"-31.09834000","lon":"-60.08830000"},{"id":1140,"name":"Hersilia","native":null,"lat":"-30.00447000","lon":"-61.84080000"},{"id":1158,"name":"Iriondo Department","native":null,"lat":"-32.63333000","lon":"-61.33333000"},{"id":1210,"name":"Laguna Paiva","native":null,"lat":"-31.30391000","lon":"-60.65894000"},{"id":1227,"name":"Las Parejas","native":null,"lat":"-32.68478000","lon":"-61.51637000"},{"id":1230,"name":"Las Rosas","native":null,"lat":"-32.47661000","lon":"-61.58041000"},{"id":1231,"name":"Las Toscas","native":null,"lat":"-28.35290000","lon":"-59.25795000"},{"id":1252,"name":"Los Laureles","native":null,"lat":"-29.36847000","lon":"-59.73634000"},{"id":1265,"name":"Malabrigo","native":null,"lat":"-29.34636000","lon":"-59.96957000"},{"id":1276,"name":"Melincué","native":null,"lat":"-33.65847000","lon":"-61.45459000"},{"id":1366,"name":"Pérez","native":null,"lat":"-32.99835000","lon":"-60.76791000"},{"id":1372,"name":"Rafaela","native":null,"lat":"-31.25033000","lon":"-61.48670000"},{"id":1376,"name":"Reconquista","native":null,"lat":"-29.15000000","lon":"-59.65000000"},{"id":1377,"name":"Recreo","native":null,"lat":"-31.49076000","lon":"-60.73299000"},{"id":1383,"name":"Roldán","native":null,"lat":"-32.89846000","lon":"-60.90681000"},{"id":1384,"name":"Rosario","native":null,"lat":"-32.94682000","lon":"-60.63932000"},{"id":1386,"name":"Rufino","native":null,"lat":"-34.26827000","lon":"-62.71262000"},{"id":1417,"name":"San Carlos Centro","native":null,"lat":"-31.72864000","lon":"-61.09192000"},{"id":1420,"name":"San Cristóbal","native":null,"lat":"-30.31053000","lon":"-61.23724000"},{"id":1427,"name":"San Javier","native":null,"lat":"-30.57781000","lon":"-59.93170000"},{"id":1428,"name":"San Jorge","native":null,"lat":"-31.89618000","lon":"-61.85984000"},{"id":1436,"name":"San Justo","native":null,"lat":"-30.78913000","lon":"-60.59189000"},{"id":1458,"name":"Santa Fe","native":null,"lat":"-31.64881000","lon":"-60.70868000"},{"id":1475,"name":"Santo Tomé","native":null,"lat":"-31.66274000","lon":"-60.76530000"},{"id":1478,"name":"Sastre","native":null,"lat":"-31.76762000","lon":"-61.82887000"},{"id":1490,"name":"Sunchales","native":null,"lat":"-30.94404000","lon":"-61.56148000"},{"id":1494,"name":"Tacuarendí","native":null,"lat":"-28.41265000","lon":"-59.26000000"},{"id":1509,"name":"Tostado","native":null,"lat":"-29.23202000","lon":"-61.76917000"},{"id":1510,"name":"Totoras","native":null,"lat":"-32.58440000","lon":"-61.16852000"},{"id":1529,"name":"Venado Tuerto","native":null,"lat":"-33.74556000","lon":"-61.96885000"},{"id":1530,"name":"Vera","native":null,"lat":"-29.45930000","lon":"-60.21261000"},{"id":1545,"name":"Villa Cañás","native":null,"lat":"-34.00565000","lon":"-61.60757000"},{"id":1547,"name":"Villa Constitución","native":null,"lat":"-33.22778000","lon":"-60.32970000"},{"id":1566,"name":"Villa Mugueta","native":null,"lat":"-33.31129000","lon":"-61.05515000"},{"id":1568,"name":"Villa Ocampo","native":null,"lat":"-28.48752000","lon":"-59.35515000"},{"id":1577,"name":"Villa Trinidad","native":null,"lat":"-30.21329000","lon":"-61.87597000"}]},{"id":3635,"name":"Santiago del Estero","native":null,"cities":[{"id":679,"name":"Añatuya","native":null,"lat":"-28.46064000","lon":"-62.83472000"},{"id":691,"name":"Beltrán","native":null,"lat":"-27.82913000","lon":"-64.06098000"},{"id":717,"name":"Campo Gallo","native":null,"lat":"-26.58333000","lon":"-62.85000000"},{"id":771,"name":"Clodomira","native":null,"lat":"-27.57440000","lon":"-64.13108000"},{"id":777,"name":"Colonia Dora","native":null,"lat":"-28.60000000","lon":"-62.95000000"},{"id":820,"name":"Departamento de Aguirre","native":null,"lat":"-29.33333000","lon":"-62.50000000"},{"id":834,"name":"Departamento de Banda","native":null,"lat":"-27.50000000","lon":"-64.33333000"},{"id":861,"name":"Departamento de Choya","native":null,"lat":"-28.75000000","lon":"-64.75000000"},{"id":904,"name":"Departamento de Guasayán","native":null,"lat":"-28.00000000","lon":"-64.83333000"},{"id":930,"name":"Departamento de Loreto","native":null,"lat":"-28.55000000","lon":"-64.33333000"},{"id":948,"name":"Departamento de Moreno","native":null,"lat":"-27.33333000","lon":"-62.50000000"},{"id":975,"name":"Departamento de Río Hondo","native":null,"lat":"-27.58333000","lon":"-64.75000000"},{"id":969,"name":"Departamento de Robles","native":null,"lat":"-27.83333000","lon":"-63.91667000"},{"id":997,"name":"Departamento de San Martín","native":null,"lat":"-28.16667000","lon":"-63.83333000"},{"id":1011,"name":"Departamento de Sarmiento","native":null,"lat":"-28.08333000","lon":"-63.41667000"},{"id":1056,"name":"El Hoyo","native":null,"lat":"-27.02872000","lon":"-63.23197000"},{"id":1176,"name":"La Banda","native":null,"lat":"-27.73348000","lon":"-64.24278000"},{"id":1251,"name":"Los Juríes","native":null,"lat":"-28.46539000","lon":"-62.10862000"},{"id":1255,"name":"Los Telares","native":null,"lat":"-28.98479000","lon":"-63.44889000"},{"id":1315,"name":"Pampa de los Guanacos","native":null,"lat":"-26.23002000","lon":"-61.83774000"},{"id":1369,"name":"Quimilí","native":null,"lat":"-27.64615000","lon":"-62.41655000"},{"id":1445,"name":"San Pedro","native":null,"lat":"-27.95386000","lon":"-65.16651000"},{"id":1473,"name":"Santiago del Estero","native":null,"lat":"-27.79511000","lon":"-64.26149000"},{"id":1489,"name":"Sumampa","native":null,"lat":"-29.38470000","lon":"-63.46907000"},{"id":1491,"name":"Suncho Corral","native":null,"lat":"-27.93357000","lon":"-63.42938000"},{"id":1501,"name":"Termas de Río Hondo","native":null,"lat":"-27.49362000","lon":"-64.85972000"},{"id":1506,"name":"Tintina","native":null,"lat":"-27.02687000","lon":"-62.70643000"},{"id":1539,"name":"Villa Atamisqui","native":null,"lat":"-28.49609000","lon":"-63.81609000"},{"id":1554,"name":"Villa General Mitre","native":null,"lat":"-29.14310000","lon":"-62.65248000"},{"id":1569,"name":"Villa Ojo de Agua","native":null,"lat":"-29.50003000","lon":"-63.69377000"}]},{"id":3650,"name":"Tierra del Fuego","native":null,"cities":[{"id":1392,"name":"Río Grande","native":null,"lat":"-53.78769000","lon":"-67.70946000"},{"id":1508,"name":"Tolhuin","native":null,"lat":"-54.51083000","lon":"-67.19550000"},{"id":1524,"name":"Ushuaia","native":null,"lat":"-54.81084000","lon":"-68.31591000"}]},{"id":3637,"name":"Tucumán","native":null,"cities":[{"id":642,"name":"Aguilares","native":null,"lat":"-27.43380000","lon":"-65.61427000"},{"id":646,"name":"Alderetes","native":null,"lat":"-26.81667000","lon":"-65.13333000"},{"id":690,"name":"Bella Vista","native":null,"lat":"-27.03424000","lon":"-65.30196000"},{"id":705,"name":"Burruyacú","native":null,"lat":"-26.49918000","lon":"-64.74206000"},{"id":840,"name":"Departamento de Burruyacú","native":null,"lat":"-26.50000000","lon":"-64.91667000"},{"id":852,"name":"Departamento de Capital","native":null,"lat":"-26.82825000","lon":"-65.21126000"},{"id":870,"name":"Departamento de Cruz Alta","native":null,"lat":"-26.91667000","lon":"-64.91667000"},{"id":882,"name":"Departamento de Famaillá","native":null,"lat":"-26.91667000","lon":"-65.50000000"},{"id":900,"name":"Departamento de Graneros","native":null,"lat":"-27.75000000","lon":"-65.33333000"},{"id":917,"name":"Departamento de La Cocha","native":null,"lat":"-27.77784000","lon":"-65.57109000"},{"id":933,"name":"Departamento de Lules","native":null,"lat":"-26.92886000","lon":"-65.33848000"},{"id":947,"name":"Departamento de Monteros","native":null,"lat":"-27.16667000","lon":"-65.58333000"},{"id":973,"name":"Departamento de Río Chico","native":null,"lat":"-27.43368000","lon":"-65.76671000"},{"id":1015,"name":"Departamento de Simoca","native":null,"lat":"-27.26360000","lon":"-65.35612000"},{"id":1023,"name":"Departamento de Trancas","native":null,"lat":"-26.41667000","lon":"-65.50000000"},{"id":1034,"name":"Departamento de Yerba Buena","native":null,"lat":"-26.81826000","lon":"-65.31733000"},{"id":1074,"name":"Famaillá","native":null,"lat":"-27.05413000","lon":"-65.40329000"},{"id":1125,"name":"Graneros","native":null,"lat":"-27.64934000","lon":"-65.43830000"},{"id":1182,"name":"La Cocha","native":null,"lat":"-27.76927000","lon":"-65.58711000"},{"id":1291,"name":"Monteros","native":null,"lat":"-27.16741000","lon":"-65.49832000"},{"id":1444,"name":"San Miguel de Tucumán","native":null,"lat":"-26.82414000","lon":"-65.22260000"},{"id":1488,"name":"Simoca","native":null,"lat":"-27.26272000","lon":"-65.35647000"},{"id":1496,"name":"Tafí del Valle","native":null,"lat":"-26.85275000","lon":"-65.70983000"},{"id":1495,"name":"Tafí Viejo","native":null,"lat":"-26.73201000","lon":"-65.25921000"},{"id":1511,"name":"Trancas","native":null,"lat":"-26.23136000","lon":"-65.28093000"},{"id":1596,"name":"Yerba Buena","native":null,"lat":"-26.81667000","lon":"-65.31667000"}]}]