[{"name":"Bosnian Podrinje Canton","native":null,"cities":[]},{"name":"Brčko District","native":null,"cities":[{"name":"Brčko","native":null,"lat":"44.86995000","lon":"18.81012000"},{"name":"Brka","native":null,"lat":"44.82837000","lon":"18.72420000"}]},{"name":"Canton 10","native":null,"cities":[]},{"name":"Central Bosnia Canton","native":null,"cities":[]},{"name":"Federation of Bosnia and Herzegovina","native":null,"cities":[{"name":"Banovići","native":null,"lat":"44.40596000","lon":"18.52648000"},{"name":"Barice","native":null,"lat":"44.54065000","lon":"18.48069000"},{"name":"Bihać","native":null,"lat":"44.81694000","lon":"15.87083000"},{"name":"Bijela","native":null,"lat":"43.60871000","lon":"17.95078000"},{"name":"Bila","native":null,"lat":"43.78265000","lon":"16.92676000"},{"name":"Blagaj","native":null,"lat":"43.25892000","lon":"17.88815000"},{"name":"Bosanska Krupa","native":null,"lat":"44.88250000","lon":"16.15139000"},{"name":"Bosanski Petrovac","native":null,"lat":"44.55537000","lon":"16.36897000"},{"name":"Bosansko Grahovo","native":null,"lat":"44.17944000","lon":"16.36389000"},{"name":"Breza","native":null,"lat":"44.01862000","lon":"18.26063000"},{"name":"Bugojno","native":null,"lat":"44.05722000","lon":"17.45083000"},{"name":"Busovača","native":null,"lat":"44.09769000","lon":"17.87830000"},{"name":"Bužim","native":null,"lat":"45.05361000","lon":"16.03254000"},{"name":"Čapljina","native":null,"lat":"43.12139000","lon":"17.68444000"},{"name":"Cazin","native":null,"lat":"44.96694000","lon":"15.94306000"},{"name":"Čelić","native":null,"lat":"44.72524000","lon":"18.81474000"},{"name":"Cim","native":null,"lat":"43.35401000","lon":"17.78045000"},{"name":"Čitluk","native":null,"lat":"43.22861000","lon":"17.70083000"},{"name":"Ćoralići","native":null,"lat":"45.00694000","lon":"15.87194000"},{"name":"Crnići","native":null,"lat":"43.13156000","lon":"17.86452000"},{"name":"Divičani","native":null,"lat":"44.36682000","lon":"17.32678000"},{"name":"Dobrinje","native":null,"lat":"44.05008000","lon":"18.11958000"},{"name":"Domaljevac","native":null,"lat":"45.06110000","lon":"18.58612000"},{"name":"Donja Dubica","native":null,"lat":"45.07559000","lon":"18.41023000"},{"name":"Donja Mahala","native":null,"lat":"45.04327000","lon":"18.66996000"},{"name":"Donja Međiđa","native":null,"lat":"44.80235000","lon":"18.40477000"},{"name":"Donji Vakuf","native":null,"lat":"44.14361000","lon":"17.40000000"},{"name":"Drežnica","native":null,"lat":"43.52891000","lon":"17.28120000"},{"name":"Drinovci","native":null,"lat":"43.35454000","lon":"17.32536000"},{"name":"Drvar","native":null,"lat":"44.37389000","lon":"16.38083000"},{"name":"Dubrave Donje","native":null,"lat":"44.48060000","lon":"18.69709000"},{"name":"Dubrave Gornje","native":null,"lat":"44.47229000","lon":"18.72685000"},{"name":"Dubravica","native":null,"lat":"44.44131000","lon":"18.11883000"},{"name":"Fojnica","native":null,"lat":"43.95952000","lon":"17.90288000"},{"name":"Glamoč","native":null,"lat":"44.04583000","lon":"16.84861000"},{"name":"Gnojnica","native":null,"lat":"44.62058000","lon":"18.44684000"},{"name":"Goražde","native":null,"lat":"43.66795000","lon":"18.97564000"},{"name":"Gorica","native":null,"lat":"43.41833000","lon":"17.28500000"},{"name":"Gornja Breza","native":null,"lat":"44.03758000","lon":"18.24564000"},{"name":"Gornja Koprivna","native":null,"lat":"45.01091000","lon":"15.95487000"},{"name":"Gornja Tuzla","native":null,"lat":"44.55659000","lon":"18.76159000"},{"name":"Gornje Moštre","native":null,"lat":"44.01911000","lon":"18.15477000"},{"name":"Gornje Živinice","native":null,"lat":"44.42921000","lon":"18.61667000"},{"name":"Gornji Vakuf","native":null,"lat":"43.93806000","lon":"17.58833000"},{"name":"Gostovići","native":null,"lat":"44.41124000","lon":"18.17029000"},{"name":"Gračanica","native":null,"lat":"43.73333000","lon":"18.28333000"},{"name":"Gradačac","native":null,"lat":"44.87851000","lon":"18.42764000"},{"name":"Gromiljak","native":null,"lat":"43.96668000","lon":"18.05504000"},{"name":"Grude","native":null,"lat":"43.37208000","lon":"17.41449000"},{"name":"Hadžići","native":null,"lat":"43.82222000","lon":"18.20667000"},{"name":"Hercegovačko-Neretvanski Kanton","native":null,"lat":"43.45722000","lon":"17.81250000"},{"name":"Hotonj","native":null,"lat":"43.89341000","lon":"18.37751000"},{"name":"Ilići","native":null,"lat":"43.34765000","lon":"17.76848000"},{"name":"Ilijaš","native":null,"lat":"43.95128000","lon":"18.27128000"},{"name":"Izačić","native":null,"lat":"44.87485000","lon":"15.78256000"},{"name":"Jablanica","native":null,"lat":"43.66028000","lon":"17.76167000"},{"name":"Jajce","native":null,"lat":"44.34203000","lon":"17.27059000"},{"name":"Jelah","native":null,"lat":"44.65400000","lon":"17.95897000"},{"name":"Jezerski","native":null,"lat":"44.98172000","lon":"16.09447000"},{"name":"Kačuni","native":null,"lat":"44.06433000","lon":"17.93894000"},{"name":"Kakanj","native":null,"lat":"44.13311000","lon":"18.12292000"},{"name":"Kanton Sarajevo","native":null,"lat":"43.84333000","lon":"18.24222000"},{"name":"Karadaglije","native":null,"lat":"44.57065000","lon":"18.01775000"},{"name":"Kiseljak","native":null,"lat":"44.48904000","lon":"18.56982000"},{"name":"Kladanj","native":null,"lat":"44.22669000","lon":"18.69274000"},{"name":"Ključ","native":null,"lat":"44.53251000","lon":"16.77682000"},{"name":"Kobilja Glava","native":null,"lat":"43.88188000","lon":"18.38864000"},{"name":"Kočerin","native":null,"lat":"43.39005000","lon":"17.48552000"},{"name":"Konjic","native":null,"lat":"43.65126000","lon":"17.96082000"},{"name":"Kovači","native":null,"lat":"44.44874000","lon":"18.20521000"},{"name":"Liješnica","native":null,"lat":"44.49497000","lon":"18.07644000"},{"name":"Livno","native":null,"lat":"43.82695000","lon":"17.00746000"},{"name":"Ljubuški","native":null,"lat":"43.19694000","lon":"17.54500000"},{"name":"Lokvine","native":null,"lat":"44.20466000","lon":"17.85665000"},{"name":"Lukavac","native":null,"lat":"44.54245000","lon":"18.52618000"},{"name":"Lukavica","native":null,"lat":"44.76452000","lon":"18.16887000"},{"name":"Maglaj","native":null,"lat":"44.54771000","lon":"18.10003000"},{"name":"Mahala","native":null,"lat":"44.01194000","lon":"18.25528000"},{"name":"Mala Kladuša","native":null,"lat":"45.13443000","lon":"15.85217000"},{"name":"Malešići","native":null,"lat":"44.73824000","lon":"18.27335000"},{"name":"Mionica","native":null,"lat":"44.86646000","lon":"18.46603000"},{"name":"Mostar","native":null,"lat":"43.34333000","lon":"17.80806000"},{"name":"Mramor","native":null,"lat":"44.59234000","lon":"18.56458000"},{"name":"Neum","native":null,"lat":"42.92333000","lon":"17.61556000"},{"name":"Novi Šeher","native":null,"lat":"44.51031000","lon":"18.02624000"},{"name":"Novi Travnik","native":null,"lat":"44.17133000","lon":"17.65816000"},{"name":"Odžak","native":null,"lat":"45.02461000","lon":"18.32107000"},{"name":"Olovo","native":null,"lat":"44.12770000","lon":"18.58065000"},{"name":"Omanjska","native":null,"lat":"44.69831000","lon":"17.95757000"},{"name":"Orahovica Donja","native":null,"lat":"44.65345000","lon":"18.36951000"},{"name":"Orašac","native":null,"lat":"44.63039000","lon":"16.07443000"},{"name":"Orašje","native":null,"lat":"45.03366000","lon":"18.69334000"},{"name":"Orguz","native":null,"lat":"43.77414000","lon":"16.86329000"},{"name":"Ostrožac","native":null,"lat":"44.90866000","lon":"15.94045000"},{"name":"Otoka","native":null,"lat":"44.96000000","lon":"16.17917000"},{"name":"Pajić Polje","native":null,"lat":"43.97583000","lon":"17.52750000"},{"name":"Pazarić","native":null,"lat":"43.78882000","lon":"18.16049000"},{"name":"Peći","native":null,"lat":"44.63139000","lon":"16.78250000"},{"name":"Pećigrad","native":null,"lat":"45.05444000","lon":"15.89694000"},{"name":"Pjanići","native":null,"lat":"44.98568000","lon":"15.82304000"},{"name":"Podhum","native":null,"lat":"43.72295000","lon":"16.99887000"},{"name":"Podzvizd","native":null,"lat":"45.17417000","lon":"15.87361000"},{"name":"Polje","native":null,"lat":"43.88014000","lon":"18.07452000"},{"name":"Polje-Bijela","native":null,"lat":"43.63299000","lon":"17.97216000"},{"name":"Potoci","native":null,"lat":"43.40953000","lon":"17.87855000"},{"name":"Prozor","native":null,"lat":"43.82222000","lon":"17.60917000"},{"name":"Puračić","native":null,"lat":"44.54562000","lon":"18.47865000"},{"name":"Radišići","native":null,"lat":"43.22302000","lon":"17.54056000"},{"name":"Rodoč","native":null,"lat":"43.31453000","lon":"17.80290000"},{"name":"Rumboci","native":null,"lat":"43.83154000","lon":"17.50273000"},{"name":"Sanica","native":null,"lat":"44.61354000","lon":"16.64062000"},{"name":"Sanski Most","native":null,"lat":"44.76670000","lon":"16.66700000"},{"name":"Sapna","native":null,"lat":"44.50380000","lon":"18.99818000"},{"name":"Sarajevo","native":null,"lat":"43.84864000","lon":"18.35644000"},{"name":"Šerići","native":null,"lat":"44.46674000","lon":"18.56370000"},{"name":"Široki Brijeg","native":null,"lat":"43.38290000","lon":"17.59416000"},{"name":"Skokovi","native":null,"lat":"45.03139000","lon":"15.91444000"},{"name":"Sladna","native":null,"lat":"44.72897000","lon":"18.42575000"},{"name":"Solina","native":null,"lat":"44.56226000","lon":"18.69322000"},{"name":"Srebrenik","native":null,"lat":"44.70819000","lon":"18.48834000"},{"name":"Stijena","native":null,"lat":"44.93630000","lon":"16.02224000"},{"name":"Stjepan-Polje","native":null,"lat":"44.71634000","lon":"18.25783000"},{"name":"Stolac","native":null,"lat":"43.08400000","lon":"17.95995000"},{"name":"Šturlić","native":null,"lat":"45.06389000","lon":"15.77806000"},{"name":"Šumatac","native":null,"lat":"45.09743000","lon":"15.85818000"},{"name":"Tasovčići","native":null,"lat":"43.11333000","lon":"17.72000000"},{"name":"Tešanj","native":null,"lat":"44.61191000","lon":"17.98552000"},{"name":"Tešanjka","native":null,"lat":"44.67228000","lon":"18.01109000"},{"name":"Todorovo","native":null,"lat":"45.08833000","lon":"15.93083000"},{"name":"Tojšići","native":null,"lat":"44.50133000","lon":"18.78523000"},{"name":"Tomislavgrad","native":null,"lat":"43.71849000","lon":"17.22515000"},{"name":"Travnik","native":null,"lat":"44.22637000","lon":"17.66583000"},{"name":"Tržačka Raštela","native":null,"lat":"44.97597000","lon":"15.78489000"},{"name":"Turbe","native":null,"lat":"44.24352000","lon":"17.57499000"},{"name":"Tuzla","native":null,"lat":"44.53842000","lon":"18.66709000"},{"name":"Ustikolina","native":null,"lat":"43.58338000","lon":"18.79106000"},{"name":"Vareš","native":null,"lat":"44.16444000","lon":"18.32833000"},{"name":"Varoška Rijeka","native":null,"lat":"45.08936000","lon":"16.01906000"},{"name":"Velagići","native":null,"lat":"44.55618000","lon":"16.73349000"},{"name":"Velika Kladuša","native":null,"lat":"45.18497000","lon":"15.80579000"},{"name":"Vidoši","native":null,"lat":"43.77139000","lon":"17.02833000"},{"name":"Visoko","native":null,"lat":"43.98889000","lon":"18.17806000"},{"name":"Vitez","native":null,"lat":"44.15424000","lon":"17.79009000"},{"name":"Vitina","native":null,"lat":"43.23750000","lon":"17.48389000"},{"name":"Vogošća","native":null,"lat":"43.90225000","lon":"18.34438000"},{"name":"Voljevac","native":null,"lat":"43.87873000","lon":"17.65861000"},{"name":"Vrnograč","native":null,"lat":"45.16369000","lon":"15.95444000"},{"name":"Vukovije Donje","native":null,"lat":"44.46209000","lon":"18.74941000"},{"name":"Zabrišće","native":null,"lat":"43.79224000","lon":"16.94224000"},{"name":"Zavidovići","native":null,"lat":"44.44583000","lon":"18.14972000"},{"name":"Zborište","native":null,"lat":"45.14593000","lon":"16.01728000"},{"name":"Željezno Polje","native":null,"lat":"44.39875000","lon":"17.94103000"},{"name":"Zenica","native":null,"lat":"44.20169000","lon":"17.90397000"},{"name":"Žepče","native":null,"lat":"44.42667000","lon":"18.03778000"},{"name":"Živinice","native":null,"lat":"44.44929000","lon":"18.64978000"}]},{"name":"Herzegovina-Neretva Canton","native":null,"cities":[]},{"name":"Posavina Canton","native":null,"cities":[]},{"name":"Republika Srpska","native":null,"cities":[{"name":"Balatun","native":null,"lat":"44.86332000","lon":"19.33931000"},{"name":"Banja Luka","native":null,"lat":"44.77842000","lon":"17.19386000"},{"name":"Bijeljina","native":null,"lat":"44.76583000","lon":"19.15083000"},{"name":"Bileća","native":null,"lat":"42.87645000","lon":"18.42967000"},{"name":"Blatnica","native":null,"lat":"44.48677000","lon":"17.82278000"},{"name":"Brod","native":null,"lat":"45.13747000","lon":"17.98722000"},{"name":"Bronzani Majdan","native":null,"lat":"44.79237000","lon":"16.94039000"},{"name":"Čajniče","native":null,"lat":"43.55712000","lon":"19.07186000"},{"name":"Čečava","native":null,"lat":"44.67961000","lon":"17.75780000"},{"name":"Čelinac","native":null,"lat":"44.72453000","lon":"17.32431000"},{"name":"Derventa","native":null,"lat":"44.97839000","lon":"17.90779000"},{"name":"Doboj","native":null,"lat":"44.75944000","lon":"18.06500000"},{"name":"Dobrljin","native":null,"lat":"45.15106000","lon":"16.47869000"},{"name":"Dvorovi","native":null,"lat":"44.80753000","lon":"19.25999000"},{"name":"Foča","native":null,"lat":"43.50646000","lon":"18.77854000"},{"name":"Gacko","native":null,"lat":"43.16722000","lon":"18.53528000"},{"name":"Gradiška","native":null,"lat":"45.14484000","lon":"17.25453000"},{"name":"Hiseti","native":null,"lat":"44.76111000","lon":"17.17944000"},{"name":"Istočni Mostar","native":null,"lat":"43.42056000","lon":"18.00833000"},{"name":"Janja","native":null,"lat":"44.66554000","lon":"19.24691000"},{"name":"Kalenderovci Donji","native":null,"lat":"44.94673000","lon":"17.83785000"},{"name":"Kneževo","native":null,"lat":"44.49071000","lon":"17.38161000"},{"name":"Knežica","native":null,"lat":"45.10548000","lon":"16.67668000"},{"name":"Koran","native":null,"lat":"43.81038000","lon":"18.56999000"},{"name":"Kostajnica","native":null,"lat":"45.21956000","lon":"16.53929000"},{"name":"Kotor Varoš","native":null,"lat":"44.61831000","lon":"17.37204000"},{"name":"Kozarska Dubica","native":null,"lat":"45.17667000","lon":"16.80944000"},{"name":"Krupa na Vrbasu","native":null,"lat":"44.61875000","lon":"17.14351000"},{"name":"Laktaši","native":null,"lat":"44.90857000","lon":"17.30135000"},{"name":"Lamovita","native":null,"lat":"44.92018000","lon":"16.89933000"},{"name":"Ljubinje","native":null,"lat":"42.95120000","lon":"18.08702000"},{"name":"Lopare","native":null,"lat":"44.63498000","lon":"18.84340000"},{"name":"Maglajani","native":null,"lat":"44.94975000","lon":"17.35014000"},{"name":"Marićka","native":null,"lat":"44.86801000","lon":"16.85510000"},{"name":"Maslovare","native":null,"lat":"44.56594000","lon":"17.53216000"},{"name":"Mejdan - Obilićevo","native":null,"lat":"44.76324000","lon":"17.19012000"},{"name":"Milići","native":null,"lat":"44.17016000","lon":"19.09195000"},{"name":"Modriča","native":null,"lat":"44.95444000","lon":"18.30361000"},{"name":"Mrkonjić Grad","native":null,"lat":"44.41729000","lon":"17.08288000"},{"name":"Nevesinje","native":null,"lat":"43.25861000","lon":"18.11333000"},{"name":"Novi Grad","native":null,"lat":"45.04643000","lon":"16.37782000"},{"name":"Obudovac","native":null,"lat":"44.95215000","lon":"18.59869000"},{"name":"Omarska","native":null,"lat":"44.89170000","lon":"16.89814000"},{"name":"Opština Oštra Luka","native":null,"lat":"44.73278000","lon":"16.82861000"},{"name":"Opština Višegrad","native":null,"lat":"43.72167000","lon":"19.31361000"},{"name":"Oštra Luka","native":null,"lat":"44.99724000","lon":"18.58464000"},{"name":"Pale","native":null,"lat":"43.81664000","lon":"18.56949000"},{"name":"Pelagićevo","native":null,"lat":"44.90105000","lon":"18.59185000"},{"name":"Petkovci","native":null,"lat":"44.46849000","lon":"19.07466000"},{"name":"Piskavica","native":null,"lat":"44.86717000","lon":"16.97464000"},{"name":"Podbrdo","native":null,"lat":"44.44189000","lon":"17.01495000"},{"name":"Popovi","native":null,"lat":"44.76547000","lon":"19.28667000"},{"name":"Pribinić","native":null,"lat":"44.61010000","lon":"17.68981000"},{"name":"Priboj","native":null,"lat":"44.60233000","lon":"18.93165000"},{"name":"Prijedor","native":null,"lat":"44.97991000","lon":"16.71401000"},{"name":"Rogatica","native":null,"lat":"43.79894000","lon":"19.00363000"},{"name":"Rudo","native":null,"lat":"43.61781000","lon":"19.36719000"},{"name":"Šamac","native":null,"lat":"45.05987000","lon":"18.46756000"},{"name":"Šekovići","native":null,"lat":"44.29896000","lon":"18.85532000"},{"name":"Šipovo","native":null,"lat":"44.28237000","lon":"17.08597000"},{"name":"Sokolac","native":null,"lat":"43.93817000","lon":"18.80079000"},{"name":"Srbac","native":null,"lat":"45.09730000","lon":"17.52331000"},{"name":"Srebrenica","native":null,"lat":"44.10748000","lon":"19.29669000"},{"name":"Stanari","native":null,"lat":"44.74475000","lon":"17.82714000"},{"name":"Starcevica","native":null,"lat":"44.75708000","lon":"17.21178000"},{"name":"Svodna","native":null,"lat":"45.03770000","lon":"16.54019000"},{"name":"Teslić","native":null,"lat":"44.60639000","lon":"17.85972000"},{"name":"Trebinje","native":null,"lat":"42.71197000","lon":"18.34362000"},{"name":"Trn","native":null,"lat":"44.85829000","lon":"17.23583000"},{"name":"Ugljevik","native":null,"lat":"44.66361000","lon":"19.02028000"},{"name":"Velika Obarska","native":null,"lat":"44.80461000","lon":"19.16183000"},{"name":"Višegrad","native":null,"lat":"43.78260000","lon":"19.29256000"},{"name":"Vlasenica","native":null,"lat":"44.18183000","lon":"18.94096000"},{"name":"Živinice","native":null,"lat":"44.54765000","lon":"17.37357000"},{"name":"Zvornik","native":null,"lat":"44.38605000","lon":"19.10247000"}]},{"name":"Sarajevo Canton","native":null,"cities":[]},{"name":"Tuzla Canton","native":null,"cities":[]},{"name":"Una-Sana Canton","native":null,"cities":[]},{"name":"West Herzegovina Canton","native":null,"cities":[]},{"name":"Zenica-Doboj Canton","native":null,"cities":[]}]