[{"id":472,"name":"Bosnian Podrinje Canton","native":null,"cities":[]},{"id":460,"name":"Brčko District","native":null,"cities":[{"id":8233,"name":"Brčko","native":null,"lat":"44.86995000","lon":"18.81012000"},{"id":8230,"name":"Brka","native":null,"lat":"44.82837000","lon":"18.72420000"}]},{"id":471,"name":"Canton 10","native":null,"cities":[]},{"id":462,"name":"Central Bosnia Canton","native":null,"cities":[]},{"id":467,"name":"Federation of Bosnia and Herzegovina","native":null,"cities":[{"id":8217,"name":"Banovići","native":null,"lat":"44.40596000","lon":"18.52648000"},{"id":8218,"name":"Barice","native":null,"lat":"44.54065000","lon":"18.48069000"},{"id":8219,"name":"Bihać","native":null,"lat":"44.81694000","lon":"15.87083000"},{"id":8220,"name":"Bijela","native":null,"lat":"43.60871000","lon":"17.95078000"},{"id":8222,"name":"Bila","native":null,"lat":"43.78265000","lon":"16.92676000"},{"id":8224,"name":"Blagaj","native":null,"lat":"43.25892000","lon":"17.88815000"},{"id":8226,"name":"Bosanska Krupa","native":null,"lat":"44.88250000","lon":"16.15139000"},{"id":8227,"name":"Bosanski Petrovac","native":null,"lat":"44.55537000","lon":"16.36897000"},{"id":8228,"name":"Bosansko Grahovo","native":null,"lat":"44.17944000","lon":"16.36389000"},{"id":8229,"name":"Breza","native":null,"lat":"44.01862000","lon":"18.26063000"},{"id":8234,"name":"Bugojno","native":null,"lat":"44.05722000","lon":"17.45083000"},{"id":8235,"name":"Busovača","native":null,"lat":"44.09769000","lon":"17.87830000"},{"id":8236,"name":"Bužim","native":null,"lat":"45.05361000","lon":"16.03254000"},{"id":8431,"name":"Čapljina","native":null,"lat":"43.12139000","lon":"17.68444000"},{"id":8237,"name":"Cazin","native":null,"lat":"44.96694000","lon":"15.94306000"},{"id":8433,"name":"Čelić","native":null,"lat":"44.72524000","lon":"18.81474000"},{"id":8238,"name":"Cim","native":null,"lat":"43.35401000","lon":"17.78045000"},{"id":8435,"name":"Čitluk","native":null,"lat":"43.22861000","lon":"17.70083000"},{"id":8429,"name":"Ćoralići","native":null,"lat":"45.00694000","lon":"15.87194000"},{"id":8239,"name":"Crnići","native":null,"lat":"43.13156000","lon":"17.86452000"},{"id":8241,"name":"Divičani","native":null,"lat":"44.36682000","lon":"17.32678000"},{"id":8243,"name":"Dobrinje","native":null,"lat":"44.05008000","lon":"18.11958000"},{"id":8245,"name":"Domaljevac","native":null,"lat":"45.06110000","lon":"18.58612000"},{"id":8246,"name":"Donja Dubica","native":null,"lat":"45.07559000","lon":"18.41023000"},{"id":8247,"name":"Donja Mahala","native":null,"lat":"45.04327000","lon":"18.66996000"},{"id":8248,"name":"Donja Međiđa","native":null,"lat":"44.80235000","lon":"18.40477000"},{"id":8249,"name":"Donji Vakuf","native":null,"lat":"44.14361000","lon":"17.40000000"},{"id":8250,"name":"Drežnica","native":null,"lat":"43.52891000","lon":"17.28120000"},{"id":8251,"name":"Drinovci","native":null,"lat":"43.35454000","lon":"17.32536000"},{"id":8252,"name":"Drvar","native":null,"lat":"44.37389000","lon":"16.38083000"},{"id":8253,"name":"Dubrave Donje","native":null,"lat":"44.48060000","lon":"18.69709000"},{"id":8254,"name":"Dubrave Gornje","native":null,"lat":"44.47229000","lon":"18.72685000"},{"id":8255,"name":"Dubravica","native":null,"lat":"44.44131000","lon":"18.11883000"},{"id":8257,"name":"Fojnica","native":null,"lat":"43.95952000","lon":"17.90288000"},{"id":8260,"name":"Glamoč","native":null,"lat":"44.04583000","lon":"16.84861000"},{"id":8261,"name":"Gnojnica","native":null,"lat":"44.62058000","lon":"18.44684000"},{"id":8262,"name":"Goražde","native":null,"lat":"43.66795000","lon":"18.97564000"},{"id":8263,"name":"Gorica","native":null,"lat":"43.41833000","lon":"17.28500000"},{"id":8264,"name":"Gornja Breza","native":null,"lat":"44.03758000","lon":"18.24564000"},{"id":8265,"name":"Gornja Koprivna","native":null,"lat":"45.01091000","lon":"15.95487000"},{"id":8266,"name":"Gornja Tuzla","native":null,"lat":"44.55659000","lon":"18.76159000"},{"id":8267,"name":"Gornje Moštre","native":null,"lat":"44.01911000","lon":"18.15477000"},{"id":8268,"name":"Gornje Živinice","native":null,"lat":"44.42921000","lon":"18.61667000"},{"id":8269,"name":"Gornji Vakuf","native":null,"lat":"43.93806000","lon":"17.58833000"},{"id":8270,"name":"Gostovići","native":null,"lat":"44.41124000","lon":"18.17029000"},{"id":8273,"name":"Gračanica","native":null,"lat":"43.73333000","lon":"18.28333000"},{"id":8271,"name":"Gradačac","native":null,"lat":"44.87851000","lon":"18.42764000"},{"id":8274,"name":"Gromiljak","native":null,"lat":"43.96668000","lon":"18.05504000"},{"id":8275,"name":"Grude","native":null,"lat":"43.37208000","lon":"17.41449000"},{"id":8276,"name":"Hadžići","native":null,"lat":"43.82222000","lon":"18.20667000"},{"id":8277,"name":"Hercegovačko-Neretvanski Kanton","native":null,"lat":"43.45722000","lon":"17.81250000"},{"id":8279,"name":"Hotonj","native":null,"lat":"43.89341000","lon":"18.37751000"},{"id":8281,"name":"Ilići","native":null,"lat":"43.34765000","lon":"17.76848000"},{"id":8280,"name":"Ilijaš","native":null,"lat":"43.95128000","lon":"18.27128000"},{"id":8283,"name":"Izačić","native":null,"lat":"44.87485000","lon":"15.78256000"},{"id":8284,"name":"Jablanica","native":null,"lat":"43.66028000","lon":"17.76167000"},{"id":8285,"name":"Jajce","native":null,"lat":"44.34203000","lon":"17.27059000"},{"id":8287,"name":"Jelah","native":null,"lat":"44.65400000","lon":"17.95897000"},{"id":8288,"name":"Jezerski","native":null,"lat":"44.98172000","lon":"16.09447000"},{"id":8293,"name":"Kačuni","native":null,"lat":"44.06433000","lon":"17.93894000"},{"id":8289,"name":"Kakanj","native":null,"lat":"44.13311000","lon":"18.12292000"},{"id":8291,"name":"Kanton Sarajevo","native":null,"lat":"43.84333000","lon":"18.24222000"},{"id":8292,"name":"Karadaglije","native":null,"lat":"44.57065000","lon":"18.01775000"},{"id":8294,"name":"Kiseljak","native":null,"lat":"44.48904000","lon":"18.56982000"},{"id":8295,"name":"Kladanj","native":null,"lat":"44.22669000","lon":"18.69274000"},{"id":8296,"name":"Ključ","native":null,"lat":"44.53251000","lon":"16.77682000"},{"id":8299,"name":"Kobilja Glava","native":null,"lat":"43.88188000","lon":"18.38864000"},{"id":8306,"name":"Kočerin","native":null,"lat":"43.39005000","lon":"17.48552000"},{"id":8300,"name":"Konjic","native":null,"lat":"43.65126000","lon":"17.96082000"},{"id":8304,"name":"Kovači","native":null,"lat":"44.44874000","lon":"18.20521000"},{"id":8310,"name":"Liješnica","native":null,"lat":"44.49497000","lon":"18.07644000"},{"id":8311,"name":"Livno","native":null,"lat":"43.82695000","lon":"17.00746000"},{"id":8313,"name":"Ljubuški","native":null,"lat":"43.19694000","lon":"17.54500000"},{"id":8314,"name":"Lokvine","native":null,"lat":"44.20466000","lon":"17.85665000"},{"id":8316,"name":"Lukavac","native":null,"lat":"44.54245000","lon":"18.52618000"},{"id":8317,"name":"Lukavica","native":null,"lat":"44.76452000","lon":"18.16887000"},{"id":8318,"name":"Maglaj","native":null,"lat":"44.54771000","lon":"18.10003000"},{"id":8320,"name":"Mahala","native":null,"lat":"44.01194000","lon":"18.25528000"},{"id":8321,"name":"Mala Kladuša","native":null,"lat":"45.13443000","lon":"15.85217000"},{"id":8322,"name":"Malešići","native":null,"lat":"44.73824000","lon":"18.27335000"},{"id":8327,"name":"Mionica","native":null,"lat":"44.86646000","lon":"18.46603000"},{"id":8329,"name":"Mostar","native":null,"lat":"43.34333000","lon":"17.80806000"},{"id":8330,"name":"Mramor","native":null,"lat":"44.59234000","lon":"18.56458000"},{"id":8332,"name":"Neum","native":null,"lat":"42.92333000","lon":"17.61556000"},{"id":8336,"name":"Novi Šeher","native":null,"lat":"44.51031000","lon":"18.02624000"},{"id":8335,"name":"Novi Travnik","native":null,"lat":"44.17133000","lon":"17.65816000"},{"id":8338,"name":"Odžak","native":null,"lat":"45.02461000","lon":"18.32107000"},{"id":8339,"name":"Olovo","native":null,"lat":"44.12770000","lon":"18.58065000"},{"id":8340,"name":"Omanjska","native":null,"lat":"44.69831000","lon":"17.95757000"},{"id":8344,"name":"Orahovica Donja","native":null,"lat":"44.65345000","lon":"18.36951000"},{"id":8345,"name":"Orašac","native":null,"lat":"44.63039000","lon":"16.07443000"},{"id":8346,"name":"Orašje","native":null,"lat":"45.03366000","lon":"18.69334000"},{"id":8347,"name":"Orguz","native":null,"lat":"43.77414000","lon":"16.86329000"},{"id":8348,"name":"Ostrožac","native":null,"lat":"44.90866000","lon":"15.94045000"},{"id":8349,"name":"Otoka","native":null,"lat":"44.96000000","lon":"16.17917000"},{"id":8351,"name":"Pajić Polje","native":null,"lat":"43.97583000","lon":"17.52750000"},{"id":8353,"name":"Pazarić","native":null,"lat":"43.78882000","lon":"18.16049000"},{"id":8356,"name":"Peći","native":null,"lat":"44.63139000","lon":"16.78250000"},{"id":8357,"name":"Pećigrad","native":null,"lat":"45.05444000","lon":"15.89694000"},{"id":8359,"name":"Pjanići","native":null,"lat":"44.98568000","lon":"15.82304000"},{"id":8361,"name":"Podhum","native":null,"lat":"43.72295000","lon":"16.99887000"},{"id":8362,"name":"Podzvizd","native":null,"lat":"45.17417000","lon":"15.87361000"},{"id":8363,"name":"Polje","native":null,"lat":"43.88014000","lon":"18.07452000"},{"id":8364,"name":"Polje-Bijela","native":null,"lat":"43.63299000","lon":"17.97216000"},{"id":8366,"name":"Potoci","native":null,"lat":"43.40953000","lon":"17.87855000"},{"id":8370,"name":"Prozor","native":null,"lat":"43.82222000","lon":"17.60917000"},{"id":8371,"name":"Puračić","native":null,"lat":"44.54562000","lon":"18.47865000"},{"id":8372,"name":"Radišići","native":null,"lat":"43.22302000","lon":"17.54056000"},{"id":8373,"name":"Rodoč","native":null,"lat":"43.31453000","lon":"17.80290000"},{"id":8376,"name":"Rumboci","native":null,"lat":"43.83154000","lon":"17.50273000"},{"id":8377,"name":"Sanica","native":null,"lat":"44.61354000","lon":"16.64062000"},{"id":8378,"name":"Sanski Most","native":null,"lat":"44.76670000","lon":"16.66700000"},{"id":8379,"name":"Sapna","native":null,"lat":"44.50380000","lon":"18.99818000"},{"id":8380,"name":"Sarajevo","native":null,"lat":"43.84864000","lon":"18.35644000"},{"id":8438,"name":"Šerići","native":null,"lat":"44.46674000","lon":"18.56370000"},{"id":8440,"name":"Široki Brijeg","native":null,"lat":"43.38290000","lon":"17.59416000"},{"id":8381,"name":"Skokovi","native":null,"lat":"45.03139000","lon":"15.91444000"},{"id":8382,"name":"Sladna","native":null,"lat":"44.72897000","lon":"18.42575000"},{"id":8384,"name":"Solina","native":null,"lat":"44.56226000","lon":"18.69322000"},{"id":8387,"name":"Srebrenik","native":null,"lat":"44.70819000","lon":"18.48834000"},{"id":8390,"name":"Stijena","native":null,"lat":"44.93630000","lon":"16.02224000"},{"id":8391,"name":"Stjepan-Polje","native":null,"lat":"44.71634000","lon":"18.25783000"},{"id":8392,"name":"Stolac","native":null,"lat":"43.08400000","lon":"17.95995000"},{"id":8441,"name":"Šturlić","native":null,"lat":"45.06389000","lon":"15.77806000"},{"id":8442,"name":"Šumatac","native":null,"lat":"45.09743000","lon":"15.85818000"},{"id":8394,"name":"Tasovčići","native":null,"lat":"43.11333000","lon":"17.72000000"},{"id":8396,"name":"Tešanj","native":null,"lat":"44.61191000","lon":"17.98552000"},{"id":8397,"name":"Tešanjka","native":null,"lat":"44.67228000","lon":"18.01109000"},{"id":8398,"name":"Todorovo","native":null,"lat":"45.08833000","lon":"15.93083000"},{"id":8399,"name":"Tojšići","native":null,"lat":"44.50133000","lon":"18.78523000"},{"id":8400,"name":"Tomislavgrad","native":null,"lat":"43.71849000","lon":"17.22515000"},{"id":8401,"name":"Travnik","native":null,"lat":"44.22637000","lon":"17.66583000"},{"id":8404,"name":"Tržačka Raštela","native":null,"lat":"44.97597000","lon":"15.78489000"},{"id":8405,"name":"Turbe","native":null,"lat":"44.24352000","lon":"17.57499000"},{"id":8406,"name":"Tuzla","native":null,"lat":"44.53842000","lon":"18.66709000"},{"id":8408,"name":"Ustikolina","native":null,"lat":"43.58338000","lon":"18.79106000"},{"id":8409,"name":"Vareš","native":null,"lat":"44.16444000","lon":"18.32833000"},{"id":8410,"name":"Varoška Rijeka","native":null,"lat":"45.08936000","lon":"16.01906000"},{"id":8411,"name":"Velagići","native":null,"lat":"44.55618000","lon":"16.73349000"},{"id":8412,"name":"Velika Kladuša","native":null,"lat":"45.18497000","lon":"15.80579000"},{"id":8414,"name":"Vidoši","native":null,"lat":"43.77139000","lon":"17.02833000"},{"id":8415,"name":"Visoko","native":null,"lat":"43.98889000","lon":"18.17806000"},{"id":8416,"name":"Vitez","native":null,"lat":"44.15424000","lon":"17.79009000"},{"id":8417,"name":"Vitina","native":null,"lat":"43.23750000","lon":"17.48389000"},{"id":8420,"name":"Vogošća","native":null,"lat":"43.90225000","lon":"18.34438000"},{"id":8421,"name":"Voljevac","native":null,"lat":"43.87873000","lon":"17.65861000"},{"id":8422,"name":"Vrnograč","native":null,"lat":"45.16369000","lon":"15.95444000"},{"id":8423,"name":"Vukovije Donje","native":null,"lat":"44.46209000","lon":"18.74941000"},{"id":8424,"name":"Zabrišće","native":null,"lat":"43.79224000","lon":"16.94224000"},{"id":8425,"name":"Zavidovići","native":null,"lat":"44.44583000","lon":"18.14972000"},{"id":8426,"name":"Zborište","native":null,"lat":"45.14593000","lon":"16.01728000"},{"id":8443,"name":"Željezno Polje","native":null,"lat":"44.39875000","lon":"17.94103000"},{"id":8427,"name":"Zenica","native":null,"lat":"44.20169000","lon":"17.90397000"},{"id":8444,"name":"Žepče","native":null,"lat":"44.42667000","lon":"18.03778000"},{"id":8445,"name":"Živinice","native":null,"lat":"44.44929000","lon":"18.64978000"}]},{"id":463,"name":"Herzegovina-Neretva Canton","native":null,"cities":[]},{"id":464,"name":"Posavina Canton","native":null,"cities":[]},{"id":470,"name":"Republika Srpska","native":null,"cities":[{"id":8215,"name":"Balatun","native":null,"lat":"44.86332000","lon":"19.33931000"},{"id":8216,"name":"Banja Luka","native":null,"lat":"44.77842000","lon":"17.19386000"},{"id":8221,"name":"Bijeljina","native":null,"lat":"44.76583000","lon":"19.15083000"},{"id":8223,"name":"Bileća","native":null,"lat":"42.87645000","lon":"18.42967000"},{"id":8225,"name":"Blatnica","native":null,"lat":"44.48677000","lon":"17.82278000"},{"id":8231,"name":"Brod","native":null,"lat":"45.13747000","lon":"17.98722000"},{"id":8232,"name":"Bronzani Majdan","native":null,"lat":"44.79237000","lon":"16.94039000"},{"id":8430,"name":"Čajniče","native":null,"lat":"43.55712000","lon":"19.07186000"},{"id":8434,"name":"Čečava","native":null,"lat":"44.67961000","lon":"17.75780000"},{"id":8432,"name":"Čelinac","native":null,"lat":"44.72453000","lon":"17.32431000"},{"id":8240,"name":"Derventa","native":null,"lat":"44.97839000","lon":"17.90779000"},{"id":8242,"name":"Doboj","native":null,"lat":"44.75944000","lon":"18.06500000"},{"id":8244,"name":"Dobrljin","native":null,"lat":"45.15106000","lon":"16.47869000"},{"id":8256,"name":"Dvorovi","native":null,"lat":"44.80753000","lon":"19.25999000"},{"id":8258,"name":"Foča","native":null,"lat":"43.50646000","lon":"18.77854000"},{"id":8259,"name":"Gacko","native":null,"lat":"43.16722000","lon":"18.53528000"},{"id":8272,"name":"Gradiška","native":null,"lat":"45.14484000","lon":"17.25453000"},{"id":8278,"name":"Hiseti","native":null,"lat":"44.76111000","lon":"17.17944000"},{"id":8282,"name":"Istočni Mostar","native":null,"lat":"43.42056000","lon":"18.00833000"},{"id":8286,"name":"Janja","native":null,"lat":"44.66554000","lon":"19.24691000"},{"id":8290,"name":"Kalenderovci Donji","native":null,"lat":"44.94673000","lon":"17.83785000"},{"id":8297,"name":"Kneževo","native":null,"lat":"44.49071000","lon":"17.38161000"},{"id":8298,"name":"Knežica","native":null,"lat":"45.10548000","lon":"16.67668000"},{"id":8301,"name":"Koran","native":null,"lat":"43.81038000","lon":"18.56999000"},{"id":8302,"name":"Kostajnica","native":null,"lat":"45.21956000","lon":"16.53929000"},{"id":8303,"name":"Kotor Varoš","native":null,"lat":"44.61831000","lon":"17.37204000"},{"id":8305,"name":"Kozarska Dubica","native":null,"lat":"45.17667000","lon":"16.80944000"},{"id":8307,"name":"Krupa na Vrbasu","native":null,"lat":"44.61875000","lon":"17.14351000"},{"id":8308,"name":"Laktaši","native":null,"lat":"44.90857000","lon":"17.30135000"},{"id":8309,"name":"Lamovita","native":null,"lat":"44.92018000","lon":"16.89933000"},{"id":8312,"name":"Ljubinje","native":null,"lat":"42.95120000","lon":"18.08702000"},{"id":8315,"name":"Lopare","native":null,"lat":"44.63498000","lon":"18.84340000"},{"id":8319,"name":"Maglajani","native":null,"lat":"44.94975000","lon":"17.35014000"},{"id":8323,"name":"Marićka","native":null,"lat":"44.86801000","lon":"16.85510000"},{"id":8324,"name":"Maslovare","native":null,"lat":"44.56594000","lon":"17.53216000"},{"id":8325,"name":"Mejdan - Obilićevo","native":null,"lat":"44.76324000","lon":"17.19012000"},{"id":8326,"name":"Milići","native":null,"lat":"44.17016000","lon":"19.09195000"},{"id":8328,"name":"Modriča","native":null,"lat":"44.95444000","lon":"18.30361000"},{"id":8331,"name":"Mrkonjić Grad","native":null,"lat":"44.41729000","lon":"17.08288000"},{"id":8333,"name":"Nevesinje","native":null,"lat":"43.25861000","lon":"18.11333000"},{"id":8334,"name":"Novi Grad","native":null,"lat":"45.04643000","lon":"16.37782000"},{"id":8337,"name":"Obudovac","native":null,"lat":"44.95215000","lon":"18.59869000"},{"id":8341,"name":"Omarska","native":null,"lat":"44.89170000","lon":"16.89814000"},{"id":8342,"name":"Opština Oštra Luka","native":null,"lat":"44.73278000","lon":"16.82861000"},{"id":8343,"name":"Opština Višegrad","native":null,"lat":"43.72167000","lon":"19.31361000"},{"id":8350,"name":"Oštra Luka","native":null,"lat":"44.99724000","lon":"18.58464000"},{"id":8352,"name":"Pale","native":null,"lat":"43.81664000","lon":"18.56949000"},{"id":8354,"name":"Pelagićevo","native":null,"lat":"44.90105000","lon":"18.59185000"},{"id":8355,"name":"Petkovci","native":null,"lat":"44.46849000","lon":"19.07466000"},{"id":8358,"name":"Piskavica","native":null,"lat":"44.86717000","lon":"16.97464000"},{"id":8360,"name":"Podbrdo","native":null,"lat":"44.44189000","lon":"17.01495000"},{"id":8365,"name":"Popovi","native":null,"lat":"44.76547000","lon":"19.28667000"},{"id":8367,"name":"Pribinić","native":null,"lat":"44.61010000","lon":"17.68981000"},{"id":8368,"name":"Priboj","native":null,"lat":"44.60233000","lon":"18.93165000"},{"id":8369,"name":"Prijedor","native":null,"lat":"44.97991000","lon":"16.71401000"},{"id":8374,"name":"Rogatica","native":null,"lat":"43.79894000","lon":"19.00363000"},{"id":8375,"name":"Rudo","native":null,"lat":"43.61781000","lon":"19.36719000"},{"id":8436,"name":"Šamac","native":null,"lat":"45.05987000","lon":"18.46756000"},{"id":8437,"name":"Šekovići","native":null,"lat":"44.29896000","lon":"18.85532000"},{"id":8439,"name":"Šipovo","native":null,"lat":"44.28237000","lon":"17.08597000"},{"id":8383,"name":"Sokolac","native":null,"lat":"43.93817000","lon":"18.80079000"},{"id":8385,"name":"Srbac","native":null,"lat":"45.09730000","lon":"17.52331000"},{"id":8386,"name":"Srebrenica","native":null,"lat":"44.10748000","lon":"19.29669000"},{"id":8388,"name":"Stanari","native":null,"lat":"44.74475000","lon":"17.82714000"},{"id":8389,"name":"Starcevica","native":null,"lat":"44.75708000","lon":"17.21178000"},{"id":8393,"name":"Svodna","native":null,"lat":"45.03770000","lon":"16.54019000"},{"id":8395,"name":"Teslić","native":null,"lat":"44.60639000","lon":"17.85972000"},{"id":8402,"name":"Trebinje","native":null,"lat":"42.71197000","lon":"18.34362000"},{"id":8403,"name":"Trn","native":null,"lat":"44.85829000","lon":"17.23583000"},{"id":8407,"name":"Ugljevik","native":null,"lat":"44.66361000","lon":"19.02028000"},{"id":8413,"name":"Velika Obarska","native":null,"lat":"44.80461000","lon":"19.16183000"},{"id":8418,"name":"Višegrad","native":null,"lat":"43.78260000","lon":"19.29256000"},{"id":8419,"name":"Vlasenica","native":null,"lat":"44.18183000","lon":"18.94096000"},{"id":8446,"name":"Živinice","native":null,"lat":"44.54765000","lon":"17.37357000"},{"id":8428,"name":"Zvornik","native":null,"lat":"44.38605000","lon":"19.10247000"}]},{"id":466,"name":"Sarajevo Canton","native":null,"cities":[]},{"id":461,"name":"Tuzla Canton","native":null,"cities":[]},{"id":465,"name":"Una-Sana Canton","native":null,"cities":[]},{"id":469,"name":"West Herzegovina Canton","native":null,"cities":[]},{"id":468,"name":"Zenica-Doboj Canton","native":null,"cities":[]}]