[{"id":1228,"name":"Christ Church","native":null,"cities":[{"id":8452,"name":"Oistins","native":null,"lat":"13.07067000","lon":"-59.54637000"}]},{"id":1229,"name":"Saint Andrew","native":null,"cities":[{"id":8450,"name":"Greenland","native":null,"lat":"13.25808000","lon":"-59.57763000"}]},{"id":1226,"name":"Saint George","native":null,"cities":[]},{"id":1224,"name":"Saint James","native":null,"cities":[{"id":8451,"name":"Holetown","native":null,"lat":"13.18672000","lon":"-59.63808000"}]},{"id":1227,"name":"Saint John","native":null,"cities":[]},{"id":1223,"name":"Saint Joseph","native":null,"cities":[{"id":8447,"name":"Bathsheba","native":null,"lat":"13.21133000","lon":"-59.52596000"}]},{"id":1221,"name":"Saint Lucy","native":null,"cities":[]},{"id":1230,"name":"Saint Michael","native":null,"cities":[{"id":8448,"name":"Bridgetown","native":null,"lat":"13.10732000","lon":"-59.62021000"}]},{"id":1222,"name":"Saint Peter","native":null,"cities":[{"id":8453,"name":"Speightstown","native":null,"lat":"13.25072000","lon":"-59.64396000"}]},{"id":1220,"name":"Saint Philip","native":null,"cities":[{"id":8449,"name":"Crane","native":null,"lat":"13.10487000","lon":"-59.44861000"}]},{"id":1225,"name":"Saint Thomas","native":null,"cities":[]}]