[{"id":796,"name":"Bagerhat District","native":null,"cities":[]},{"id":802,"name":"Bahadia","native":null,"cities":[]},{"id":752,"name":"Bandarban District","native":null,"cities":[]},{"id":784,"name":"Barguna District","native":null,"cities":[]},{"id":818,"name":"Barisal District","native":null,"cities":[{"id":8459,"name":"Barguna","native":null,"lat":"22.13333000","lon":"90.13333000"},{"id":8460,"name":"Barisal","native":null,"lat":"22.80000000","lon":"90.50000000"},{"id":8466,"name":"Bhāndāria","native":null,"lat":"22.48898000","lon":"90.06273000"},{"id":8465,"name":"Bhola","native":null,"lat":"22.36667000","lon":"90.81667000"},{"id":8471,"name":"Burhānuddin","native":null,"lat":"22.49518000","lon":"90.72391000"},{"id":8495,"name":"Gaurnadi","native":null,"lat":"22.97372000","lon":"90.22376000"},{"id":8505,"name":"Jhalokati","native":null,"lat":"22.60000000","lon":"90.20000000"},{"id":8526,"name":"Lālmohan","native":null,"lat":"22.33774000","lon":"90.73708000"},{"id":8532,"name":"Mathba","native":null,"lat":"22.28616000","lon":"89.95883000"},{"id":8535,"name":"Mehendiganj","native":null,"lat":"22.82257000","lon":"90.52859000"},{"id":8556,"name":"Nālchiti","native":null,"lat":"22.63696000","lon":"90.27195000"},{"id":8565,"name":"Patuakhali","native":null,"lat":"22.33333000","lon":"90.33333000"},{"id":8567,"name":"Pirojpur","native":null,"lat":"22.53671000","lon":"90.00033000"}]},{"id":807,"name":"Barisal Division","native":null,"cities":[]},{"id":756,"name":"Bhola District","native":null,"cities":[]},{"id":797,"name":"Bogra District","native":null,"cities":[]},{"id":810,"name":"Brahmanbaria District","native":null,"cities":[]},{"id":768,"name":"Chandpur District","native":null,"cities":[]},{"id":761,"name":"Chapai Nawabganj District","native":null,"cities":[]},{"id":785,"name":"Chittagong District","native":null,"cities":[]},{"id":803,"name":"Chittagong Division","native":null,"cities":[{"id":8457,"name":"Bandarban","native":null,"lat":"22.00000000","lon":"92.33333000"},{"id":8468,"name":"Bibir Hat","native":null,"lat":"22.68347000","lon":"91.79058000"},{"id":8470,"name":"Brahmanbaria","native":null,"lat":"23.98333000","lon":"91.16667000"},{"id":8474,"name":"Chandpur","native":null,"lat":"23.25000000","lon":"90.83333000"},{"id":8478,"name":"Chhāgalnāiya","native":null,"lat":"23.02475000","lon":"91.51091000"},{"id":8481,"name":"Chittagong","native":null,"lat":"22.48750000","lon":"91.96333000"},{"id":8483,"name":"Comilla","native":null,"lat":"23.44170000","lon":"91.00987000"},{"id":8484,"name":"Cox's Bazar","native":null,"lat":"21.58389000","lon":"92.01528000"},{"id":8485,"name":"Cox’s Bāzār","native":null,"lat":"21.43973000","lon":"92.00955000"},{"id":8492,"name":"Feni","native":null,"lat":"22.96667000","lon":"91.31667000"},{"id":8499,"name":"Hājīganj","native":null,"lat":"23.25191000","lon":"90.85508000"},{"id":8512,"name":"Khagrachhari","native":null,"lat":"23.16667000","lon":"91.90000000"},{"id":8525,"name":"Lākshām","native":null,"lat":"23.24018000","lon":"91.12143000"},{"id":8521,"name":"Lakshmipur","native":null,"lat":"22.91667000","lon":"90.83333000"},{"id":8530,"name":"Manikchari","native":null,"lat":"22.83957000","lon":"91.84128000"},{"id":8543,"name":"Nabīnagar","native":null,"lat":"23.88791000","lon":"90.96792000"},{"id":8553,"name":"Noakhali","native":null,"lat":"22.75000000","lon":"91.16667000"},{"id":8564,"name":"Patiya","native":null,"lat":"22.29543000","lon":"91.97900000"},{"id":8579,"name":"Rāipur","native":null,"lat":"23.03910000","lon":"90.76808000"},{"id":8581,"name":"Rāmganj","native":null,"lat":"23.10060000","lon":"90.84989000"},{"id":8576,"name":"Rangamati","native":null,"lat":"22.63333000","lon":"92.20000000"},{"id":8578,"name":"Raojān","native":null,"lat":"22.53511000","lon":"91.91919000"},{"id":8584,"name":"Sandwīp","native":null,"lat":"22.51409000","lon":"91.45491000"},{"id":8597,"name":"Sātkania","native":null,"lat":"22.07639000","lon":"92.04955000"},{"id":8600,"name":"Teknāf","native":null,"lat":"20.85829000","lon":"92.29773000"}]},{"id":788,"name":"Chuadanga District","native":null,"cities":[]},{"id":763,"name":"Comilla District","native":null,"cities":[]},{"id":751,"name":"Cox's Bazar District","native":null,"cities":[]},{"id":771,"name":"Dhaka District","native":null,"cities":[{"id":8454,"name":"Azimpur","native":null,"lat":"23.72980000","lon":"90.38540000"},{"id":8472,"name":"Bājitpur","native":null,"lat":"24.21623000","lon":"90.95002000"},{"id":8463,"name":"Bhairab Bāzār","native":null,"lat":"24.05240000","lon":"90.97640000"},{"id":8476,"name":"Char Bhadrāsan","native":null,"lat":"23.30916000","lon":"90.22698000"},{"id":8477,"name":"Char Golora","native":null,"lat":"23.82037000","lon":"90.12175000"},{"id":8486,"name":"Dhaka","native":null,"lat":"23.81093000","lon":"90.36542000"},{"id":8489,"name":"Dohār","native":null,"lat":"23.59311000","lon":"90.14251000"},{"id":8490,"name":"Faridpur","native":null,"lat":"23.59419000","lon":"89.82147000"},{"id":8496,"name":"Gazipur","native":null,"lat":"24.20689000","lon":"90.47241000"},{"id":8497,"name":"Gopalganj","native":null,"lat":"23.16667000","lon":"89.91667000"},{"id":8508,"name":"Joymontop","native":null,"lat":"23.78789000","lon":"90.16472000"},{"id":8513,"name":"Khanbaniara","native":null,"lat":"23.78225000","lon":"90.18382000"},{"id":8515,"name":"Kishoregonj","native":null,"lat":"24.41667000","lon":"90.95000000"},{"id":8516,"name":"Kishorganj","native":null,"lat":"24.43944000","lon":"90.78291000"},{"id":8527,"name":"Madaripur","native":null,"lat":"23.25000000","lon":"90.20000000"},{"id":8531,"name":"Manikganj","native":null,"lat":"23.86667000","lon":"89.95000000"},{"id":8537,"name":"Mirzāpur","native":null,"lat":"24.10287000","lon":"90.09841000"},{"id":8540,"name":"Munshiganj","native":null,"lat":"23.55000000","lon":"90.36667000"},{"id":8555,"name":"Nāgarpur","native":null,"lat":"24.05783000","lon":"89.87696000"},{"id":8547,"name":"Narayanganj","native":null,"lat":"23.75000000","lon":"90.58333000"},{"id":8548,"name":"Narsingdi","native":null,"lat":"23.92298000","lon":"90.71768000"},{"id":8570,"name":"Pālang","native":null,"lat":"23.21824000","lon":"90.35076000"},{"id":8559,"name":"Paltan","native":null,"lat":"23.73625000","lon":"90.41426000"},{"id":8562,"name":"Parvez Ali","native":null,"lat":"23.81741000","lon":"90.11921000"},{"id":8563,"name":"Parvez Ali Hossain","native":null,"lat":"23.78758000","lon":"90.16487000"},{"id":8573,"name":"Rajbari","native":null,"lat":"23.66667000","lon":"89.55000000"},{"id":8575,"name":"Ramnagar","native":null,"lat":"23.77720000","lon":"90.17604000"},{"id":8583,"name":"Sakhipur","native":null,"lat":"24.31988000","lon":"90.16943000"},{"id":8588,"name":"Sayani","native":null,"lat":"23.79119000","lon":"90.16972000"},{"id":8589,"name":"Shariatpur","native":null,"lat":"23.25000000","lon":"90.36667000"},{"id":8594,"name":"Sonārgaon","native":null,"lat":"23.65000000","lon":"90.61667000"},{"id":8599,"name":"Tangail","native":null,"lat":"24.33853000","lon":"89.98667000"},{"id":8603,"name":"Tungi","native":null,"lat":"23.89154000","lon":"90.40232000"},{"id":8604,"name":"Tungipāra","native":null,"lat":"22.89983000","lon":"89.90326000"}]},{"id":760,"name":"Dhaka Division","native":null,"cities":[]},{"id":783,"name":"Dinajpur District","native":null,"cities":[]},{"id":762,"name":"Faridpur District","native":null,"cities":[]},{"id":816,"name":"Feni District","native":null,"cities":[]},{"id":795,"name":"Gaibandha District","native":null,"cities":[]},{"id":798,"name":"Gazipur District","native":null,"cities":[]},{"id":792,"name":"Gopalganj District","native":null,"cities":[]},{"id":805,"name":"Habiganj District","native":null,"cities":[]},{"id":808,"name":"Jamalpur District","native":null,"cities":[]},{"id":757,"name":"Jessore District","native":null,"cities":[]},{"id":778,"name":"Jhalokati District","native":null,"cities":[]},{"id":789,"name":"Jhenaidah District","native":null,"cities":[]},{"id":806,"name":"Joypurhat District","native":null,"cities":[]},{"id":786,"name":"Khagrachari District","native":null,"cities":[]},{"id":811,"name":"Khulna District","native":null,"cities":[{"id":8456,"name":"Bagerhat","native":null,"lat":"22.40000000","lon":"89.75000000"},{"id":8467,"name":"Bhātpāra Abhaynagar","native":null,"lat":"23.01472000","lon":"89.43936000"},{"id":8464,"name":"Bherāmāra","native":null,"lat":"24.02452000","lon":"88.99234000"},{"id":8482,"name":"Chuadanga","native":null,"lat":"23.63333000","lon":"88.85000000"},{"id":8504,"name":"Jessore","native":null,"lat":"23.08333000","lon":"89.16667000"},{"id":8506,"name":"Jhenaidah","native":null,"lat":"23.50000000","lon":"89.16667000"},{"id":8507,"name":"Jhingergācha","native":null,"lat":"23.11134000","lon":"89.09061000"},{"id":8519,"name":"Kālia","native":null,"lat":"23.04300000","lon":"89.63094000"},{"id":8520,"name":"Kālīganj","native":null,"lat":"23.40964000","lon":"89.13801000"},{"id":8511,"name":"Kesabpur","native":null,"lat":"22.90725000","lon":"89.21954000"},{"id":8514,"name":"Khulna","native":null,"lat":"22.50000000","lon":"89.33333000"},{"id":8518,"name":"Kushtia","native":null,"lat":"23.83333000","lon":"88.91667000"},{"id":8528,"name":"Magura","native":null,"lat":"23.43333000","lon":"89.43333000"},{"id":8536,"name":"Meherpur","native":null,"lat":"23.75000000","lon":"88.70000000"},{"id":8538,"name":"Morrelgonj","native":null,"lat":"22.45566000","lon":"89.85584000"},{"id":8546,"name":"Narail","native":null,"lat":"23.13333000","lon":"89.60000000"},{"id":8554,"name":"Nowlamary","native":null,"lat":"23.67346000","lon":"88.98885000"},{"id":8566,"name":"Phultala","native":null,"lat":"22.71673000","lon":"89.51194000"},{"id":8585,"name":"Sarankhola","native":null,"lat":"22.31006000","lon":"89.79113000"},{"id":8587,"name":"Satkhira","native":null,"lat":"22.35000000","lon":"89.15000000"},{"id":8606,"name":"Ujalpur","native":null,"lat":"23.80562000","lon":"88.62444000"},{"id":8607,"name":"Uttar Char Fasson","native":null,"lat":"22.22647000","lon":"90.71275000"}]},{"id":775,"name":"Khulna Division","native":null,"cities":[]},{"id":779,"name":"Kishoreganj District","native":null,"cities":[]},{"id":793,"name":"Kurigram District","native":null,"cities":[]},{"id":774,"name":"Kushtia District","native":null,"cities":[]},{"id":819,"name":"Lakshmipur District","native":null,"cities":[]},{"id":780,"name":"Lalmonirhat District","native":null,"cities":[]},{"id":817,"name":"Madaripur District","native":null,"cities":[]},{"id":776,"name":"Meherpur District","native":null,"cities":[]},{"id":794,"name":"Moulvibazar District","native":null,"cities":[]},{"id":790,"name":"Munshiganj District","native":null,"cities":[]},{"id":766,"name":"Mymensingh District","native":null,"cities":[{"id":8493,"name":"Gafargaon","native":null,"lat":"24.43200000","lon":"90.55850000"},{"id":8502,"name":"Jamalpur","native":null,"lat":"25.00000000","lon":"89.83333000"},{"id":8539,"name":"Muktāgācha","native":null,"lat":"24.76484000","lon":"90.25698000"},{"id":8541,"name":"Mymensingh","native":null,"lat":"24.75000000","lon":"90.40000000"},{"id":8551,"name":"Netrakona","native":null,"lat":"24.86667000","lon":"90.86667000"},{"id":8586,"name":"Sarishābāri","native":null,"lat":"24.75127000","lon":"89.83126000"},{"id":8590,"name":"Sherpur","native":null,"lat":"25.08333000","lon":"90.08333000"}]},{"id":758,"name":"Mymensingh Division","native":null,"cities":[]},{"id":814,"name":"Naogaon District","native":null,"cities":[]},{"id":769,"name":"Narail District","native":null,"cities":[]},{"id":770,"name":"Narayanganj District","native":null,"cities":[]},{"id":787,"name":"Natore District","native":null,"cities":[]},{"id":764,"name":"Netrokona District","native":null,"cities":[]},{"id":772,"name":"Nilphamari District","native":null,"cities":[]},{"id":815,"name":"Noakhali District","native":null,"cities":[]},{"id":754,"name":"Pabna District","native":null,"cities":[]},{"id":800,"name":"Panchagarh District","native":null,"cities":[]},{"id":777,"name":"Patuakhali District","native":null,"cities":[]},{"id":791,"name":"Pirojpur District","native":null,"cities":[]},{"id":773,"name":"Rajbari District","native":null,"cities":[]},{"id":813,"name":"Rajshahi District","native":null,"cities":[{"id":8462,"name":"Bera","native":null,"lat":"24.07821000","lon":"89.63262000"},{"id":8469,"name":"Bogra","native":null,"lat":"24.78333000","lon":"89.35000000"},{"id":8475,"name":"Chapai Nababganj","native":null,"lat":"24.68333000","lon":"88.25000000"},{"id":8500,"name":"Ishurdi","native":null,"lat":"24.12858000","lon":"89.06573000"},{"id":8509,"name":"Joypur Hāt","native":null,"lat":"25.10147000","lon":"89.02734000"},{"id":8510,"name":"Joypurhat","native":null,"lat":"25.08333000","lon":"89.10000000"},{"id":8529,"name":"Mahasthangarh","native":null,"lat":"24.96111000","lon":"89.34278000"},{"id":8545,"name":"Naogaon","native":null,"lat":"24.81180000","lon":"88.94657000"},{"id":8549,"name":"Natore","native":null,"lat":"24.35000000","lon":"89.08333000"},{"id":8550,"name":"Nawābganj","native":null,"lat":"24.59025000","lon":"88.27444000"},{"id":8558,"name":"Pabna","native":null,"lat":"24.00633000","lon":"89.33533000"},{"id":8571,"name":"Pār Naogaon","native":null,"lat":"24.80418000","lon":"88.94875000"},{"id":8568,"name":"Puthia","native":null,"lat":"24.36537000","lon":"88.83431000"},{"id":8574,"name":"Rajshahi","native":null,"lat":"24.36962000","lon":"88.60748000"},{"id":8582,"name":"Saidpur","native":null,"lat":"25.77769000","lon":"88.89169000"},{"id":8592,"name":"Shāhzādpur","native":null,"lat":"24.17687000","lon":"89.59880000"},{"id":8591,"name":"Shibganj","native":null,"lat":"25.00146000","lon":"89.32266000"},{"id":8593,"name":"Sirajganj","native":null,"lat":"24.33333000","lon":"89.61667000"}]},{"id":753,"name":"Rajshahi Division","native":null,"cities":[]},{"id":809,"name":"Rangamati Hill District","native":null,"cities":[]},{"id":759,"name":"Rangpur District","native":null,"cities":[{"id":8455,"name":"Badarganj","native":null,"lat":"25.67419000","lon":"89.05377000"},{"id":8480,"name":"Chilmāri","native":null,"lat":"25.55613000","lon":"89.67097000"},{"id":8487,"name":"Dinajpur","native":null,"lat":"25.61667000","lon":"88.75000000"},{"id":8494,"name":"Gaibandha","native":null,"lat":"25.25000000","lon":"89.50000000"},{"id":8517,"name":"Kurigram","native":null,"lat":"25.75000000","lon":"89.66667000"},{"id":8523,"name":"Lalmonirhat","native":null,"lat":"25.91719000","lon":"89.44595000"},{"id":8524,"name":"Lalmonirhat District","native":null,"lat":"26.00000000","lon":"89.25000000"},{"id":8544,"name":"Nageswari","native":null,"lat":"25.96817000","lon":"89.69153000"},{"id":8552,"name":"Nilphamari Zila","native":null,"lat":"25.96667000","lon":"88.95000000"},{"id":8560,"name":"Panchagarh","native":null,"lat":"26.33333000","lon":"88.56667000"},{"id":8561,"name":"Parbatipur","native":null,"lat":"25.66369000","lon":"88.93093000"},{"id":8572,"name":"Pīrgaaj","native":null,"lat":"25.85587000","lon":"88.35943000"},{"id":8577,"name":"Rangpur","native":null,"lat":"25.73333000","lon":"89.25000000"},{"id":8601,"name":"Thakurgaon","native":null,"lat":"25.96667000","lon":"88.33333000"}]},{"id":750,"name":"Rangpur Division","native":null,"cities":[]},{"id":799,"name":"Satkhira District","native":null,"cities":[]},{"id":801,"name":"Shariatpur District","native":null,"cities":[]},{"id":755,"name":"Sherpur District","native":null,"cities":[]},{"id":781,"name":"Sirajganj District","native":null,"cities":[]},{"id":812,"name":"Sunamganj District","native":null,"cities":[]},{"id":767,"name":"Sylhet District","native":null,"cities":[{"id":8458,"name":"Baniachang","native":null,"lat":"24.51863000","lon":"91.35787000"},{"id":8479,"name":"Chhātak","native":null,"lat":"25.03852000","lon":"91.66958000"},{"id":8498,"name":"Habiganj","native":null,"lat":"24.43333000","lon":"91.41667000"},{"id":8501,"name":"Jahedpur","native":null,"lat":"24.83333000","lon":"91.65000000"},{"id":8533,"name":"Maulavi Bāzār","native":null,"lat":"24.48888000","lon":"91.77075000"},{"id":8534,"name":"Maulvibazar","native":null,"lat":"24.50000000","lon":"91.83333000"},{"id":8595,"name":"Sunamganj","native":null,"lat":"24.86667000","lon":"91.41667000"},{"id":8596,"name":"Sylhet","native":null,"lat":"24.91667000","lon":"91.76667000"}]},{"id":765,"name":"Sylhet Division","native":null,"cities":[]},{"id":782,"name":"Tangail District","native":null,"cities":[]},{"id":804,"name":"Thakurgaon District","native":null,"cities":[]}]