[{"id":1992,"name":"Capital","native":null,"cities":[{"id":9757,"name":"Jidd Ḩafş","native":null,"lat":"26.21861000","lon":"50.54778000"},{"id":9760,"name":"Manama","native":null,"lat":"26.22787000","lon":"50.58565000"},{"id":9761,"name":"Sitrah","native":null,"lat":"26.15472000","lon":"50.62056000"}]},{"id":1996,"name":"Central","native":null,"cities":[{"id":9758,"name":"Madīnat Ḩamad","native":null,"lat":"26.11528000","lon":"50.50694000"}]},{"id":1995,"name":"Muharraq","native":null,"cities":[{"id":9754,"name":"Al Ḩadd","native":null,"lat":"26.24556000","lon":"50.65417000"},{"id":9753,"name":"Al Muharraq","native":null,"lat":"26.25722000","lon":"50.61194000"}]},{"id":1994,"name":"Northern","native":null,"cities":[]},{"id":1993,"name":"Southern","native":null,"cities":[{"id":9755,"name":"Ar Rifā‘","native":null,"lat":"26.13000000","lon":"50.55500000"},{"id":9756,"name":"Dār Kulayb","native":null,"lat":"26.06861000","lon":"50.50389000"},{"id":9759,"name":"Madīnat ‘Īsá","native":null,"lat":"26.17361000","lon":"50.54778000"}]}]