[{"id":1217,"name":"Belait District","native":null,"cities":[{"id":9820,"name":"Kuala Belait","native":null,"lat":"4.58361000","lon":"114.23120000"},{"id":9823,"name":"Seria","native":null,"lat":"4.60637000","lon":"114.32476000"}]},{"id":1216,"name":"Brunei-Muara District","native":null,"cities":[{"id":9816,"name":"Bandar Seri Begawan","native":null,"lat":"4.89035000","lon":"114.94006000"},{"id":9818,"name":"Berakas A","native":null,"lat":"4.97032000","lon":"114.92989000"},{"id":9819,"name":"Kapok","native":null,"lat":"5.02447000","lon":"115.04664000"},{"id":9821,"name":"Mentiri","native":null,"lat":"4.97058000","lon":"115.02078000"},{"id":9822,"name":"Serasa","native":null,"lat":"5.01718000","lon":"115.05841000"}]},{"id":1218,"name":"Temburong District","native":null,"cities":[{"id":9817,"name":"Bangar","native":null,"lat":"4.70861000","lon":"115.07167000"}]},{"id":1219,"name":"Tutong District","native":null,"cities":[{"id":9824,"name":"Tutong","native":null,"lat":"4.80278000","lon":"114.64917000"}]}]