[{"name":"Bas-Uélé","native":null,"cities":[{"name":"Aketi","native":null,"lat":"2.73877000","lon":"23.78326000"},{"name":"Bondo","native":null,"lat":"3.81461000","lon":"23.68665000"},{"name":"Buta","native":null,"lat":"2.78582000","lon":"24.72997000"}]},{"name":"Équateur","native":null,"cities":[{"name":"Gemena","native":null,"lat":"3.25651000","lon":"19.77234000"},{"name":"Lisala","native":null,"lat":"2.15127000","lon":"21.51672000"},{"name":"Lukolela","native":null,"lat":"-1.06046000","lon":"17.18210000"},{"name":"Mbandaka","native":null,"lat":"0.04865000","lon":"18.26034000"}]},{"name":"Haut-Katanga","native":null,"cities":[{"name":"Haut Katanga","native":null,"lat":"-10.46044000","lon":"27.94322000"},{"name":"Kambove","native":null,"lat":"-10.87352000","lon":"26.59746000"},{"name":"Kipushi","native":null,"lat":"-11.76097000","lon":"27.25135000"},{"name":"Likasi","native":null,"lat":"-10.98303000","lon":"26.73840000"},{"name":"Lubumbashi","native":null,"lat":"-11.66089000","lon":"27.47938000"}]},{"name":"Haut-Lomami","native":null,"cities":[{"name":"Bukama","native":null,"lat":"-9.20443000","lon":"25.85475000"},{"name":"Kamina","native":null,"lat":"-8.73508000","lon":"24.99798000"}]},{"name":"Haut-Uélé","native":null,"cities":[{"name":"Isiro","native":null,"lat":"2.77391000","lon":"27.61603000"},{"name":"Wamba","native":null,"lat":"2.14838000","lon":"27.99466000"},{"name":"Watsa","native":null,"lat":"3.03716000","lon":"29.53551000"}]},{"name":"Ituri","native":null,"cities":[{"name":"Bunia","native":null,"lat":"1.55941000","lon":"30.25224000"}]},{"name":"Kasaï","native":null,"cities":[{"name":"Ilebo","native":null,"lat":"-4.33111000","lon":"20.58638000"},{"name":"Luebo","native":null,"lat":"-5.35218000","lon":"21.42192000"},{"name":"Mweka","native":null,"lat":"-4.85187000","lon":"21.55950000"},{"name":"Tshikapa","native":null,"lat":"-6.41621000","lon":"20.79995000"}]},{"name":"Kasaï Central","native":null,"cities":[]},{"name":"Kasaï Oriental","native":null,"cities":[{"name":"Gandajika","native":null,"lat":"-6.74504000","lon":"23.95328000"},{"name":"Kabinda","native":null,"lat":"-6.13791000","lon":"24.48179000"},{"name":"Mbuji-Mayi","native":null,"lat":"-6.13603000","lon":"23.58979000"}]},{"name":"Kinshasa","native":null,"cities":[{"name":"Kinshasa","native":null,"lat":"-4.32758000","lon":"15.31357000"},{"name":"Masina","native":null,"lat":"-4.38361000","lon":"15.39139000"}]},{"name":"Kongo Central","native":null,"cities":[{"name":"Boma","native":null,"lat":"-5.85098000","lon":"13.05364000"},{"name":"Kasangulu","native":null,"lat":"-4.58330000","lon":"15.16554000"},{"name":"Matadi","native":null,"lat":"-5.83861000","lon":"13.46306000"},{"name":"Mbanza-Ngungu","native":null,"lat":"-5.25837000","lon":"14.85838000"},{"name":"Moanda","native":null,"lat":"-5.92753000","lon":"12.37148000"},{"name":"Tshela","native":null,"lat":"-4.99707000","lon":"12.94840000"}]},{"name":"Kwango","native":null,"cities":[{"name":"Kasongo-Lunda","native":null,"lat":"-6.47833000","lon":"16.81735000"}]},{"name":"Kwilu","native":null,"cities":[{"name":"Bandundu","native":null,"lat":"-3.31687000","lon":"17.38063000"},{"name":"Bulungu","native":null,"lat":"-4.54437000","lon":"18.60364000"},{"name":"Kikwit","native":null,"lat":"-5.04098000","lon":"18.81619000"},{"name":"Mangai","native":null,"lat":"-4.02328000","lon":"19.53385000"}]},{"name":"Lomami","native":null,"cities":[{"name":"Lubao","native":null,"lat":"-5.38771000","lon":"25.74885000"},{"name":"Mwene-Ditu","native":null,"lat":"-7.00906000","lon":"23.45278000"}]},{"name":"Lualaba","native":null,"cities":[]},{"name":"Mai-Ndombe","native":null,"cities":[{"name":"Bolobo","native":null,"lat":"-2.15800000","lon":"16.23249000"},{"name":"Inongo","native":null,"lat":"-1.92750000","lon":"18.28810000"},{"name":"Mushie","native":null,"lat":"-3.01728000","lon":"16.92238000"},{"name":"Nioki","native":null,"lat":"-2.72037000","lon":"17.69001000"}]},{"name":"Maniema","native":null,"cities":[{"name":"Kampene","native":null,"lat":"-3.59678000","lon":"26.66715000"},{"name":"Kasongo","native":null,"lat":"-4.42741000","lon":"26.66656000"},{"name":"Kindu","native":null,"lat":"-2.94373000","lon":"25.92237000"}]},{"name":"Mongala","native":null,"cities":[{"name":"Bumba","native":null,"lat":"2.18771000","lon":"22.46827000"}]},{"name":"Nord-Kivu","native":null,"cities":[{"name":"Beni","native":null,"lat":"0.49113000","lon":"29.47306000"},{"name":"Butembo","native":null,"lat":"0.14164000","lon":"29.29117000"},{"name":"Goma","native":null,"lat":"-1.67409000","lon":"29.22845000"},{"name":"Sake","native":null,"lat":"-1.57386000","lon":"29.04339000"}]},{"name":"Nord-Ubangi","native":null,"cities":[{"name":"Bosobolo","native":null,"lat":"4.18980000","lon":"19.88330000"},{"name":"Businga","native":null,"lat":"3.33863000","lon":"20.88577000"},{"name":"Gbadolite","native":null,"lat":"4.27900000","lon":"21.00284000"}]},{"name":"Sankuru","native":null,"cities":[{"name":"Lodja","native":null,"lat":"-3.52105000","lon":"23.60050000"},{"name":"Lusambo","native":null,"lat":"-4.97503000","lon":"23.44391000"}]},{"name":"Sud-Kivu","native":null,"cities":[{"name":"Bukavu","native":null,"lat":"-2.49077000","lon":"28.84281000"},{"name":"Kabare","native":null,"lat":"-2.49682000","lon":"28.79081000"},{"name":"Uvira","native":null,"lat":"-3.39534000","lon":"29.13779000"}]},{"name":"Sud-Ubangi","native":null,"cities":[{"name":"Bongandanga","native":null,"lat":"1.50695000","lon":"21.07260000"},{"name":"Libenge","native":null,"lat":"3.65332000","lon":"18.63566000"}]},{"name":"Tanganyika","native":null,"cities":[{"name":"Kabalo","native":null,"lat":"-6.05255000","lon":"26.91430000"},{"name":"Kalemie","native":null,"lat":"-5.94749000","lon":"29.19471000"},{"name":"Kongolo","native":null,"lat":"-5.38532000","lon":"27.00029000"}]},{"name":"Tshopo","native":null,"cities":[{"name":"Basoko","native":null,"lat":"1.23909000","lon":"23.61598000"},{"name":"Kisangani","native":null,"lat":"0.51528000","lon":"25.19099000"},{"name":"Yangambi","native":null,"lat":"0.76755000","lon":"24.43973000"}]},{"name":"Tshuapa","native":null,"cities":[{"name":"Boende","native":null,"lat":"-0.28163000","lon":"20.88053000"}]}]