[{"id":2634,"name":"Abidjan","native":null,"cities":[{"id":18860,"name":"Abidjan","native":null,"lat":"5.30966000","lon":"-4.01266000"},{"id":18861,"name":"Abobo","native":null,"lat":"5.41613000","lon":"-4.01590000"},{"id":18870,"name":"Anyama","native":null,"lat":"5.49462000","lon":"-4.05183000"},{"id":18876,"name":"Bingerville","native":null,"lat":"5.35581000","lon":"-3.88537000"}]},{"id":2626,"name":"Agnéby","native":null,"cities":[]},{"id":2636,"name":"Bafing Region","native":null,"cities":[]},{"id":2643,"name":"Bas-Sassandra District","native":null,"cities":[{"id":18901,"name":"Gbôklé","native":null,"lat":"4.95712000","lon":"-6.09372000"},{"id":18924,"name":"Nawa","native":null,"lat":"5.80112000","lon":"-6.60313000"},{"id":18928,"name":"San-Pédro","native":null,"lat":"4.76768000","lon":"-6.65033000"},{"id":18929,"name":"Sassandra","native":null,"lat":"4.95384000","lon":"-6.08531000"},{"id":18933,"name":"Tabou","native":null,"lat":"4.42295000","lon":"-7.35280000"}]},{"id":2635,"name":"Bas-Sassandra Region","native":null,"cities":[]},{"id":2654,"name":"Comoé District","native":null,"cities":[{"id":18859,"name":"Abengourou","native":null,"lat":"6.72972000","lon":"-3.49639000"},{"id":18862,"name":"Aboisso","native":null,"lat":"5.46779000","lon":"-3.20711000"},{"id":18863,"name":"Adiaké","native":null,"lat":"5.28634000","lon":"-3.30403000"},{"id":18867,"name":"Agnibilékrou","native":null,"lat":"7.13113000","lon":"-3.20415000"},{"id":18872,"name":"Ayamé","native":null,"lat":"5.60520000","lon":"-3.15709000"},{"id":18880,"name":"Bonoua","native":null,"lat":"5.27247000","lon":"-3.59625000"},{"id":18903,"name":"Grand-Bassam","native":null,"lat":"5.21180000","lon":"-3.73884000"},{"id":18913,"name":"Indénié-Djuablin","native":null,"lat":"6.74434000","lon":"-3.49400000"},{"id":18931,"name":"Sud-Comoé","native":null,"lat":"5.49961000","lon":"-3.24080000"}]},{"id":2644,"name":"Denguélé District","native":null,"cities":[{"id":18898,"name":"Folon","native":null,"lat":"9.81241000","lon":"-7.51894000"},{"id":18915,"name":"Kabadougou","native":null,"lat":"9.60571000","lon":"-7.43774000"},{"id":18925,"name":"Odienné","native":null,"lat":"9.50511000","lon":"-7.56433000"}]},{"id":2642,"name":"Denguélé Region","native":null,"cities":[]},{"id":2645,"name":"Dix-Huit Montagnes","native":null,"cities":[{"id":18874,"name":"Bangolo","native":null,"lat":"7.01232000","lon":"-7.48639000"},{"id":18875,"name":"Biankouma","native":null,"lat":"7.73909000","lon":"-7.61377000"},{"id":18889,"name":"Cavally","native":null,"lat":"6.56343000","lon":"-7.92526000"},{"id":18893,"name":"Danané","native":null,"lat":"7.25957000","lon":"-8.15498000"},{"id":18897,"name":"Duekoué","native":null,"lat":"6.74202000","lon":"-7.34918000"},{"id":18908,"name":"Guémon","native":null,"lat":"7.09300000","lon":"-7.17785000"},{"id":18907,"name":"Guiglo","native":null,"lat":"6.54368000","lon":"-7.49350000"},{"id":18919,"name":"Man","native":null,"lat":"7.41251000","lon":"-7.55383000"},{"id":18936,"name":"Tonkpi","native":null,"lat":"7.56785000","lon":"-7.60941000"},{"id":18938,"name":"Toulépleu Gueré","native":null,"lat":"6.57395000","lon":"-8.42592000"}]},{"id":2633,"name":"Fromager","native":null,"cities":[]},{"id":2651,"name":"Gôh-Djiboua District","native":null,"cities":[{"id":18896,"name":"Divo","native":null,"lat":"5.83739000","lon":"-5.35723000"},{"id":18899,"name":"Gagnoa","native":null,"lat":"6.13193000","lon":"-5.95060000"},{"id":18909,"name":"Gôh","native":null,"lat":"6.14459000","lon":"-5.92644000"},{"id":18906,"name":"Guibéroua","native":null,"lat":"6.23869000","lon":"-6.17147000"},{"id":18917,"name":"Lakota","native":null,"lat":"5.84752000","lon":"-5.68200000"},{"id":18918,"name":"Lôh-Djiboua","native":null,"lat":"5.82483000","lon":"-5.47668000"},{"id":18926,"name":"Oumé","native":null,"lat":"6.38309000","lon":"-5.41759000"}]},{"id":2638,"name":"Haut-Sassandra","native":null,"cities":[]},{"id":2632,"name":"Lacs District","native":null,"cities":[]},{"id":2640,"name":"Lacs Region","native":null,"cities":[{"id":18871,"name":"Arrah","native":null,"lat":"6.67342000","lon":"-3.96938000"},{"id":18886,"name":"Bélier","native":null,"lat":"7.02582000","lon":"-5.06744000"},{"id":18877,"name":"Bocanda","native":null,"lat":"7.06264000","lon":"-4.49948000"},{"id":18879,"name":"Bongouanou","native":null,"lat":"6.65175000","lon":"-4.20406000"},{"id":18894,"name":"Daoukro","native":null,"lat":"7.05910000","lon":"-3.96310000"},{"id":18895,"name":"Dimbokro","native":null,"lat":"6.64678000","lon":"-4.70519000"},{"id":18912,"name":"Iffou","native":null,"lat":"7.11509000","lon":"-3.95027000"},{"id":18922,"name":"Moronou","native":null,"lat":"6.66830000","lon":"-4.13155000"},{"id":18923,"name":"N'Zi","native":null,"lat":"6.82803000","lon":"-4.58130000"},{"id":18939,"name":"Toumodi","native":null,"lat":"6.55799000","lon":"-5.01769000"},{"id":18942,"name":"Yamoussoukro","native":null,"lat":"6.82055000","lon":"-5.27674000"}]},{"id":2627,"name":"Lagunes District","native":null,"cities":[]},{"id":2639,"name":"Lagunes region","native":null,"cities":[{"id":18864,"name":"Adzopé","native":null,"lat":"6.10694000","lon":"-3.86194000"},{"id":18865,"name":"Affery","native":null,"lat":"6.32035000","lon":"-3.95235000"},{"id":18866,"name":"Agboville","native":null,"lat":"5.92801000","lon":"-4.21319000"},{"id":18868,"name":"Agnéby-Tiassa","native":null,"lat":"5.79488000","lon":"-4.37187000"},{"id":18869,"name":"Akoupé","native":null,"lat":"6.38423000","lon":"-3.88759000"},{"id":18891,"name":"Dabou","native":null,"lat":"5.32556000","lon":"-4.37685000"},{"id":18904,"name":"Grand-Lahou","native":null,"lat":"5.25068000","lon":"-5.00333000"},{"id":18905,"name":"Grands-Ponts","native":null,"lat":"5.30487000","lon":"-4.39247000"},{"id":18935,"name":"Tiassalé","native":null,"lat":"5.89839000","lon":"-4.82293000"}]},{"id":2631,"name":"Marahoué Region","native":null,"cities":[]},{"id":2629,"name":"Montagnes District","native":null,"cities":[]},{"id":2646,"name":"Moyen-Cavally","native":null,"cities":[]},{"id":2630,"name":"Moyen-Comoé","native":null,"cities":[]},{"id":2655,"name":"N'zi-Comoé","native":null,"cities":[]},{"id":2648,"name":"Sassandra-Marahoué District","native":null,"cities":[{"id":18882,"name":"Bouaflé","native":null,"lat":"6.99041000","lon":"-5.74420000"},{"id":18892,"name":"Daloa","native":null,"lat":"6.87735000","lon":"-6.45022000"},{"id":18911,"name":"Haut-Sassandra","native":null,"lat":"6.66961000","lon":"-6.50116000"},{"id":18914,"name":"Issia","native":null,"lat":"6.49224000","lon":"-6.58558000"},{"id":18921,"name":"Marahoué","native":null,"lat":"7.03252000","lon":"-5.80215000"},{"id":18940,"name":"Vavoua","native":null,"lat":"7.38194000","lon":"-6.47778000"},{"id":18943,"name":"Zuénoula","native":null,"lat":"7.43027000","lon":"-6.05054000"}]},{"id":2625,"name":"Savanes Region","native":null,"cities":[]},{"id":2628,"name":"Sud-Bandama","native":null,"cities":[]},{"id":2652,"name":"Sud-Comoé","native":null,"cities":[]},{"id":2637,"name":"Vallée du Bandama District","native":null,"cities":[]},{"id":2647,"name":"Vallée du Bandama Region","native":null,"cities":[{"id":18887,"name":"Béoumi","native":null,"lat":"7.67395000","lon":"-5.58085000"},{"id":18881,"name":"Botro","native":null,"lat":"7.85249000","lon":"-5.31063000"},{"id":18883,"name":"Bouaké","native":null,"lat":"7.69385000","lon":"-5.03031000"},{"id":18890,"name":"Dabakala","native":null,"lat":"8.36321000","lon":"-4.42863000"},{"id":18900,"name":"Gbêkê","native":null,"lat":"7.70271000","lon":"-5.28511000"},{"id":18910,"name":"Hambol","native":null,"lat":"8.30368000","lon":"-5.15396000"},{"id":18916,"name":"Katiola","native":null,"lat":"8.13728000","lon":"-5.10095000"},{"id":18927,"name":"Sakassou","native":null,"lat":"7.45462000","lon":"-5.29263000"}]},{"id":2650,"name":"Woroba District","native":null,"cities":[{"id":18873,"name":"Bafing","native":null,"lat":"8.40611000","lon":"-7.58048000"},{"id":18888,"name":"Béré","native":null,"lat":"8.18952000","lon":"-6.17157000"},{"id":18920,"name":"Mankono","native":null,"lat":"8.05861000","lon":"-6.18972000"},{"id":18932,"name":"Séguéla","native":null,"lat":"7.96111000","lon":"-6.67306000"},{"id":18937,"name":"Touba","native":null,"lat":"8.28333000","lon":"-7.68333000"},{"id":18941,"name":"Worodougou","native":null,"lat":"8.16482000","lon":"-6.66595000"}]},{"id":2649,"name":"Worodougou","native":null,"cities":[]},{"id":2653,"name":"Yamoussoukro","native":null,"cities":[]},{"id":2641,"name":"Zanzan Region","native":null,"cities":[{"id":18878,"name":"Bondoukou","native":null,"lat":"8.04020000","lon":"-2.80003000"},{"id":18884,"name":"Bouna","native":null,"lat":"9.26927000","lon":"-2.99510000"},{"id":18885,"name":"Bounkani","native":null,"lat":"9.47841000","lon":"-3.31238000"},{"id":18902,"name":"Gontougo","native":null,"lat":"7.87132000","lon":"-3.07068000"},{"id":18930,"name":"Sinfra","native":null,"lat":"6.62103000","lon":"-5.91144000"},{"id":18934,"name":"Tanda","native":null,"lat":"7.80335000","lon":"-3.16832000"}]}]