[{"id":2251,"name":"Anhui","native":null,"cities":[{"id":19284,"name":"Anqing","native":null,"lat":"30.51365000","lon":"117.04723000"},{"id":19285,"name":"Anqing Shi","native":null,"lat":"30.66266000","lon":"116.55911000"},{"id":19338,"name":"Bengbu","native":null,"lat":"32.94083000","lon":"117.36083000"},{"id":19351,"name":"Bozhou","native":null,"lat":"33.87722000","lon":"115.77028000"},{"id":19380,"name":"Chaohu","native":null,"lat":"31.60000000","lon":"117.86667000"},{"id":19401,"name":"Chizhou","native":null,"lat":"30.66134000","lon":"117.47783000"},{"id":19402,"name":"Chizhou Shi","native":null,"lat":"30.30431000","lon":"117.41388000"},{"id":19410,"name":"Chuzhou","native":null,"lat":"32.32194000","lon":"118.29778000"},{"id":19411,"name":"Chuzhou Shi","native":null,"lat":"32.60084000","lon":"118.08813000"},{"id":19435,"name":"Datong","native":null,"lat":"32.62082000","lon":"117.06319000"},{"id":19525,"name":"Fuyang","native":null,"lat":"32.90000000","lon":"115.81667000"},{"id":19527,"name":"Fuyang Shi","native":null,"lat":"32.93718000","lon":"115.70778000"},{"id":19579,"name":"Gushu","native":null,"lat":"31.56055000","lon":"118.48147000"},{"id":19607,"name":"Hefei","native":null,"lat":"31.86389000","lon":"117.28083000"},{"id":19608,"name":"Hefei Shi","native":null,"lat":"31.94665000","lon":"117.27805000"},{"id":19636,"name":"Huaibei","native":null,"lat":"33.97444000","lon":"116.79167000"},{"id":19640,"name":"Huainan","native":null,"lat":"32.62639000","lon":"116.99694000"},{"id":19641,"name":"Huainan Shi","native":null,"lat":"32.73824000","lon":"116.78813000"},{"id":19642,"name":"Huaiyuan Chengguanzhen","native":null,"lat":"32.95893000","lon":"117.16566000"},{"id":19656,"name":"Huangshan","native":null,"lat":"29.71139000","lon":"118.31250000"},{"id":19657,"name":"Huangshan Shi","native":null,"lat":"29.89195000","lon":"118.10553000"},{"id":19685,"name":"Huoqiu Chengguanzhen","native":null,"lat":"32.35473000","lon":"116.29390000"},{"id":19721,"name":"Jieshou","native":null,"lat":"33.26338000","lon":"115.36108000"},{"id":19895,"name":"Lu’an","native":null,"lat":"31.73561000","lon":"116.51688000"},{"id":19880,"name":"Lucheng","native":null,"lat":"31.23357000","lon":"117.28057000"},{"id":19914,"name":"Mengcheng Chengguanzhen","native":null,"lat":"33.26611000","lon":"116.56605000"},{"id":19919,"name":"Mingguang","native":null,"lat":"32.78017000","lon":"117.96378000"},{"id":20144,"name":"Suixi","native":null,"lat":"33.89067000","lon":"116.77473000"},{"id":20149,"name":"Suzhou","native":null,"lat":"33.63611000","lon":"116.97889000"},{"id":20151,"name":"Suzhou Shi","native":null,"lat":"33.86970000","lon":"117.20569000"},{"id":20173,"name":"Tangzhai","native":null,"lat":"34.43278000","lon":"116.59111000"},{"id":20229,"name":"Wucheng","native":null,"lat":"29.60077000","lon":"118.17495000"},{"id":20234,"name":"Wuhu","native":null,"lat":"31.33728000","lon":"118.37351000"},{"id":20236,"name":"Wusong","native":null,"lat":"30.95000000","lon":"117.78333000"},{"id":20241,"name":"Wuyang","native":null,"lat":"31.99250000","lon":"116.24722000"},{"id":20330,"name":"Xuanzhou","native":null,"lat":"30.95250000","lon":"118.75528000"},{"id":20380,"name":"Yingshang Chengguanzhen","native":null,"lat":"32.62945000","lon":"116.27013000"}]},{"id":2257,"name":"Beijing","native":null,"cities":[{"id":19332,"name":"Beijing","native":null,"lat":"39.90750000","lon":"116.39723000"},{"id":19370,"name":"Changping","native":null,"lat":"40.21612000","lon":"116.23471000"},{"id":19439,"name":"Daxing","native":null,"lat":"39.74025000","lon":"116.32693000"},{"id":19499,"name":"Fangshan","native":null,"lat":"39.68699000","lon":"115.99658000"},{"id":19817,"name":"Liangxiang","native":null,"lat":"39.73598000","lon":"116.13295000"},{"id":19916,"name":"Mentougou","native":null,"lat":"39.93819000","lon":"116.09307000"},{"id":20126,"name":"Shunyi","native":null,"lat":"40.12175000","lon":"116.64783000"},{"id":20197,"name":"Tongzhou","native":null,"lat":"39.90395000","lon":"116.66183000"}]},{"id":2271,"name":"Chongqing","native":null,"cities":[{"id":19327,"name":"Beibei","native":null,"lat":"29.82739000","lon":"106.43645000"},{"id":19356,"name":"Caijia","native":null,"lat":"28.90889000","lon":"106.34040000"},{"id":19404,"name":"Chongqing","native":null,"lat":"29.56278000","lon":"106.55278000"},{"id":19479,"name":"Dongxi","native":null,"lat":"28.76139000","lon":"106.66111000"},{"id":19521,"name":"Fuling","native":null,"lat":"29.70600000","lon":"107.39575000"},{"id":19536,"name":"Ganshui","native":null,"lat":"28.74222000","lon":"106.71111000"},{"id":19577,"name":"Guofuchang","native":null,"lat":"28.85000000","lon":"106.60139000"},{"id":19604,"name":"Hechuan","native":null,"lat":"29.99228000","lon":"106.26461000"},{"id":19724,"name":"Jijiang","native":null,"lat":"29.28993000","lon":"106.25001000"},{"id":19815,"name":"Liangping District","native":null,"lat":"30.67409000","lon":"107.79380000"},{"id":19991,"name":"Puhechang","native":null,"lat":"28.95250000","lon":"106.83111000"},{"id":20084,"name":"Shapingba District","native":null,"lat":"29.54166000","lon":"106.45547000"},{"id":20095,"name":"Shijiaochang","native":null,"lat":"28.92444000","lon":"106.75611000"},{"id":20211,"name":"Wanxian","native":null,"lat":"30.81544000","lon":"108.37089000"},{"id":20212,"name":"Wanzhou District","native":null,"lat":"30.70576000","lon":"108.40202000"},{"id":20385,"name":"Yongchuan","native":null,"lat":"29.35376000","lon":"105.89392000"},{"id":20395,"name":"Yudong","native":null,"lat":"29.38500000","lon":"106.51944000"},{"id":20412,"name":"Yuzhong District","native":null,"lat":"29.55208000","lon":"106.53814000"}]},{"id":2248,"name":"Fujian","native":null,"cities":[{"id":19296,"name":"Badu","native":null,"lat":"26.81028000","lon":"119.56417000"},{"id":19301,"name":"Baiqi","native":null,"lat":"24.88244000","lon":"118.70869000"},{"id":19310,"name":"Baiyun","native":null,"lat":"26.03648000","lon":"118.90622000"},{"id":19334,"name":"Beishancun","native":null,"lat":"26.43732000","lon":"119.63372000"},{"id":19371,"name":"Changqiao","native":null,"lat":"26.82139000","lon":"118.84361000"},{"id":19391,"name":"Chengmen","native":null,"lat":"25.99339000","lon":"119.36136000"},{"id":19400,"name":"Chixi","native":null,"lat":"26.91111000","lon":"119.48306000"},{"id":19405,"name":"Chongru","native":null,"lat":"26.95111000","lon":"119.92528000"},{"id":19414,"name":"Dadeng","native":null,"lat":"24.54386000","lon":"118.32753000"},{"id":19417,"name":"Daixi","native":null,"lat":"26.81250000","lon":"119.11417000"},{"id":19427,"name":"Danyang","native":null,"lat":"26.35102000","lon":"119.48030000"},{"id":19429,"name":"Daqiao","native":null,"lat":"26.61500000","lon":"118.90639000"},{"id":19444,"name":"Dazuo","native":null,"lat":"24.88616000","lon":"118.96433000"},{"id":19457,"name":"Dinghaicun","native":null,"lat":"26.28022000","lon":"119.78964000"},{"id":19459,"name":"Dingtoucun","native":null,"lat":"26.83977000","lon":"119.66111000"},{"id":19462,"name":"Dongchongcun","native":null,"lat":"26.54001000","lon":"119.83257000"},{"id":19464,"name":"Dongdai","native":null,"lat":"26.24366000","lon":"119.61566000"},{"id":19469,"name":"Donghu","native":null,"lat":"26.23453000","lon":"119.51430000"},{"id":19471,"name":"Dongling","native":null,"lat":"24.98271000","lon":"118.89790000"},{"id":19482,"name":"Dongyuan","native":null,"lat":"24.91738000","lon":"118.75236000"},{"id":19502,"name":"Feiluan","native":null,"lat":"26.56250000","lon":"119.59750000"},{"id":19508,"name":"Fengpu","native":null,"lat":"26.68276000","lon":"118.76006000"},{"id":19512,"name":"Fengzhou","native":null,"lat":"24.95762000","lon":"118.53365000"},{"id":19532,"name":"Fu’an","native":null,"lat":"27.06372000","lon":"119.65280000"},{"id":19517,"name":"Fuding","native":null,"lat":"27.32734000","lon":"120.21399000"},{"id":19522,"name":"Fuqing","native":null,"lat":"25.72500000","lon":"119.37944000"},{"id":19531,"name":"Fuzhou","native":null,"lat":"26.06139000","lon":"119.30611000"},{"id":19537,"name":"Gantang","native":null,"lat":"26.92000000","lon":"119.63333000"},{"id":19566,"name":"Guantou","native":null,"lat":"26.13593000","lon":"119.56162000"},{"id":19568,"name":"Gufeng","native":null,"lat":"26.90833000","lon":"118.98194000"},{"id":19618,"name":"Hetang","native":null,"lat":"26.66276000","lon":"119.11062000"},{"id":19628,"name":"Hongtang","native":null,"lat":"26.07056000","lon":"119.23083000"},{"id":19629,"name":"Hongyang","native":null,"lat":"26.52861000","lon":"119.46250000"},{"id":19632,"name":"Houyu","native":null,"lat":"26.05958000","lon":"119.53502000"},{"id":19643,"name":"Huai’an","native":null,"lat":"26.09899000","lon":"119.22171000"},{"id":19659,"name":"Huangtian","native":null,"lat":"26.43851000","lon":"118.62398000"},{"id":19686,"name":"Huotong","native":null,"lat":"26.84972000","lon":"119.41806000"},{"id":19709,"name":"Jian’ou","native":null,"lat":"27.04694000","lon":"118.32528000"},{"id":19697,"name":"Jiangkou","native":null,"lat":"25.48694000","lon":"119.19834000"},{"id":19706,"name":"Jianjiang","native":null,"lat":"26.54972000","lon":"119.75500000"},{"id":19732,"name":"Jingfeng","native":null,"lat":"24.97441000","lon":"118.96486000"},{"id":19744,"name":"Jinjiang","native":null,"lat":"24.81978000","lon":"118.57415000"},{"id":19746,"name":"Jinjing","native":null,"lat":"24.57500000","lon":"118.59722000"},{"id":19755,"name":"Jitoucun","native":null,"lat":"26.47681000","lon":"119.60517000"},{"id":19777,"name":"Kengyuan","native":null,"lat":"26.33964000","lon":"119.76476000"},{"id":19778,"name":"Kerencun","native":null,"lat":"24.58213000","lon":"118.66046000"},{"id":19780,"name":"Kuai’an","native":null,"lat":"26.03417000","lon":"119.41639000"},{"id":19820,"name":"Lianhecun","native":null,"lat":"24.58932000","lon":"118.33903000"},{"id":19862,"name":"Liuwudiancun","native":null,"lat":"24.56923000","lon":"118.19064000"},{"id":19870,"name":"Longmen","native":null,"lat":"24.95972000","lon":"118.08889000"},{"id":19875,"name":"Longyan","native":null,"lat":"25.10722000","lon":"117.02250000"},{"id":19886,"name":"Luoqiao","native":null,"lat":"26.47265000","lon":"119.00392000"},{"id":19890,"name":"Luoyang","native":null,"lat":"24.95938000","lon":"118.68300000"},{"id":19892,"name":"Luxia","native":null,"lat":"26.93000000","lon":"118.80722000"},{"id":19907,"name":"Maping","native":null,"lat":"24.68722000","lon":"118.55278000"},{"id":19911,"name":"Meipu","native":null,"lat":"26.21120000","lon":"118.89561000"},{"id":19924,"name":"Min’an","native":null,"lat":"26.04962000","lon":"119.49964000"},{"id":19947,"name":"Nanping","native":null,"lat":"26.64500000","lon":"118.17361000"},{"id":19955,"name":"Neikeng","native":null,"lat":"24.78544000","lon":"118.46037000"},{"id":19960,"name":"Ningde","native":null,"lat":"26.66167000","lon":"119.52278000"},{"id":19971,"name":"Pandu","native":null,"lat":"26.23639000","lon":"119.45026000"},{"id":19990,"name":"Pucheng","native":null,"lat":"27.92333000","lon":"118.53333000"},{"id":19998,"name":"Putian","native":null,"lat":"25.43944000","lon":"119.01028000"},{"id":20012,"name":"Qibu","native":null,"lat":"26.50750000","lon":"119.54500000"},{"id":20013,"name":"Qidu","native":null,"lat":"26.76528000","lon":"119.54722000"},{"id":20036,"name":"Quanzhou","native":null,"lat":"24.91389000","lon":"118.58583000"},{"id":20043,"name":"Rong’an","native":null,"lat":"26.12472000","lon":"119.12139000"},{"id":20055,"name":"Sanming","native":null,"lat":"26.24861000","lon":"117.61861000"},{"id":20061,"name":"Shajiang","native":null,"lat":"26.78250000","lon":"119.96694000"},{"id":20064,"name":"Shangjie","native":null,"lat":"26.08679000","lon":"119.18494000"},{"id":20078,"name":"Shanxia","native":null,"lat":"24.93802000","lon":"118.88170000"},{"id":20079,"name":"Shanyang","native":null,"lat":"26.67019000","lon":"119.20509000"},{"id":20081,"name":"Shaowu","native":null,"lat":"27.34089000","lon":"117.48310000"},{"id":20098,"name":"Shijing","native":null,"lat":"24.61956000","lon":"118.42437000"},{"id":20102,"name":"Shima","native":null,"lat":"24.44647000","lon":"117.81216000"},{"id":20113,"name":"Shoushan","native":null,"lat":"26.96444000","lon":"119.16167000"},{"id":20118,"name":"Shuangxi","native":null,"lat":"27.02248000","lon":"119.04140000"},{"id":20121,"name":"Shuangzhu","native":null,"lat":"26.63114000","lon":"118.64570000"},{"id":20124,"name":"Shuikou","native":null,"lat":"26.38360000","lon":"118.73027000"},{"id":20169,"name":"Tangkou","native":null,"lat":"26.95417000","lon":"119.01278000"},{"id":20174,"name":"Tantou","native":null,"lat":"26.03033000","lon":"119.59739000"},{"id":20177,"name":"Tatou","native":null,"lat":"24.61732000","lon":"118.52672000"},{"id":20186,"name":"Tingjiang","native":null,"lat":"26.07401000","lon":"119.50574000"},{"id":20202,"name":"Tuzhai","native":null,"lat":"24.98301000","lon":"118.83194000"},{"id":20227,"name":"Wubao","native":null,"lat":"24.59589000","lon":"118.55359000"},{"id":20243,"name":"Wuyishan","native":null,"lat":"27.75995000","lon":"118.03066000"},{"id":20244,"name":"Wuyucun","native":null,"lat":"24.33551000","lon":"118.14489000"},{"id":20248,"name":"Xiabaishi","native":null,"lat":"26.81528000","lon":"119.67917000"},{"id":20249,"name":"Xiahu","native":null,"lat":"26.61056000","lon":"119.94833000"},{"id":20252,"name":"Xiamen","native":null,"lat":"24.47979000","lon":"118.08187000"},{"id":20253,"name":"Xiancun","native":null,"lat":"26.93861000","lon":"119.36028000"},{"id":20259,"name":"Xiangyun","native":null,"lat":"24.97111000","lon":"118.16028000"},{"id":20279,"name":"Xibing","native":null,"lat":"26.98139000","lon":"119.72472000"},{"id":20286,"name":"Xiling","native":null,"lat":"26.81444000","lon":"119.04722000"},{"id":20287,"name":"Ximei","native":null,"lat":"24.98773000","lon":"118.38580000"},{"id":20288,"name":"Xinan","native":null,"lat":"26.72000000","lon":"119.85556000"},{"id":20292,"name":"Xindian","native":null,"lat":"24.61006000","lon":"118.24068000"},{"id":20337,"name":"Yakou","native":null,"lat":"24.67194000","lon":"118.63722000"},{"id":20343,"name":"Yanghou","native":null,"lat":"26.64083000","lon":"118.50806000"},{"id":20348,"name":"Yangzhong","native":null,"lat":"26.70556000","lon":"119.37444000"},{"id":20357,"name":"Yantian","native":null,"lat":"26.85333000","lon":"119.85750000"},{"id":20377,"name":"Yingdu","native":null,"lat":"24.97167000","lon":"118.24417000"},{"id":20379,"name":"Yinglin","native":null,"lat":"24.63222000","lon":"118.58056000"},{"id":20387,"name":"Yongning","native":null,"lat":"24.68000000","lon":"118.69000000"},{"id":20404,"name":"Yushan","native":null,"lat":"26.90863000","lon":"118.56713000"},{"id":20425,"name":"Zhangwan","native":null,"lat":"26.71139000","lon":"119.59194000"},{"id":20428,"name":"Zhangzhou","native":null,"lat":"24.51333000","lon":"117.65556000"},{"id":20440,"name":"Zhenhaicun","native":null,"lat":"24.25894000","lon":"118.09186000"},{"id":20450,"name":"Zhongfang","native":null,"lat":"26.60083000","lon":"119.42583000"},{"id":20472,"name":"Zhuoyang","native":null,"lat":"26.63003000","lon":"119.02150000"},{"id":20473,"name":"Zhuqi","native":null,"lat":"26.14860000","lon":"119.10216000"}]},{"id":2275,"name":"Gansu","native":null,"cities":[{"id":19309,"name":"Baiyin","native":null,"lat":"36.54696000","lon":"104.17023000"},{"id":19330,"name":"Beidao","native":null,"lat":"34.56861000","lon":"105.89333000"},{"id":19460,"name":"Dingxi Shi","native":null,"lat":"35.03710000","lon":"104.38623000"},{"id":19622,"name":"Hezuo","native":null,"lat":"34.98556000","lon":"102.90944000"},{"id":19716,"name":"Jiayuguan","native":null,"lat":"39.81121000","lon":"98.28618000"},{"id":19728,"name":"Jinchang","native":null,"lat":"38.50062000","lon":"102.19379000"},{"id":19758,"name":"Jiuquan","native":null,"lat":"39.74318000","lon":"98.51736000"},{"id":19803,"name":"Lanzhou","native":null,"lat":"36.05701000","lon":"103.83987000"},{"id":19806,"name":"Laojunmiao","native":null,"lat":"39.83333000","lon":"97.73333000"},{"id":19854,"name":"Linxia Chengguanzhen","native":null,"lat":"35.60028000","lon":"103.20639000"},{"id":19855,"name":"Linxia Huizu Zizhizhou","native":null,"lat":"35.66597000","lon":"103.24080000"},{"id":19871,"name":"Longnan Shi","native":null,"lat":"33.53451000","lon":"105.34947000"},{"id":19908,"name":"Mawu","native":null,"lat":"34.42639000","lon":"104.91472000"},{"id":19980,"name":"Pingliang","native":null,"lat":"35.53917000","lon":"106.68611000"},{"id":20015,"name":"Qincheng","native":null,"lat":"34.58028000","lon":"105.72722000"},{"id":20026,"name":"Qingyang Shi","native":null,"lat":"36.23598000","lon":"107.58113000"},{"id":20181,"name":"Tianshui","native":null,"lat":"34.57952000","lon":"105.74238000"},{"id":20237,"name":"Wuwei","native":null,"lat":"37.92672000","lon":"102.63202000"},{"id":20426,"name":"Zhangye","native":null,"lat":"38.93417000","lon":"100.45167000"},{"id":20427,"name":"Zhangye Shi","native":null,"lat":"39.12183000","lon":"99.92495000"}]},{"id":2279,"name":"Guangdong","native":null,"cities":[{"id":19278,"name":"Anbu","native":null,"lat":"23.44895000","lon":"116.68092000"},{"id":19383,"name":"Chaozhou","native":null,"lat":"23.65396000","lon":"116.62262000"},{"id":19389,"name":"Chenghua","native":null,"lat":"23.46132000","lon":"116.77007000"},{"id":19422,"name":"Daliang","native":null,"lat":"22.84067000","lon":"113.25030000"},{"id":19426,"name":"Danshui","native":null,"lat":"22.79840000","lon":"114.46716000"},{"id":19432,"name":"Dasha","native":null,"lat":"23.11037000","lon":"113.44180000"},{"id":19467,"name":"Dongguan","native":null,"lat":"23.01797000","lon":"113.74866000"},{"id":19468,"name":"Donghai","native":null,"lat":"22.94593000","lon":"115.64204000"},{"id":19483,"name":"Ducheng","native":null,"lat":"23.24212000","lon":"111.52840000"},{"id":19490,"name":"Encheng","native":null,"lat":"22.18659000","lon":"112.30424000"},{"id":19514,"name":"Foshan","native":null,"lat":"23.02677000","lon":"113.13148000"},{"id":19515,"name":"Foshan Shi","native":null,"lat":"23.02264000","lon":"112.96302000"},{"id":19546,"name":"Gaoyao","native":null,"lat":"23.02432000","lon":"112.44555000"},{"id":19550,"name":"Gaozhou","native":null,"lat":"21.93924000","lon":"110.84607000"},{"id":19562,"name":"Guangzhou","native":null,"lat":"23.11667000","lon":"113.25000000"},{"id":19563,"name":"Guangzhou Shi","native":null,"lat":"23.37327000","lon":"113.51219000"},{"id":19586,"name":"Haikuotiankong","native":null,"lat":"22.52881000","lon":"113.93990000"},{"id":19590,"name":"Haimen","native":null,"lat":"23.19346000","lon":"116.61219000"},{"id":19617,"name":"Hepo","native":null,"lat":"23.43077000","lon":"115.82991000"},{"id":19620,"name":"Heyuan","native":null,"lat":"23.73333000","lon":"114.68333000"},{"id":19637,"name":"Huaicheng","native":null,"lat":"23.91952000","lon":"112.17629000"},{"id":19646,"name":"Huanggang","native":null,"lat":"23.67704000","lon":"116.99961000"},{"id":19669,"name":"Huazhou","native":null,"lat":"21.63333000","lon":"110.58333000"},{"id":19672,"name":"Huicheng","native":null,"lat":"23.03845000","lon":"116.28988000"},{"id":19675,"name":"Huizhou","native":null,"lat":"23.11147000","lon":"114.41523000"},{"id":19681,"name":"Humen","native":null,"lat":"22.81899000","lon":"113.67306000"},{"id":19699,"name":"Jiangmen","native":null,"lat":"22.58333000","lon":"113.08333000"},{"id":19717,"name":"Jiazi","native":null,"lat":"22.87932000","lon":"116.07318000"},{"id":19720,"name":"Jieshi","native":null,"lat":"22.81027000","lon":"115.83058000"},{"id":19723,"name":"Jieyang","native":null,"lat":"23.54180000","lon":"116.36581000"},{"id":19807,"name":"Lecheng","native":null,"lat":"25.12800000","lon":"113.35041000"},{"id":19821,"name":"Lianjiang","native":null,"lat":"21.64673000","lon":"110.28172000"},{"id":19826,"name":"Lianzhou","native":null,"lat":"24.78186000","lon":"112.37120000"},{"id":19833,"name":"Licheng","native":null,"lat":"23.29549000","lon":"113.82465000"},{"id":19879,"name":"Lubu","native":null,"lat":"23.17233000","lon":"112.28298000"},{"id":19881,"name":"Luocheng","native":null,"lat":"22.76953000","lon":"111.56882000"},{"id":19888,"name":"Luoyang","native":null,"lat":"23.16244000","lon":"114.27342000"},{"id":19898,"name":"Maba","native":null,"lat":"24.68413000","lon":"113.59839000"},{"id":19904,"name":"Maoming","native":null,"lat":"21.65000000","lon":"110.90000000"},{"id":19913,"name":"Meizhou","native":null,"lat":"24.28859000","lon":"116.11768000"},{"id":19939,"name":"Nanfeng","native":null,"lat":"23.72695000","lon":"111.79723000"},{"id":19982,"name":"Pingshan","native":null,"lat":"22.99376000","lon":"114.71311000"},{"id":19996,"name":"Puning","native":null,"lat":"23.31072000","lon":"116.16869000"},{"id":20027,"name":"Qingyuan","native":null,"lat":"23.70000000","lon":"113.03333000"},{"id":20057,"name":"Sanshui","native":null,"lat":"23.15486000","lon":"112.89161000"},{"id":20076,"name":"Shantou","native":null,"lat":"23.36814000","lon":"116.71479000"},{"id":20077,"name":"Shanwei","native":null,"lat":"22.78199000","lon":"115.34750000"},{"id":20080,"name":"Shaoguan","native":null,"lat":"24.80000000","lon":"113.58333000"},{"id":20083,"name":"Shaping","native":null,"lat":"22.77019000","lon":"112.95776000"},{"id":20091,"name":"Shenzhen","native":null,"lat":"22.55653000","lon":"113.98590000"},{"id":20101,"name":"Shilong","native":null,"lat":"23.11444000","lon":"113.84722000"},{"id":20103,"name":"Shiqi","native":null,"lat":"22.51682000","lon":"113.38521000"},{"id":20105,"name":"Shiqiao","native":null,"lat":"22.94640000","lon":"113.35769000"},{"id":20107,"name":"Shiwan","native":null,"lat":"23.00107000","lon":"113.07700000"},{"id":20108,"name":"Shixing","native":null,"lat":"24.94824000","lon":"114.06572000"},{"id":20160,"name":"Taishan","native":null,"lat":"22.25135000","lon":"112.77990000"},{"id":20170,"name":"Tangping","native":null,"lat":"22.03177000","lon":"111.93537000"},{"id":20230,"name":"Wuchuan","native":null,"lat":"21.45713000","lon":"110.76591000"},{"id":20296,"name":"Xingning","native":null,"lat":"24.14830000","lon":"115.72272000"},{"id":20299,"name":"Xinhui","native":null,"lat":"22.45600000","lon":"113.04820000"},{"id":20312,"name":"Xinyi","native":null,"lat":"22.37303000","lon":"110.94746000"},{"id":20319,"name":"Xiongzhou","native":null,"lat":"25.11667000","lon":"114.30000000"},{"id":20333,"name":"Xucheng","native":null,"lat":"20.32917000","lon":"110.16712000"},{"id":20341,"name":"Yangchun","native":null,"lat":"22.16667000","lon":"111.78333000"},{"id":20344,"name":"Yangjiang","native":null,"lat":"21.85563000","lon":"111.96272000"},{"id":20375,"name":"Yingcheng","native":null,"lat":"24.16588000","lon":"113.41267000"},{"id":20401,"name":"Yunfu","native":null,"lat":"22.92833000","lon":"112.03954000"},{"id":20429,"name":"Zhanjiang","native":null,"lat":"21.28145000","lon":"110.34271000"},{"id":20433,"name":"Zhaoqing","native":null,"lat":"23.04893000","lon":"112.46091000"},{"id":20451,"name":"Zhongshan","native":null,"lat":"21.31992000","lon":"110.57230000"},{"id":20452,"name":"Zhongshan Prefecture","native":null,"lat":"22.55358000","lon":"113.37550000"},{"id":20466,"name":"Zhuhai","native":null,"lat":"22.27694000","lon":"113.56778000"}]},{"id":2278,"name":"Guangxi Zhuang","native":null,"cities":[{"id":19295,"name":"Babu","native":null,"lat":"24.41667000","lon":"111.51667000"},{"id":19299,"name":"Baihe","native":null,"lat":"22.13430000","lon":"107.23200000"},{"id":19303,"name":"Baise City","native":null,"lat":"23.89972000","lon":"106.61333000"},{"id":19304,"name":"Baise Shi","native":null,"lat":"23.90000000","lon":"106.61667000"},{"id":19331,"name":"Beihai","native":null,"lat":"21.48333000","lon":"109.10000000"},{"id":19407,"name":"Chongzuo Shi","native":null,"lat":"22.46541000","lon":"107.39622000"},{"id":19441,"name":"Dazhai","native":null,"lat":"25.80980000","lon":"110.15000000"},{"id":19498,"name":"Fangchenggang Shi","native":null,"lat":"21.93580000","lon":"107.95932000"},{"id":19569,"name":"Guigang","native":null,"lat":"23.09639000","lon":"109.60917000"},{"id":19570,"name":"Guilin","native":null,"lat":"25.28194000","lon":"110.28639000"},{"id":19571,"name":"Guilin Shi","native":null,"lat":"25.28333000","lon":"110.28333000"},{"id":19572,"name":"Guiping","native":null,"lat":"23.39336000","lon":"110.07437000"},{"id":19603,"name":"Hechi Shi","native":null,"lat":"24.70000000","lon":"108.03000000"},{"id":19743,"name":"Jinji","native":null,"lat":"23.22806000","lon":"110.82611000"},{"id":19789,"name":"Laibin","native":null,"lat":"23.70000000","lon":"109.26667000"},{"id":19827,"name":"Lianzhou","native":null,"lat":"21.66621000","lon":"109.20116000"},{"id":19840,"name":"Lingcheng","native":null,"lat":"22.70722000","lon":"110.34917000"},{"id":19863,"name":"Liuzhou Shi","native":null,"lat":"24.31667000","lon":"109.40000000"},{"id":19887,"name":"Luorong","native":null,"lat":"24.40583000","lon":"109.60861000"},{"id":19938,"name":"Nandu","native":null,"lat":"22.85250000","lon":"110.82333000"},{"id":19945,"name":"Nanning","native":null,"lat":"22.81667000","lon":"108.31667000"},{"id":19981,"name":"Pingnan","native":null,"lat":"23.54218000","lon":"110.38946000"},{"id":19995,"name":"Pumiao","native":null,"lat":"22.75867000","lon":"108.48111000"},{"id":20031,"name":"Qinzhou","native":null,"lat":"21.97296000","lon":"108.62612000"},{"id":20247,"name":"Wuzhou","native":null,"lat":"23.48333000","lon":"111.31667000"},{"id":20346,"name":"Yangshuo","native":null,"lat":"24.78081000","lon":"110.48967000"},{"id":20361,"name":"Yashan","native":null,"lat":"22.19750000","lon":"109.94194000"},{"id":20398,"name":"Yulin","native":null,"lat":"22.63333000","lon":"110.15000000"}]},{"id":2261,"name":"Guizhou","native":null,"cities":[{"id":19288,"name":"Anshun","native":null,"lat":"26.25000000","lon":"105.93333000"},{"id":19292,"name":"Aoshi","native":null,"lat":"26.40167000","lon":"109.07111000"},{"id":19297,"name":"Bahuang","native":null,"lat":"27.71806000","lon":"109.01889000"},{"id":19307,"name":"Baishi","native":null,"lat":"26.97361000","lon":"109.44333000"},{"id":19313,"name":"Bangdong","native":null,"lat":"26.97556000","lon":"109.18583000"},{"id":19337,"name":"Benchu","native":null,"lat":"26.77111000","lon":"109.29056000"},{"id":19341,"name":"Bijie","native":null,"lat":"27.30193000","lon":"105.28627000"},{"id":19360,"name":"Chadian","native":null,"lat":"27.58194000","lon":"109.13278000"},{"id":19373,"name":"Changsha","native":null,"lat":"28.68778000","lon":"105.98972000"},{"id":19408,"name":"Chumi","native":null,"lat":"28.23361000","lon":"106.83278000"},{"id":19412,"name":"Dabachang","native":null,"lat":"27.74250000","lon":"108.34333000"},{"id":19431,"name":"Darong","native":null,"lat":"25.78500000","lon":"108.86400000"},{"id":19484,"name":"Dundong","native":null,"lat":"26.01190000","lon":"109.14100000"},{"id":19487,"name":"Duyun","native":null,"lat":"26.26667000","lon":"107.51667000"},{"id":19542,"name":"Gaoniang","native":null,"lat":"26.84250000","lon":"109.17889000"},{"id":19545,"name":"Gaowu","native":null,"lat":"25.56250000","lon":"108.90800000"},{"id":19549,"name":"Gaozeng","native":null,"lat":"25.80167000","lon":"108.93750000"},{"id":19558,"name":"Guandu","native":null,"lat":"28.56833000","lon":"106.10255000"},{"id":19575,"name":"Guiyang","native":null,"lat":"26.58333000","lon":"106.71667000"},{"id":19666,"name":"Huaqiu","native":null,"lat":"28.11665000","lon":"106.60225000"},{"id":19800,"name":"Lantian","native":null,"lat":"27.02500000","lon":"109.29472000"},{"id":19813,"name":"Liangcunchang","native":null,"lat":"28.40667000","lon":"106.42444000"},{"id":19861,"name":"Liupanshui","native":null,"lat":"26.59444000","lon":"104.83333000"},{"id":19869,"name":"Longlisuo","native":null,"lat":"26.41417000","lon":"109.10222000"},{"id":19877,"name":"Loushanguan","native":null,"lat":"28.13680000","lon":"106.82200000"},{"id":19906,"name":"Maoping","native":null,"lat":"26.73694000","lon":"109.22111000"},{"id":19970,"name":"Ouyang","native":null,"lat":"26.41910000","lon":"109.21600000"},{"id":19979,"name":"Pingjiang","native":null,"lat":"25.97056000","lon":"108.39528000"},{"id":20007,"name":"Qiandongnan Miao and Dong Autonomous Prefecture","native":null,"lat":"26.57380000","lon":"108.59914000"},{"id":20009,"name":"Qianxinan Bouyeizu Miaozu Zizhizhou","native":null,"lat":"25.38808000","lon":"105.38740000"},{"id":20014,"name":"Qimeng","native":null,"lat":"26.48472000","lon":"108.99944000"},{"id":20019,"name":"Qinglang","native":null,"lat":"27.12472000","lon":"108.73278000"},{"id":20046,"name":"Runsong","native":null,"lat":"26.87000000","lon":"109.09700000"},{"id":20051,"name":"Sanchahe","native":null,"lat":"28.49528000","lon":"106.42833000"},{"id":20053,"name":"Sangmu","native":null,"lat":"28.21528000","lon":"106.26889000"},{"id":20104,"name":"Shiqian","native":null,"lat":"27.52250000","lon":"108.22806000"},{"id":20134,"name":"Songkan","native":null,"lat":"28.54972000","lon":"106.85972000"},{"id":20185,"name":"Tingdong","native":null,"lat":"25.82444000","lon":"108.61250000"},{"id":20189,"name":"Tonggu","native":null,"lat":"26.57222000","lon":"109.30944000"},{"id":20193,"name":"Tongren","native":null,"lat":"27.71722000","lon":"109.18528000"},{"id":20194,"name":"Tongren Diqu","native":null,"lat":"27.74188000","lon":"109.19312000"},{"id":20216,"name":"Weining","native":null,"lat":"26.85000000","lon":"104.23333000"},{"id":20224,"name":"Wenshui","native":null,"lat":"28.45056000","lon":"106.52667000"},{"id":20250,"name":"Xiajiang","native":null,"lat":"25.75556000","lon":"108.69194000"},{"id":20276,"name":"Xiaoweizhai","native":null,"lat":"26.19028000","lon":"107.51250000"},{"id":20315,"name":"Xinzhan","native":null,"lat":"28.38833000","lon":"106.85667000"},{"id":20321,"name":"Xishan","native":null,"lat":"25.68528000","lon":"108.96389000"},{"id":20334,"name":"Xujiaba","native":null,"lat":"27.88472000","lon":"108.11361000"},{"id":20347,"name":"Yangtou","native":null,"lat":"27.68944000","lon":"109.41389000"},{"id":20390,"name":"Youyupu","native":null,"lat":"27.55170000","lon":"109.13500000"},{"id":20448,"name":"Zhongchao","native":null,"lat":"26.13750000","lon":"109.22000000"},{"id":20468,"name":"Zhujiachang","native":null,"lat":"27.35750000","lon":"108.93833000"},{"id":20483,"name":"Zunyi","native":null,"lat":"27.68667000","lon":"106.90722000"}]},{"id":2273,"name":"Hainan","native":null,"cities":[{"id":19321,"name":"Basuo","native":null,"lat":"19.09390000","lon":"108.65456000"},{"id":19406,"name":"Chongshan","native":null,"lat":"18.78229000","lon":"109.50130000"},{"id":19415,"name":"Dadonghai","native":null,"lat":"18.22056000","lon":"109.51028000"},{"id":19584,"name":"Haikou","native":null,"lat":"20.04583000","lon":"110.34167000"},{"id":19745,"name":"Jinjiang","native":null,"lat":"19.72878000","lon":"110.00851000"},{"id":19837,"name":"Lincheng","native":null,"lat":"19.90778000","lon":"109.68583000"},{"id":19932,"name":"Nada","native":null,"lat":"19.52257000","lon":"109.57860000"},{"id":20032,"name":"Qionghai","native":null,"lat":"19.24250000","lon":"110.46417000"},{"id":20034,"name":"Qiongshan","native":null,"lat":"20.00583000","lon":"110.35417000"},{"id":20056,"name":"Sansha","native":null,"lat":"16.83387000","lon":"112.33435000"},{"id":20058,"name":"Sanya","native":null,"lat":"18.24306000","lon":"109.50500000"},{"id":20209,"name":"Wanning","native":null,"lat":"18.79931000","lon":"110.38410000"},{"id":20217,"name":"Wenchang","native":null,"lat":"19.61570000","lon":"110.74894000"},{"id":20325,"name":"Xiuying","native":null,"lat":"20.00073000","lon":"110.29359000"}]},{"id":2280,"name":"Hebei","native":null,"cities":[{"id":19314,"name":"Baoding","native":null,"lat":"38.85111000","lon":"115.49028000"},{"id":19329,"name":"Beidaihehaibin","native":null,"lat":"39.82222000","lon":"119.51806000"},{"id":19349,"name":"Botou","native":null,"lat":"38.06667000","lon":"116.56660000"},{"id":19357,"name":"Cangzhou","native":null,"lat":"38.31667000","lon":"116.86667000"},{"id":19358,"name":"Cangzhou Shi","native":null,"lat":"38.31000000","lon":"116.86000000"},{"id":19368,"name":"Changli","native":null,"lat":"39.70417000","lon":"119.15056000"},{"id":19385,"name":"Chengde","native":null,"lat":"40.95190000","lon":"117.95883000"},{"id":19386,"name":"Chengde Prefecture","native":null,"lat":"40.97000000","lon":"117.93000000"},{"id":19461,"name":"Dingzhou","native":null,"lat":"38.51306000","lon":"114.99556000"},{"id":19509,"name":"Fengrun","native":null,"lat":"39.83333000","lon":"118.11667000"},{"id":19581,"name":"Guye","native":null,"lat":"39.73054000","lon":"118.44085000"},{"id":19597,"name":"Handan","native":null,"lat":"36.60056000","lon":"114.46778000"},{"id":19605,"name":"Hecun","native":null,"lat":"36.53333000","lon":"114.11111000"},{"id":19614,"name":"Hengshui","native":null,"lat":"37.73222000","lon":"115.70111000"},{"id":19794,"name":"Langfang","native":null,"lat":"39.50972000","lon":"116.69472000"},{"id":19795,"name":"Langfang Shi","native":null,"lat":"39.51667000","lon":"116.68333000"},{"id":19851,"name":"Linshui","native":null,"lat":"36.42472000","lon":"114.20472000"},{"id":19853,"name":"Linxi","native":null,"lat":"39.71183000","lon":"118.44954000"},{"id":19878,"name":"Luancheng","native":null,"lat":"37.87917000","lon":"114.65167000"},{"id":19940,"name":"Nangong","native":null,"lat":"37.35806000","lon":"115.37444000"},{"id":19976,"name":"Pengcheng","native":null,"lat":"36.43111000","lon":"114.17000000"},{"id":20029,"name":"Qinhuangdao","native":null,"lat":"39.93167000","lon":"119.58833000"},{"id":20040,"name":"Renqiu","native":null,"lat":"38.69889000","lon":"116.09361000"},{"id":20060,"name":"Shahecheng","native":null,"lat":"36.93833000","lon":"114.50583000"},{"id":20071,"name":"Shanhaiguan","native":null,"lat":"40.00250000","lon":"119.74889000"},{"id":20096,"name":"Shijiazhuang","native":null,"lat":"38.04139000","lon":"114.47861000"},{"id":20097,"name":"Shijiazhuang Shi","native":null,"lat":"38.04000000","lon":"114.47000000"},{"id":20135,"name":"Songling","native":null,"lat":"40.29303000","lon":"118.26908000"},{"id":20168,"name":"Tangjiazhuang","native":null,"lat":"39.74326000","lon":"118.45099000"},{"id":20171,"name":"Tangshan","native":null,"lat":"39.63333000","lon":"118.18333000"},{"id":20172,"name":"Tangshan Shi","native":null,"lat":"39.63000000","lon":"118.18000000"},{"id":20178,"name":"Tianchang","native":null,"lat":"37.99806000","lon":"114.01556000"},{"id":20297,"name":"Xingtai","native":null,"lat":"37.06306000","lon":"114.49417000"},{"id":20301,"name":"Xinji","native":null,"lat":"37.90278000","lon":"115.20361000"},{"id":20422,"name":"Zhangjiakou","native":null,"lat":"40.81000000","lon":"114.87944000"},{"id":20423,"name":"Zhangjiakou Shi","native":null,"lat":"40.83333000","lon":"114.93333000"},{"id":20424,"name":"Zhangjiakou Shi Xuanhua Qu","native":null,"lat":"40.61028000","lon":"115.04472000"},{"id":20432,"name":"Zhaogezhuang","native":null,"lat":"39.76538000","lon":"118.41191000"},{"id":20482,"name":"Zunhua","native":null,"lat":"40.17917000","lon":"117.95861000"}]},{"id":2265,"name":"Heilongjiang","native":null,"cities":[{"id":19272,"name":"Acheng","native":null,"lat":"45.54545000","lon":"126.97703000"},{"id":19279,"name":"Anda","native":null,"lat":"46.40202000","lon":"125.31454000"},{"id":19302,"name":"Baiquan","native":null,"lat":"47.60605000","lon":"126.08481000"},{"id":19312,"name":"Bamiantong","native":null,"lat":"44.91738000","lon":"130.52000000"},{"id":19316,"name":"Baoqing","native":null,"lat":"46.33167000","lon":"132.21111000"},{"id":19317,"name":"Baoshan","native":null,"lat":"46.55861000","lon":"131.42444000"},{"id":19322,"name":"Bayan","native":null,"lat":"46.07556000","lon":"127.39840000"},{"id":19336,"name":"Bei’an","native":null,"lat":"48.26667000","lon":"126.60000000"},{"id":19344,"name":"Binzhou","native":null,"lat":"45.75281000","lon":"127.47986000"},{"id":19347,"name":"Boli","native":null,"lat":"45.75279000","lon":"130.57211000"},{"id":19361,"name":"Chaihe","native":null,"lat":"44.75980000","lon":"129.67826000"},{"id":19397,"name":"Chengzihe","native":null,"lat":"45.33333000","lon":"131.06667000"},{"id":19430,"name":"Daqing","native":null,"lat":"46.58333000","lon":"125.00000000"},{"id":19473,"name":"Dongning","native":null,"lat":"44.06219000","lon":"131.12075000"},{"id":19480,"name":"Dongxing","native":null,"lat":"45.36088000","lon":"130.78679000"},{"id":19503,"name":"Fendou","native":null,"lat":"46.64142000","lon":"124.86283000"},{"id":19511,"name":"Fengxiang","native":null,"lat":"47.57549000","lon":"130.82306000"},{"id":19518,"name":"Fujin","native":null,"lat":"47.26000000","lon":"132.03222000"},{"id":19520,"name":"Fuli","native":null,"lat":"46.72167000","lon":"131.13944000"},{"id":19528,"name":"Fuyu","native":null,"lat":"47.79756000","lon":"124.45731000"},{"id":19530,"name":"Fuyuan","native":null,"lat":"48.36306000","lon":"134.28917000"},{"id":19535,"name":"Gannan","native":null,"lat":"47.91472000","lon":"123.50306000"},{"id":19588,"name":"Hailin","native":null,"lat":"44.57149000","lon":"129.38539000"},{"id":19589,"name":"Hailun","native":null,"lat":"47.45650000","lon":"126.95368000"},{"id":19601,"name":"Harbin","native":null,"lat":"45.75000000","lon":"126.65000000"},{"id":19609,"name":"Hegang","native":null,"lat":"47.35118000","lon":"130.30012000"},{"id":19610,"name":"Heihe","native":null,"lat":"50.24413000","lon":"127.49016000"},{"id":19624,"name":"Honggang","native":null,"lat":"46.40124000","lon":"124.88322000"},{"id":19645,"name":"Huanan","native":null,"lat":"46.22070000","lon":"130.52500000"},{"id":19676,"name":"Hulan","native":null,"lat":"45.98333000","lon":"126.60000000"},{"id":19677,"name":"Hulan Ergi","native":null,"lat":"47.20417000","lon":"123.63333000"},{"id":19694,"name":"Jiamusi","native":null,"lat":"46.79927000","lon":"130.31633000"},{"id":19718,"name":"Jidong","native":null,"lat":"45.21667000","lon":"131.08333000"},{"id":19760,"name":"Jixi","native":null,"lat":"45.30109000","lon":"130.95718000"},{"id":19797,"name":"Langxiang","native":null,"lat":"46.94985000","lon":"128.86849000"},{"id":19802,"name":"Lanxi","native":null,"lat":"46.25785000","lon":"126.28269000"},{"id":19819,"name":"Lianhe","native":null,"lat":"47.13333000","lon":"129.27426000"},{"id":19841,"name":"Lingdong","native":null,"lat":"46.56694000","lon":"131.14528000"},{"id":19847,"name":"Linkou","native":null,"lat":"45.28606000","lon":"130.26151000"},{"id":19865,"name":"Longfeng","native":null,"lat":"46.53168000","lon":"125.10380000"},{"id":19867,"name":"Longjiang","native":null,"lat":"47.33072000","lon":"123.17816000"},{"id":19921,"name":"Mingshui","native":null,"lat":"47.18150000","lon":"125.90027000"},{"id":19925,"name":"Mishan","native":null,"lat":"45.55000000","lon":"131.88333000"},{"id":19929,"name":"Mudanjiang","native":null,"lat":"44.58333000","lon":"129.60000000"},{"id":19953,"name":"Nehe","native":null,"lat":"48.48333000","lon":"124.83333000"},{"id":19956,"name":"Nenjiang","native":null,"lat":"49.17414000","lon":"125.21774000"},{"id":19958,"name":"Nianzishan","native":null,"lat":"47.51667000","lon":"122.88333000"},{"id":19964,"name":"Ning’an","native":null,"lat":"44.34395000","lon":"129.46556000"},{"id":20017,"name":"Qinggang","native":null,"lat":"46.68469000","lon":"126.10595000"},{"id":20035,"name":"Qiqihar","native":null,"lat":"47.34088000","lon":"123.96045000"},{"id":20070,"name":"Shangzhi","native":null,"lat":"45.21406000","lon":"127.97426000"},{"id":20072,"name":"Shanhecun","native":null,"lat":"45.71131000","lon":"128.58029000"},{"id":20114,"name":"Shuangcheng","native":null,"lat":"45.35000000","lon":"126.28333000"},{"id":20120,"name":"Shuangyashan","native":null,"lat":"46.63611000","lon":"131.15389000"},{"id":20140,"name":"Suifenhe","native":null,"lat":"44.39982000","lon":"131.14775000"},{"id":20141,"name":"Suihua","native":null,"lat":"46.63954000","lon":"126.99508000"},{"id":20142,"name":"Suileng","native":null,"lat":"47.24805000","lon":"127.09535000"},{"id":20154,"name":"Tahe","native":null,"lat":"52.33333000","lon":"124.73333000"},{"id":20156,"name":"Taihecun","native":null,"lat":"45.76347000","lon":"130.85048000"},{"id":20157,"name":"Taikang","native":null,"lat":"46.86135000","lon":"124.44200000"},{"id":20158,"name":"Tailai","native":null,"lat":"46.38909000","lon":"123.41371000"},{"id":20182,"name":"Tieli","native":null,"lat":"46.98043000","lon":"128.04497000"},{"id":20207,"name":"Wangkui","native":null,"lat":"46.83283000","lon":"126.47768000"},{"id":20228,"name":"Wuchang","native":null,"lat":"44.91428000","lon":"127.15001000"},{"id":20304,"name":"Xinqing","native":null,"lat":"48.28701000","lon":"129.52337000"},{"id":20370,"name":"Yichun","native":null,"lat":"47.72143000","lon":"128.87529000"},{"id":20372,"name":"Yilan","native":null,"lat":"46.31618000","lon":"129.55455000"},{"id":20389,"name":"Youhao","native":null,"lat":"47.85306000","lon":"128.83565000"},{"id":20431,"name":"Zhaodong","native":null,"lat":"46.06771000","lon":"125.98263000"},{"id":20436,"name":"Zhaoyuan","native":null,"lat":"45.50000000","lon":"125.13333000"},{"id":20437,"name":"Zhaozhou","native":null,"lat":"45.68333000","lon":"125.31667000"}]},{"id":2259,"name":"Henan","native":null,"cities":[{"id":19290,"name":"Anyang","native":null,"lat":"36.09600000","lon":"114.38278000"},{"id":19291,"name":"Anyang Shi","native":null,"lat":"36.13639000","lon":"114.33667000"},{"id":19342,"name":"Binhe","native":null,"lat":"32.68833000","lon":"112.82750000"},{"id":19388,"name":"Chengguan","native":null,"lat":"35.45861000","lon":"113.79778000"},{"id":19390,"name":"Chengjiao","native":null,"lat":"35.40495000","lon":"114.06043000"},{"id":19428,"name":"Daokou","native":null,"lat":"35.56389000","lon":"114.50583000"},{"id":19456,"name":"Dingcheng","native":null,"lat":"32.12722000","lon":"115.03944000"},{"id":19594,"name":"Hancheng","native":null,"lat":"32.51861000","lon":"112.35222000"},{"id":19602,"name":"Hebi","native":null,"lat":"35.89917000","lon":"114.19250000"},{"id":19638,"name":"Huaidian","native":null,"lat":"33.43333000","lon":"115.03333000"},{"id":19670,"name":"Huazhou","native":null,"lat":"32.68222000","lon":"112.08194000"},{"id":19671,"name":"Huichang","native":null,"lat":"34.90376000","lon":"112.78426000"},{"id":19708,"name":"Jianshe","native":null,"lat":"34.21750000","lon":"113.76889000"},{"id":19712,"name":"Jiaozuo","native":null,"lat":"35.23972000","lon":"113.23306000"},{"id":19754,"name":"Jishui","native":null,"lat":"33.73333000","lon":"115.40000000"},{"id":19761,"name":"Jiyuan","native":null,"lat":"35.09000000","lon":"112.58000000"},{"id":19766,"name":"Kaifeng","native":null,"lat":"34.79860000","lon":"114.30742000"},{"id":19769,"name":"Kaiyuan","native":null,"lat":"36.06813000","lon":"113.82209000"},{"id":19839,"name":"Lingbao Chengguanzhen","native":null,"lat":"34.51972000","lon":"110.86444000"},{"id":19883,"name":"Luohe","native":null,"lat":"33.56394000","lon":"114.04272000"},{"id":19884,"name":"Luohe Shi","native":null,"lat":"33.68806000","lon":"113.91306000"},{"id":19889,"name":"Luoyang","native":null,"lat":"34.68361000","lon":"112.45361000"},{"id":19918,"name":"Minggang","native":null,"lat":"32.45861000","lon":"114.04861000"},{"id":19950,"name":"Nanyang","native":null,"lat":"32.99472000","lon":"112.53278000"},{"id":19977,"name":"Pingdingshan","native":null,"lat":"33.73847000","lon":"113.30119000"},{"id":20000,"name":"Puyang Chengguanzhen","native":null,"lat":"35.70506000","lon":"115.01409000"},{"id":20001,"name":"Puyang Shi","native":null,"lat":"35.81333000","lon":"115.15500000"},{"id":20021,"name":"Qingping","native":null,"lat":"34.53656000","lon":"113.37526000"},{"id":20045,"name":"Runing","native":null,"lat":"33.00111000","lon":"114.35417000"},{"id":20048,"name":"Ruzhou","native":null,"lat":"34.16167000","lon":"112.82972000"},{"id":20066,"name":"Shangqiu","native":null,"lat":"34.45000000","lon":"115.65000000"},{"id":20137,"name":"Songyang","native":null,"lat":"34.45528000","lon":"113.02806000"},{"id":20147,"name":"Suohe","native":null,"lat":"34.78722000","lon":"113.35806000"},{"id":20166,"name":"Tanbei","native":null,"lat":"35.08806000","lon":"112.93944000"},{"id":20205,"name":"Wacheng","native":null,"lat":"33.78333000","lon":"114.51667000"},{"id":20254,"name":"Xiangcheng Chengguanzhen","native":null,"lat":"33.84703000","lon":"113.47780000"},{"id":20289,"name":"Xincheng","native":null,"lat":"33.63333000","lon":"115.18333000"},{"id":20298,"name":"Xinhualu","native":null,"lat":"34.39633000","lon":"113.72466000"},{"id":20308,"name":"Xinxiang","native":null,"lat":"35.19033000","lon":"113.80151000"},{"id":20309,"name":"Xinxiang Shi","native":null,"lat":"35.30861000","lon":"114.05111000"},{"id":20311,"name":"Xinyang","native":null,"lat":"32.12278000","lon":"114.06556000"},{"id":20327,"name":"Xixiang","native":null,"lat":"35.16278000","lon":"112.86500000"},{"id":20331,"name":"Xuchang","native":null,"lat":"34.03189000","lon":"113.86299000"},{"id":20332,"name":"Xuchang Shi","native":null,"lat":"34.14778000","lon":"113.71472000"},{"id":20338,"name":"Yakou","native":null,"lat":"33.29649000","lon":"113.52351000"},{"id":20354,"name":"Yanshi Chengguanzhen","native":null,"lat":"34.71601000","lon":"112.79568000"},{"id":20371,"name":"Yigou","native":null,"lat":"35.81139000","lon":"114.31667000"},{"id":20373,"name":"Yima","native":null,"lat":"34.73806000","lon":"111.88389000"},{"id":20376,"name":"Yingchuan","native":null,"lat":"34.16278000","lon":"113.46389000"},{"id":20403,"name":"Yunyang","native":null,"lat":"33.44743000","lon":"112.71422000"},{"id":20439,"name":"Zhengzhou","native":null,"lat":"34.75778000","lon":"113.64861000"},{"id":20460,"name":"Zhoukou","native":null,"lat":"33.63333000","lon":"114.63333000"},{"id":20470,"name":"Zhumadian","native":null,"lat":"32.97944000","lon":"114.02944000"},{"id":20471,"name":"Zhumadian Shi","native":null,"lat":"32.99417000","lon":"114.06167000"},{"id":20480,"name":"Zijinglu","native":null,"lat":"34.76000000","lon":"112.97139000"}]},{"id":2267,"name":"Hong Kong SAR","native":null,"cities":[]},{"id":2274,"name":"Hubei","native":null,"cities":[{"id":19282,"name":"Anlu","native":null,"lat":"31.25750000","lon":"113.67833000"},{"id":19353,"name":"Buhe","native":null,"lat":"30.28757000","lon":"112.22979000"},{"id":19355,"name":"Caidian","native":null,"lat":"30.58333000","lon":"114.03333000"},{"id":19359,"name":"Caohe","native":null,"lat":"30.22970000","lon":"115.43346000"},{"id":19396,"name":"Chengzhong","native":null,"lat":"30.94454000","lon":"113.55284000"},{"id":19425,"name":"Danjiangkou","native":null,"lat":"32.54278000","lon":"111.50861000"},{"id":19440,"name":"Daye","native":null,"lat":"30.08333000","lon":"114.95000000"},{"id":19486,"name":"Duobao","native":null,"lat":"30.67000000","lon":"112.68952000"},{"id":19491,"name":"Enshi","native":null,"lat":"30.30000000","lon":"109.48333000"},{"id":19492,"name":"Enshi Tujiazu Miaozu Zizhizhou","native":null,"lat":"30.19810000","lon":"109.67555000"},{"id":19495,"name":"Ezhou","native":null,"lat":"30.40000000","lon":"114.83333000"},{"id":19496,"name":"Ezhou Shi","native":null,"lat":"30.48832000","lon":"114.77979000"},{"id":19507,"name":"Fengkou","native":null,"lat":"30.08268000","lon":"113.33346000"},{"id":19560,"name":"Guangshui","native":null,"lat":"31.61990000","lon":"113.99780000"},{"id":19567,"name":"Gucheng Chengguanzhen","native":null,"lat":"32.26604000","lon":"111.63476000"},{"id":19596,"name":"Hanchuan","native":null,"lat":"30.65000000","lon":"113.76667000"},{"id":19647,"name":"Huanggang","native":null,"lat":"30.45143000","lon":"114.87035000"},{"id":19651,"name":"Huangmei","native":null,"lat":"30.19235000","lon":"116.02496000"},{"id":19654,"name":"Huangpi","native":null,"lat":"30.88453000","lon":"114.37789000"},{"id":19658,"name":"Huangshi","native":null,"lat":"30.24706000","lon":"115.04814000"},{"id":19663,"name":"Huangzhou","native":null,"lat":"30.45000000","lon":"114.80000000"},{"id":19735,"name":"Jingling","native":null,"lat":"30.65000000","lon":"113.10000000"},{"id":19736,"name":"Jingmen","native":null,"lat":"31.03361000","lon":"112.20472000"},{"id":19737,"name":"Jingmen Shi","native":null,"lat":"31.11244000","lon":"112.64310000"},{"id":19738,"name":"Jingzhou","native":null,"lat":"30.35028000","lon":"112.19028000"},{"id":19805,"name":"Laohekou","native":null,"lat":"32.38583000","lon":"111.66778000"},{"id":19834,"name":"Lichuan","native":null,"lat":"30.30000000","lon":"108.85000000"},{"id":19900,"name":"Macheng","native":null,"lat":"31.18013000","lon":"115.02213000"},{"id":19951,"name":"Nanzhang Chengguanzhen","native":null,"lat":"31.78394000","lon":"111.82752000"},{"id":19997,"name":"Puqi","native":null,"lat":"29.71667000","lon":"113.88333000"},{"id":20008,"name":"Qianjiang","native":null,"lat":"30.42100000","lon":"112.89190000"},{"id":20022,"name":"Qingquan","native":null,"lat":"30.45113000","lon":"115.25593000"},{"id":20085,"name":"Shashi","native":null,"lat":"30.30722000","lon":"112.24472000"},{"id":20089,"name":"Shennongjia","native":null,"lat":"31.58339000","lon":"110.49720000"},{"id":20109,"name":"Shiyan","native":null,"lat":"32.64750000","lon":"110.77806000"},{"id":20145,"name":"Suizhou","native":null,"lat":"31.71111000","lon":"113.36306000"},{"id":20233,"name":"Wuhan","native":null,"lat":"30.58333000","lon":"114.26667000"},{"id":20240,"name":"Wuxue","native":null,"lat":"29.85058000","lon":"115.55250000"},{"id":20258,"name":"Xiangyang","native":null,"lat":"32.04220000","lon":"112.14479000"},{"id":20261,"name":"Xianning","native":null,"lat":"29.84347000","lon":"114.32201000"},{"id":20262,"name":"Xianning Prefecture","native":null,"lat":"29.66609000","lon":"114.26389000"},{"id":20266,"name":"Xiantao","native":null,"lat":"30.37080000","lon":"113.44294000"},{"id":20269,"name":"Xiaogan","native":null,"lat":"30.92689000","lon":"113.92221000"},{"id":20282,"name":"Xihe","native":null,"lat":"31.68635000","lon":"113.46585000"},{"id":20290,"name":"Xindi","native":null,"lat":"29.81667000","lon":"113.46667000"},{"id":20305,"name":"Xinshi","native":null,"lat":"31.04704000","lon":"113.14098000"},{"id":20317,"name":"Xinzhou","native":null,"lat":"30.86667000","lon":"114.80000000"},{"id":20323,"name":"Xiulin","native":null,"lat":"29.71667000","lon":"112.40000000"},{"id":20366,"name":"Yichang","native":null,"lat":"30.71444000","lon":"111.28472000"},{"id":20367,"name":"Yicheng","native":null,"lat":"31.70472000","lon":"112.25611000"},{"id":20402,"name":"Yunmeng Chengguanzhen","native":null,"lat":"31.06251000","lon":"113.76545000"},{"id":20414,"name":"Zaoyang","native":null,"lat":"32.12722000","lon":"112.75417000"},{"id":20445,"name":"Zhicheng","native":null,"lat":"30.29556000","lon":"111.50472000"},{"id":20446,"name":"Zhijiang","native":null,"lat":"30.42139000","lon":"111.75333000"},{"id":20455,"name":"Zhongxiang","native":null,"lat":"31.16611000","lon":"112.58306000"}]},{"id":2258,"name":"Hunan","native":null,"cities":[{"id":19280,"name":"Anjiang","native":null,"lat":"27.31944000","lon":"110.10306000"},{"id":19283,"name":"Anping","native":null,"lat":"27.86639000","lon":"110.11611000"},{"id":19289,"name":"Anxiang","native":null,"lat":"29.40000000","lon":"112.15000000"},{"id":19305,"name":"Baisha","native":null,"lat":"26.52222000","lon":"110.93111000"},{"id":19345,"name":"Biyong","native":null,"lat":"27.18722000","lon":"109.51000000"},{"id":19346,"name":"Bojia","native":null,"lat":"26.46722000","lon":"111.96806000"},{"id":19350,"name":"Boyang","native":null,"lat":"26.21167000","lon":"109.52056000"},{"id":19352,"name":"Bozhou","native":null,"lat":"27.37889000","lon":"109.27778000"},{"id":19364,"name":"Changde","native":null,"lat":"29.04638000","lon":"111.67830000"},{"id":19374,"name":"Changsha","native":null,"lat":"28.19874000","lon":"112.97087000"},{"id":19375,"name":"Changsha Shi","native":null,"lat":"28.14582000","lon":"113.22967000"},{"id":19384,"name":"Chatian","native":null,"lat":"27.80222000","lon":"109.37361000"},{"id":19398,"name":"Chenzhou","native":null,"lat":"25.80000000","lon":"113.03333000"},{"id":19413,"name":"Dabaozi","native":null,"lat":"26.69556000","lon":"109.44778000"},{"id":19445,"name":"Dehang","native":null,"lat":"28.30710000","lon":"109.79668000"},{"id":19449,"name":"Dengjiapu","native":null,"lat":"26.90444000","lon":"110.92000000"},{"id":19451,"name":"Dengyuantai","native":null,"lat":"26.68806000","lon":"110.54222000"},{"id":19474,"name":"Dongshan Dongzuxiang","native":null,"lat":"26.59500000","lon":"109.89667000"},{"id":19506,"name":"Fenghuang","native":null,"lat":"27.93557000","lon":"109.59961000"},{"id":19534,"name":"Gangdong","native":null,"lat":"27.91694000","lon":"110.83417000"},{"id":19544,"name":"Gaoqiao","native":null,"lat":"26.63361000","lon":"110.90000000"},{"id":19547,"name":"Gaoyi","native":null,"lat":"26.95944000","lon":"110.01556000"},{"id":19565,"name":"Guankou","native":null,"lat":"28.15861000","lon":"113.62709000"},{"id":19613,"name":"Hengbanqiao","native":null,"lat":"27.17167000","lon":"110.86528000"},{"id":19615,"name":"Hengyang","native":null,"lat":"26.88946000","lon":"112.61888000"},{"id":19619,"name":"Hexiangqiao","native":null,"lat":"27.22028000","lon":"110.96333000"},{"id":19626,"name":"Hongjiang","native":null,"lat":"27.11000000","lon":"109.99556000"},{"id":19627,"name":"Hongqiao","native":null,"lat":"26.76837000","lon":"112.10814000"},{"id":19639,"name":"Huaihua","native":null,"lat":"27.56337000","lon":"110.00404000"},{"id":19648,"name":"Huangjinjing","native":null,"lat":"27.58563000","lon":"110.89133000"},{"id":19649,"name":"Huanglong","native":null,"lat":"26.54139000","lon":"110.93444000"},{"id":19650,"name":"Huangmaoyuan","native":null,"lat":"27.40417000","lon":"110.47472000"},{"id":19655,"name":"Huangqiao","native":null,"lat":"27.02194000","lon":"110.84056000"},{"id":19660,"name":"Huangtukuang","native":null,"lat":"26.91528000","lon":"110.40778000"},{"id":19661,"name":"Huangxikou","native":null,"lat":"27.71889000","lon":"110.38500000"},{"id":19665,"name":"Huaqiao","native":null,"lat":"27.70806000","lon":"110.14194000"},{"id":19668,"name":"Huayuan","native":null,"lat":"26.91361000","lon":"110.53583000"},{"id":19684,"name":"Huomachong","native":null,"lat":"27.88333000","lon":"110.23000000"},{"id":19696,"name":"Jiangfang","native":null,"lat":"26.50158000","lon":"110.34640000"},{"id":19698,"name":"Jiangkouxu","native":null,"lat":"27.69417000","lon":"109.73583000"},{"id":19700,"name":"Jiangshi","native":null,"lat":"27.12333000","lon":"109.73778000"},{"id":19739,"name":"Jinhe","native":null,"lat":"27.71694000","lon":"109.60472000"},{"id":19748,"name":"Jinshi","native":null,"lat":"29.60487000","lon":"111.87012000"},{"id":19749,"name":"Jinshiqiao","native":null,"lat":"27.58425000","lon":"110.93634000"},{"id":19799,"name":"Lanli","native":null,"lat":"27.88694000","lon":"109.91861000"},{"id":19808,"name":"Leiyang","native":null,"lat":"26.40238000","lon":"112.85908000"},{"id":19809,"name":"Lengshuijiang","native":null,"lat":"27.68806000","lon":"111.42944000"},{"id":19810,"name":"Lengshuitan","native":null,"lat":"26.41110000","lon":"111.59559000"},{"id":19818,"name":"Liangyaping","native":null,"lat":"27.71833000","lon":"110.67083000"},{"id":19824,"name":"Lianyuan","native":null,"lat":"27.68833000","lon":"111.66417000"},{"id":19846,"name":"Linkou","native":null,"lat":"26.24806000","lon":"109.86361000"},{"id":19859,"name":"Liuduzhai","native":null,"lat":"27.36611000","lon":"110.93500000"},{"id":19864,"name":"Lixiqiao","native":null,"lat":"26.79472000","lon":"110.41806000"},{"id":19873,"name":"Longtan","native":null,"lat":"27.41139000","lon":"110.53639000"},{"id":19874,"name":"Longtou’an","native":null,"lat":"27.67028000","lon":"110.33611000"},{"id":19876,"name":"Loudi","native":null,"lat":"27.73444000","lon":"111.99444000"},{"id":19885,"name":"Luojiu","native":null,"lat":"27.51583000","lon":"109.80889000"},{"id":19893,"name":"Luyang","native":null,"lat":"27.62389000","lon":"110.09889000"},{"id":19909,"name":"Ma’an","native":null,"lat":"26.97750000","lon":"110.72111000"},{"id":19902,"name":"Malin","native":null,"lat":"26.45500000","lon":"110.64167000"},{"id":19905,"name":"Maoping","native":null,"lat":"26.51972000","lon":"110.41194000"},{"id":19944,"name":"Nanmuping","native":null,"lat":"27.31111000","lon":"109.67861000"},{"id":19952,"name":"Nanzhou","native":null,"lat":"29.35955000","lon":"112.40243000"},{"id":19989,"name":"Prefecture of Chenzhou","native":null,"lat":"25.84347000","lon":"113.05378000"},{"id":19993,"name":"Pukou","native":null,"lat":"26.52222000","lon":"109.55583000"},{"id":20002,"name":"Puzi","native":null,"lat":"26.98639000","lon":"109.77639000"},{"id":20006,"name":"Qiancheng","native":null,"lat":"27.18501000","lon":"109.76543000"},{"id":20010,"name":"Qianzhou","native":null,"lat":"28.31925000","lon":"109.73346000"},{"id":20011,"name":"Qiaojiang","native":null,"lat":"27.93722000","lon":"110.67639000"},{"id":20018,"name":"Qingjiangqiao","native":null,"lat":"26.60444000","lon":"110.98528000"},{"id":20024,"name":"Qingxi","native":null,"lat":"26.43114000","lon":"110.35489000"},{"id":20033,"name":"Qionghu","native":null,"lat":"28.84061000","lon":"112.37399000"},{"id":20047,"name":"Ruoshui","native":null,"lat":"27.00194000","lon":"109.96667000"},{"id":20065,"name":"Shangmei","native":null,"lat":"27.74278000","lon":"111.29556000"},{"id":20073,"name":"Shanmen","native":null,"lat":"27.22500000","lon":"110.69278000"},{"id":20094,"name":"Shijiang","native":null,"lat":"27.08194000","lon":"110.79333000"},{"id":20116,"name":"Shuangjiang","native":null,"lat":"26.15467000","lon":"109.71380000"},{"id":20117,"name":"Shuangxi","native":null,"lat":"27.22833000","lon":"109.85583000"},{"id":20122,"name":"Shuiche","native":null,"lat":"27.68694000","lon":"110.99972000"},{"id":20123,"name":"Shuidatian","native":null,"lat":"27.85222000","lon":"109.60472000"},{"id":20128,"name":"Simenqian","native":null,"lat":"27.48722000","lon":"110.88611000"},{"id":20167,"name":"Tangjiafang","native":null,"lat":"26.84000000","lon":"110.36472000"},{"id":20175,"name":"Tanwan","native":null,"lat":"27.96639000","lon":"110.15028000"},{"id":20196,"name":"Tongwan","native":null,"lat":"27.58111000","lon":"110.27722000"},{"id":20199,"name":"Tuokou","native":null,"lat":"27.12472000","lon":"109.62472000"},{"id":20210,"name":"Wantouqiao","native":null,"lat":"26.84111000","lon":"110.61944000"},{"id":20225,"name":"Wenxing","native":null,"lat":"28.68208000","lon":"112.87864000"},{"id":20235,"name":"Wulingyuan","native":null,"lat":"29.34936000","lon":"110.54407000"},{"id":20238,"name":"Wuxi","native":null,"lat":"26.58440000","lon":"111.85900000"},{"id":20242,"name":"Wuyang","native":null,"lat":"26.74278000","lon":"110.32833000"},{"id":20255,"name":"Xiangtan","native":null,"lat":"27.85000000","lon":"112.90000000"},{"id":20256,"name":"Xiangxi Tujiazu Miaozu Zizhizhou","native":null,"lat":"28.70573000","lon":"109.73329000"},{"id":20257,"name":"Xiangxiang","native":null,"lat":"27.73333000","lon":"112.53333000"},{"id":20264,"name":"Xianrenwan","native":null,"lat":"27.75444000","lon":"110.32972000"},{"id":20267,"name":"Xianxi","native":null,"lat":"26.33472000","lon":"109.64306000"},{"id":20270,"name":"Xiaohenglong","native":null,"lat":"27.60500000","lon":"110.51694000"},{"id":20272,"name":"Xiaolongmen","native":null,"lat":"27.80194000","lon":"110.16056000"},{"id":20273,"name":"Xiaoshajiang","native":null,"lat":"27.52139000","lon":"110.74806000"},{"id":20322,"name":"Xishan","native":null,"lat":"27.66667000","lon":"113.50000000"},{"id":20326,"name":"Xixi","native":null,"lat":"27.69375000","lon":"110.95333000"},{"id":20328,"name":"Xiyan","native":null,"lat":"26.61639000","lon":"110.47361000"},{"id":20353,"name":"Yanmen","native":null,"lat":"27.85500000","lon":"109.74028000"},{"id":20360,"name":"Yaoshi","native":null,"lat":"26.29306000","lon":"110.78917000"},{"id":20363,"name":"Yatunpu","native":null,"lat":"26.15500000","lon":"109.62667000"},{"id":20384,"name":"Yiyang","native":null,"lat":"28.58917000","lon":"112.32833000"},{"id":20386,"name":"Yongfeng","native":null,"lat":"27.42829000","lon":"112.18338000"},{"id":20388,"name":"Yongzhou","native":null,"lat":"26.44014000","lon":"111.60290000"},{"id":20396,"name":"Yueyang","native":null,"lat":"29.37455000","lon":"113.09481000"},{"id":20397,"name":"Yueyang Shi","native":null,"lat":"29.32472000","lon":"113.30200000"},{"id":20408,"name":"Yutan","native":null,"lat":"28.25831000","lon":"112.56048000"},{"id":20418,"name":"Zhaishi Miaozu Dongzuxiang","native":null,"lat":"26.50083000","lon":"110.04444000"},{"id":20421,"name":"Zhangjiajie","native":null,"lat":"29.12944000","lon":"110.47833000"},{"id":20449,"name":"Zhongfang","native":null,"lat":"27.41139000","lon":"109.93194000"},{"id":20457,"name":"Zhongzhai","native":null,"lat":"27.19528000","lon":"109.26861000"},{"id":20474,"name":"Zhushi","native":null,"lat":"27.08778000","lon":"110.67694000"},{"id":20475,"name":"Zhuzhou","native":null,"lat":"27.83333000","lon":"113.15000000"},{"id":20476,"name":"Zhuzhou Shi","native":null,"lat":"27.82450000","lon":"113.08228000"},{"id":20477,"name":"Zhuzhoujiang Miaozuxiang","native":null,"lat":"26.67528000","lon":"110.07194000"}]},{"id":2269,"name":"Inner Mongolia","native":null,"cities":[{"id":19318,"name":"Baotou","native":null,"lat":"40.65222000","lon":"109.82222000"},{"id":19323,"name":"Bayan Nur","native":null,"lat":"40.74143000","lon":"107.38599000"},{"id":19324,"name":"Bayannur Shi","native":null,"lat":"41.56958000","lon":"107.49485000"},{"id":19328,"name":"Beichengqu","native":null,"lat":"40.43944000","lon":"113.15361000"},{"id":19399,"name":"Chifeng","native":null,"lat":"42.26833000","lon":"118.96361000"},{"id":19475,"name":"Dongsheng","native":null,"lat":"39.81609000","lon":"109.97763000"},{"id":19497,"name":"E’erguna","native":null,"lat":"50.22362000","lon":"120.17092000"},{"id":19494,"name":"Erenhot","native":null,"lat":"43.64750000","lon":"111.97667000"},{"id":19553,"name":"Genhe","native":null,"lat":"50.78333000","lon":"121.51667000"},{"id":19587,"name":"Hailar","native":null,"lat":"49.20000000","lon":"119.70000000"},{"id":19623,"name":"Hohhot","native":null,"lat":"40.81056000","lon":"111.65222000"},{"id":19680,"name":"Hulunbuir Region","native":null,"lat":"49.70989000","lon":"121.72176000"},{"id":19691,"name":"Jalai Nur","native":null,"lat":"49.45000000","lon":"117.70000000"},{"id":19692,"name":"Jiagedaqi","native":null,"lat":"50.41667000","lon":"124.11667000"},{"id":19742,"name":"Jining","native":null,"lat":"41.02750000","lon":"113.10583000"},{"id":19903,"name":"Manzhouli","native":null,"lat":"49.60000000","lon":"117.43333000"},{"id":19928,"name":"Mositai","native":null,"lat":"45.53538000","lon":"119.66698000"},{"id":19931,"name":"Mujiayingzi","native":null,"lat":"42.11667000","lon":"118.78333000"},{"id":19967,"name":"Ordos","native":null,"lat":"39.60860000","lon":"109.78157000"},{"id":19968,"name":"Ordos Shi","native":null,"lat":"39.46142000","lon":"108.80946000"},{"id":19969,"name":"Oroqen Zizhiqi","native":null,"lat":"50.56667000","lon":"123.71667000"},{"id":19986,"name":"Pingzhuang","native":null,"lat":"42.03722000","lon":"119.28889000"},{"id":20050,"name":"Salaqi","native":null,"lat":"40.54139000","lon":"110.51083000"},{"id":20092,"name":"Shiguai","native":null,"lat":"40.70583000","lon":"110.28556000"},{"id":20192,"name":"Tongliao","native":null,"lat":"43.61250000","lon":"122.26528000"},{"id":20203,"name":"Ulanhot","native":null,"lat":"46.08333000","lon":"122.08333000"},{"id":20220,"name":"Wenquan","native":null,"lat":"47.17560000","lon":"119.94809000"},{"id":20231,"name":"Wuda","native":null,"lat":"39.49944000","lon":"106.71167000"},{"id":20232,"name":"Wuhai","native":null,"lat":"39.68442000","lon":"106.81583000"},{"id":20284,"name":"Xilin Gol Meng","native":null,"lat":"44.85493000","lon":"115.72789000"},{"id":20285,"name":"Xilin Hot","native":null,"lat":"43.96667000","lon":"116.03333000"},{"id":20336,"name":"Yakeshi","native":null,"lat":"49.28333000","lon":"120.73333000"},{"id":20419,"name":"Zhalantun","native":null,"lat":"48.00945000","lon":"122.73651000"}]},{"id":2250,"name":"Jiangsu","native":null,"cities":[{"id":149266,"name":"ChangZhou","native":null,"lat":"31.72322000","lon":"119.59794000"},{"id":149270,"name":"HuaiAn","native":null,"lat":"33.29433000","lon":"118.87350000"},{"id":149269,"name":"LianYunGang","native":null,"lat":"34.84065000","lon":"119.17730000"},{"id":149263,"name":"NanJing","native":null,"lat":"31.32751000","lon":"118.89210000"},{"id":149268,"name":"NanTong","native":null,"lat":"32.00986000","lon":"120.85737000"},{"id":149275,"name":"SuQian","native":null,"lat":"33.96271000","lon":"118.24239000"},{"id":149267,"name":"SuZhou","native":null,"lat":"31.30227000","lon":"120.63132000"},{"id":149274,"name":"TaiZhou","native":null,"lat":"32.31841000","lon":"119.88116000"},{"id":149264,"name":"WuXi","native":null,"lat":"31.52853000","lon":"120.28429000"},{"id":149265,"name":"XuZhou","native":null,"lat":"34.28823000","lon":"117.18554000"},{"id":149271,"name":"YanCheng","native":null,"lat":"33.20107000","lon":"120.50102000"},{"id":149272,"name":"YangZhou","native":null,"lat":"32.39463000","lon":"119.43157000"},{"id":149273,"name":"ZhenJiang","native":null,"lat":"32.13188000","lon":"119.43396000"}]},{"id":2256,"name":"Jiangxi","native":null,"cities":[{"id":19367,"name":"Changleng","native":null,"lat":"28.70000000","lon":"115.81667000"},{"id":19513,"name":"Fenyi","native":null,"lat":"27.81117000","lon":"114.66805000"},{"id":19538,"name":"Ganzhou","native":null,"lat":"25.84664000","lon":"114.93260000"},{"id":19539,"name":"Ganzhou Shi","native":null,"lat":"25.70387000","lon":"115.34822000"},{"id":19574,"name":"Guixi","native":null,"lat":"28.28857000","lon":"117.21329000"},{"id":19762,"name":"Ji’an","native":null,"lat":"27.11716000","lon":"114.97927000"},{"id":19701,"name":"Jianguang","native":null,"lat":"28.19377000","lon":"115.78360000"},{"id":19730,"name":"Jingdezhen","native":null,"lat":"29.29470000","lon":"117.20789000"},{"id":19731,"name":"Jingdezhen Shi","native":null,"lat":"29.31682000","lon":"117.24688000"},{"id":19756,"name":"Jiujiang","native":null,"lat":"29.70475000","lon":"116.00206000"},{"id":19935,"name":"Nanchang","native":null,"lat":"28.68396000","lon":"115.85306000"},{"id":19983,"name":"Pingxiang","native":null,"lat":"27.61672000","lon":"113.85353000"},{"id":19988,"name":"Poyang","native":null,"lat":"28.99242000","lon":"116.66754000"},{"id":20067,"name":"Shangrao","native":null,"lat":"28.45179000","lon":"117.94287000"},{"id":20313,"name":"Xinyu","native":null,"lat":"27.80429000","lon":"114.93335000"},{"id":20369,"name":"Yichun","native":null,"lat":"27.83333000","lon":"114.40000000"}]},{"id":2253,"name":"Jilin","native":null,"cities":[{"id":19298,"name":"Baicheng","native":null,"lat":"45.60746000","lon":"122.82076000"},{"id":19306,"name":"Baishan","native":null,"lat":"41.93853000","lon":"126.41965000"},{"id":19308,"name":"Baishishan","native":null,"lat":"43.58333000","lon":"127.56667000"},{"id":19363,"name":"Changchun","native":null,"lat":"43.88000000","lon":"125.32278000"},{"id":19369,"name":"Changling","native":null,"lat":"44.26532000","lon":"124.00045000"},{"id":19381,"name":"Chaoyang","native":null,"lat":"42.66223000","lon":"126.02630000"},{"id":19418,"name":"Dalai","native":null,"lat":"45.50000000","lon":"124.30000000"},{"id":19434,"name":"Dashitou","native":null,"lat":"43.30667000","lon":"128.51139000"},{"id":19447,"name":"Dehui","native":null,"lat":"44.53333000","lon":"125.70000000"},{"id":19466,"name":"Dongfeng","native":null,"lat":"42.64031000","lon":"125.51176000"},{"id":19485,"name":"Dunhua","native":null,"lat":"43.37250000","lon":"128.24250000"},{"id":19493,"name":"Erdaojiang","native":null,"lat":"41.77639000","lon":"126.03194000"},{"id":19529,"name":"Fuyu","native":null,"lat":"45.18333000","lon":"124.81667000"},{"id":19557,"name":"Gongzhuling","native":null,"lat":"43.50075000","lon":"124.81979000"},{"id":19559,"name":"Guangming","native":null,"lat":"45.33333000","lon":"122.78333000"},{"id":19612,"name":"Helong","native":null,"lat":"42.53974000","lon":"128.99722000"},{"id":19616,"name":"Hepingjie","native":null,"lat":"42.05972000","lon":"126.91583000"},{"id":19634,"name":"Huadian","native":null,"lat":"42.96333000","lon":"126.74778000"},{"id":19653,"name":"Huangnihe","native":null,"lat":"43.55833000","lon":"128.02389000"},{"id":19674,"name":"Huinan","native":null,"lat":"42.62250000","lon":"126.26139000"},{"id":19682,"name":"Hunchun","native":null,"lat":"42.86750000","lon":"130.35806000"},{"id":19763,"name":"Ji’an","native":null,"lat":"41.12349000","lon":"126.17631000"},{"id":19725,"name":"Jilin","native":null,"lat":"43.85083000","lon":"126.56028000"},{"id":19753,"name":"Jishu","native":null,"lat":"44.31667000","lon":"126.80000000"},{"id":19759,"name":"Jiutai","native":null,"lat":"44.15250000","lon":"125.83278000"},{"id":19768,"name":"Kaitong","native":null,"lat":"44.81351000","lon":"123.15000000"},{"id":19830,"name":"Liaoyuan","native":null,"lat":"42.90361000","lon":"125.13583000"},{"id":19845,"name":"Linjiang","native":null,"lat":"41.80694000","lon":"126.90778000"},{"id":19857,"name":"Lishu","native":null,"lat":"43.30472000","lon":"124.32778000"},{"id":19860,"name":"Liuhe","native":null,"lat":"42.24007000","lon":"125.71717000"},{"id":19868,"name":"Longjing","native":null,"lat":"42.77139000","lon":"129.42333000"},{"id":19910,"name":"Meihekou","native":null,"lat":"42.52722000","lon":"125.67528000"},{"id":19922,"name":"Mingyue","native":null,"lat":"43.10694000","lon":"128.92167000"},{"id":19923,"name":"Minzhu","native":null,"lat":"43.72145000","lon":"127.33401000"},{"id":19974,"name":"Panshi","native":null,"lat":"42.94222000","lon":"126.05611000"},{"id":20052,"name":"Sanchazi","native":null,"lat":"42.08167000","lon":"126.60028000"},{"id":20119,"name":"Shuangyang","native":null,"lat":"43.52417000","lon":"125.67361000"},{"id":20125,"name":"Shulan","native":null,"lat":"44.41667000","lon":"126.95000000"},{"id":20129,"name":"Siping","native":null,"lat":"43.16143000","lon":"124.37785000"},{"id":20133,"name":"Songjianghe","native":null,"lat":"42.18590000","lon":"127.47895000"},{"id":20138,"name":"Songyuan","native":null,"lat":"45.12902000","lon":"124.82769000"},{"id":20190,"name":"Tonghua","native":null,"lat":"41.71972000","lon":"125.92639000"},{"id":20191,"name":"Tonghua Shi","native":null,"lat":"42.12389000","lon":"125.84833000"},{"id":20198,"name":"Tumen","native":null,"lat":"42.96611000","lon":"129.84250000"},{"id":20208,"name":"Wangqing","native":null,"lat":"43.32179000","lon":"129.76342000"},{"id":20295,"name":"Xinglongshan","native":null,"lat":"43.95611000","lon":"125.46611000"},{"id":20339,"name":"Yanbian Chaoxianzu Zizhizhou","native":null,"lat":"43.12583000","lon":"129.12833000"},{"id":20350,"name":"Yanji","native":null,"lat":"42.90750000","lon":"129.50778000"},{"id":20358,"name":"Yantongshan","native":null,"lat":"43.29194000","lon":"126.00944000"},{"id":20406,"name":"Yushu","native":null,"lat":"44.80000000","lon":"126.53333000"},{"id":20438,"name":"Zhengjiatun","native":null,"lat":"43.50639000","lon":"123.50639000"},{"id":20442,"name":"Zhenlai","native":null,"lat":"45.84955000","lon":"123.29730000"}]},{"id":2268,"name":"Liaoning","native":null,"cities":[{"id":19287,"name":"Anshan","native":null,"lat":"41.12361000","lon":"122.99000000"},{"id":19333,"name":"Beipiao","native":null,"lat":"41.79194000","lon":"120.77917000"},{"id":19339,"name":"Benxi","native":null,"lat":"41.28861000","lon":"123.76500000"},{"id":19377,"name":"Changtu","native":null,"lat":"42.77884000","lon":"124.09545000"},{"id":19382,"name":"Chaoyang","native":null,"lat":"41.57028000","lon":"120.45861000"},{"id":19421,"name":"Dalian","native":null,"lat":"38.91222000","lon":"121.60222000"},{"id":19423,"name":"Dalianwan","native":null,"lat":"39.02861000","lon":"121.69500000"},{"id":19424,"name":"Dandong","native":null,"lat":"40.12917000","lon":"124.39472000"},{"id":19433,"name":"Dashiqiao","native":null,"lat":"40.63732000","lon":"122.50251000"},{"id":19472,"name":"Dongling","native":null,"lat":"41.81444000","lon":"123.57583000"},{"id":19504,"name":"Fengcheng","native":null,"lat":"40.45361000","lon":"124.07167000"},{"id":19523,"name":"Fushun","native":null,"lat":"41.88669000","lon":"123.94363000"},{"id":19524,"name":"Fuxin","native":null,"lat":"42.01556000","lon":"121.65889000"},{"id":19533,"name":"Gaizhou","native":null,"lat":"40.39417000","lon":"122.36861000"},{"id":19556,"name":"Gongchangling","native":null,"lat":"41.11667000","lon":"123.45000000"},{"id":19583,"name":"Haicheng","native":null,"lat":"40.85158000","lon":"122.74754000"},{"id":19611,"name":"Heishan","native":null,"lat":"41.68917000","lon":"122.11278000"},{"id":19664,"name":"Huanren","native":null,"lat":"41.26472000","lon":"125.36667000"},{"id":19678,"name":"Huludao","native":null,"lat":"40.75243000","lon":"120.83552000"},{"id":19679,"name":"Huludao Shi","native":null,"lat":"40.74528000","lon":"120.21972000"},{"id":19687,"name":"Hushitai","native":null,"lat":"41.94175000","lon":"123.50266000"},{"id":19752,"name":"Jinzhou","native":null,"lat":"41.10778000","lon":"121.14167000"},{"id":19757,"name":"Jiupu","native":null,"lat":"41.06667000","lon":"122.95000000"},{"id":19771,"name":"Kaiyuan","native":null,"lat":"42.53306000","lon":"124.04028000"},{"id":19781,"name":"Kuandian","native":null,"lat":"40.72861000","lon":"124.78472000"},{"id":19796,"name":"Langtoucun","native":null,"lat":"40.04068000","lon":"124.33525000"},{"id":19823,"name":"Lianshan","native":null,"lat":"40.76432000","lon":"120.85327000"},{"id":19829,"name":"Liaoyang","native":null,"lat":"41.27194000","lon":"123.17306000"},{"id":19831,"name":"Liaozhong","native":null,"lat":"41.50611000","lon":"122.72417000"},{"id":19842,"name":"Linghai","native":null,"lat":"41.16528000","lon":"121.36667000"},{"id":19843,"name":"Lingyuan","native":null,"lat":"41.24000000","lon":"119.40111000"},{"id":19897,"name":"Lüshun","native":null,"lat":"38.80000000","lon":"121.26667000"},{"id":19946,"name":"Nanpiao","native":null,"lat":"41.09822000","lon":"120.74792000"},{"id":19948,"name":"Nantai","native":null,"lat":"40.92410000","lon":"122.80437000"},{"id":19972,"name":"Panjin Shi","native":null,"lat":"41.13167000","lon":"121.99361000"},{"id":19973,"name":"Panshan","native":null,"lat":"41.18806000","lon":"122.04944000"},{"id":19994,"name":"Pulandian","native":null,"lat":"39.39528000","lon":"121.96694000"},{"id":20090,"name":"Shenyang","native":null,"lat":"41.79222000","lon":"123.43278000"},{"id":20146,"name":"Sujiatun","native":null,"lat":"41.65917000","lon":"123.33917000"},{"id":20183,"name":"Tieling","native":null,"lat":"42.29306000","lon":"123.84139000"},{"id":20184,"name":"Tieling Shi","native":null,"lat":"42.62583000","lon":"124.32361000"},{"id":20206,"name":"Wafangdian","native":null,"lat":"39.61833000","lon":"122.00806000"},{"id":20275,"name":"Xiaoshi","native":null,"lat":"41.29711000","lon":"124.12092000"},{"id":20281,"name":"Xifeng","native":null,"lat":"42.73722000","lon":"124.72222000"},{"id":20293,"name":"Xingcheng","native":null,"lat":"40.61667000","lon":"120.71667000"},{"id":20302,"name":"Xinmin","native":null,"lat":"41.99083000","lon":"122.82528000"},{"id":20310,"name":"Xinxing","native":null,"lat":"39.86694000","lon":"124.12304000"},{"id":20324,"name":"Xiuyan","native":null,"lat":"40.29278000","lon":"123.27444000"},{"id":20364,"name":"Yebaishou","native":null,"lat":"41.39750000","lon":"119.64083000"},{"id":20378,"name":"Yingkou","native":null,"lat":"40.63897000","lon":"122.24762000"},{"id":20464,"name":"Zhuanghe","native":null,"lat":"39.70083000","lon":"122.99111000"}]},{"id":2266,"name":"Macau SAR","native":null,"cities":[]},{"id":2262,"name":"Ningxia Huizu","native":null,"cities":[{"id":19438,"name":"Dawukou","native":null,"lat":"39.04194000","lon":"106.39583000"},{"id":19476,"name":"Dongta","native":null,"lat":"38.08140000","lon":"106.34444000"},{"id":20106,"name":"Shitanjing","native":null,"lat":"39.23417000","lon":"106.34389000"},{"id":20111,"name":"Shizuishan","native":null,"lat":"39.23333000","lon":"106.76944000"},{"id":20246,"name":"Wuzhong","native":null,"lat":"37.98670000","lon":"106.20100000"},{"id":20374,"name":"Yinchuan","native":null,"lat":"38.46806000","lon":"106.27306000"},{"id":20454,"name":"Zhongwei","native":null,"lat":"37.51129000","lon":"105.19067000"}]},{"id":2270,"name":"Qinghai","native":null,"cities":[{"id":19448,"name":"Delingha","native":null,"lat":"37.37600000","lon":"97.37457000"},{"id":19554,"name":"Golmud","native":null,"lat":"36.40672000","lon":"94.90061000"},{"id":19555,"name":"Golog Tibetan Autonomous Prefecture","native":null,"lat":"34.08595000","lon":"99.55181000"},{"id":19582,"name":"Haibei Tibetan Autonomous Prefecture","native":null,"lat":"37.71919000","lon":"100.45656000"},{"id":19652,"name":"Huangnan Zangzu Zizhizhou","native":null,"lat":"35.06316000","lon":"101.65149000"},{"id":20300,"name":"Xining","native":null,"lat":"36.62554000","lon":"101.75739000"},{"id":20320,"name":"Xireg","native":null,"lat":"36.91866000","lon":"98.44463000"},{"id":20407,"name":"Yushu Zangzu Zizhizhou","native":null,"lat":"34.39802000","lon":"94.19021000"}]},{"id":2272,"name":"Shaanxi","native":null,"cities":[{"id":19281,"name":"Ankang","native":null,"lat":"32.68000000","lon":"109.01722000"},{"id":19315,"name":"Baoji Shi","native":null,"lat":"34.36944000","lon":"107.13635000"},{"id":19578,"name":"Guozhen","native":null,"lat":"34.36591000","lon":"107.35904000"},{"id":19595,"name":"Hancheng","native":null,"lat":"35.46028000","lon":"110.42917000"},{"id":19600,"name":"Hanzhong","native":null,"lat":"33.07507000","lon":"107.02214000"},{"id":19667,"name":"Huayin","native":null,"lat":"34.56528000","lon":"110.06639000"},{"id":19852,"name":"Lintong","native":null,"lat":"34.37803000","lon":"109.20892000"},{"id":20188,"name":"Tongchuanshi","native":null,"lat":"35.07474000","lon":"109.08495000"},{"id":20215,"name":"Weinan","native":null,"lat":"34.50355000","lon":"109.50891000"},{"id":20329,"name":"Xi’an","native":null,"lat":"34.25833000","lon":"108.92861000"},{"id":20268,"name":"Xianyang","native":null,"lat":"34.33778000","lon":"108.70261000"},{"id":20352,"name":"Yanliang","native":null,"lat":"34.65918000","lon":"109.22921000"},{"id":20399,"name":"Yulinshi","native":null,"lat":"38.29181000","lon":"109.73753000"},{"id":20410,"name":"Yuxia","native":null,"lat":"34.06153000","lon":"108.62905000"}]},{"id":2252,"name":"Shandong","native":null,"cities":[{"id":19286,"name":"Anqiu","native":null,"lat":"36.43417000","lon":"119.19250000"},{"id":19335,"name":"Beizhai","native":null,"lat":"36.21972000","lon":"120.52889000"},{"id":19340,"name":"Bianzhuang","native":null,"lat":"34.84861000","lon":"118.04472000"},{"id":19343,"name":"Binzhou","native":null,"lat":"37.36667000","lon":"118.01667000"},{"id":19348,"name":"Boshan","native":null,"lat":"36.48333000","lon":"117.83333000"},{"id":19372,"name":"Changqing","native":null,"lat":"36.55750000","lon":"116.72722000"},{"id":19392,"name":"Chengqu","native":null,"lat":"36.91060000","lon":"121.52504000"},{"id":19393,"name":"Chengtangcun","native":null,"lat":"35.08357000","lon":"117.19071000"},{"id":19395,"name":"Chengyang","native":null,"lat":"35.57944000","lon":"118.83278000"},{"id":19450,"name":"Dengying","native":null,"lat":"36.13889000","lon":"120.57417000"},{"id":19452,"name":"Dengzhou","native":null,"lat":"37.80822000","lon":"120.75908000"},{"id":19455,"name":"Dezhou","native":null,"lat":"37.45127000","lon":"116.31046000"},{"id":19458,"name":"Dingtao","native":null,"lat":"35.07436000","lon":"115.56582000"},{"id":19463,"name":"Dongcun","native":null,"lat":"36.77667000","lon":"121.15972000"},{"id":19465,"name":"Dongdu","native":null,"lat":"35.85000000","lon":"117.70000000"},{"id":19501,"name":"Feicheng","native":null,"lat":"36.24861000","lon":"116.76583000"},{"id":19541,"name":"Gaomi","native":null,"lat":"36.38333000","lon":"119.75278000"},{"id":19599,"name":"Hanting","native":null,"lat":"36.77083000","lon":"119.21083000"},{"id":19621,"name":"Heze","native":null,"lat":"35.23929000","lon":"115.47358000"},{"id":19693,"name":"Jiamaying","native":null,"lat":"37.20806000","lon":"115.95000000"},{"id":19711,"name":"Jiaozhou","native":null,"lat":"36.28389000","lon":"120.00333000"},{"id":19719,"name":"Jiehu","native":null,"lat":"35.54278000","lon":"118.45500000"},{"id":19726,"name":"Jimo","native":null,"lat":"36.38972000","lon":"120.46222000"},{"id":19727,"name":"Jinan","native":null,"lat":"36.66833000","lon":"116.99722000"},{"id":19741,"name":"Jining","native":null,"lat":"35.40500000","lon":"116.58139000"},{"id":19765,"name":"Juye","native":null,"lat":"35.39472000","lon":"116.08833000"},{"id":19782,"name":"Kuiju","native":null,"lat":"36.85361000","lon":"119.39083000"},{"id":19787,"name":"Kutao","native":null,"lat":"36.14500000","lon":"120.48778000"},{"id":19790,"name":"Laiwu","native":null,"lat":"36.19278000","lon":"117.65694000"},{"id":19791,"name":"Laixi","native":null,"lat":"36.85917000","lon":"120.52694000"},{"id":19792,"name":"Laiyang","native":null,"lat":"36.97583000","lon":"120.71361000"},{"id":19793,"name":"Laizhou","native":null,"lat":"37.18073000","lon":"119.94217000"},{"id":19804,"name":"Laocheng","native":null,"lat":"37.14278000","lon":"115.88833000"},{"id":19828,"name":"Liaocheng","native":null,"lat":"36.45596000","lon":"115.97766000"},{"id":19850,"name":"Linqu","native":null,"lat":"36.51556000","lon":"118.53972000"},{"id":19856,"name":"Linyi","native":null,"lat":"35.06306000","lon":"118.34278000"},{"id":19866,"name":"Longgang","native":null,"lat":"37.65181000","lon":"120.33063000"},{"id":19915,"name":"Mengyin","native":null,"lat":"35.70694000","lon":"117.92639000"},{"id":19920,"name":"Mingshui","native":null,"lat":"36.71667000","lon":"117.50000000"},{"id":19927,"name":"Mizhou","native":null,"lat":"35.99472000","lon":"119.39750000"},{"id":19937,"name":"Nanding","native":null,"lat":"36.74833000","lon":"118.05583000"},{"id":19943,"name":"Nanma","native":null,"lat":"36.18478000","lon":"118.15486000"},{"id":19962,"name":"Ninghai","native":null,"lat":"37.38422000","lon":"121.60859000"},{"id":19963,"name":"Ningyang","native":null,"lat":"35.76417000","lon":"116.79139000"},{"id":19978,"name":"Pingdu","native":null,"lat":"36.78444000","lon":"119.94639000"},{"id":19984,"name":"Pingyi","native":null,"lat":"35.50056000","lon":"117.63083000"},{"id":19985,"name":"Pingyin","native":null,"lat":"36.28306000","lon":"116.44528000"},{"id":20016,"name":"Qingdao","native":null,"lat":"36.06488000","lon":"120.38042000"},{"id":20020,"name":"Qingnian","native":null,"lat":"36.84032000","lon":"115.71183000"},{"id":20023,"name":"Qingshancun","native":null,"lat":"36.15415000","lon":"120.68240000"},{"id":20025,"name":"Qingyang","native":null,"lat":"37.49583000","lon":"121.25806000"},{"id":20028,"name":"Qingzhou","native":null,"lat":"36.69667000","lon":"118.47972000"},{"id":20037,"name":"Qufu","native":null,"lat":"35.59667000","lon":"116.99111000"},{"id":20042,"name":"Rizhao","native":null,"lat":"35.42750000","lon":"119.45528000"},{"id":20062,"name":"Shancheng","native":null,"lat":"34.79528000","lon":"116.08167000"},{"id":20075,"name":"Shanting","native":null,"lat":"35.07528000","lon":"117.45778000"},{"id":20086,"name":"Shazikou","native":null,"lat":"36.11500000","lon":"120.53722000"},{"id":20087,"name":"Shengli","native":null,"lat":"37.46271000","lon":"118.49165000"},{"id":20099,"name":"Shilaorencun","native":null,"lat":"36.09723000","lon":"120.48910000"},{"id":20110,"name":"Shizilu","native":null,"lat":"35.17111000","lon":"118.82889000"},{"id":20112,"name":"Shouguang","native":null,"lat":"36.88000000","lon":"118.73750000"},{"id":20131,"name":"Sishui","native":null,"lat":"35.64889000","lon":"117.27583000"},{"id":20148,"name":"Suozhen","native":null,"lat":"36.95389000","lon":"118.10472000"},{"id":20165,"name":"Tai’an","native":null,"lat":"36.18528000","lon":"117.12000000"},{"id":20176,"name":"Taozhuang","native":null,"lat":"34.85000000","lon":"117.33333000"},{"id":20179,"name":"Tianfu","native":null,"lat":"37.19723000","lon":"122.05228000"},{"id":20213,"name":"Weifang","native":null,"lat":"36.71000000","lon":"119.10194000"},{"id":20214,"name":"Weihai","native":null,"lat":"37.50914000","lon":"122.11356000"},{"id":20223,"name":"Wenshang","native":null,"lat":"35.72750000","lon":"116.49611000"},{"id":20277,"name":"Xiazhen","native":null,"lat":"34.80222000","lon":"117.11167000"},{"id":20278,"name":"Xiazhuang","native":null,"lat":"34.91611000","lon":"118.63889000"},{"id":20283,"name":"Xiliguantun","native":null,"lat":"37.07833000","lon":"115.94139000"},{"id":20291,"name":"Xindian","native":null,"lat":"36.79750000","lon":"118.29444000"},{"id":20306,"name":"Xintai","native":null,"lat":"35.90056000","lon":"117.75194000"},{"id":20342,"name":"Yanggu","native":null,"lat":"36.11056000","lon":"115.77528000"},{"id":20355,"name":"Yanta","native":null,"lat":"36.24111000","lon":"115.66722000"},{"id":20356,"name":"Yantai","native":null,"lat":"37.47649000","lon":"121.44081000"},{"id":20359,"name":"Yanzhou","native":null,"lat":"35.55278000","lon":"116.82861000"},{"id":20362,"name":"Yatou","native":null,"lat":"37.15660000","lon":"122.43762000"},{"id":20381,"name":"Yinzhu","native":null,"lat":"35.87861000","lon":"119.97528000"},{"id":20382,"name":"Yishui","native":null,"lat":"35.78472000","lon":"118.62806000"},{"id":20393,"name":"Yucheng","native":null,"lat":"34.92889000","lon":"116.46528000"},{"id":20415,"name":"Zaozhuang","native":null,"lat":"34.86472000","lon":"117.55417000"},{"id":20435,"name":"Zhaoyuan","native":null,"lat":"37.36497000","lon":"120.40997000"},{"id":20458,"name":"Zhoucheng","native":null,"lat":"35.91222000","lon":"116.31167000"},{"id":20459,"name":"Zhoucun","native":null,"lat":"36.81667000","lon":"117.81667000"},{"id":20463,"name":"Zhu Cheng City","native":null,"lat":"35.99502000","lon":"119.40259000"},{"id":20465,"name":"Zhuangyuan","native":null,"lat":"37.30553000","lon":"120.82747000"},{"id":20478,"name":"Zibo","native":null,"lat":"36.79056000","lon":"118.06333000"},{"id":20481,"name":"Zoucheng","native":null,"lat":"35.40056000","lon":"116.96556000"}]},{"id":2249,"name":"Shanghai","native":null,"cities":[{"id":20063,"name":"Shanghai","native":null,"lat":"31.22222000","lon":"121.45806000"},{"id":20132,"name":"Songjiang","native":null,"lat":"31.03595000","lon":"121.21460000"},{"id":20417,"name":"Zhabei","native":null,"lat":"31.25861000","lon":"121.45972000"},{"id":20469,"name":"Zhujiajiao","native":null,"lat":"31.10757000","lon":"121.05696000"}]},{"id":2254,"name":"Shanxi","native":null,"cities":[{"id":19378,"name":"Changzhi","native":null,"lat":"36.18389000","lon":"113.10528000"},{"id":19436,"name":"Datong","native":null,"lat":"40.09361000","lon":"113.29139000"},{"id":19437,"name":"Datong Shi","native":null,"lat":"40.10484000","lon":"113.63334000"},{"id":19580,"name":"Gutao","native":null,"lat":"37.20250000","lon":"112.17806000"},{"id":19722,"name":"Jiexiu","native":null,"lat":"37.02444000","lon":"111.91250000"},{"id":19729,"name":"Jincheng","native":null,"lat":"35.50222000","lon":"112.83278000"},{"id":19751,"name":"Jinzhong Shi","native":null,"lat":"37.43597000","lon":"113.08783000"},{"id":19838,"name":"Linfen","native":null,"lat":"36.08889000","lon":"111.51889000"},{"id":19896,"name":"Lüliang","native":null,"lat":"37.73563000","lon":"111.30538000"},{"id":20127,"name":"Shuozhou","native":null,"lat":"39.31583000","lon":"112.42250000"},{"id":20162,"name":"Taiyuan","native":null,"lat":"37.86944000","lon":"112.56028000"},{"id":20307,"name":"Xintian","native":null,"lat":"35.61358000","lon":"111.35660000"},{"id":20316,"name":"Xinzhi","native":null,"lat":"36.49889000","lon":"111.70472000"},{"id":20318,"name":"Xinzhou","native":null,"lat":"38.40917000","lon":"112.73333000"},{"id":20345,"name":"Yangquan","native":null,"lat":"37.85750000","lon":"113.56333000"},{"id":20391,"name":"Yuanping","native":null,"lat":"38.71528000","lon":"112.75750000"},{"id":20394,"name":"Yuci","native":null,"lat":"37.68028000","lon":"112.73194000"},{"id":20400,"name":"Yuncheng","native":null,"lat":"35.02306000","lon":"110.99278000"}]},{"id":2277,"name":"Sichuan","native":null,"cities":[{"id":19271,"name":"Aba Zangzu Qiangzu Zizhizhou","native":null,"lat":"32.41875000","lon":"102.63664000"},{"id":19320,"name":"Barkam","native":null,"lat":"31.90059000","lon":"102.22092000"},{"id":19326,"name":"Bazhong Shi","native":null,"lat":"32.04025000","lon":"107.06230000"},{"id":19362,"name":"Changchi","native":null,"lat":"32.16377000","lon":"106.65814000"},{"id":19387,"name":"Chengdu","native":null,"lat":"30.66667000","lon":"104.06667000"},{"id":19403,"name":"Chonglong","native":null,"lat":"29.78062000","lon":"104.85224000"},{"id":19416,"name":"Dadukou","native":null,"lat":"26.54790000","lon":"101.70539000"},{"id":19443,"name":"Dazhou","native":null,"lat":"31.21592000","lon":"107.50092000"},{"id":19454,"name":"Deyang","native":null,"lat":"31.13019000","lon":"104.38198000"},{"id":19478,"name":"Dongxi","native":null,"lat":"32.06577000","lon":"106.24843000"},{"id":19500,"name":"Fangting","native":null,"lat":"31.12766000","lon":"104.16649000"},{"id":19516,"name":"Fubao","native":null,"lat":"28.76905000","lon":"106.07667000"},{"id":19543,"name":"Gaoping","native":null,"lat":"30.77576000","lon":"106.10294000"},{"id":19551,"name":"Garzê Zangzu Zizhizhou","native":null,"lat":"31.02407000","lon":"100.40553000"},{"id":19564,"name":"Guang’an","native":null,"lat":"30.47413000","lon":"106.63696000"},{"id":19561,"name":"Guangyuan","native":null,"lat":"32.44201000","lon":"105.82300000"},{"id":19695,"name":"Jiancheng","native":null,"lat":"30.39097000","lon":"104.54912000"},{"id":19704,"name":"Jiangyou","native":null,"lat":"31.76667000","lon":"104.71667000"},{"id":19707,"name":"Jiannan","native":null,"lat":"31.34355000","lon":"104.19588000"},{"id":19772,"name":"Kangding","native":null,"lat":"30.00222000","lon":"101.95690000"},{"id":19798,"name":"Langzhong","native":null,"lat":"31.55037000","lon":"105.99381000"},{"id":19811,"name":"Leshan","native":null,"lat":"29.56227000","lon":"103.76386000"},{"id":19816,"name":"Liangshan Yizu Zizhizhou","native":null,"lat":"27.87644000","lon":"102.10180000"},{"id":19849,"name":"Linqiong","native":null,"lat":"30.41587000","lon":"103.46089000"},{"id":19882,"name":"Luocheng","native":null,"lat":"30.98021000","lon":"104.28081000"},{"id":19894,"name":"Luzhou","native":null,"lat":"28.89030000","lon":"105.42575000"},{"id":19912,"name":"Meishan Shi","native":null,"lat":"30.03000000","lon":"104.04000000"},{"id":19917,"name":"Mianyang","native":null,"lat":"31.46784000","lon":"104.68168000"},{"id":19936,"name":"Nanchong","native":null,"lat":"30.79508000","lon":"106.08473000"},{"id":19942,"name":"Nanlong","native":null,"lat":"31.35333000","lon":"106.06309000"},{"id":19954,"name":"Neijiang","native":null,"lat":"29.58354000","lon":"105.06216000"},{"id":19975,"name":"Panzhihua","native":null,"lat":"26.58509000","lon":"101.71276000"},{"id":19992,"name":"Puji","native":null,"lat":"32.23908000","lon":"106.45478000"},{"id":20115,"name":"Shuanghejiedao","native":null,"lat":"30.37448000","lon":"106.77266000"},{"id":20143,"name":"Suining","native":null,"lat":"30.50802000","lon":"105.57332000"},{"id":20155,"name":"Taihe","native":null,"lat":"30.87123000","lon":"105.38454000"},{"id":20159,"name":"Taiping","native":null,"lat":"28.14083000","lon":"106.03771000"},{"id":20180,"name":"Tianpeng","native":null,"lat":"30.98664000","lon":"103.93933000"},{"id":20187,"name":"Tongchuan","native":null,"lat":"31.09407000","lon":"105.08731000"},{"id":20251,"name":"Xialiang","native":null,"lat":"32.07673000","lon":"106.77151000"},{"id":20265,"name":"Xiantan","native":null,"lat":"28.81859000","lon":"106.19270000"},{"id":20280,"name":"Xichang","native":null,"lat":"27.89642000","lon":"102.26341000"},{"id":20335,"name":"Xunchang","native":null,"lat":"28.45433000","lon":"104.71498000"},{"id":20351,"name":"Yanjiang","native":null,"lat":"30.12108000","lon":"104.64811000"},{"id":20365,"name":"Yibin","native":null,"lat":"28.76667000","lon":"104.62383000"},{"id":20392,"name":"Yucheng","native":null,"lat":"29.98521000","lon":"102.99900000"},{"id":20416,"name":"Zengjia","native":null,"lat":"32.61957000","lon":"106.10118000"},{"id":20447,"name":"Zhongba","native":null,"lat":"31.77819000","lon":"104.73932000"},{"id":20479,"name":"Zigong","native":null,"lat":"29.34162000","lon":"104.77689000"}]},{"id":2255,"name":"Taiwan","native":null,"cities":[{"id":19319,"name":"Baoying","native":null,"lat":"33.22917000","lon":"119.30917000"},{"id":19376,"name":"Changshu City","native":null,"lat":"31.64615000","lon":"120.74221000"},{"id":19379,"name":"Changzhou","native":null,"lat":"31.77359000","lon":"119.95401000"},{"id":19394,"name":"Chengxiang","native":null,"lat":"31.44778000","lon":"121.09389000"},{"id":19442,"name":"Dazhong","native":null,"lat":"33.19973000","lon":"120.45780000"},{"id":19470,"name":"Dongkan","native":null,"lat":"33.99972000","lon":"119.83083000"},{"id":19477,"name":"Dongtai","native":null,"lat":"32.85231000","lon":"120.30947000"},{"id":19510,"name":"Fengxian","native":null,"lat":"34.70388000","lon":"116.58717000"},{"id":19540,"name":"Gaogou","native":null,"lat":"34.01750000","lon":"119.18861000"},{"id":19548,"name":"Gaoyou","native":null,"lat":"32.78933000","lon":"119.44182000"},{"id":19573,"name":"Guiren","native":null,"lat":"33.66972000","lon":"118.18889000"},{"id":19592,"name":"Haizhou","native":null,"lat":"34.58167000","lon":"119.12889000"},{"id":19606,"name":"Hede","native":null,"lat":"33.77220000","lon":"120.26176000"},{"id":19635,"name":"Huai'an","native":null,"lat":"33.58861000","lon":"119.01917000"},{"id":19644,"name":"Huai’an Shi","native":null,"lat":"33.31162000","lon":"119.04559000"},{"id":19673,"name":"Huilong","native":null,"lat":"31.81111000","lon":"121.65500000"},{"id":19688,"name":"Hutang","native":null,"lat":"31.53429000","lon":"119.49000000"},{"id":19702,"name":"Jiangyan","native":null,"lat":"32.50611000","lon":"120.14278000"},{"id":19703,"name":"Jiangyin","native":null,"lat":"31.91102000","lon":"120.26302000"},{"id":19734,"name":"Jingjiang","native":null,"lat":"32.01417000","lon":"120.26250000"},{"id":19747,"name":"Jinsha","native":null,"lat":"32.08982000","lon":"121.07355000"},{"id":19764,"name":"Juegang","native":null,"lat":"32.31737000","lon":"121.18552000"},{"id":19784,"name":"Kunshan","native":null,"lat":"31.37762000","lon":"120.95431000"},{"id":19825,"name":"Lianyungang Shi","native":null,"lat":"34.54844000","lon":"119.11228000"},{"id":19832,"name":"Licheng","native":null,"lat":"31.42813000","lon":"119.48353000"},{"id":19930,"name":"Mudu","native":null,"lat":"31.25597000","lon":"120.51857000"},{"id":19941,"name":"Nanjing","native":null,"lat":"32.06167000","lon":"118.77778000"},{"id":19949,"name":"Nantong","native":null,"lat":"32.03028000","lon":"120.87472000"},{"id":19987,"name":"Pizhou","native":null,"lat":"34.31139000","lon":"117.95028000"},{"id":20030,"name":"Qinnan","native":null,"lat":"33.25306000","lon":"119.91333000"},{"id":20044,"name":"Rucheng","native":null,"lat":"32.38833000","lon":"120.55528000"},{"id":20054,"name":"Sanmao","native":null,"lat":"32.23931000","lon":"119.81536000"},{"id":20136,"name":"Songling","native":null,"lat":"31.19330000","lon":"120.71758000"},{"id":20139,"name":"Suicheng","native":null,"lat":"33.89630000","lon":"117.93307000"},{"id":20150,"name":"Suzhou","native":null,"lat":"31.30408000","lon":"120.59538000"},{"id":20161,"name":"Taixing","native":null,"lat":"32.16667000","lon":"120.01361000"},{"id":20163,"name":"Taizhou","native":null,"lat":"32.49069000","lon":"119.90812000"},{"id":20195,"name":"Tongshan","native":null,"lat":"34.18045000","lon":"117.15707000"},{"id":20239,"name":"Wuxi","native":null,"lat":"31.56887000","lon":"120.28857000"},{"id":20263,"name":"Xiannü","native":null,"lat":"32.42806000","lon":"119.56048000"},{"id":20271,"name":"Xiaolingwei","native":null,"lat":"32.03244000","lon":"118.85400000"},{"id":20294,"name":"Xinghua","native":null,"lat":"32.93917000","lon":"119.83417000"},{"id":20303,"name":"Xinpu","native":null,"lat":"34.59972000","lon":"119.15944000"},{"id":20340,"name":"Yancheng","native":null,"lat":"33.35750000","lon":"120.15730000"},{"id":20349,"name":"Yangzhou","native":null,"lat":"32.39722000","lon":"119.43583000"},{"id":20368,"name":"Yicheng","native":null,"lat":"31.36059000","lon":"119.82016000"},{"id":20405,"name":"Yushan","native":null,"lat":"31.67748000","lon":"120.80134000"},{"id":20420,"name":"Zhangjiagang","native":null,"lat":"31.86500000","lon":"120.53889000"},{"id":20441,"name":"Zhenjiang","native":null,"lat":"32.21086000","lon":"119.45508000"},{"id":20443,"name":"Zhenzhou","native":null,"lat":"32.28034000","lon":"119.16999000"},{"id":20456,"name":"Zhongxing","native":null,"lat":"33.70389000","lon":"118.67917000"},{"id":20462,"name":"Zhouzhuang","native":null,"lat":"31.11788000","lon":"120.84427000"}]},{"id":2276,"name":"Tianjin","native":null,"cities":[{"id":149146,"name":"Badaogu","native":null,"lat":"39.47333333","lon":"117.32972222"},{"id":149147,"name":"Baijian","native":null,"lat":"39.99416667","lon":"117.20861111"},{"id":149148,"name":"Bamencheng","native":null,"lat":"39.57777778","lon":"117.60527778"},{"id":149149,"name":"Bangjun","native":null,"lat":"39.98839000","lon":"117.26850000"},{"id":149150,"name":"Beicang","native":null,"lat":"39.23007000","lon":"117.11892000"},{"id":149151,"name":"Beihuaidian","native":null,"lat":"39.26220000","lon":"117.57485000"},{"id":149152,"name":"Beilizigu","native":null,"lat":"39.49138889","lon":"117.46500000"},{"id":149153,"name":"Biaokou","native":null,"lat":"39.32950000","lon":"117.56914000"},{"id":149154,"name":"Binhai New Area","native":null,"lat":"39.00333333","lon":"117.71083333"},{"id":149155,"name":"Caijiapu","native":null,"lat":"39.17305556","lon":"117.81055556"},{"id":149156,"name":"Caodian","native":null,"lat":"39.61194444","lon":"117.47166667"},{"id":149157,"name":"Chabaihu","native":null,"lat":"39.46555556","lon":"117.14833333"},{"id":149158,"name":"Changtun","native":null,"lat":"39.44333333","lon":"117.07055556"},{"id":149159,"name":"Chengtougu","native":null,"lat":"39.14000000","lon":"117.77888889"},{"id":149160,"name":"Chitu","native":null,"lat":"39.20333333","lon":"117.40277778"},{"id":149161,"name":"Cuijiamatou","native":null,"lat":"39.07472222","lon":"117.30055556"},{"id":149162,"name":"Dadunqiu","native":null,"lat":"39.40611111","lon":"117.03305556"},{"id":149163,"name":"Dakoutun","native":null,"lat":"39.58555556","lon":"117.23638889"},{"id":149164,"name":"Dashentang","native":null,"lat":"39.21722222","lon":"117.95250000"},{"id":149165,"name":"Dawangtai","native":null,"lat":"39.27500000","lon":"117.48500000"},{"id":149166,"name":"Daxinzhuang","native":null,"lat":"39.50361111","lon":"117.68611111"},{"id":149167,"name":"Dazhongzhuang","native":null,"lat":"39.68083333","lon":"117.56416667"},{"id":149168,"name":"Dongditou","native":null,"lat":"39.26638889","lon":"117.37277778"},{"id":149169,"name":"Dongshigu","native":null,"lat":"39.87889000","lon":"117.33028000"},{"id":149170,"name":"Erwangzhuang","native":null,"lat":"39.39166667","lon":"117.35388889"},{"id":149171,"name":"Fanzhuang","native":null,"lat":"39.19361111","lon":"117.33500000"},{"id":149172,"name":"Fengtai (Ninghe)","native":null,"lat":"39.55805556","lon":"117.74916667"},{"id":149173,"name":"Fuzhuang","native":null,"lat":"39.26611111","lon":"117.93444444"},{"id":149174,"name":"Gaojingzhuang","native":null,"lat":"39.41611111","lon":"117.63000000"},{"id":149175,"name":"Hanjiashu","native":null,"lat":"39.18750000","lon":"117.07305556"},{"id":149176,"name":"Hebeitun","native":null,"lat":"39.57472222","lon":"117.11333333"},{"id":149177,"name":"Hexiwu","native":null,"lat":"39.62249000","lon":"116.95398000"},{"id":149178,"name":"Huangcaotuo","native":null,"lat":"39.17944444","lon":"117.32166667"},{"id":149179,"name":"Huantuo","native":null,"lat":"39.22638889","lon":"117.32388889"},{"id":149180,"name":"Huogezhuang","native":null,"lat":"39.74388889","lon":"117.36750000"},{"id":149181,"name":"Jiangwakou","native":null,"lat":"39.52250000","lon":"117.70250000"},