[{"name":"Anhui","native":null,"cities":[{"name":"Anqing","native":null,"lat":"30.51365000","lon":"117.04723000"},{"name":"Anqing Shi","native":null,"lat":"30.66266000","lon":"116.55911000"},{"name":"Bengbu","native":null,"lat":"32.94083000","lon":"117.36083000"},{"name":"Bozhou","native":null,"lat":"33.87722000","lon":"115.77028000"},{"name":"Chaohu","native":null,"lat":"31.60000000","lon":"117.86667000"},{"name":"Chizhou","native":null,"lat":"30.66134000","lon":"117.47783000"},{"name":"Chizhou Shi","native":null,"lat":"30.30431000","lon":"117.41388000"},{"name":"Chuzhou","native":null,"lat":"32.32194000","lon":"118.29778000"},{"name":"Chuzhou Shi","native":null,"lat":"32.60084000","lon":"118.08813000"},{"name":"Datong","native":null,"lat":"32.62082000","lon":"117.06319000"},{"name":"Fuyang","native":null,"lat":"32.90000000","lon":"115.81667000"},{"name":"Fuyang Shi","native":null,"lat":"32.93718000","lon":"115.70778000"},{"name":"Gushu","native":null,"lat":"31.56055000","lon":"118.48147000"},{"name":"Hefei","native":null,"lat":"31.86389000","lon":"117.28083000"},{"name":"Hefei Shi","native":null,"lat":"31.94665000","lon":"117.27805000"},{"name":"Huaibei","native":null,"lat":"33.97444000","lon":"116.79167000"},{"name":"Huainan","native":null,"lat":"32.62639000","lon":"116.99694000"},{"name":"Huainan Shi","native":null,"lat":"32.73824000","lon":"116.78813000"},{"name":"Huaiyuan Chengguanzhen","native":null,"lat":"32.95893000","lon":"117.16566000"},{"name":"Huangshan","native":null,"lat":"29.71139000","lon":"118.31250000"},{"name":"Huangshan Shi","native":null,"lat":"29.89195000","lon":"118.10553000"},{"name":"Huoqiu Chengguanzhen","native":null,"lat":"32.35473000","lon":"116.29390000"},{"name":"Jieshou","native":null,"lat":"33.26338000","lon":"115.36108000"},{"name":"Lu’an","native":null,"lat":"31.73561000","lon":"116.51688000"},{"name":"Lucheng","native":null,"lat":"31.23357000","lon":"117.28057000"},{"name":"Mengcheng Chengguanzhen","native":null,"lat":"33.26611000","lon":"116.56605000"},{"name":"Mingguang","native":null,"lat":"32.78017000","lon":"117.96378000"},{"name":"Suixi","native":null,"lat":"33.89067000","lon":"116.77473000"},{"name":"Suzhou","native":null,"lat":"33.63611000","lon":"116.97889000"},{"name":"Suzhou Shi","native":null,"lat":"33.86970000","lon":"117.20569000"},{"name":"Tangzhai","native":null,"lat":"34.43278000","lon":"116.59111000"},{"name":"Wucheng","native":null,"lat":"29.60077000","lon":"118.17495000"},{"name":"Wuhu","native":null,"lat":"31.33728000","lon":"118.37351000"},{"name":"Wusong","native":null,"lat":"30.95000000","lon":"117.78333000"},{"name":"Wuyang","native":null,"lat":"31.99250000","lon":"116.24722000"},{"name":"Xuanzhou","native":null,"lat":"30.95250000","lon":"118.75528000"},{"name":"Yingshang Chengguanzhen","native":null,"lat":"32.62945000","lon":"116.27013000"}]},{"name":"Beijing","native":null,"cities":[{"name":"Beijing","native":null,"lat":"39.90750000","lon":"116.39723000"},{"name":"Changping","native":null,"lat":"40.21612000","lon":"116.23471000"},{"name":"Daxing","native":null,"lat":"39.74025000","lon":"116.32693000"},{"name":"Fangshan","native":null,"lat":"39.68699000","lon":"115.99658000"},{"name":"Liangxiang","native":null,"lat":"39.73598000","lon":"116.13295000"},{"name":"Mentougou","native":null,"lat":"39.93819000","lon":"116.09307000"},{"name":"Shunyi","native":null,"lat":"40.12175000","lon":"116.64783000"},{"name":"Tongzhou","native":null,"lat":"39.90395000","lon":"116.66183000"}]},{"name":"Chongqing","native":null,"cities":[{"name":"Beibei","native":null,"lat":"29.82739000","lon":"106.43645000"},{"name":"Caijia","native":null,"lat":"28.90889000","lon":"106.34040000"},{"name":"Chongqing","native":null,"lat":"29.56278000","lon":"106.55278000"},{"name":"Dongxi","native":null,"lat":"28.76139000","lon":"106.66111000"},{"name":"Fuling","native":null,"lat":"29.70600000","lon":"107.39575000"},{"name":"Ganshui","native":null,"lat":"28.74222000","lon":"106.71111000"},{"name":"Guofuchang","native":null,"lat":"28.85000000","lon":"106.60139000"},{"name":"Hechuan","native":null,"lat":"29.99228000","lon":"106.26461000"},{"name":"Jijiang","native":null,"lat":"29.28993000","lon":"106.25001000"},{"name":"Liangping District","native":null,"lat":"30.67409000","lon":"107.79380000"},{"name":"Puhechang","native":null,"lat":"28.95250000","lon":"106.83111000"},{"name":"Shapingba District","native":null,"lat":"29.54166000","lon":"106.45547000"},{"name":"Shijiaochang","native":null,"lat":"28.92444000","lon":"106.75611000"},{"name":"Wanxian","native":null,"lat":"30.81544000","lon":"108.37089000"},{"name":"Wanzhou District","native":null,"lat":"30.70576000","lon":"108.40202000"},{"name":"Yongchuan","native":null,"lat":"29.35376000","lon":"105.89392000"},{"name":"Yudong","native":null,"lat":"29.38500000","lon":"106.51944000"},{"name":"Yuzhong District","native":null,"lat":"29.55208000","lon":"106.53814000"}]},{"name":"Fujian","native":null,"cities":[{"name":"Badu","native":null,"lat":"26.81028000","lon":"119.56417000"},{"name":"Baiqi","native":null,"lat":"24.88244000","lon":"118.70869000"},{"name":"Baiyun","native":null,"lat":"26.03648000","lon":"118.90622000"},{"name":"Beishancun","native":null,"lat":"26.43732000","lon":"119.63372000"},{"name":"Changqiao","native":null,"lat":"26.82139000","lon":"118.84361000"},{"name":"Chengmen","native":null,"lat":"25.99339000","lon":"119.36136000"},{"name":"Chixi","native":null,"lat":"26.91111000","lon":"119.48306000"},{"name":"Chongru","native":null,"lat":"26.95111000","lon":"119.92528000"},{"name":"Dadeng","native":null,"lat":"24.54386000","lon":"118.32753000"},{"name":"Daixi","native":null,"lat":"26.81250000","lon":"119.11417000"},{"name":"Danyang","native":null,"lat":"26.35102000","lon":"119.48030000"},{"name":"Daqiao","native":null,"lat":"26.61500000","lon":"118.90639000"},{"name":"Dazuo","native":null,"lat":"24.88616000","lon":"118.96433000"},{"name":"Dinghaicun","native":null,"lat":"26.28022000","lon":"119.78964000"},{"name":"Dingtoucun","native":null,"lat":"26.83977000","lon":"119.66111000"},{"name":"Dongchongcun","native":null,"lat":"26.54001000","lon":"119.83257000"},{"name":"Dongdai","native":null,"lat":"26.24366000","lon":"119.61566000"},{"name":"Donghu","native":null,"lat":"26.23453000","lon":"119.51430000"},{"name":"Dongling","native":null,"lat":"24.98271000","lon":"118.89790000"},{"name":"Dongyuan","native":null,"lat":"24.91738000","lon":"118.75236000"},{"name":"Feiluan","native":null,"lat":"26.56250000","lon":"119.59750000"},{"name":"Fengpu","native":null,"lat":"26.68276000","lon":"118.76006000"},{"name":"Fengzhou","native":null,"lat":"24.95762000","lon":"118.53365000"},{"name":"Fu’an","native":null,"lat":"27.06372000","lon":"119.65280000"},{"name":"Fuding","native":null,"lat":"27.32734000","lon":"120.21399000"},{"name":"Fuqing","native":null,"lat":"25.72500000","lon":"119.37944000"},{"name":"Fuzhou","native":null,"lat":"26.06139000","lon":"119.30611000"},{"name":"Gantang","native":null,"lat":"26.92000000","lon":"119.63333000"},{"name":"Guantou","native":null,"lat":"26.13593000","lon":"119.56162000"},{"name":"Gufeng","native":null,"lat":"26.90833000","lon":"118.98194000"},{"name":"Hetang","native":null,"lat":"26.66276000","lon":"119.11062000"},{"name":"Hongtang","native":null,"lat":"26.07056000","lon":"119.23083000"},{"name":"Hongyang","native":null,"lat":"26.52861000","lon":"119.46250000"},{"name":"Houyu","native":null,"lat":"26.05958000","lon":"119.53502000"},{"name":"Huai’an","native":null,"lat":"26.09899000","lon":"119.22171000"},{"name":"Huangtian","native":null,"lat":"26.43851000","lon":"118.62398000"},{"name":"Huotong","native":null,"lat":"26.84972000","lon":"119.41806000"},{"name":"Jian’ou","native":null,"lat":"27.04694000","lon":"118.32528000"},{"name":"Jiangkou","native":null,"lat":"25.48694000","lon":"119.19834000"},{"name":"Jianjiang","native":null,"lat":"26.54972000","lon":"119.75500000"},{"name":"Jingfeng","native":null,"lat":"24.97441000","lon":"118.96486000"},{"name":"Jinjiang","native":null,"lat":"24.81978000","lon":"118.57415000"},{"name":"Jinjing","native":null,"lat":"24.57500000","lon":"118.59722000"},{"name":"Jitoucun","native":null,"lat":"26.47681000","lon":"119.60517000"},{"name":"Kengyuan","native":null,"lat":"26.33964000","lon":"119.76476000"},{"name":"Kerencun","native":null,"lat":"24.58213000","lon":"118.66046000"},{"name":"Kuai’an","native":null,"lat":"26.03417000","lon":"119.41639000"},{"name":"Lianhecun","native":null,"lat":"24.58932000","lon":"118.33903000"},{"name":"Liuwudiancun","native":null,"lat":"24.56923000","lon":"118.19064000"},{"name":"Longmen","native":null,"lat":"24.95972000","lon":"118.08889000"},{"name":"Longyan","native":null,"lat":"25.10722000","lon":"117.02250000"},{"name":"Luoqiao","native":null,"lat":"26.47265000","lon":"119.00392000"},{"name":"Luoyang","native":null,"lat":"24.95938000","lon":"118.68300000"},{"name":"Luxia","native":null,"lat":"26.93000000","lon":"118.80722000"},{"name":"Maping","native":null,"lat":"24.68722000","lon":"118.55278000"},{"name":"Meipu","native":null,"lat":"26.21120000","lon":"118.89561000"},{"name":"Min’an","native":null,"lat":"26.04962000","lon":"119.49964000"},{"name":"Nanping","native":null,"lat":"26.64500000","lon":"118.17361000"},{"name":"Neikeng","native":null,"lat":"24.78544000","lon":"118.46037000"},{"name":"Ningde","native":null,"lat":"26.66167000","lon":"119.52278000"},{"name":"Pandu","native":null,"lat":"26.23639000","lon":"119.45026000"},{"name":"Pucheng","native":null,"lat":"27.92333000","lon":"118.53333000"},{"name":"Putian","native":null,"lat":"25.43944000","lon":"119.01028000"},{"name":"Qibu","native":null,"lat":"26.50750000","lon":"119.54500000"},{"name":"Qidu","native":null,"lat":"26.76528000","lon":"119.54722000"},{"name":"Quanzhou","native":null,"lat":"24.91389000","lon":"118.58583000"},{"name":"Rong’an","native":null,"lat":"26.12472000","lon":"119.12139000"},{"name":"Sanming","native":null,"lat":"26.24861000","lon":"117.61861000"},{"name":"Shajiang","native":null,"lat":"26.78250000","lon":"119.96694000"},{"name":"Shangjie","native":null,"lat":"26.08679000","lon":"119.18494000"},{"name":"Shanxia","native":null,"lat":"24.93802000","lon":"118.88170000"},{"name":"Shanyang","native":null,"lat":"26.67019000","lon":"119.20509000"},{"name":"Shaowu","native":null,"lat":"27.34089000","lon":"117.48310000"},{"name":"Shijing","native":null,"lat":"24.61956000","lon":"118.42437000"},{"name":"Shima","native":null,"lat":"24.44647000","lon":"117.81216000"},{"name":"Shoushan","native":null,"lat":"26.96444000","lon":"119.16167000"},{"name":"Shuangxi","native":null,"lat":"27.02248000","lon":"119.04140000"},{"name":"Shuangzhu","native":null,"lat":"26.63114000","lon":"118.64570000"},{"name":"Shuikou","native":null,"lat":"26.38360000","lon":"118.73027000"},{"name":"Tangkou","native":null,"lat":"26.95417000","lon":"119.01278000"},{"name":"Tantou","native":null,"lat":"26.03033000","lon":"119.59739000"},{"name":"Tatou","native":null,"lat":"24.61732000","lon":"118.52672000"},{"name":"Tingjiang","native":null,"lat":"26.07401000","lon":"119.50574000"},{"name":"Tuzhai","native":null,"lat":"24.98301000","lon":"118.83194000"},{"name":"Wubao","native":null,"lat":"24.59589000","lon":"118.55359000"},{"name":"Wuyishan","native":null,"lat":"27.75995000","lon":"118.03066000"},{"name":"Wuyucun","native":null,"lat":"24.33551000","lon":"118.14489000"},{"name":"Xiabaishi","native":null,"lat":"26.81528000","lon":"119.67917000"},{"name":"Xiahu","native":null,"lat":"26.61056000","lon":"119.94833000"},{"name":"Xiamen","native":null,"lat":"24.47979000","lon":"118.08187000"},{"name":"Xiancun","native":null,"lat":"26.93861000","lon":"119.36028000"},{"name":"Xiangyun","native":null,"lat":"24.97111000","lon":"118.16028000"},{"name":"Xibing","native":null,"lat":"26.98139000","lon":"119.72472000"},{"name":"Xiling","native":null,"lat":"26.81444000","lon":"119.04722000"},{"name":"Ximei","native":null,"lat":"24.98773000","lon":"118.38580000"},{"name":"Xinan","native":null,"lat":"26.72000000","lon":"119.85556000"},{"name":"Xindian","native":null,"lat":"24.61006000","lon":"118.24068000"},{"name":"Yakou","native":null,"lat":"24.67194000","lon":"118.63722000"},{"name":"Yanghou","native":null,"lat":"26.64083000","lon":"118.50806000"},{"name":"Yangzhong","native":null,"lat":"26.70556000","lon":"119.37444000"},{"name":"Yantian","native":null,"lat":"26.85333000","lon":"119.85750000"},{"name":"Yingdu","native":null,"lat":"24.97167000","lon":"118.24417000"},{"name":"Yinglin","native":null,"lat":"24.63222000","lon":"118.58056000"},{"name":"Yongning","native":null,"lat":"24.68000000","lon":"118.69000000"},{"name":"Yushan","native":null,"lat":"26.90863000","lon":"118.56713000"},{"name":"Zhangwan","native":null,"lat":"26.71139000","lon":"119.59194000"},{"name":"Zhangzhou","native":null,"lat":"24.51333000","lon":"117.65556000"},{"name":"Zhenhaicun","native":null,"lat":"24.25894000","lon":"118.09186000"},{"name":"Zhongfang","native":null,"lat":"26.60083000","lon":"119.42583000"},{"name":"Zhuoyang","native":null,"lat":"26.63003000","lon":"119.02150000"},{"name":"Zhuqi","native":null,"lat":"26.14860000","lon":"119.10216000"}]},{"name":"Gansu","native":null,"cities":[{"name":"Baiyin","native":null,"lat":"36.54696000","lon":"104.17023000"},{"name":"Beidao","native":null,"lat":"34.56861000","lon":"105.89333000"},{"name":"Dingxi Shi","native":null,"lat":"35.03710000","lon":"104.38623000"},{"name":"Hezuo","native":null,"lat":"34.98556000","lon":"102.90944000"},{"name":"Jiayuguan","native":null,"lat":"39.81121000","lon":"98.28618000"},{"name":"Jinchang","native":null,"lat":"38.50062000","lon":"102.19379000"},{"name":"Jiuquan","native":null,"lat":"39.74318000","lon":"98.51736000"},{"name":"Lanzhou","native":null,"lat":"36.05701000","lon":"103.83987000"},{"name":"Laojunmiao","native":null,"lat":"39.83333000","lon":"97.73333000"},{"name":"Linxia Chengguanzhen","native":null,"lat":"35.60028000","lon":"103.20639000"},{"name":"Linxia Huizu Zizhizhou","native":null,"lat":"35.66597000","lon":"103.24080000"},{"name":"Longnan Shi","native":null,"lat":"33.53451000","lon":"105.34947000"},{"name":"Mawu","native":null,"lat":"34.42639000","lon":"104.91472000"},{"name":"Pingliang","native":null,"lat":"35.53917000","lon":"106.68611000"},{"name":"Qincheng","native":null,"lat":"34.58028000","lon":"105.72722000"},{"name":"Qingyang Shi","native":null,"lat":"36.23598000","lon":"107.58113000"},{"name":"Tianshui","native":null,"lat":"34.57952000","lon":"105.74238000"},{"name":"Wuwei","native":null,"lat":"37.92672000","lon":"102.63202000"},{"name":"Zhangye","native":null,"lat":"38.93417000","lon":"100.45167000"},{"name":"Zhangye Shi","native":null,"lat":"39.12183000","lon":"99.92495000"}]},{"name":"Guangdong","native":null,"cities":[{"name":"Anbu","native":null,"lat":"23.44895000","lon":"116.68092000"},{"name":"Chaozhou","native":null,"lat":"23.65396000","lon":"116.62262000"},{"name":"Chenghua","native":null,"lat":"23.46132000","lon":"116.77007000"},{"name":"Daliang","native":null,"lat":"22.84067000","lon":"113.25030000"},{"name":"Danshui","native":null,"lat":"22.79840000","lon":"114.46716000"},{"name":"Dasha","native":null,"lat":"23.11037000","lon":"113.44180000"},{"name":"Dongguan","native":null,"lat":"23.01797000","lon":"113.74866000"},{"name":"Donghai","native":null,"lat":"22.94593000","lon":"115.64204000"},{"name":"Ducheng","native":null,"lat":"23.24212000","lon":"111.52840000"},{"name":"Encheng","native":null,"lat":"22.18659000","lon":"112.30424000"},{"name":"Foshan","native":null,"lat":"23.02677000","lon":"113.13148000"},{"name":"Foshan Shi","native":null,"lat":"23.02264000","lon":"112.96302000"},{"name":"Gaoyao","native":null,"lat":"23.02432000","lon":"112.44555000"},{"name":"Gaozhou","native":null,"lat":"21.93924000","lon":"110.84607000"},{"name":"Guangzhou","native":null,"lat":"23.11667000","lon":"113.25000000"},{"name":"Guangzhou Shi","native":null,"lat":"23.37327000","lon":"113.51219000"},{"name":"Haikuotiankong","native":null,"lat":"22.52881000","lon":"113.93990000"},{"name":"Haimen","native":null,"lat":"23.19346000","lon":"116.61219000"},{"name":"Hepo","native":null,"lat":"23.43077000","lon":"115.82991000"},{"name":"Heyuan","native":null,"lat":"23.73333000","lon":"114.68333000"},{"name":"Huaicheng","native":null,"lat":"23.91952000","lon":"112.17629000"},{"name":"Huanggang","native":null,"lat":"23.67704000","lon":"116.99961000"},{"name":"Huazhou","native":null,"lat":"21.63333000","lon":"110.58333000"},{"name":"Huicheng","native":null,"lat":"23.03845000","lon":"116.28988000"},{"name":"Huizhou","native":null,"lat":"23.11147000","lon":"114.41523000"},{"name":"Humen","native":null,"lat":"22.81899000","lon":"113.67306000"},{"name":"Jiangmen","native":null,"lat":"22.58333000","lon":"113.08333000"},{"name":"Jiazi","native":null,"lat":"22.87932000","lon":"116.07318000"},{"name":"Jieshi","native":null,"lat":"22.81027000","lon":"115.83058000"},{"name":"Jieyang","native":null,"lat":"23.54180000","lon":"116.36581000"},{"name":"Lecheng","native":null,"lat":"25.12800000","lon":"113.35041000"},{"name":"Lianjiang","native":null,"lat":"21.64673000","lon":"110.28172000"},{"name":"Lianzhou","native":null,"lat":"24.78186000","lon":"112.37120000"},{"name":"Licheng","native":null,"lat":"23.29549000","lon":"113.82465000"},{"name":"Lubu","native":null,"lat":"23.17233000","lon":"112.28298000"},{"name":"Luocheng","native":null,"lat":"22.76953000","lon":"111.56882000"},{"name":"Luoyang","native":null,"lat":"23.16244000","lon":"114.27342000"},{"name":"Maba","native":null,"lat":"24.68413000","lon":"113.59839000"},{"name":"Maoming","native":null,"lat":"21.65000000","lon":"110.90000000"},{"name":"Meizhou","native":null,"lat":"24.28859000","lon":"116.11768000"},{"name":"Nanfeng","native":null,"lat":"23.72695000","lon":"111.79723000"},{"name":"Pingshan","native":null,"lat":"22.99376000","lon":"114.71311000"},{"name":"Puning","native":null,"lat":"23.31072000","lon":"116.16869000"},{"name":"Qingyuan","native":null,"lat":"23.70000000","lon":"113.03333000"},{"name":"Sanshui","native":null,"lat":"23.15486000","lon":"112.89161000"},{"name":"Shantou","native":null,"lat":"23.36814000","lon":"116.71479000"},{"name":"Shanwei","native":null,"lat":"22.78199000","lon":"115.34750000"},{"name":"Shaoguan","native":null,"lat":"24.80000000","lon":"113.58333000"},{"name":"Shaping","native":null,"lat":"22.77019000","lon":"112.95776000"},{"name":"Shenzhen","native":null,"lat":"22.55653000","lon":"113.98590000"},{"name":"Shilong","native":null,"lat":"23.11444000","lon":"113.84722000"},{"name":"Shiqi","native":null,"lat":"22.51682000","lon":"113.38521000"},{"name":"Shiqiao","native":null,"lat":"22.94640000","lon":"113.35769000"},{"name":"Shiwan","native":null,"lat":"23.00107000","lon":"113.07700000"},{"name":"Shixing","native":null,"lat":"24.94824000","lon":"114.06572000"},{"name":"Taishan","native":null,"lat":"22.25135000","lon":"112.77990000"},{"name":"Tangping","native":null,"lat":"22.03177000","lon":"111.93537000"},{"name":"Wuchuan","native":null,"lat":"21.45713000","lon":"110.76591000"},{"name":"Xingning","native":null,"lat":"24.14830000","lon":"115.72272000"},{"name":"Xinhui","native":null,"lat":"22.45600000","lon":"113.04820000"},{"name":"Xinyi","native":null,"lat":"22.37303000","lon":"110.94746000"},{"name":"Xiongzhou","native":null,"lat":"25.11667000","lon":"114.30000000"},{"name":"Xucheng","native":null,"lat":"20.32917000","lon":"110.16712000"},{"name":"Yangchun","native":null,"lat":"22.16667000","lon":"111.78333000"},{"name":"Yangjiang","native":null,"lat":"21.85563000","lon":"111.96272000"},{"name":"Yingcheng","native":null,"lat":"24.16588000","lon":"113.41267000"},{"name":"Yunfu","native":null,"lat":"22.92833000","lon":"112.03954000"},{"name":"Zhanjiang","native":null,"lat":"21.28145000","lon":"110.34271000"},{"name":"Zhaoqing","native":null,"lat":"23.04893000","lon":"112.46091000"},{"name":"Zhongshan","native":null,"lat":"21.31992000","lon":"110.57230000"},{"name":"Zhongshan Prefecture","native":null,"lat":"22.55358000","lon":"113.37550000"},{"name":"Zhuhai","native":null,"lat":"22.27694000","lon":"113.56778000"}]},{"name":"Guangxi Zhuang","native":null,"cities":[{"name":"Babu","native":null,"lat":"24.41667000","lon":"111.51667000"},{"name":"Baihe","native":null,"lat":"22.13430000","lon":"107.23200000"},{"name":"Baise City","native":null,"lat":"23.89972000","lon":"106.61333000"},{"name":"Baise Shi","native":null,"lat":"23.90000000","lon":"106.61667000"},{"name":"Beihai","native":null,"lat":"21.48333000","lon":"109.10000000"},{"name":"Chongzuo Shi","native":null,"lat":"22.46541000","lon":"107.39622000"},{"name":"Dazhai","native":null,"lat":"25.80980000","lon":"110.15000000"},{"name":"Fangchenggang Shi","native":null,"lat":"21.93580000","lon":"107.95932000"},{"name":"Guigang","native":null,"lat":"23.09639000","lon":"109.60917000"},{"name":"Guilin","native":null,"lat":"25.28194000","lon":"110.28639000"},{"name":"Guilin Shi","native":null,"lat":"25.28333000","lon":"110.28333000"},{"name":"Guiping","native":null,"lat":"23.39336000","lon":"110.07437000"},{"name":"Hechi Shi","native":null,"lat":"24.70000000","lon":"108.03000000"},{"name":"Jinji","native":null,"lat":"23.22806000","lon":"110.82611000"},{"name":"Laibin","native":null,"lat":"23.70000000","lon":"109.26667000"},{"name":"Lianzhou","native":null,"lat":"21.66621000","lon":"109.20116000"},{"name":"Lingcheng","native":null,"lat":"22.70722000","lon":"110.34917000"},{"name":"Liuzhou Shi","native":null,"lat":"24.31667000","lon":"109.40000000"},{"name":"Luorong","native":null,"lat":"24.40583000","lon":"109.60861000"},{"name":"Nandu","native":null,"lat":"22.85250000","lon":"110.82333000"},{"name":"Nanning","native":null,"lat":"22.81667000","lon":"108.31667000"},{"name":"Pingnan","native":null,"lat":"23.54218000","lon":"110.38946000"},{"name":"Pumiao","native":null,"lat":"22.75867000","lon":"108.48111000"},{"name":"Qinzhou","native":null,"lat":"21.97296000","lon":"108.62612000"},{"name":"Wuzhou","native":null,"lat":"23.48333000","lon":"111.31667000"},{"name":"Yangshuo","native":null,"lat":"24.78081000","lon":"110.48967000"},{"name":"Yashan","native":null,"lat":"22.19750000","lon":"109.94194000"},{"name":"Yulin","native":null,"lat":"22.63333000","lon":"110.15000000"}]},{"name":"Guizhou","native":null,"cities":[{"name":"Anshun","native":null,"lat":"26.25000000","lon":"105.93333000"},{"name":"Aoshi","native":null,"lat":"26.40167000","lon":"109.07111000"},{"name":"Bahuang","native":null,"lat":"27.71806000","lon":"109.01889000"},{"name":"Baishi","native":null,"lat":"26.97361000","lon":"109.44333000"},{"name":"Bangdong","native":null,"lat":"26.97556000","lon":"109.18583000"},{"name":"Benchu","native":null,"lat":"26.77111000","lon":"109.29056000"},{"name":"Bijie","native":null,"lat":"27.30193000","lon":"105.28627000"},{"name":"Chadian","native":null,"lat":"27.58194000","lon":"109.13278000"},{"name":"Changsha","native":null,"lat":"28.68778000","lon":"105.98972000"},{"name":"Chumi","native":null,"lat":"28.23361000","lon":"106.83278000"},{"name":"Dabachang","native":null,"lat":"27.74250000","lon":"108.34333000"},{"name":"Darong","native":null,"lat":"25.78500000","lon":"108.86400000"},{"name":"Dundong","native":null,"lat":"26.01190000","lon":"109.14100000"},{"name":"Duyun","native":null,"lat":"26.26667000","lon":"107.51667000"},{"name":"Gaoniang","native":null,"lat":"26.84250000","lon":"109.17889000"},{"name":"Gaowu","native":null,"lat":"25.56250000","lon":"108.90800000"},{"name":"Gaozeng","native":null,"lat":"25.80167000","lon":"108.93750000"},{"name":"Guandu","native":null,"lat":"28.56833000","lon":"106.10255000"},{"name":"Guiyang","native":null,"lat":"26.58333000","lon":"106.71667000"},{"name":"Huaqiu","native":null,"lat":"28.11665000","lon":"106.60225000"},{"name":"Lantian","native":null,"lat":"27.02500000","lon":"109.29472000"},{"name":"Liangcunchang","native":null,"lat":"28.40667000","lon":"106.42444000"},{"name":"Liupanshui","native":null,"lat":"26.59444000","lon":"104.83333000"},{"name":"Longlisuo","native":null,"lat":"26.41417000","lon":"109.10222000"},{"name":"Loushanguan","native":null,"lat":"28.13680000","lon":"106.82200000"},{"name":"Maoping","native":null,"lat":"26.73694000","lon":"109.22111000"},{"name":"Ouyang","native":null,"lat":"26.41910000","lon":"109.21600000"},{"name":"Pingjiang","native":null,"lat":"25.97056000","lon":"108.39528000"},{"name":"Qiandongnan Miao and Dong Autonomous Prefecture","native":null,"lat":"26.57380000","lon":"108.59914000"},{"name":"Qianxinan Bouyeizu Miaozu Zizhizhou","native":null,"lat":"25.38808000","lon":"105.38740000"},{"name":"Qimeng","native":null,"lat":"26.48472000","lon":"108.99944000"},{"name":"Qinglang","native":null,"lat":"27.12472000","lon":"108.73278000"},{"name":"Runsong","native":null,"lat":"26.87000000","lon":"109.09700000"},{"name":"Sanchahe","native":null,"lat":"28.49528000","lon":"106.42833000"},{"name":"Sangmu","native":null,"lat":"28.21528000","lon":"106.26889000"},{"name":"Shiqian","native":null,"lat":"27.52250000","lon":"108.22806000"},{"name":"Songkan","native":null,"lat":"28.54972000","lon":"106.85972000"},{"name":"Tingdong","native":null,"lat":"25.82444000","lon":"108.61250000"},{"name":"Tonggu","native":null,"lat":"26.57222000","lon":"109.30944000"},{"name":"Tongren","native":null,"lat":"27.71722000","lon":"109.18528000"},{"name":"Tongren Diqu","native":null,"lat":"27.74188000","lon":"109.19312000"},{"name":"Weining","native":null,"lat":"26.85000000","lon":"104.23333000"},{"name":"Wenshui","native":null,"lat":"28.45056000","lon":"106.52667000"},{"name":"Xiajiang","native":null,"lat":"25.75556000","lon":"108.69194000"},{"name":"Xiaoweizhai","native":null,"lat":"26.19028000","lon":"107.51250000"},{"name":"Xinzhan","native":null,"lat":"28.38833000","lon":"106.85667000"},{"name":"Xishan","native":null,"lat":"25.68528000","lon":"108.96389000"},{"name":"Xujiaba","native":null,"lat":"27.88472000","lon":"108.11361000"},{"name":"Yangtou","native":null,"lat":"27.68944000","lon":"109.41389000"},{"name":"Youyupu","native":null,"lat":"27.55170000","lon":"109.13500000"},{"name":"Zhongchao","native":null,"lat":"26.13750000","lon":"109.22000000"},{"name":"Zhujiachang","native":null,"lat":"27.35750000","lon":"108.93833000"},{"name":"Zunyi","native":null,"lat":"27.68667000","lon":"106.90722000"}]},{"name":"Hainan","native":null,"cities":[{"name":"Basuo","native":null,"lat":"19.09390000","lon":"108.65456000"},{"name":"Chongshan","native":null,"lat":"18.78229000","lon":"109.50130000"},{"name":"Dadonghai","native":null,"lat":"18.22056000","lon":"109.51028000"},{"name":"Haikou","native":null,"lat":"20.04583000","lon":"110.34167000"},{"name":"Jinjiang","native":null,"lat":"19.72878000","lon":"110.00851000"},{"name":"Lincheng","native":null,"lat":"19.90778000","lon":"109.68583000"},{"name":"Nada","native":null,"lat":"19.52257000","lon":"109.57860000"},{"name":"Qionghai","native":null,"lat":"19.24250000","lon":"110.46417000"},{"name":"Qiongshan","native":null,"lat":"20.00583000","lon":"110.35417000"},{"name":"Sansha","native":null,"lat":"16.83387000","lon":"112.33435000"},{"name":"Sanya","native":null,"lat":"18.24306000","lon":"109.50500000"},{"name":"Wanning","native":null,"lat":"18.79931000","lon":"110.38410000"},{"name":"Wenchang","native":null,"lat":"19.61570000","lon":"110.74894000"},{"name":"Xiuying","native":null,"lat":"20.00073000","lon":"110.29359000"}]},{"name":"Hebei","native":null,"cities":[{"name":"Baoding","native":null,"lat":"38.85111000","lon":"115.49028000"},{"name":"Beidaihehaibin","native":null,"lat":"39.82222000","lon":"119.51806000"},{"name":"Botou","native":null,"lat":"38.06667000","lon":"116.56660000"},{"name":"Cangzhou","native":null,"lat":"38.31667000","lon":"116.86667000"},{"name":"Cangzhou Shi","native":null,"lat":"38.31000000","lon":"116.86000000"},{"name":"Changli","native":null,"lat":"39.70417000","lon":"119.15056000"},{"name":"Chengde","native":null,"lat":"40.95190000","lon":"117.95883000"},{"name":"Chengde Prefecture","native":null,"lat":"40.97000000","lon":"117.93000000"},{"name":"Dingzhou","native":null,"lat":"38.51306000","lon":"114.99556000"},{"name":"Fengrun","native":null,"lat":"39.83333000","lon":"118.11667000"},{"name":"Guye","native":null,"lat":"39.73054000","lon":"118.44085000"},{"name":"Handan","native":null,"lat":"36.60056000","lon":"114.46778000"},{"name":"Hecun","native":null,"lat":"36.53333000","lon":"114.11111000"},{"name":"Hengshui","native":null,"lat":"37.73222000","lon":"115.70111000"},{"name":"Langfang","native":null,"lat":"39.50972000","lon":"116.69472000"},{"name":"Langfang Shi","native":null,"lat":"39.51667000","lon":"116.68333000"},{"name":"Linshui","native":null,"lat":"36.42472000","lon":"114.20472000"},{"name":"Linxi","native":null,"lat":"39.71183000","lon":"118.44954000"},{"name":"Luancheng","native":null,"lat":"37.87917000","lon":"114.65167000"},{"name":"Nangong","native":null,"lat":"37.35806000","lon":"115.37444000"},{"name":"Pengcheng","native":null,"lat":"36.43111000","lon":"114.17000000"},{"name":"Qinhuangdao","native":null,"lat":"39.93167000","lon":"119.58833000"},{"name":"Renqiu","native":null,"lat":"38.69889000","lon":"116.09361000"},{"name":"Shahecheng","native":null,"lat":"36.93833000","lon":"114.50583000"},{"name":"Shanhaiguan","native":null,"lat":"40.00250000","lon":"119.74889000"},{"name":"Shijiazhuang","native":null,"lat":"38.04139000","lon":"114.47861000"},{"name":"Shijiazhuang Shi","native":null,"lat":"38.04000000","lon":"114.47000000"},{"name":"Songling","native":null,"lat":"40.29303000","lon":"118.26908000"},{"name":"Tangjiazhuang","native":null,"lat":"39.74326000","lon":"118.45099000"},{"name":"Tangshan","native":null,"lat":"39.63333000","lon":"118.18333000"},{"name":"Tangshan Shi","native":null,"lat":"39.63000000","lon":"118.18000000"},{"name":"Tianchang","native":null,"lat":"37.99806000","lon":"114.01556000"},{"name":"Xingtai","native":null,"lat":"37.06306000","lon":"114.49417000"},{"name":"Xinji","native":null,"lat":"37.90278000","lon":"115.20361000"},{"name":"Zhangjiakou","native":null,"lat":"40.81000000","lon":"114.87944000"},{"name":"Zhangjiakou Shi","native":null,"lat":"40.83333000","lon":"114.93333000"},{"name":"Zhangjiakou Shi Xuanhua Qu","native":null,"lat":"40.61028000","lon":"115.04472000"},{"name":"Zhaogezhuang","native":null,"lat":"39.76538000","lon":"118.41191000"},{"name":"Zunhua","native":null,"lat":"40.17917000","lon":"117.95861000"}]},{"name":"Heilongjiang","native":null,"cities":[{"name":"Acheng","native":null,"lat":"45.54545000","lon":"126.97703000"},{"name":"Anda","native":null,"lat":"46.40202000","lon":"125.31454000"},{"name":"Baiquan","native":null,"lat":"47.60605000","lon":"126.08481000"},{"name":"Bamiantong","native":null,"lat":"44.91738000","lon":"130.52000000"},{"name":"Baoqing","native":null,"lat":"46.33167000","lon":"132.21111000"},{"name":"Baoshan","native":null,"lat":"46.55861000","lon":"131.42444000"},{"name":"Bayan","native":null,"lat":"46.07556000","lon":"127.39840000"},{"name":"Bei’an","native":null,"lat":"48.26667000","lon":"126.60000000"},{"name":"Binzhou","native":null,"lat":"45.75281000","lon":"127.47986000"},{"name":"Boli","native":null,"lat":"45.75279000","lon":"130.57211000"},{"name":"Chaihe","native":null,"lat":"44.75980000","lon":"129.67826000"},{"name":"Chengzihe","native":null,"lat":"45.33333000","lon":"131.06667000"},{"name":"Daqing","native":null,"lat":"46.58333000","lon":"125.00000000"},{"name":"Dongning","native":null,"lat":"44.06219000","lon":"131.12075000"},{"name":"Dongxing","native":null,"lat":"45.36088000","lon":"130.78679000"},{"name":"Fendou","native":null,"lat":"46.64142000","lon":"124.86283000"},{"name":"Fengxiang","native":null,"lat":"47.57549000","lon":"130.82306000"},{"name":"Fujin","native":null,"lat":"47.26000000","lon":"132.03222000"},{"name":"Fuli","native":null,"lat":"46.72167000","lon":"131.13944000"},{"name":"Fuyu","native":null,"lat":"47.79756000","lon":"124.45731000"},{"name":"Fuyuan","native":null,"lat":"48.36306000","lon":"134.28917000"},{"name":"Gannan","native":null,"lat":"47.91472000","lon":"123.50306000"},{"name":"Hailin","native":null,"lat":"44.57149000","lon":"129.38539000"},{"name":"Hailun","native":null,"lat":"47.45650000","lon":"126.95368000"},{"name":"Harbin","native":null,"lat":"45.75000000","lon":"126.65000000"},{"name":"Hegang","native":null,"lat":"47.35118000","lon":"130.30012000"},{"name":"Heihe","native":null,"lat":"50.24413000","lon":"127.49016000"},{"name":"Honggang","native":null,"lat":"46.40124000","lon":"124.88322000"},{"name":"Huanan","native":null,"lat":"46.22070000","lon":"130.52500000"},{"name":"Hulan","native":null,"lat":"45.98333000","lon":"126.60000000"},{"name":"Hulan Ergi","native":null,"lat":"47.20417000","lon":"123.63333000"},{"name":"Jiamusi","native":null,"lat":"46.79927000","lon":"130.31633000"},{"name":"Jidong","native":null,"lat":"45.21667000","lon":"131.08333000"},{"name":"Jixi","native":null,"lat":"45.30109000","lon":"130.95718000"},{"name":"Langxiang","native":null,"lat":"46.94985000","lon":"128.86849000"},{"name":"Lanxi","native":null,"lat":"46.25785000","lon":"126.28269000"},{"name":"Lianhe","native":null,"lat":"47.13333000","lon":"129.27426000"},{"name":"Lingdong","native":null,"lat":"46.56694000","lon":"131.14528000"},{"name":"Linkou","native":null,"lat":"45.28606000","lon":"130.26151000"},{"name":"Longfeng","native":null,"lat":"46.53168000","lon":"125.10380000"},{"name":"Longjiang","native":null,"lat":"47.33072000","lon":"123.17816000"},{"name":"Mingshui","native":null,"lat":"47.18150000","lon":"125.90027000"},{"name":"Mishan","native":null,"lat":"45.55000000","lon":"131.88333000"},{"name":"Mudanjiang","native":null,"lat":"44.58333000","lon":"129.60000000"},{"name":"Nehe","native":null,"lat":"48.48333000","lon":"124.83333000"},{"name":"Nenjiang","native":null,"lat":"49.17414000","lon":"125.21774000"},{"name":"Nianzishan","native":null,"lat":"47.51667000","lon":"122.88333000"},{"name":"Ning’an","native":null,"lat":"44.34395000","lon":"129.46556000"},{"name":"Qinggang","native":null,"lat":"46.68469000","lon":"126.10595000"},{"name":"Qiqihar","native":null,"lat":"47.34088000","lon":"123.96045000"},{"name":"Shangzhi","native":null,"lat":"45.21406000","lon":"127.97426000"},{"name":"Shanhecun","native":null,"lat":"45.71131000","lon":"128.58029000"},{"name":"Shuangcheng","native":null,"lat":"45.35000000","lon":"126.28333000"},{"name":"Shuangyashan","native":null,"lat":"46.63611000","lon":"131.15389000"},{"name":"Suifenhe","native":null,"lat":"44.39982000","lon":"131.14775000"},{"name":"Suihua","native":null,"lat":"46.63954000","lon":"126.99508000"},{"name":"Suileng","native":null,"lat":"47.24805000","lon":"127.09535000"},{"name":"Tahe","native":null,"lat":"52.33333000","lon":"124.73333000"},{"name":"Taihecun","native":null,"lat":"45.76347000","lon":"130.85048000"},{"name":"Taikang","native":null,"lat":"46.86135000","lon":"124.44200000"},{"name":"Tailai","native":null,"lat":"46.38909000","lon":"123.41371000"},{"name":"Tieli","native":null,"lat":"46.98043000","lon":"128.04497000"},{"name":"Wangkui","native":null,"lat":"46.83283000","lon":"126.47768000"},{"name":"Wuchang","native":null,"lat":"44.91428000","lon":"127.15001000"},{"name":"Xinqing","native":null,"lat":"48.28701000","lon":"129.52337000"},{"name":"Yichun","native":null,"lat":"47.72143000","lon":"128.87529000"},{"name":"Yilan","native":null,"lat":"46.31618000","lon":"129.55455000"},{"name":"Youhao","native":null,"lat":"47.85306000","lon":"128.83565000"},{"name":"Zhaodong","native":null,"lat":"46.06771000","lon":"125.98263000"},{"name":"Zhaoyuan","native":null,"lat":"45.50000000","lon":"125.13333000"},{"name":"Zhaozhou","native":null,"lat":"45.68333000","lon":"125.31667000"}]},{"name":"Henan","native":null,"cities":[{"name":"Anyang","native":null,"lat":"36.09600000","lon":"114.38278000"},{"name":"Anyang Shi","native":null,"lat":"36.13639000","lon":"114.33667000"},{"name":"Binhe","native":null,"lat":"32.68833000","lon":"112.82750000"},{"name":"Chengguan","native":null,"lat":"35.45861000","lon":"113.79778000"},{"name":"Chengjiao","native":null,"lat":"35.40495000","lon":"114.06043000"},{"name":"Daokou","native":null,"lat":"35.56389000","lon":"114.50583000"},{"name":"Dingcheng","native":null,"lat":"32.12722000","lon":"115.03944000"},{"name":"Hancheng","native":null,"lat":"32.51861000","lon":"112.35222000"},{"name":"Hebi","native":null,"lat":"35.89917000","lon":"114.19250000"},{"name":"Huaidian","native":null,"lat":"33.43333000","lon":"115.03333000"},{"name":"Huazhou","native":null,"lat":"32.68222000","lon":"112.08194000"},{"name":"Huichang","native":null,"lat":"34.90376000","lon":"112.78426000"},{"name":"Jianshe","native":null,"lat":"34.21750000","lon":"113.76889000"},{"name":"Jiaozuo","native":null,"lat":"35.23972000","lon":"113.23306000"},{"name":"Jishui","native":null,"lat":"33.73333000","lon":"115.40000000"},{"name":"Jiyuan","native":null,"lat":"35.09000000","lon":"112.58000000"},{"name":"Kaifeng","native":null,"lat":"34.79860000","lon":"114.30742000"},{"name":"Kaiyuan","native":null,"lat":"36.06813000","lon":"113.82209000"},{"name":"Lingbao Chengguanzhen","native":null,"lat":"34.51972000","lon":"110.86444000"},{"name":"Luohe","native":null,"lat":"33.56394000","lon":"114.04272000"},{"name":"Luohe Shi","native":null,"lat":"33.68806000","lon":"113.91306000"},{"name":"Luoyang","native":null,"lat":"34.68361000","lon":"112.45361000"},{"name":"Minggang","native":null,"lat":"32.45861000","lon":"114.04861000"},{"name":"Nanyang","native":null,"lat":"32.99472000","lon":"112.53278000"},{"name":"Pingdingshan","native":null,"lat":"33.73847000","lon":"113.30119000"},{"name":"Puyang Chengguanzhen","native":null,"lat":"35.70506000","lon":"115.01409000"},{"name":"Puyang Shi","native":null,"lat":"35.81333000","lon":"115.15500000"},{"name":"Qingping","native":null,"lat":"34.53656000","lon":"113.37526000"},{"name":"Runing","native":null,"lat":"33.00111000","lon":"114.35417000"},{"name":"Ruzhou","native":null,"lat":"34.16167000","lon":"112.82972000"},{"name":"Shangqiu","native":null,"lat":"34.45000000","lon":"115.65000000"},{"name":"Songyang","native":null,"lat":"34.45528000","lon":"113.02806000"},{"name":"Suohe","native":null,"lat":"34.78722000","lon":"113.35806000"},{"name":"Tanbei","native":null,"lat":"35.08806000","lon":"112.93944000"},{"name":"Wacheng","native":null,"lat":"33.78333000","lon":"114.51667000"},{"name":"Xiangcheng Chengguanzhen","native":null,"lat":"33.84703000","lon":"113.47780000"},{"name":"Xincheng","native":null,"lat":"33.63333000","lon":"115.18333000"},{"name":"Xinhualu","native":null,"lat":"34.39633000","lon":"113.72466000"},{"name":"Xinxiang","native":null,"lat":"35.19033000","lon":"113.80151000"},{"name":"Xinxiang Shi","native":null,"lat":"35.30861000","lon":"114.05111000"},{"name":"Xinyang","native":null,"lat":"32.12278000","lon":"114.06556000"},{"name":"Xixiang","native":null,"lat":"35.16278000","lon":"112.86500000"},{"name":"Xuchang","native":null,"lat":"34.03189000","lon":"113.86299000"},{"name":"Xuchang Shi","native":null,"lat":"34.14778000","lon":"113.71472000"},{"name":"Yakou","native":null,"lat":"33.29649000","lon":"113.52351000"},{"name":"Yanshi Chengguanzhen","native":null,"lat":"34.71601000","lon":"112.79568000"},{"name":"Yigou","native":null,"lat":"35.81139000","lon":"114.31667000"},{"name":"Yima","native":null,"lat":"34.73806000","lon":"111.88389000"},{"name":"Yingchuan","native":null,"lat":"34.16278000","lon":"113.46389000"},{"name":"Yunyang","native":null,"lat":"33.44743000","lon":"112.71422000"},{"name":"Zhengzhou","native":null,"lat":"34.75778000","lon":"113.64861000"},{"name":"Zhoukou","native":null,"lat":"33.63333000","lon":"114.63333000"},{"name":"Zhumadian","native":null,"lat":"32.97944000","lon":"114.02944000"},{"name":"Zhumadian Shi","native":null,"lat":"32.99417000","lon":"114.06167000"},{"name":"Zijinglu","native":null,"lat":"34.76000000","lon":"112.97139000"}]},{"name":"Hong Kong SAR","native":null,"cities":[]},{"name":"Hubei","native":null,"cities":[{"name":"Anlu","native":null,"lat":"31.25750000","lon":"113.67833000"},{"name":"Buhe","native":null,"lat":"30.28757000","lon":"112.22979000"},{"name":"Caidian","native":null,"lat":"30.58333000","lon":"114.03333000"},{"name":"Caohe","native":null,"lat":"30.22970000","lon":"115.43346000"},{"name":"Chengzhong","native":null,"lat":"30.94454000","lon":"113.55284000"},{"name":"Danjiangkou","native":null,"lat":"32.54278000","lon":"111.50861000"},{"name":"Daye","native":null,"lat":"30.08333000","lon":"114.95000000"},{"name":"Duobao","native":null,"lat":"30.67000000","lon":"112.68952000"},{"name":"Enshi","native":null,"lat":"30.30000000","lon":"109.48333000"},{"name":"Enshi Tujiazu Miaozu Zizhizhou","native":null,"lat":"30.19810000","lon":"109.67555000"},{"name":"Ezhou","native":null,"lat":"30.40000000","lon":"114.83333000"},{"name":"Ezhou Shi","native":null,"lat":"30.48832000","lon":"114.77979000"},{"name":"Fengkou","native":null,"lat":"30.08268000","lon":"113.33346000"},{"name":"Guangshui","native":null,"lat":"31.61990000","lon":"113.99780000"},{"name":"Gucheng Chengguanzhen","native":null,"lat":"32.26604000","lon":"111.63476000"},{"name":"Hanchuan","native":null,"lat":"30.65000000","lon":"113.76667000"},{"name":"Huanggang","native":null,"lat":"30.45143000","lon":"114.87035000"},{"name":"Huangmei","native":null,"lat":"30.19235000","lon":"116.02496000"},{"name":"Huangpi","native":null,"lat":"30.88453000","lon":"114.37789000"},{"name":"Huangshi","native":null,"lat":"30.24706000","lon":"115.04814000"},{"name":"Huangzhou","native":null,"lat":"30.45000000","lon":"114.80000000"},{"name":"Jingling","native":null,"lat":"30.65000000","lon":"113.10000000"},{"name":"Jingmen","native":null,"lat":"31.03361000","lon":"112.20472000"},{"name":"Jingmen Shi","native":null,"lat":"31.11244000","lon":"112.64310000"},{"name":"Jingzhou","native":null,"lat":"30.35028000","lon":"112.19028000"},{"name":"Laohekou","native":null,"lat":"32.38583000","lon":"111.66778000"},{"name":"Lichuan","native":null,"lat":"30.30000000","lon":"108.85000000"},{"name":"Macheng","native":null,"lat":"31.18013000","lon":"115.02213000"},{"name":"Nanzhang Chengguanzhen","native":null,"lat":"31.78394000","lon":"111.82752000"},{"name":"Puqi","native":null,"lat":"29.71667000","lon":"113.88333000"},{"name":"Qianjiang","native":null,"lat":"30.42100000","lon":"112.89190000"},{"name":"Qingquan","native":null,"lat":"30.45113000","lon":"115.25593000"},{"name":"Shashi","native":null,"lat":"30.30722000","lon":"112.24472000"},{"name":"Shennongjia","native":null,"lat":"31.58339000","lon":"110.49720000"},{"name":"Shiyan","native":null,"lat":"32.64750000","lon":"110.77806000"},{"name":"Suizhou","native":null,"lat":"31.71111000","lon":"113.36306000"},{"name":"Wuhan","native":null,"lat":"30.58333000","lon":"114.26667000"},{"name":"Wuxue","native":null,"lat":"29.85058000","lon":"115.55250000"},{"name":"Xiangyang","native":null,"lat":"32.04220000","lon":"112.14479000"},{"name":"Xianning","native":null,"lat":"29.84347000","lon":"114.32201000"},{"name":"Xianning Prefecture","native":null,"lat":"29.66609000","lon":"114.26389000"},{"name":"Xiantao","native":null,"lat":"30.37080000","lon":"113.44294000"},{"name":"Xiaogan","native":null,"lat":"30.92689000","lon":"113.92221000"},{"name":"Xihe","native":null,"lat":"31.68635000","lon":"113.46585000"},{"name":"Xindi","native":null,"lat":"29.81667000","lon":"113.46667000"},{"name":"Xinshi","native":null,"lat":"31.04704000","lon":"113.14098000"},{"name":"Xinzhou","native":null,"lat":"30.86667000","lon":"114.80000000"},{"name":"Xiulin","native":null,"lat":"29.71667000","lon":"112.40000000"},{"name":"Yichang","native":null,"lat":"30.71444000","lon":"111.28472000"},{"name":"Yicheng","native":null,"lat":"31.70472000","lon":"112.25611000"},{"name":"Yunmeng Chengguanzhen","native":null,"lat":"31.06251000","lon":"113.76545000"},{"name":"Zaoyang","native":null,"lat":"32.12722000","lon":"112.75417000"},{"name":"Zhicheng","native":null,"lat":"30.29556000","lon":"111.50472000"},{"name":"Zhijiang","native":null,"lat":"30.42139000","lon":"111.75333000"},{"name":"Zhongxiang","native":null,"lat":"31.16611000","lon":"112.58306000"}]},{"name":"Hunan","native":null,"cities":[{"name":"Anjiang","native":null,"lat":"27.31944000","lon":"110.10306000"},{"name":"Anping","native":null,"lat":"27.86639000","lon":"110.11611000"},{"name":"Anxiang","native":null,"lat":"29.40000000","lon":"112.15000000"},{"name":"Baisha","native":null,"lat":"26.52222000","lon":"110.93111000"},{"name":"Biyong","native":null,"lat":"27.18722000","lon":"109.51000000"},{"name":"Bojia","native":null,"lat":"26.46722000","lon":"111.96806000"},{"name":"Boyang","native":null,"lat":"26.21167000","lon":"109.52056000"},{"name":"Bozhou","native":null,"lat":"27.37889000","lon":"109.27778000"},{"name":"Changde","native":null,"lat":"29.04638000","lon":"111.67830000"},{"name":"Changsha","native":null,"lat":"28.19874000","lon":"112.97087000"},{"name":"Changsha Shi","native":null,"lat":"28.14582000","lon":"113.22967000"},{"name":"Chatian","native":null,"lat":"27.80222000","lon":"109.37361000"},{"name":"Chenzhou","native":null,"lat":"25.80000000","lon":"113.03333000"},{"name":"Dabaozi","native":null,"lat":"26.69556000","lon":"109.44778000"},{"name":"Dehang","native":null,"lat":"28.30710000","lon":"109.79668000"},{"name":"Dengjiapu","native":null,"lat":"26.90444000","lon":"110.92000000"},{"name":"Dengyuantai","native":null,"lat":"26.68806000","lon":"110.54222000"},{"name":"Dongshan Dongzuxiang","native":null,"lat":"26.59500000","lon":"109.89667000"},{"name":"Fenghuang","native":null,"lat":"27.93557000","lon":"109.59961000"},{"name":"Gangdong","native":null,"lat":"27.91694000","lon":"110.83417000"},{"name":"Gaoqiao","native":null,"lat":"26.63361000","lon":"110.90000000"},{"name":"Gaoyi","native":null,"lat":"26.95944000","lon":"110.01556000"},{"name":"Guankou","native":null,"lat":"28.15861000","lon":"113.62709000"},{"name":"Hengbanqiao","native":null,"lat":"27.17167000","lon":"110.86528000"},{"name":"Hengyang","native":null,"lat":"26.88946000","lon":"112.61888000"},{"name":"Hexiangqiao","native":null,"lat":"27.22028000","lon":"110.96333000"},{"name":"Hongjiang","native":null,"lat":"27.11000000","lon":"109.99556000"},{"name":"Hongqiao","native":null,"lat":"26.76837000","lon":"112.10814000"},{"name":"Huaihua","native":null,"lat":"27.56337000","lon":"110.00404000"},{"name":"Huangjinjing","native":null,"lat":"27.58563000","lon":"110.89133000"},{"name":"Huanglong","native":null,"lat":"26.54139000","lon":"110.93444000"},{"name":"Huangmaoyuan","native":null,"lat":"27.40417000","lon":"110.47472000"},{"name":"Huangqiao","native":null,"lat":"27.02194000","lon":"110.84056000"},{"name":"Huangtukuang","native":null,"lat":"26.91528000","lon":"110.40778000"},{"name":"Huangxikou","native":null,"lat":"27.71889000","lon":"110.38500000"},{"name":"Huaqiao","native":null,"lat":"27.70806000","lon":"110.14194000"},{"name":"Huayuan","native":null,"lat":"26.91361000","lon":"110.53583000"},{"name":"Huomachong","native":null,"lat":"27.88333000","lon":"110.23000000"},{"name":"Jiangfang","native":null,"lat":"26.50158000","lon":"110.34640000"},{"name":"Jiangkouxu","native":null,"lat":"27.69417000","lon":"109.73583000"},{"name":"Jiangshi","native":null,"lat":"27.12333000","lon":"109.73778000"},{"name":"Jinhe","native":null,"lat":"27.71694000","lon":"109.60472000"},{"name":"Jinshi","native":null,"lat":"29.60487000","lon":"111.87012000"},{"name":"Jinshiqiao","native":null,"lat":"27.58425000","lon":"110.93634000"},{"name":"Lanli","native":null,"lat":"27.88694000","lon":"109.91861000"},{"name":"Leiyang","native":null,"lat":"26.40238000","lon":"112.85908000"},{"name":"Lengshuijiang","native":null,"lat":"27.68806000","lon":"111.42944000"},{"name":"Lengshuitan","native":null,"lat":"26.41110000","lon":"111.59559000"},{"name":"Liangyaping","native":null,"lat":"27.71833000","lon":"110.67083000"},{"name":"Lianyuan","native":null,"lat":"27.68833000","lon":"111.66417000"},{"name":"Linkou","native":null,"lat":"26.24806000","lon":"109.86361000"},{"name":"Liuduzhai","native":null,"lat":"27.36611000","lon":"110.93500000"},{"name":"Lixiqiao","native":null,"lat":"26.79472000","lon":"110.41806000"},{"name":"Longtan","native":null,"lat":"27.41139000","lon":"110.53639000"},{"name":"Longtou’an","native":null,"lat":"27.67028000","lon":"110.33611000"},{"name":"Loudi","native":null,"lat":"27.73444000","lon":"111.99444000"},{"name":"Luojiu","native":null,"lat":"27.51583000","lon":"109.80889000"},{"name":"Luyang","native":null,"lat":"27.62389000","lon":"110.09889000"},{"name":"Ma’an","native":null,"lat":"26.97750000","lon":"110.72111000"},{"name":"Malin","native":null,"lat":"26.45500000","lon":"110.64167000"},{"name":"Maoping","native":null,"lat":"26.51972000","lon":"110.41194000"},{"name":"Nanmuping","native":null,"lat":"27.31111000","lon":"109.67861000"},{"name":"Nanzhou","native":null,"lat":"29.35955000","lon":"112.40243000"},{"name":"Prefecture of Chenzhou","native":null,"lat":"25.84347000","lon":"113.05378000"},{"name":"Pukou","native":null,"lat":"26.52222000","lon":"109.55583000"},{"name":"Puzi","native":null,"lat":"26.98639000","lon":"109.77639000"},{"name":"Qiancheng","native":null,"lat":"27.18501000","lon":"109.76543000"},{"name":"Qianzhou","native":null,"lat":"28.31925000","lon":"109.73346000"},{"name":"Qiaojiang","native":null,"lat":"27.93722000","lon":"110.67639000"},{"name":"Qingjiangqiao","native":null,"lat":"26.60444000","lon":"110.98528000"},{"name":"Qingxi","native":null,"lat":"26.43114000","lon":"110.35489000"},{"name":"Qionghu","native":null,"lat":"28.84061000","lon":"112.37399000"},{"name":"Ruoshui","native":null,"lat":"27.00194000","lon":"109.96667000"},{"name":"Shangmei","native":null,"lat":"27.74278000","lon":"111.29556000"},{"name":"Shanmen","native":null,"lat":"27.22500000","lon":"110.69278000"},{"name":"Shijiang","native":null,"lat":"27.08194000","lon":"110.79333000"},{"name":"Shuangjiang","native":null,"lat":"26.15467000","lon":"109.71380000"},{"name":"Shuangxi","native":null,"lat":"27.22833000","lon":"109.85583000"},{"name":"Shuiche","native":null,"lat":"27.68694000","lon":"110.99972000"},{"name":"Shuidatian","native":null,"lat":"27.85222000","lon":"109.60472000"},{"name":"Simenqian","native":null,"lat":"27.48722000","lon":"110.88611000"},{"name":"Tangjiafang","native":null,"lat":"26.84000000","lon":"110.36472000"},{"name":"Tanwan","native":null,"lat":"27.96639000","lon":"110.15028000"},{"name":"Tongwan","native":null,"lat":"27.58111000","lon":"110.27722000"},{"name":"Tuokou","native":null,"lat":"27.12472000","lon":"109.62472000"},{"name":"Wantouqiao","native":null,"lat":"26.84111000","lon":"110.61944000"},{"name":"Wenxing","native":null,"lat":"28.68208000","lon":"112.87864000"},{"name":"Wulingyuan","native":null,"lat":"29.34936000","lon":"110.54407000"},{"name":"Wuxi","native":null,"lat":"26.58440000","lon":"111.85900000"},{"name":"Wuyang","native":null,"lat":"26.74278000","lon":"110.32833000"},{"name":"Xiangtan","native":null,"lat":"27.85000000","lon":"112.90000000"},{"name":"Xiangxi Tujiazu Miaozu Zizhizhou","native":null,"lat":"28.70573000","lon":"109.73329000"},{"name":"Xiangxiang","native":null,"lat":"27.73333000","lon":"112.53333000"},{"name":"Xianrenwan","native":null,"lat":"27.75444000","lon":"110.32972000"},{"name":"Xianxi","native":null,"lat":"26.33472000","lon":"109.64306000"},{"name":"Xiaohenglong","native":null,"lat":"27.60500000","lon":"110.51694000"},{"name":"Xiaolongmen","native":null,"lat":"27.80194000","lon":"110.16056000"},{"name":"Xiaoshajiang","native":null,"lat":"27.52139000","lon":"110.74806000"},{"name":"Xishan","native":null,"lat":"27.66667000","lon":"113.50000000"},{"name":"Xixi","native":null,"lat":"27.69375000","lon":"110.95333000"},{"name":"Xiyan","native":null,"lat":"26.61639000","lon":"110.47361000"},{"name":"Yanmen","native":null,"lat":"27.85500000","lon":"109.74028000"},{"name":"Yaoshi","native":null,"lat":"26.29306000","lon":"110.78917000"},{"name":"Yatunpu","native":null,"lat":"26.15500000","lon":"109.62667000"},{"name":"Yiyang","native":null,"lat":"28.58917000","lon":"112.32833000"},{"name":"Yongfeng","native":null,"lat":"27.42829000","lon":"112.18338000"},{"name":"Yongzhou","native":null,"lat":"26.44014000","lon":"111.60290000"},{"name":"Yueyang","native":null,"lat":"29.37455000","lon":"113.09481000"},{"name":"Yueyang Shi","native":null,"lat":"29.32472000","lon":"113.30200000"},{"name":"Yutan","native":null,"lat":"28.25831000","lon":"112.56048000"},{"name":"Zhaishi Miaozu Dongzuxiang","native":null,"lat":"26.50083000","lon":"110.04444000"},{"name":"Zhangjiajie","native":null,"lat":"29.12944000","lon":"110.47833000"},{"name":"Zhongfang","native":null,"lat":"27.41139000","lon":"109.93194000"},{"name":"Zhongzhai","native":null,"lat":"27.19528000","lon":"109.26861000"},{"name":"Zhushi","native":null,"lat":"27.08778000","lon":"110.67694000"},{"name":"Zhuzhou","native":null,"lat":"27.83333000","lon":"113.15000000"},{"name":"Zhuzhou Shi","native":null,"lat":"27.82450000","lon":"113.08228000"},{"name":"Zhuzhoujiang Miaozuxiang","native":null,"lat":"26.67528000","lon":"110.07194000"}]},{"name":"Inner Mongolia","native":null,"cities":[{"name":"Baotou","native":null,"lat":"40.65222000","lon":"109.82222000"},{"name":"Bayan Nur","native":null,"lat":"40.74143000","lon":"107.38599000"},{"name":"Bayannur Shi","native":null,"lat":"41.56958000","lon":"107.49485000"},{"name":"Beichengqu","native":null,"lat":"40.43944000","lon":"113.15361000"},{"name":"Chifeng","native":null,"lat":"42.26833000","lon":"118.96361000"},{"name":"Dongsheng","native":null,"lat":"39.81609000","lon":"109.97763000"},{"name":"E’erguna","native":null,"lat":"50.22362000","lon":"120.17092000"},{"name":"Erenhot","native":null,"lat":"43.64750000","lon":"111.97667000"},{"name":"Genhe","native":null,"lat":"50.78333000","lon":"121.51667000"},{"name":"Hailar","native":null,"lat":"49.20000000","lon":"119.70000000"},{"name":"Hohhot","native":null,"lat":"40.81056000","lon":"111.65222000"},{"name":"Hulunbuir Region","native":null,"lat":"49.70989000","lon":"121.72176000"},{"name":"Jalai Nur","native":null,"lat":"49.45000000","lon":"117.70000000"},{"name":"Jiagedaqi","native":null,"lat":"50.41667000","lon":"124.11667000"},{"name":"Jining","native":null,"lat":"41.02750000","lon":"113.10583000"},{"name":"Manzhouli","native":null,"lat":"49.60000000","lon":"117.43333000"},{"name":"Mositai","native":null,"lat":"45.53538000","lon":"119.66698000"},{"name":"Mujiayingzi","native":null,"lat":"42.11667000","lon":"118.78333000"},{"name":"Ordos","native":null,"lat":"39.60860000","lon":"109.78157000"},{"name":"Ordos Shi","native":null,"lat":"39.46142000","lon":"108.80946000"},{"name":"Oroqen Zizhiqi","native":null,"lat":"50.56667000","lon":"123.71667000"},{"name":"Pingzhuang","native":null,"lat":"42.03722000","lon":"119.28889000"},{"name":"Salaqi","native":null,"lat":"40.54139000","lon":"110.51083000"},{"name":"Shiguai","native":null,"lat":"40.70583000","lon":"110.28556000"},{"name":"Tongliao","native":null,"lat":"43.61250000","lon":"122.26528000"},{"name":"Ulanhot","native":null,"lat":"46.08333000","lon":"122.08333000"},{"name":"Wenquan","native":null,"lat":"47.17560000","lon":"119.94809000"},{"name":"Wuda","native":null,"lat":"39.49944000","lon":"106.71167000"},{"name":"Wuhai","native":null,"lat":"39.68442000","lon":"106.81583000"},{"name":"Xilin Gol Meng","native":null,"lat":"44.85493000","lon":"115.72789000"},{"name":"Xilin Hot","native":null,"lat":"43.96667000","lon":"116.03333000"},{"name":"Yakeshi","native":null,"lat":"49.28333000","lon":"120.73333000"},{"name":"Zhalantun","native":null,"lat":"48.00945000","lon":"122.73651000"}]},{"name":"Jiangsu","native":null,"cities":[{"name":"ChangZhou","native":null,"lat":"31.72322000","lon":"119.59794000"},{"name":"HuaiAn","native":null,"lat":"33.29433000","lon":"118.87350000"},{"name":"LianYunGang","native":null,"lat":"34.84065000","lon":"119.17730000"},{"name":"NanJing","native":null,"lat":"31.32751000","lon":"118.89210000"},{"name":"NanTong","native":null,"lat":"32.00986000","lon":"120.85737000"},{"name":"SuQian","native":null,"lat":"33.96271000","lon":"118.24239000"},{"name":"SuZhou","native":null,"lat":"31.30227000","lon":"120.63132000"},{"name":"TaiZhou","native":null,"lat":"32.31841000","lon":"119.88116000"},{"name":"WuXi","native":null,"lat":"31.52853000","lon":"120.28429000"},{"name":"XuZhou","native":null,"lat":"34.28823000","lon":"117.18554000"},{"name":"YanCheng","native":null,"lat":"33.20107000","lon":"120.50102000"},{"name":"YangZhou","native":null,"lat":"32.39463000","lon":"119.43157000"},{"name":"ZhenJiang","native":null,"lat":"32.13188000","lon":"119.43396000"}]},{"name":"Jiangxi","native":null,"cities":[{"name":"Changleng","native":null,"lat":"28.70000000","lon":"115.81667000"},{"name":"Fenyi","native":null,"lat":"27.81117000","lon":"114.66805000"},{"name":"Ganzhou","native":null,"lat":"25.84664000","lon":"114.93260000"},{"name":"Ganzhou Shi","native":null,"lat":"25.70387000","lon":"115.34822000"},{"name":"Guixi","native":null,"lat":"28.28857000","lon":"117.21329000"},{"name":"Ji’an","native":null,"lat":"27.11716000","lon":"114.97927000"},{"name":"Jianguang","native":null,"lat":"28.19377000","lon":"115.78360000"},{"name":"Jingdezhen","native":null,"lat":"29.29470000","lon":"117.20789000"},{"name":"Jingdezhen Shi","native":null,"lat":"29.31682000","lon":"117.24688000"},{"name":"Jiujiang","native":null,"lat":"29.70475000","lon":"116.00206000"},{"name":"Nanchang","native":null,"lat":"28.68396000","lon":"115.85306000"},{"name":"Pingxiang","native":null,"lat":"27.61672000","lon":"113.85353000"},{"name":"Poyang","native":null,"lat":"28.99242000","lon":"116.66754000"},{"name":"Shangrao","native":null,"lat":"28.45179000","lon":"117.94287000"},{"name":"Xinyu","native":null,"lat":"27.80429000","lon":"114.93335000"},{"name":"Yichun","native":null,"lat":"27.83333000","lon":"114.40000000"}]},{"name":"Jilin","native":null,"cities":[{"name":"Baicheng","native":null,"lat":"45.60746000","lon":"122.82076000"},{"name":"Baishan","native":null,"lat":"41.93853000","lon":"126.41965000"},{"name":"Baishishan","native":null,"lat":"43.58333000","lon":"127.56667000"},{"name":"Changchun","native":null,"lat":"43.88000000","lon":"125.32278000"},{"name":"Changling","native":null,"lat":"44.26532000","lon":"124.00045000"},{"name":"Chaoyang","native":null,"lat":"42.66223000","lon":"126.02630000"},{"name":"Dalai","native":null,"lat":"45.50000000","lon":"124.30000000"},{"name":"Dashitou","native":null,"lat":"43.30667000","lon":"128.51139000"},{"name":"Dehui","native":null,"lat":"44.53333000","lon":"125.70000000"},{"name":"Dongfeng","native":null,"lat":"42.64031000","lon":"125.51176000"},{"name":"Dunhua","native":null,"lat":"43.37250000","lon":"128.24250000"},{"name":"Erdaojiang","native":null,"lat":"41.77639000","lon":"126.03194000"},{"name":"Fuyu","native":null,"lat":"45.18333000","lon":"124.81667000"},{"name":"Gongzhuling","native":null,"lat":"43.50075000","lon":"124.81979000"},{"name":"Guangming","native":null,"lat":"45.33333000","lon":"122.78333000"},{"name":"Helong","native":null,"lat":"42.53974000","lon":"128.99722000"},{"name":"Hepingjie","native":null,"lat":"42.05972000","lon":"126.91583000"},{"name":"Huadian","native":null,"lat":"42.96333000","lon":"126.74778000"},{"name":"Huangnihe","native":null,"lat":"43.55833000","lon":"128.02389000"},{"name":"Huinan","native":null,"lat":"42.62250000","lon":"126.26139000"},{"name":"Hunchun","native":null,"lat":"42.86750000","lon":"130.35806000"},{"name":"Ji’an","native":null,"lat":"41.12349000","lon":"126.17631000"},{"name":"Jilin","native":null,"lat":"43.85083000","lon":"126.56028000"},{"name":"Jishu","native":null,"lat":"44.31667000","lon":"126.80000000"},{"name":"Jiutai","native":null,"lat":"44.15250000","lon":"125.83278000"},{"name":"Kaitong","native":null,"lat":"44.81351000","lon":"123.15000000"},{"name":"Liaoyuan","native":null,"lat":"42.90361000","lon":"125.13583000"},{"name":"Linjiang","native":null,"lat":"41.80694000","lon":"126.90778000"},{"name":"Lishu","native":null,"lat":"43.30472000","lon":"124.32778000"},{"name":"Liuhe","native":null,"lat":"42.24007000","lon":"125.71717000"},{"name":"Longjing","native":null,"lat":"42.77139000","lon":"129.42333000"},{"name":"Meihekou","native":null,"lat":"42.52722000","lon":"125.67528000"},{"name":"Mingyue","native":null,"lat":"43.10694000","lon":"128.92167000"},{"name":"Minzhu","native":null,"lat":"43.72145000","lon":"127.33401000"},{"name":"Panshi","native":null,"lat":"42.94222000","lon":"126.05611000"},{"name":"Sanchazi","native":null,"lat":"42.08167000","lon":"126.60028000"},{"name":"Shuangyang","native":null,"lat":"43.52417000","lon":"125.67361000"},{"name":"Shulan","native":null,"lat":"44.41667000","lon":"126.95000000"},{"name":"Siping","native":null,"lat":"43.16143000","lon":"124.37785000"},{"name":"Songjianghe","native":null,"lat":"42.18590000","lon":"127.47895000"},{"name":"Songyuan","native":null,"lat":"45.12902000","lon":"124.82769000"},{"name":"Tonghua","native":null,"lat":"41.71972000","lon":"125.92639000"},{"name":"Tonghua Shi","native":null,"lat":"42.12389000","lon":"125.84833000"},{"name":"Tumen","native":null,"lat":"42.96611000","lon":"129.84250000"},{"name":"Wangqing","native":null,"lat":"43.32179000","lon":"129.76342000"},{"name":"Xinglongshan","native":null,"lat":"43.95611000","lon":"125.46611000"},{"name":"Yanbian Chaoxianzu Zizhizhou","native":null,"lat":"43.12583000","lon":"129.12833000"},{"name":"Yanji","native":null,"lat":"42.90750000","lon":"129.50778000"},{"name":"Yantongshan","native":null,"lat":"43.29194000","lon":"126.00944000"},{"name":"Yushu","native":null,"lat":"44.80000000","lon":"126.53333000"},{"name":"Zhengjiatun","native":null,"lat":"43.50639000","lon":"123.50639000"},{"name":"Zhenlai","native":null,"lat":"45.84955000","lon":"123.29730000"}]},{"name":"Liaoning","native":null,"cities":[{"name":"Anshan","native":null,"lat":"41.12361000","lon":"122.99000000"},{"name":"Beipiao","native":null,"lat":"41.79194000","lon":"120.77917000"},{"name":"Benxi","native":null,"lat":"41.28861000","lon":"123.76500000"},{"name":"Changtu","native":null,"lat":"42.77884000","lon":"124.09545000"},{"name":"Chaoyang","native":null,"lat":"41.57028000","lon":"120.45861000"},{"name":"Dalian","native":null,"lat":"38.91222000","lon":"121.60222000"},{"name":"Dalianwan","native":null,"lat":"39.02861000","lon":"121.69500000"},{"name":"Dandong","native":null,"lat":"40.12917000","lon":"124.39472000"},{"name":"Dashiqiao","native":null,"lat":"40.63732000","lon":"122.50251000"},{"name":"Dongling","native":null,"lat":"41.81444000","lon":"123.57583000"},{"name":"Fengcheng","native":null,"lat":"40.45361000","lon":"124.07167000"},{"name":"Fushun","native":null,"lat":"41.88669000","lon":"123.94363000"},{"name":"Fuxin","native":null,"lat":"42.01556000","lon":"121.65889000"},{"name":"Gaizhou","native":null,"lat":"40.39417000","lon":"122.36861000"},{"name":"Gongchangling","native":null,"lat":"41.11667000","lon":"123.45000000"},{"name":"Haicheng","native":null,"lat":"40.85158000","lon":"122.74754000"},{"name":"Heishan","native":null,"lat":"41.68917000","lon":"122.11278000"},{"name":"Huanren","native":null,"lat":"41.26472000","lon":"125.36667000"},{"name":"Huludao","native":null,"lat":"40.75243000","lon":"120.83552000"},{"name":"Huludao Shi","native":null,"lat":"40.74528000","lon":"120.21972000"},{"name":"Hushitai","native":null,"lat":"41.94175000","lon":"123.50266000"},{"name":"Jinzhou","native":null,"lat":"41.10778000","lon":"121.14167000"},{"name":"Jiupu","native":null,"lat":"41.06667000","lon":"122.95000000"},{"name":"Kaiyuan","native":null,"lat":"42.53306000","lon":"124.04028000"},{"name":"Kuandian","native":null,"lat":"40.72861000","lon":"124.78472000"},{"name":"Langtoucun","native":null,"lat":"40.04068000","lon":"124.33525000"},{"name":"Lianshan","native":null,"lat":"40.76432000","lon":"120.85327000"},{"name":"Liaoyang","native":null,"lat":"41.27194000","lon":"123.17306000"},{"name":"Liaozhong","native":null,"lat":"41.50611000","lon":"122.72417000"},{"name":"Linghai","native":null,"lat":"41.16528000","lon":"121.36667000"},{"name":"Lingyuan","native":null,"lat":"41.24000000","lon":"119.40111000"},{"name":"Lüshun","native":null,"lat":"38.80000000","lon":"121.26667000"},{"name":"Nanpiao","native":null,"lat":"41.09822000","lon":"120.74792000"},{"name":"Nantai","native":null,"lat":"40.92410000","lon":"122.80437000"},{"name":"Panjin Shi","native":null,"lat":"41.13167000","lon":"121.99361000"},{"name":"Panshan","native":null,"lat":"41.18806000","lon":"122.04944000"},{"name":"Pulandian","native":null,"lat":"39.39528000","lon":"121.96694000"},{"name":"Shenyang","native":null,"lat":"41.79222000","lon":"123.43278000"},{"name":"Sujiatun","native":null,"lat":"41.65917000","lon":"123.33917000"},{"name":"Tieling","native":null,"lat":"42.29306000","lon":"123.84139000"},{"name":"Tieling Shi","native":null,"lat":"42.62583000","lon":"124.32361000"},{"name":"Wafangdian","native":null,"lat":"39.61833000","lon":"122.00806000"},{"name":"Xiaoshi","native":null,"lat":"41.29711000","lon":"124.12092000"},{"name":"Xifeng","native":null,"lat":"42.73722000","lon":"124.72222000"},{"name":"Xingcheng","native":null,"lat":"40.61667000","lon":"120.71667000"},{"name":"Xinmin","native":null,"lat":"41.99083000","lon":"122.82528000"},{"name":"Xinxing","native":null,"lat":"39.86694000","lon":"124.12304000"},{"name":"Xiuyan","native":null,"lat":"40.29278000","lon":"123.27444000"},{"name":"Yebaishou","native":null,"lat":"41.39750000","lon":"119.64083000"},{"name":"Yingkou","native":null,"lat":"40.63897000","lon":"122.24762000"},{"name":"Zhuanghe","native":null,"lat":"39.70083000","lon":"122.99111000"}]},{"name":"Macau SAR","native":null,"cities":[]},{"name":"Ningxia Huizu","native":null,"cities":[{"name":"Dawukou","native":null,"lat":"39.04194000","lon":"106.39583000"},{"name":"Dongta","native":null,"lat":"38.08140000","lon":"106.34444000"},{"name":"Shitanjing","native":null,"lat":"39.23417000","lon":"106.34389000"},{"name":"Shizuishan","native":null,"lat":"39.23333000","lon":"106.76944000"},{"name":"Wuzhong","native":null,"lat":"37.98670000","lon":"106.20100000"},{"name":"Yinchuan","native":null,"lat":"38.46806000","lon":"106.27306000"},{"name":"Zhongwei","native":null,"lat":"37.51129000","lon":"105.19067000"}]},{"name":"Qinghai","native":null,"cities":[{"name":"Delingha","native":null,"lat":"37.37600000","lon":"97.37457000"},{"name":"Golmud","native":null,"lat":"36.40672000","lon":"94.90061000"},{"name":"Golog Tibetan Autonomous Prefecture","native":null,"lat":"34.08595000","lon":"99.55181000"},{"name":"Haibei Tibetan Autonomous Prefecture","native":null,"lat":"37.71919000","lon":"100.45656000"},{"name":"Huangnan Zangzu Zizhizhou","native":null,"lat":"35.06316000","lon":"101.65149000"},{"name":"Xining","native":null,"lat":"36.62554000","lon":"101.75739000"},{"name":"Xireg","native":null,"lat":"36.91866000","lon":"98.44463000"},{"name":"Yushu Zangzu Zizhizhou","native":null,"lat":"34.39802000","lon":"94.19021000"}]},{"name":"Shaanxi","native":null,"cities":[{"name":"Ankang","native":null,"lat":"32.68000000","lon":"109.01722000"},{"name":"Baoji Shi","native":null,"lat":"34.36944000","lon":"107.13635000"},{"name":"Guozhen","native":null,"lat":"34.36591000","lon":"107.35904000"},{"name":"Hancheng","native":null,"lat":"35.46028000","lon":"110.42917000"},{"name":"Hanzhong","native":null,"lat":"33.07507000","lon":"107.02214000"},{"name":"Huayin","native":null,"lat":"34.56528000","lon":"110.06639000"},{"name":"Lintong","native":null,"lat":"34.37803000","lon":"109.20892000"},{"name":"Tongchuanshi","native":null,"lat":"35.07474000","lon":"109.08495000"},{"name":"Weinan","native":null,"lat":"34.50355000","lon":"109.50891000"},{"name":"Xi’an","native":null,"lat":"34.25833000","lon":"108.92861000"},{"name":"Xianyang","native":null,"lat":"34.33778000","lon":"108.70261000"},{"name":"Yanliang","native":null,"lat":"34.65918000","lon":"109.22921000"},{"name":"Yulinshi","native":null,"lat":"38.29181000","lon":"109.73753000"},{"name":"Yuxia","native":null,"lat":"34.06153000","lon":"108.62905000"}]},{"name":"Shandong","native":null,"cities":[{"name":"Anqiu","native":null,"lat":"36.43417000","lon":"119.19250000"},{"name":"Beizhai","native":null,"lat":"36.21972000","lon":"120.52889000"},{"name":"Bianzhuang","native":null,"lat":"34.84861000","lon":"118.04472000"},{"name":"Binzhou","native":null,"lat":"37.36667000","lon":"118.01667000"},{"name":"Boshan","native":null,"lat":"36.48333000","lon":"117.83333000"},{"name":"Changqing","native":null,"lat":"36.55750000","lon":"116.72722000"},{"name":"Chengqu","native":null,"lat":"36.91060000","lon":"121.52504000"},{"name":"Chengtangcun","native":null,"lat":"35.08357000","lon":"117.19071000"},{"name":"Chengyang","native":null,"lat":"35.57944000","lon":"118.83278000"},{"name":"Dengying","native":null,"lat":"36.13889000","lon":"120.57417000"},{"name":"Dengzhou","native":null,"lat":"37.80822000","lon":"120.75908000"},{"name":"Dezhou","native":null,"lat":"37.45127000","lon":"116.31046000"},{"name":"Dingtao","native":null,"lat":"35.07436000","lon":"115.56582000"},{"name":"Dongcun","native":null,"lat":"36.77667000","lon":"121.15972000"},{"name":"Dongdu","native":null,"lat":"35.85000000","lon":"117.70000000"},{"name":"Feicheng","native":null,"lat":"36.24861000","lon":"116.76583000"},{"name":"Gaomi","native":null,"lat":"36.38333000","lon":"119.75278000"},{"name":"Hanting","native":null,"lat":"36.77083000","lon":"119.21083000"},{"name":"Heze","native":null,"lat":"35.23929000","lon":"115.47358000"},{"name":"Jiamaying","native":null,"lat":"37.20806000","lon":"115.95000000"},{"name":"Jiaozhou","native":null,"lat":"36.28389000","lon":"120.00333000"},{"name":"Jiehu","native":null,"lat":"35.54278000","lon":"118.45500000"},{"name":"Jimo","native":null,"lat":"36.38972000","lon":"120.46222000"},{"name":"Jinan","native":null,"lat":"36.66833000","lon":"116.99722000"},{"name":"Jining","native":null,"lat":"35.40500000","lon":"116.58139000"},{"name":"Juye","native":null,"lat":"35.39472000","lon":"116.08833000"},{"name":"Kuiju","native":null,"lat":"36.85361000","lon":"119.39083000"},{"name":"Kutao","native":null,"lat":"36.14500000","lon":"120.48778000"},{"name":"Laiwu","native":null,"lat":"36.19278000","lon":"117.65694000"},{"name":"Laixi","native":null,"lat":"36.85917000","lon":"120.52694000"},{"name":"Laiyang","native":null,"lat":"36.97583000","lon":"120.71361000"},{"name":"Laizhou","native":null,"lat":"37.18073000","lon":"119.94217000"},{"name":"Laocheng","native":null,"lat":"37.14278000","lon":"115.88833000"},{"name":"Liaocheng","native":null,"lat":"36.45596000","lon":"115.97766000"},{"name":"Linqu","native":null,"lat":"36.51556000","lon":"118.53972000"},{"name":"Linyi","native":null,"lat":"35.06306000","lon":"118.34278000"},{"name":"Longgang","native":null,"lat":"37.65181000","lon":"120.33063000"},{"name":"Mengyin","native":null,"lat":"35.70694000","lon":"117.92639000"},{"name":"Mingshui","native":null,"lat":"36.71667000","lon":"117.50000000"},{"name":"Mizhou","native":null,"lat":"35.99472000","lon":"119.39750000"},{"name":"Nanding","native":null,"lat":"36.74833000","lon":"118.05583000"},{"name":"Nanma","native":null,"lat":"36.18478000","lon":"118.15486000"},{"name":"Ninghai","native":null,"lat":"37.38422000","lon":"121.60859000"},{"name":"Ningyang","native":null,"lat":"35.76417000","lon":"116.79139000"},{"name":"Pingdu","native":null,"lat":"36.78444000","lon":"119.94639000"},{"name":"Pingyi","native":null,"lat":"35.50056000","lon":"117.63083000"},{"name":"Pingyin","native":null,"lat":"36.28306000","lon":"116.44528000"},{"name":"Qingdao","native":null,"lat":"36.06488000","lon":"120.38042000"},{"name":"Qingnian","native":null,"lat":"36.84032000","lon":"115.71183000"},{"name":"Qingshancun","native":null,"lat":"36.15415000","lon":"120.68240000"},{"name":"Qingyang","native":null,"lat":"37.49583000","lon":"121.25806000"},{"name":"Qingzhou","native":null,"lat":"36.69667000","lon":"118.47972000"},{"name":"Qufu","native":null,"lat":"35.59667000","lon":"116.99111000"},{"name":"Rizhao","native":null,"lat":"35.42750000","lon":"119.45528000"},{"name":"Shancheng","native":null,"lat":"34.79528000","lon":"116.08167000"},{"name":"Shanting","native":null,"lat":"35.07528000","lon":"117.45778000"},{"name":"Shazikou","native":null,"lat":"36.11500000","lon":"120.53722000"},{"name":"Shengli","native":null,"lat":"37.46271000","lon":"118.49165000"},{"name":"Shilaorencun","native":null,"lat":"36.09723000","lon":"120.48910000"},{"name":"Shizilu","native":null,"lat":"35.17111000","lon":"118.82889000"},{"name":"Shouguang","native":null,"lat":"36.88000000","lon":"118.73750000"},{"name":"Sishui","native":null,"lat":"35.64889000","lon":"117.27583000"},{"name":"Suozhen","native":null,"lat":"36.95389000","lon":"118.10472000"},{"name":"Tai’an","native":null,"lat":"36.18528000","lon":"117.12000000"},{"name":"Taozhuang","native":null,"lat":"34.85000000","lon":"117.33333000"},{"name":"Tianfu","native":null,"lat":"37.19723000","lon":"122.05228000"},{"name":"Weifang","native":null,"lat":"36.71000000","lon":"119.10194000"},{"name":"Weihai","native":null,"lat":"37.50914000","lon":"122.11356000"},{"name":"Wenshang","native":null,"lat":"35.72750000","lon":"116.49611000"},{"name":"Xiazhen","native":null,"lat":"34.80222000","lon":"117.11167000"},{"name":"Xiazhuang","native":null,"lat":"34.91611000","lon":"118.63889000"},{"name":"Xiliguantun","native":null,"lat":"37.07833000","lon":"115.94139000"},{"name":"Xindian","native":null,"lat":"36.79750000","lon":"118.29444000"},{"name":"Xintai","native":null,"lat":"35.90056000","lon":"117.75194000"},{"name":"Yanggu","native":null,"lat":"36.11056000","lon":"115.77528000"},{"name":"Yanta","native":null,"lat":"36.24111000","lon":"115.66722000"},{"name":"Yantai","native":null,"lat":"37.47649000","lon":"121.44081000"},{"name":"Yanzhou","native":null,"lat":"35.55278000","lon":"116.82861000"},{"name":"Yatou","native":null,"lat":"37.15660000","lon":"122.43762000"},{"name":"Yinzhu","native":null,"lat":"35.87861000","lon":"119.97528000"},{"name":"Yishui","native":null,"lat":"35.78472000","lon":"118.62806000"},{"name":"Yucheng","native":null,"lat":"34.92889000","lon":"116.46528000"},{"name":"Zaozhuang","native":null,"lat":"34.86472000","lon":"117.55417000"},{"name":"Zhaoyuan","native":null,"lat":"37.36497000","lon":"120.40997000"},{"name":"Zhoucheng","native":null,"lat":"35.91222000","lon":"116.31167000"},{"name":"Zhoucun","native":null,"lat":"36.81667000","lon":"117.81667000"},{"name":"Zhu Cheng City","native":null,"lat":"35.99502000","lon":"119.40259000"},{"name":"Zhuangyuan","native":null,"lat":"37.30553000","lon":"120.82747000"},{"name":"Zibo","native":null,"lat":"36.79056000","lon":"118.06333000"},{"name":"Zoucheng","native":null,"lat":"35.40056000","lon":"116.96556000"}]},{"name":"Shanghai","native":null,"cities":[{"name":"Shanghai","native":null,"lat":"31.22222000","lon":"121.45806000"},{"name":"Songjiang","native":null,"lat":"31.03595000","lon":"121.21460000"},{"name":"Zhabei","native":null,"lat":"31.25861000","lon":"121.45972000"},{"name":"Zhujiajiao","native":null,"lat":"31.10757000","lon":"121.05696000"}]},{"name":"Shanxi","native":null,"cities":[{"name":"Changzhi","native":null,"lat":"36.18389000","lon":"113.10528000"},{"name":"Datong","native":null,"lat":"40.09361000","lon":"113.29139000"},{"name":"Datong Shi","native":null,"lat":"40.10484000","lon":"113.63334000"},{"name":"Gutao","native":null,"lat":"37.20250000","lon":"112.17806000"},{"name":"Jiexiu","native":null,"lat":"37.02444000","lon":"111.91250000"},{"name":"Jincheng","native":null,"lat":"35.50222000","lon":"112.83278000"},{"name":"Jinzhong Shi","native":null,"lat":"37.43597000","lon":"113.08783000"},{"name":"Linfen","native":null,"lat":"36.08889000","lon":"111.51889000"},{"name":"Lüliang","native":null,"lat":"37.73563000","lon":"111.30538000"},{"name":"Shuozhou","native":null,"lat":"39.31583000","lon":"112.42250000"},{"name":"Taiyuan","native":null,"lat":"37.86944000","lon":"112.56028000"},{"name":"Xintian","native":null,"lat":"35.61358000","lon":"111.35660000"},{"name":"Xinzhi","native":null,"lat":"36.49889000","lon":"111.70472000"},{"name":"Xinzhou","native":null,"lat":"38.40917000","lon":"112.73333000"},{"name":"Yangquan","native":null,"lat":"37.85750000","lon":"113.56333000"},{"name":"Yuanping","native":null,"lat":"38.71528000","lon":"112.75750000"},{"name":"Yuci","native":null,"lat":"37.68028000","lon":"112.73194000"},{"name":"Yuncheng","native":null,"lat":"35.02306000","lon":"110.99278000"}]},{"name":"Sichuan","native":null,"cities":[{"name":"Aba Zangzu Qiangzu Zizhizhou","native":null,"lat":"32.41875000","lon":"102.63664000"},{"name":"Barkam","native":null,"lat":"31.90059000","lon":"102.22092000"},{"name":"Bazhong Shi","native":null,"lat":"32.04025000","lon":"107.06230000"},{"name":"Changchi","native":null,"lat":"32.16377000","lon":"106.65814000"},{"name":"Chengdu","native":null,"lat":"30.66667000","lon":"104.06667000"},{"name":"Chonglong","native":null,"lat":"29.78062000","lon":"104.85224000"},{"name":"Dadukou","native":null,"lat":"26.54790000","lon":"101.70539000"},{"name":"Dazhou","native":null,"lat":"31.21592000","lon":"107.50092000"},{"name":"Deyang","native":null,"lat":"31.13019000","lon":"104.38198000"},{"name":"Dongxi","native":null,"lat":"32.06577000","lon":"106.24843000"},{"name":"Fangting","native":null,"lat":"31.12766000","lon":"104.16649000"},{"name":"Fubao","native":null,"lat":"28.76905000","lon":"106.07667000"},{"name":"Gaoping","native":null,"lat":"30.77576000","lon":"106.10294000"},{"name":"Garzê Zangzu Zizhizhou","native":null,"lat":"31.02407000","lon":"100.40553000"},{"name":"Guang’an","native":null,"lat":"30.47413000","lon":"106.63696000"},{"name":"Guangyuan","native":null,"lat":"32.44201000","lon":"105.82300000"},{"name":"Jiancheng","native":null,"lat":"30.39097000","lon":"104.54912000"},{"name":"Jiangyou","native":null,"lat":"31.76667000","lon":"104.71667000"},{"name":"Jiannan","native":null,"lat":"31.34355000","lon":"104.19588000"},{"name":"Kangding","native":null,"lat":"30.00222000","lon":"101.95690000"},{"name":"Langzhong","native":null,"lat":"31.55037000","lon":"105.99381000"},{"name":"Leshan","native":null,"lat":"29.56227000","lon":"103.76386000"},{"name":"Liangshan Yizu Zizhizhou","native":null,"lat":"27.87644000","lon":"102.10180000"},{"name":"Linqiong","native":null,"lat":"30.41587000","lon":"103.46089000"},{"name":"Luocheng","native":null,"lat":"30.98021000","lon":"104.28081000"},{"name":"Luzhou","native":null,"lat":"28.89030000","lon":"105.42575000"},{"name":"Meishan Shi","native":null,"lat":"30.03000000","lon":"104.04000000"},{"name":"Mianyang","native":null,"lat":"31.46784000","lon":"104.68168000"},{"name":"Nanchong","native":null,"lat":"30.79508000","lon":"106.08473000"},{"name":"Nanlong","native":null,"lat":"31.35333000","lon":"106.06309000"},{"name":"Neijiang","native":null,"lat":"29.58354000","lon":"105.06216000"},{"name":"Panzhihua","native":null,"lat":"26.58509000","lon":"101.71276000"},{"name":"Puji","native":null,"lat":"32.23908000","lon":"106.45478000"},{"name":"Shuanghejiedao","native":null,"lat":"30.37448000","lon":"106.77266000"},{"name":"Suining","native":null,"lat":"30.50802000","lon":"105.57332000"},{"name":"Taihe","native":null,"lat":"30.87123000","lon":"105.38454000"},{"name":"Taiping","native":null,"lat":"28.14083000","lon":"106.03771000"},{"name":"Tianpeng","native":null,"lat":"30.98664000","lon":"103.93933000"},{"name":"Tongchuan","native":null,"lat":"31.09407000","lon":"105.08731000"},{"name":"Xialiang","native":null,"lat":"32.07673000","lon":"106.77151000"},{"name":"Xiantan","native":null,"lat":"28.81859000","lon":"106.19270000"},{"name":"Xichang","native":null,"lat":"27.89642000","lon":"102.26341000"},{"name":"Xunchang","native":null,"lat":"28.45433000","lon":"104.71498000"},{"name":"Yanjiang","native":null,"lat":"30.12108000","lon":"104.64811000"},{"name":"Yibin","native":null,"lat":"28.76667000","lon":"104.62383000"},{"name":"Yucheng","native":null,"lat":"29.98521000","lon":"102.99900000"},{"name":"Zengjia","native":null,"lat":"32.61957000","lon":"106.10118000"},{"name":"Zhongba","native":null,"lat":"31.77819000","lon":"104.73932000"},{"name":"Zigong","native":null,"lat":"29.34162000","lon":"104.77689000"}]},{"name":"Taiwan","native":null,"cities":[{"name":"Baoying","native":null,"lat":"33.22917000","lon":"119.30917000"},{"name":"Changshu City","native":null,"lat":"31.64615000","lon":"120.74221000"},{"name":"Changzhou","native":null,"lat":"31.77359000","lon":"119.95401000"},{"name":"Chengxiang","native":null,"lat":"31.44778000","lon":"121.09389000"},{"name":"Dazhong","native":null,"lat":"33.19973000","lon":"120.45780000"},{"name":"Dongkan","native":null,"lat":"33.99972000","lon":"119.83083000"},{"name":"Dongtai","native":null,"lat":"32.85231000","lon":"120.30947000"},{"name":"Fengxian","native":null,"lat":"34.70388000","lon":"116.58717000"},{"name":"Gaogou","native":null,"lat":"34.01750000","lon":"119.18861000"},{"name":"Gaoyou","native":null,"lat":"32.78933000","lon":"119.44182000"},{"name":"Guiren","native":null,"lat":"33.66972000","lon":"118.18889000"},{"name":"Haizhou","native":null,"lat":"34.58167000","lon":"119.12889000"},{"name":"Hede","native":null,"lat":"33.77220000","lon":"120.26176000"},{"name":"Huai'an","native":null,"lat":"33.58861000","lon":"119.01917000"},{"name":"Huai’an Shi","native":null,"lat":"33.31162000","lon":"119.04559000"},{"name":"Huilong","native":null,"lat":"31.81111000","lon":"121.65500000"},{"name":"Hutang","native":null,"lat":"31.53429000","lon":"119.49000000"},{"name":"Jiangyan","native":null,"lat":"32.50611000","lon":"120.14278000"},{"name":"Jiangyin","native":null,"lat":"31.91102000","lon":"120.26302000"},{"name":"Jingjiang","native":null,"lat":"32.01417000","lon":"120.26250000"},{"name":"Jinsha","native":null,"lat":"32.08982000","lon":"121.07355000"},{"name":"Juegang","native":null,"lat":"32.31737000","lon":"121.18552000"},{"name":"Kunshan","native":null,"lat":"31.37762000","lon":"120.95431000"},{"name":"Lianyungang Shi","native":null,"lat":"34.54844000","lon":"119.11228000"},{"name":"Licheng","native":null,"lat":"31.42813000","lon":"119.48353000"},{"name":"Mudu","native":null,"lat":"31.25597000","lon":"120.51857000"},{"name":"Nanjing","native":null,"lat":"32.06167000","lon":"118.77778000"},{"name":"Nantong","native":null,"lat":"32.03028000","lon":"120.87472000"},{"name":"Pizhou","native":null,"lat":"34.31139000","lon":"117.95028000"},{"name":"Qinnan","native":null,"lat":"33.25306000","lon":"119.91333000"},{"name":"Rucheng","native":null,"lat":"32.38833000","lon":"120.55528000"},{"name":"Sanmao","native":null,"lat":"32.23931000","lon":"119.81536000"},{"name":"Songling","native":null,"lat":"31.19330000","lon":"120.71758000"},{"name":"Suicheng","native":null,"lat":"33.89630000","lon":"117.93307000"},{"name":"Suzhou","native":null,"lat":"31.30408000","lon":"120.59538000"},{"name":"Taixing","native":null,"lat":"32.16667000","lon":"120.01361000"},{"name":"Taizhou","native":null,"lat":"32.49069000","lon":"119.90812000"},{"name":"Tongshan","native":null,"lat":"34.18045000","lon":"117.15707000"},{"name":"Wuxi","native":null,"lat":"31.56887000","lon":"120.28857000"},{"name":"Xiannü","native":null,"lat":"32.42806000","lon":"119.56048000"},{"name":"Xiaolingwei","native":null,"lat":"32.03244000","lon":"118.85400000"},{"name":"Xinghua","native":null,"lat":"32.93917000","lon":"119.83417000"},{"name":"Xinpu","native":null,"lat":"34.59972000","lon":"119.15944000"},{"name":"Yancheng","native":null,"lat":"33.35750000","lon":"120.15730000"},{"name":"Yangzhou","native":null,"lat":"32.39722000","lon":"119.43583000"},{"name":"Yicheng","native":null,"lat":"31.36059000","lon":"119.82016000"},{"name":"Yushan","native":null,"lat":"31.67748000","lon":"120.80134000"},{"name":"Zhangjiagang","native":null,"lat":"31.86500000","lon":"120.53889000"},{"name":"Zhenjiang","native":null,"lat":"32.21086000","lon":"119.45508000"},{"name":"Zhenzhou","native":null,"lat":"32.28034000","lon":"119.16999000"},{"name":"Zhongxing","native":null,"lat":"33.70389000","lon":"118.67917000"},{"name":"Zhouzhuang","native":null,"lat":"31.11788000","lon":"120.84427000"}]},{"name":"Tianjin","native":null,"cities":[{"name":"Badaogu","native":null,"lat":"39.47333333","lon":"117.32972222"},{"name":"Baijian","native":null,"lat":"39.99416667","lon":"117.20861111"},{"name":"Bamencheng","native":null,"lat":"39.57777778","lon":"117.60527778"},{"name":"Bangjun","native":null,"lat":"39.98839000","lon":"117.26850000"},{"name":"Beicang","native":null,"lat":"39.23007000","lon":"117.11892000"},{"name":"Beihuaidian","native":null,"lat":"39.26220000","lon":"117.57485000"},{"name":"Beilizigu","native":null,"lat":"39.49138889","lon":"117.46500000"},{"name":"Biaokou","native":null,"lat":"39.32950000","lon":"117.56914000"},{"name":"Binhai New Area","native":null,"lat":"39.00333333","lon":"117.71083333"},{"name":"Caijiapu","native":null,"lat":"39.17305556","lon":"117.81055556"},{"name":"Caodian","native":null,"lat":"39.61194444","lon":"117.47166667"},{"name":"Chabaihu","native":null,"lat":"39.46555556","lon":"117.14833333"},{"name":"Changtun","native":null,"lat":"39.44333333","lon":"117.07055556"},{"name":"Chengtougu","native":null,"lat":"39.14000000","lon":"117.77888889"},{"name":"Chitu","native":null,"lat":"39.20333333","lon":"117.40277778"},{"name":"Cuijiamatou","native":null,"lat":"39.07472222","lon":"117.30055556"},{"name":"Dadunqiu","native":null,"lat":"39.40611111","lon":"117.03305556"},{"name":"Dakoutun","native":null,"lat":"39.58555556","lon":"117.23638889"},{"name":"Dashentang","native":null,"lat":"39.21722222","lon":"117.95250000"},{"name":"Dawangtai","native":null,"lat":"39.27500000","lon":"117.48500000"},{"name":"Daxinzhuang","native":null,"lat":"39.50361111","lon":"117.68611111"},{"name":"Dazhongzhuang","native":null,"lat":"39.68083333","lon":"117.56416667"},{"name":"Dongditou","native":null,"lat":"39.26638889","lon":"117.37277778"},{"name":"Dongshigu","native":null,"lat":"39.87889000","lon":"117.33028000"},{"name":"Erwangzhuang","native":null,"lat":"39.39166667","lon":"117.35388889"},{"name":"Fanzhuang","native":null,"lat":"39.19361111","lon":"117.33500000"},{"name":"Fengtai (Ninghe)","native":null,"lat":"39.55805556","lon":"117.74916667"},{"name":"Fuzhuang","native":null,"lat":"39.26611111","lon":"117.93444444"},{"name":"Gaojingzhuang","native":null,"lat":"39.41611111","lon":"117.63000000"},{"name":"Hanjiashu","native":null,"lat":"39.18750000","lon":"117.07305556"},{"name":"Hebeitun","native":null,"lat":"39.57472222","lon":"117.11333333"},{"name":"Hexiwu","native":null,"lat":"39.62249000","lon":"116.95398000"},{"name":"Huangcaotuo","native":null,"lat":"39.17944444","lon":"117.32166667"},{"name":"Huantuo","native":null,"lat":"39.22638889","lon":"117.32388889"},{"name":"Huogezhuang","native":null,"lat":"39.74388889","lon":"117.36750000"},{"name":"Jiangwakou","native":null,"lat":"39.52250000","lon":"117.70250000"},{"name":"Lianzhuang","native":null,"lat":"39.41000000","lon":"117.75638889"},{"name":"Lintingkou","native":null,"lat":"39.63027778","lon":"117.50027778"},{"name":"Liujiading","native":null,"lat":"39.96305556","lon":"117.19111111"},{"name":"Liukuaizhuang","native":null,"lat":"39.24777778","lon":"117.33944444"},{"name":"Liuzikou","native":null,"lat":"39.87027778","lon":"117.34666667"},{"name":"Luotuofangzi","native":null,"lat":"39.08361111","lon":"117.37694444"},{"name":"Meichang","native":null,"lat":"39.36611111","lon":"117.18055556"},{"name":"Mengquan","native":null,"lat":"39.82527778","lon":"117.47666667"},{"name":"Panzhuang","native":null,"lat":"39.33943000","lon":"117.46820000"},{"name":"Qingguang","native":null,"lat":"39.19668000","lon":"117.05475000"},{"name":"Sangzi","native":null,"lat":"39.90853000","lon":"117.16535000"},{"name":"Shangcang","native":null,"lat":"39.90518000","lon":"117.39553000"},{"name":"Shimianzhuang","native":null,"lat":"39.41800000","lon":"117.15690000"},{"name":"Shuangjiang","native":null,"lat":"39.04190000","lon":"117.31235000"},{"name":"Sigaozhuang","native":null,"lat":"39.46713000","lon":"117.25554000"},{"name":"Tianjin","native":null,"lat":"39.14666667","lon":"117.20555556"},{"name":"Touying","native":null,"lat":"39.96389000","lon":"117.21833000"},{"name":"Wangqinzhuang","native":null,"lat":"39.22942000","lon":"117.08968000"},{"name":"Weiwangzhuang","native":null,"lat":"39.02500000","lon":"117.44083000"},{"name":"Xiawuqi","native":null,"lat":"39.61551000","lon":"117.05523000"},{"name":"Xiditou","native":null,"lat":"39.25320000","lon":"117.34709000"},{"name":"Xinkaikou","native":null,"lat":"39.67996000","lon":"117.18877000"},{"name":"Xitazhuang","native":null,"lat":"39.93306000","lon":"117.21083000"},{"name":"Yangjinzhuang","native":null,"lat":"39.86645000","lon":"117.42592000"},{"name":"Yangliuqing","native":null,"lat":"39.12740000","lon":"117.00885000"},{"name":"Yinliu","native":null,"lat":"39.98349000","lon":"117.39904000"},{"name":"Yixingfu","native":null,"lat":"39.19917000","lon":"117.21139000"},{"name":"Youguzhuang","native":null,"lat":"39.90802000","lon":"117.24576000"},{"name":"Yuelongzhuang","native":null,"lat":"39.56833000","lon":"117.85417000"},{"name":"Yuguzhuang","native":null,"lat":"39.64290000","lon":"117.36470000"},{"name":"Zaojiacheng","native":null,"lat":"39.28174000","lon":"117.42516000"},{"name":"Zhangjiawo","native":null,"lat":"39.05675000","lon":"117.03624000"},{"name":"Zhaoguli","native":null,"lat":"39.16673000","lon":"117.24191000"},{"name":"Zhaoguli","native":null,"lat":"39.16673000","lon":"117.24191000"}]},{"name":"Xinjiang","native":null,"cities":[{"name":"Ailan Mubage","native":null,"lat":"43.90845000","lon":"81.33299000"},{"name":"Aksu","native":null,"lat":"41.18418000","lon":"80.27921000"},{"name":"Aksu Diqu","native":null,"lat":"40.55689000","lon":"81.84629000"},{"name":"Altay","native":null,"lat":"47.84864000","lon":"88.13361000"},{"name":"Altay Diqu","native":null,"lat":"47.86667000","lon":"88.11667000"},{"name":"Aral","native":null,"lat":"40.54184000","lon":"81.26566000"},{"name":"Aykol","native":null,"lat":"40.95759000","lon":"80.13574000"},{"name":"Baijiantan","native":null,"lat":"45.69298000","lon":"85.13942000"},{"name":"Baluntaicun","native":null,"lat":"42.66842000","lon":"86.32424000"},{"name":"Bayingolin Mongol Zizhizhou","native":null,"lat":"41.73333000","lon":"86.15000000"},{"name":"Changji","native":null,"lat":"44.00782000","lon":"87.30461000"},{"name":"Changji Huizu Zizhizhou","native":null,"lat":"44.01667000","lon":"87.31667000"},{"name":"Fukang","native":null,"lat":"44.15874000","lon":"87.97418000"},{"name":"Hami","native":null,"lat":"42.83393000","lon":"93.50601000"},{"name":"Hotan","native":null,"lat":"37.10750000","lon":"79.93548000"},{"name":"Hoxtolgay","native":null,"lat":"46.51872000","lon":"86.00214000"},{"name":"Huocheng","native":null,"lat":"44.05305000","lon":"80.87173000"},{"name":"Ili Kazak Zizhizhou","native":null,"lat":"43.31211000","lon":"82.27102000"},{"name":"Karamay","native":null,"lat":"45.58473000","lon":"84.88724000"},{"name":"Karamay Shi","native":null,"lat":"45.49989000","lon":"84.91683000"},{"name":"Kashgar","native":null,"lat":"39.47066000","lon":"75.98951000"},{"name":"Kaxgar Diqu","native":null,"lat":"39.47543000","lon":"75.98968000"},{"name":"Korla","native":null,"lat":"41.76055000","lon":"86.15231000"},{"name":"Kuqa","native":null,"lat":"41.71707000","lon":"82.93064000"},{"name":"Kuytun","native":null,"lat":"44.42707000","lon":"84.90069000"},{"name":"Qapqal","native":null,"lat":"43.80194000","lon":"81.08722000"},{"name":"Shache","native":null,"lat":"38.41667000","lon":"77.24056000"},{"name":"Shihezi","native":null,"lat":"44.30230000","lon":"86.03694000"},{"name":"Sishilichengzi","native":null,"lat":"41.96194000","lon":"86.47667000"},{"name":"Tacheng","native":null,"lat":"46.74535000","lon":"82.95847000"},{"name":"Tacheng Diqu","native":null,"lat":"46.75000000","lon":"82.95000000"},{"name":"Turpan","native":null,"lat":"42.94769000","lon":"89.17886000"},{"name":"Turpan Diqu","native":null,"lat":"42.93333000","lon":"89.16667000"},{"name":"Ürümqi","native":null,"lat":"43.80096000","lon":"87.60046000"},{"name":"Urumqi Shi","native":null,"lat":"43.80000000","lon":"87.58333000"},{"name":"Xinyuan","native":null,"lat":"43.42649000","lon":"83.24959000"},{"name":"Zangguy","native":null,"lat":"37.28333000","lon":"78.76667000"}]},{"name":"Xizang","native":null,"cities":[{"name":"Burang","native":null,"lat":"30.29559000","lon":"81.17511000"},{"name":"Dêqên","native":null,"lat":"29.96178000","lon":"90.71875000"},{"name":"Jiangzi","native":null,"lat":"28.92026000","lon":"89.59956000"},{"name":"Lhasa","native":null,"lat":"29.65000000","lon":"91.10000000"},{"name":"Nagqu","native":null,"lat":"31.47678000","lon":"92.05729000"},{"name":"Nagqu Diqu","native":null,"lat":"32.66357000","lon":"88.93146000"},{"name":"Ngari Diqu","native":null,"lat":"33.21836000","lon":"82.57507000"},{"name":"Nyingchi Prefecture","native":null,"lat":"29.60092000","lon":"94.42406000"},{"name":"Qamdo","native":null,"lat":"31.13040000","lon":"97.17982000"},{"name":"Qamdo Shi","native":null,"lat":"31.58370000","lon":"97.22304000"},{"name":"Rikaze","native":null,"lat":"29.25000000","lon":"88.88333000"},{"name":"Saga","native":null,"lat":"29.32367000","lon":"85.22601000"},{"name":"Shannan Diqu","native":null,"lat":"28.55630000","lon":"92.55684000"}]},{"name":"Yunnan","native":null,"cities":[{"name":"Chuxiong Yizu Zizhizhou","native":null,"lat":"25.43204000","lon":"101.70479000"},{"name":"Dali","native":null,"lat":"25.58474000","lon":"100.21229000"},{"name":"Dali Baizu Zizhizhou","native":null,"lat":"25.68548000","lon":"100.13104000"},{"name":"Dehong Daizu Jingpozu Zizhizhou","native":null,"lat":"24.66347000","lon":"98.03964000"},{"name":"Dêqên Tibetan Autonomous Prefecture","native":null,"lat":"27.91694000","lon":"99.54841000"},{"name":"Gejiu","native":null,"lat":"23.36085000","lon":"103.15372000"},{"name":"Haikou","native":null,"lat":"24.77985000","lon":"102.57548000"},{"name":"Honghe Hanizu Yizu Zizhizhou","native":null,"lat":"23.51675000","lon":"102.97389000"},{"name":"Jinghong","native":null,"lat":"21.99102000","lon":"100.73409000"},{"name":"Kaihua","native":null,"lat":"23.36950000","lon":"104.27721000"},{"name":"Kaiyuan","native":null,"lat":"23.69767000","lon":"103.30372000"},{"name":"Kunming","native":null,"lat":"25.03889000","lon":"102.71833000"},{"name":"Lianran","native":null,"lat":"24.92271000","lon":"102.48496000"},{"name":"Lijiang","native":null,"lat":"26.86879000","lon":"100.22072000"},{"name":"Lincang Shi","native":null,"lat":"23.94803000","lon":"99.55124000"},{"name":"Longquan","native":null,"lat":"24.67193000","lon":"102.16130000"},{"name":"Mabai","native":null,"lat":"23.01279000","lon":"104.45081000"},{"name":"Majie","native":null,"lat":"25.03190000","lon":"102.63800000"},{"name":"Miyang","native":null,"lat":"24.40417000","lon":"103.44278000"},{"name":"Nujiang Lisuzu Zizhizhou","native":null,"lat":"26.61738000","lon":"99.14062000"},{"name":"Qujing","native":null,"lat":"25.48333000","lon":"103.78333000"},{"name":"Shangri-La","native":null,"lat":"27.82511000","lon":"99.70779000"},{"name":"Shilin","native":null,"lat":"24.81878000","lon":"103.33237000"},{"name":"Wenlan","native":null,"lat":"23.36002000","lon":"103.43684000"},{"name":"Wenshan City","native":null,"lat":"23.36306000","lon":"104.25047000"},{"name":"Wenshan Zhuangzu Miaozu Zizhizhou","native":null,"lat":"23.65130000","lon":"104.70830000"},{"name":"Yuxi","native":null,"lat":"24.35500000","lon":"102.54222000"},{"name":"Zhaotong","native":null,"lat":"27.31667000","lon":"103.71667000"},{"name":"Zhongshu","native":null,"lat":"24.51667000","lon":"103.76667000"}]},{"name":"Zhejiang","native":null,"cities":[{"name":"Deqing","native":null,"lat":"30.54485000","lon":"119.95990000"},{"name":"Dongyang","native":null,"lat":"29.26778000","lon":"120.22528000"},{"name":"Fenghua","native":null,"lat":"29.65628000","lon":"121.40640000"},{"name":"Fuyang","native":null,"lat":"30.05333000","lon":"119.95194000"},{"name":"Guli","native":null,"lat":"28.88162000","lon":"120.03308000"},{"name":"Haining","native":null,"lat":"30.53629000","lon":"120.68638000"},{"name":"Hangzhou","native":null,"lat":"30.29365000","lon":"120.16142000"},{"name":"Huangyan","native":null,"lat":"28.65010000","lon":"121.26591000"},{"name":"Huzhou","native":null,"lat":"30.87030000","lon":"120.09330000"},{"name":"Jiaojiang","native":null,"lat":"28.69844000","lon":"121.47331000"},{"name":"Jiashan","native":null,"lat":"30.84918000","lon":"120.92583000"},{"name":"Jiaxing","native":null,"lat":"30.75220000","lon":"120.75000000"},{"name":"Jiaxing Shi","native":null,"lat":"30.77070000","lon":"120.75238000"},{"name":"Jinhua","native":null,"lat":"29.10678000","lon":"119.64421000"},{"name":"Jinxiang","native":null,"lat":"27.43265000","lon":"120.60625000"},{"name":"Kunyang","native":null,"lat":"27.66583000","lon":"120.56583000"},{"name":"Lanxi","native":null,"lat":"29.21588000","lon":"119.47156000"},{"name":"Lianghu","native":null,"lat":"29.99152000","lon":"120.89845000"},{"name":"Linhai","native":null,"lat":"28.85535000","lon":"121.14470000"},{"name":"Linping","native":null,"lat":"30.42250000","lon":"120.29722000"},{"name":"Lishui","native":null,"lat":"28.46042000","lon":"119.91029000"},{"name":"Luqiao","native":null,"lat":"28.58023000","lon":"121.37491000"},{"name":"Ningbo","native":null,"lat":"29.87819000","lon":"121.54945000"},{"name":"Ninghai","native":null,"lat":"29.28917000","lon":"121.42472000"},{"name":"Puyang","native":null,"lat":"29.45679000","lon":"119.88872000"},{"name":"Quzhou","native":null,"lat":"28.95944000","lon":"118.86861000"},{"name":"Shangyu","native":null,"lat":"30.01556000","lon":"120.87111000"},{"name":"Shaoxing","native":null,"lat":"30.00237000","lon":"120.57864000"},{"name":"Shenjiamen","native":null,"lat":"29.95763000","lon":"122.29802000"},{"name":"Taizhou","native":null,"lat":"28.66266000","lon":"121.43312000"},{"name":"Wenling","native":null,"lat":"28.37524000","lon":"121.38416000"},{"name":"Wenzhou","native":null,"lat":"27.99942000","lon":"120.66682000"},{"name":"Wuzhen","native":null,"lat":"30.74536000","lon":"120.48510000"},{"name":"Xianju","native":null,"lat":"28.85470000","lon":"120.73168000"},{"name":"Xiaoshan","native":null,"lat":"30.16746000","lon":"120.25883000"},{"name":"Yiwu","native":null,"lat":"29.31506000","lon":"120.07676000"},{"name":"Yuyao","native":null,"lat":"30.05000000","lon":"121.14944000"},{"name":"Zhaobaoshan","native":null,"lat":"29.96950000","lon":"121.68753000"},{"name":"Zhicheng","native":null,"lat":"31.00751000","lon":"119.90851000"},{"name":"Zhoushan","native":null,"lat":"29.98869000","lon":"122.20488000"},{"name":"Zhuji","native":null,"lat":"29.71877000","lon":"120.24233000"}]}]