[{"id":2895,"name":"Amazonas","native":null,"cities":[{"id":20807,"name":"El Encanto","native":null,"lat":"-1.56261000","lon":"-73.25684000"},{"id":20977,"name":"La Chorrera","native":null,"lat":"-1.48894000","lon":"-72.72935000"},{"id":20998,"name":"La Pedrera","native":null,"lat":"-1.65596000","lon":"-70.22186000"},{"id":21014,"name":"La Victoria","native":null,"lat":"-0.18311000","lon":"-71.03760000"},{"id":21027,"name":"Leticia","native":null,"lat":"-4.21528000","lon":"-69.94056000"},{"id":21086,"name":"Miriti - Paraná","native":null,"lat":"-0.81858000","lon":"-70.78925000"},{"id":21231,"name":"Puerto Alegría","native":null,"lat":"-0.96886000","lon":"-73.74962000"},{"id":21232,"name":"Puerto Arica","native":null,"lat":"-1.90677000","lon":"-71.14653000"},{"id":21249,"name":"Puerto Nariño","native":null,"lat":"-3.78889000","lon":"-70.35584000"},{"id":21256,"name":"Puerto Santander","native":null,"lat":"-1.09870000","lon":"-71.93911000"},{"id":21512,"name":"Tarapacá","native":null,"lat":"-2.88544000","lon":"-69.77692000"}]},{"id":2890,"name":"Antioquia","native":null,"cities":[{"id":20485,"name":"Abejorral","native":null,"lat":"5.78928000","lon":"-75.42725000"},{"id":20487,"name":"Abriaquí","native":null,"lat":"6.63148000","lon":"-76.06444000"},{"id":20504,"name":"Alejandría","native":null,"lat":"6.36667000","lon":"-75.08333000"},{"id":20512,"name":"Amagá","native":null,"lat":"6.04001000","lon":"-75.70315000"},{"id":20513,"name":"Amalfi","native":null,"lat":"6.91016000","lon":"-75.07764000"},{"id":20520,"name":"Andes","native":null,"lat":"5.66974000","lon":"-75.89905000"},{"id":20521,"name":"Angelópolis","native":null,"lat":"6.12228000","lon":"-75.71432000"},{"id":20522,"name":"Angostura","native":null,"lat":"6.87120000","lon":"-75.35947000"},{"id":20747,"name":"Anorí","native":null,"lat":"7.07361111","lon":"-75.14694444"},{"id":20527,"name":"Anza","native":null,"lat":"6.33333000","lon":"-75.91667000"},{"id":20529,"name":"Apartadó","native":null,"lat":"7.88299000","lon":"-76.62587000"},{"id":20541,"name":"Arboletes","native":null,"lat":"8.85051000","lon":"-76.42694000"},{"id":20544,"name":"Argelia","native":null,"lat":"5.73127000","lon":"-75.14257000"},{"id":20551,"name":"Armenia","native":null,"lat":"6.17554000","lon":"-75.81230000"},{"id":20566,"name":"Barbosa","native":null,"lat":"6.43809000","lon":"-75.33136000"},{"id":20579,"name":"Bello","native":null,"lat":"6.36160000","lon":"-75.58728000"},{"id":20580,"name":"Belmira","native":null,"lat":"6.60508000","lon":"-75.66619000"},{"id":20588,"name":"Betania","native":null,"lat":"5.73571000","lon":"-75.98964000"},{"id":20589,"name":"Betulia","native":null,"lat":"6.11284000","lon":"-75.98378000"},{"id":20602,"name":"Briceño","native":null,"lat":"7.05001000","lon":"-75.50903000"},{"id":20613,"name":"Buriticá","native":null,"lat":"6.80549000","lon":"-75.92093000"},{"id":20763,"name":"Cáceres","native":null,"lat":"7.68252000","lon":"-75.22481000"},{"id":20621,"name":"Caicedo","native":null,"lat":"6.42805000","lon":"-75.99715000"},{"id":20631,"name":"Caldas","native":null,"lat":"6.09106000","lon":"-75.63569000"},{"id":20638,"name":"Campamento","native":null,"lat":"7.03910000","lon":"-75.28938000"},{"id":20667,"name":"Cañasgordas","native":null,"lat":"6.80951000","lon":"-76.03954000"},{"id":20649,"name":"Caracolí","native":null,"lat":"6.40920000","lon":"-74.75715000"},{"id":20650,"name":"Caramanta","native":null,"lat":"5.54144000","lon":"-75.66961000"},{"id":20652,"name":"Carepa","native":null,"lat":"7.75849000","lon":"-76.65255000"},{"id":20658,"name":"Carolina","native":null,"lat":"6.74807000","lon":"-75.32131000"},{"id":20666,"name":"Caucasia","native":null,"lat":"7.98654000","lon":"-75.19349000"},{"id":20683,"name":"Chigorodó","native":null,"lat":"7.66638000","lon":"-76.68106000"},{"id":20710,"name":"Cisneros","native":null,"lat":"6.54507000","lon":"-75.09415000"},{"id":20711,"name":"Ciudad Bolívar","native":null,"lat":"5.85389000","lon":"-76.02528000"},{"id":20716,"name":"Cocorná","native":null,"lat":"6.00579000","lon":"-75.16984000"},{"id":20724,"name":"Concepción","native":null,"lat":"6.39408000","lon":"-75.25830000"},{"id":20727,"name":"Concordia","native":null,"lat":"6.04639000","lon":"-75.90705000"},{"id":20735,"name":"Copacabana","native":null,"lat":"6.36230000","lon":"-75.49922000"},{"id":20773,"name":"Dabeiba","native":null,"lat":"7.03367000","lon":"-76.34161000"},{"id":20781,"name":"Donmatías","native":null,"lat":"6.48569000","lon":"-75.39496000"},{"id":20785,"name":"Ebéjico","native":null,"lat":"6.32598000","lon":"-75.76835000"},{"id":20786,"name":"El Bagre","native":null,"lat":"7.60347000","lon":"-74.80951000"},{"id":20656,"name":"El Carmen de Viboral","native":null,"lat":"6.08236000","lon":"-75.33509000"},{"id":21441,"name":"El Santuario","native":null,"lat":"6.13833000","lon":"-75.26417000"},{"id":20838,"name":"Entrerrios","native":null,"lat":"6.58333000","lon":"-75.58333000"},{"id":20840,"name":"Envigado","native":null,"lat":"6.17591000","lon":"-75.59174000"},{"id":20859,"name":"Fredonia","native":null,"lat":"5.89239000","lon":"-75.68546000"},{"id":20861,"name":"Frontino","native":null,"lat":"6.77133000","lon":"-76.13324000"},{"id":20885,"name":"Giraldo","native":null,"lat":"6.66667000","lon":"-75.95346000"},{"id":20888,"name":"Girardota","native":null,"lat":"6.36789000","lon":"-75.46231000"},{"id":20931,"name":"Gómez Plata","native":null,"lat":"6.68178000","lon":"-75.21907000"},{"id":20893,"name":"Granada","native":null,"lat":"6.14353000","lon":"-75.18532000"},{"id":20901,"name":"Guadalupe","native":null,"lat":"6.81449000","lon":"-75.24063000"},{"id":20913,"name":"Guarne","native":null,"lat":"6.28345000","lon":"-75.44363000"},{"id":20915,"name":"Guatapé","native":null,"lat":"6.25548000","lon":"-75.16432000"},{"id":20939,"name":"Heliconia","native":null,"lat":"6.20831000","lon":"-75.73565000"},{"id":20942,"name":"Hispania","native":null,"lat":"5.79925000","lon":"-75.90718000"},{"id":20953,"name":"Itagui","native":null,"lat":"6.17874000","lon":"-75.63117000"},{"id":20955,"name":"Ituango","native":null,"lat":"7.17117000","lon":"-75.76404000"},{"id":20959,"name":"Jardín","native":null,"lat":"5.59038000","lon":"-75.81846000"},{"id":20961,"name":"Jericó","native":null,"lat":"5.79211000","lon":"-75.78601000"},{"id":20974,"name":"La Ceja","native":null,"lat":"6.00000000","lon":"-75.43311000"},{"id":20983,"name":"La Estrella","native":null,"lat":"6.14239000","lon":"-75.65257000"},{"id":21000,"name":"La Pintada","native":null,"lat":"5.74867000","lon":"-75.60626000"},{"id":21009,"name":"La Unión","native":null,"lat":"5.94642000","lon":"-75.35917000"},{"id":21028,"name":"Liborina","native":null,"lat":"6.67790000","lon":"-75.81218000"},{"id":21044,"name":"Maceo","native":null,"lat":"6.55196000","lon":"-74.78741000"},{"id":21066,"name":"Marinilla","native":null,"lat":"6.19609000","lon":"-75.30313000"},{"id":21074,"name":"Medellín","native":null,"lat":"6.25184000","lon":"-75.56359000"},{"id":21097,"name":"Montebello","native":null,"lat":"5.93703000","lon":"-75.52741000"},{"id":21120,"name":"Murindó","native":null,"lat":"6.84698000","lon":"-76.71544000"},{"id":21121,"name":"Mutatá","native":null,"lat":"7.24407000","lon":"-76.43564000"},{"id":21126,"name":"Nariño","native":null,"lat":"5.60893000","lon":"-75.17656000"},{"id":21129,"name":"Nechí","native":null,"lat":"8.09419000","lon":"-74.77573000"},{"id":21130,"name":"Necoclí","native":null,"lat":"8.42627000","lon":"-76.78926000"},{"id":21149,"name":"Olaya","native":null,"lat":"6.62773000","lon":"-75.81270000"},{"id":21197,"name":"Peñol","native":null,"lat":"6.23434000","lon":"-75.22573000"},{"id":21194,"name":"Peque","native":null,"lat":"7.02123000","lon":"-75.90926000"},{"id":21227,"name":"Pueblorrico","native":null,"lat":"5.80000000","lon":"-75.85000000"},{"id":21234,"name":"Puerto Berrío","native":null,"lat":"6.50749000","lon":"-74.52271000"},{"id":21248,"name":"Puerto Nare","native":null,"lat":"6.19167000","lon":"-74.58670000"},{"id":21258,"name":"Puerto Triunfo","native":null,"lat":"5.87259000","lon":"-74.64050000"},{"id":21281,"name":"Remedios","native":null,"lat":"7.02835000","lon":"-74.69379000"},{"id":21286,"name":"Retiro","native":null,"lat":"6.05906000","lon":"-75.51488000"},{"id":21293,"name":"Rionegro","native":null,"lat":"6.16667000","lon":"-75.41667000"},{"id":21311,"name":"Sabanalarga","native":null,"lat":"6.84893000","lon":"-75.81711000"},{"id":21314,"name":"Sabaneta","native":null,"lat":"6.15153000","lon":"-75.61657000"},{"id":21323,"name":"Salgar","native":null,"lat":"5.96711000","lon":"-75.98747000"},{"id":21330,"name":"San Andrés de Cuerquía","native":null,"lat":"6.90333000","lon":"-75.68250000"},{"id":21345,"name":"San Carlos","native":null,"lat":"7.79177000","lon":"-74.77316000"},{"id":21357,"name":"San Francisco","native":null,"lat":"6.11667000","lon":"-75.98333000"},{"id":21362,"name":"San Jerónimo","native":null,"lat":"6.44139000","lon":"-75.70783000"},{"id":21366,"name":"San José de la Montaña","native":null,"lat":"6.82205000","lon":"-75.69757000"},{"id":21376,"name":"San Juan de Urabá","native":null,"lat":"8.75924000","lon":"-76.52969000"},{"id":149253,"name":"San Luis","native":null,"lat":"6.04222222","lon":"-74.99333333"},{"id":21117,"name":"San Pedro de los Milagros","native":null,"lat":"6.45944444","lon":"-75.55777888"},{"id":21399,"name":"San Pedro de Uraba","native":null,"lat":"8.42291000","lon":"-76.31747000"},{"id":21402,"name":"San Rafael","native":null,"lat":"6.31234000","lon":"-75.02426000"},{"id":21403,"name":"San Roque","native":null,"lat":"6.48511000","lon":"-75.01960000"},{"id":21407,"name":"San Vicente Ferrer","native":null,"lat":"6.32237000","lon":"-75.33020000"},{"id":21414,"name":"Santa Bárbara","native":null,"lat":"5.88937000","lon":"-75.58255000"},{"id":21417,"name":"Santa Fe de Antioquia","native":null,"lat":"6.55687000","lon":"-75.82806000"},{"id":21425,"name":"Santa Rosa de Osos","native":null,"lat":"6.64738000","lon":"-75.46031000"},{"id":21439,"name":"Santo Domingo","native":null,"lat":"6.47282000","lon":"-75.16547000"},{"id":21449,"name":"Segovia","native":null,"lat":"7.28132000","lon":"-74.64273000"},{"id":21474,"name":"Sonson","native":null,"lat":"5.75000000","lon":"-75.00000000"},{"id":21476,"name":"Sopetrán","native":null,"lat":"6.52271000","lon":"-75.74608000"},{"id":21562,"name":"Támesis","native":null,"lat":"5.66462000","lon":"-75.71339000"},{"id":21513,"name":"Tarazá","native":null,"lat":"7.58358000","lon":"-75.40068000"},{"id":21514,"name":"Tarso","native":null,"lat":"5.86467000","lon":"-75.82192000"},{"id":21532,"name":"Titiribí","native":null,"lat":"6.06276000","lon":"-75.79370000"},{"id":21537,"name":"Toledo","native":null,"lat":"7.01306000","lon":"-75.69528000"},{"id":21557,"name":"Turbo","native":null,"lat":"8.09263000","lon":"-76.72822000"},{"id":21572,"name":"Uramita","native":null,"lat":"6.89944000","lon":"-76.17417000"},{"id":21574,"name":"Urrao","native":null,"lat":"6.31696000","lon":"-76.13420000"},{"id":21577,"name":"Valdivia","native":null,"lat":"7.29382000","lon":"-75.39190000"},{"id":21584,"name":"Valparaíso","native":null,"lat":"5.61500000","lon":"-75.62422000"},{"id":21585,"name":"Vegachí","native":null,"lat":"6.76141000","lon":"-74.79473000"},{"id":21588,"name":"Venecia","native":null,"lat":"5.95417000","lon":"-75.79904000"},{"id":21595,"name":"Vigía del Fuerte","native":null,"lat":"6.58933000","lon":"-76.89599000"},{"id":21621,"name":"Yalí","native":null,"lat":"6.70257000","lon":"-74.79018000"},{"id":21622,"name":"Yarumal","native":null,"lat":"6.98532000","lon":"-75.45402000"},{"id":21624,"name":"Yolombó","native":null,"lat":"6.66569000","lon":"-74.99120000"},{"id":21625,"name":"Yondó","native":null,"lat":"6.90738000","lon":"-74.17686000"},{"id":21632,"name":"Zaragoza","native":null,"lat":"7.48971000","lon":"-74.86919000"}]},{"id":2881,"name":"Arauca","native":null,"cities":[{"id":20536,"name":"Arauca","native":null,"lat":"7.08471000","lon":"-70.75908000"},{"id":20537,"name":"Arauquita","native":null,"lat":"7.02917000","lon":"-71.42806000"},{"id":20746,"name":"Cravo Norte","native":null,"lat":"6.30173000","lon":"-70.20415000"},{"id":20856,"name":"Fortul","native":null,"lat":"6.74611000","lon":"-71.85667000"},{"id":21253,"name":"Puerto Rondón","native":null,"lat":"6.28048000","lon":"-71.10000000"},{"id":21444,"name":"Saravena","native":null,"lat":"6.96319000","lon":"-71.88230000"},{"id":21508,"name":"Tame","native":null,"lat":"6.46065000","lon":"-71.73618000"}]},{"id":2900,"name":"Archipiélago de San Andrés, Providencia y Santa Catalina","native":null,"cities":[{"id":21224,"name":"Providencia","native":null,"lat":"13.38479000","lon":"-81.37468000"},{"id":21331,"name":"San Andrés","native":null,"lat":"12.58317000","lon":"-81.70636000"}]},{"id":2880,"name":"Atlántico","native":null,"cities":[{"id":20564,"name":"Baranoa","native":null,"lat":"10.79497000","lon":"-74.92073000"},{"id":20574,"name":"Barranquilla","native":null,"lat":"10.96854000","lon":"-74.78132000"},{"id":20640,"name":"Campo de la Cruz","native":null,"lat":"10.37844000","lon":"-74.90258000"},{"id":20643,"name":"Candelaria","native":null,"lat":"10.47387000","lon":"-74.88581000"},{"id":20876,"name":"Galapa","native":null,"lat":"10.89790000","lon":"-74.88700000"},{"id":20966,"name":"Juan de Acosta","native":null,"lat":"10.82930000","lon":"-75.03346000"},{"id":21038,"name":"Luruaco","native":null,"lat":"10.61712000","lon":"-75.15146000"},{"id":21053,"name":"Malambo","native":null,"lat":"10.85953000","lon":"-74.77386000"},{"id":21055,"name":"Manatí","native":null,"lat":"10.46402000","lon":"-74.98220000"},{"id":21171,"name":"Palmar de Varela","native":null,"lat":"10.74055000","lon":"-74.75443000"},{"id":21208,"name":"Piojó","native":null,"lat":"10.74846000","lon":"-75.10776000"},{"id":21217,"name":"Polonuevo","native":null,"lat":"10.77697000","lon":"-74.85344000"},{"id":21218,"name":"Ponedera","native":null,"lat":"10.64297000","lon":"-74.75393000"},{"id":21238,"name":"Puerto Colombia","native":null,"lat":"11.00854000","lon":"-74.90887000"},{"id":21283,"name":"Repelón","native":null,"lat":"10.50937000","lon":"-75.12830000"},{"id":21309,"name":"Sabanagrande","native":null,"lat":"10.80077000","lon":"-74.77051000"},{"id":21312,"name":"Sabanalarga","native":null,"lat":"10.61636000","lon":"-74.95717000"},{"id":21420,"name":"Santa Lucía","native":null,"lat":"10.32420000","lon":"-74.96017000"},{"id":21440,"name":"Santo Tomás","native":null,"lat":"10.75773000","lon":"-74.75451000"},{"id":21472,"name":"Soledad","native":null,"lat":"10.89986000","lon":"-74.78787000"},{"id":21485,"name":"Suan","native":null,"lat":"10.30214000","lon":"-74.91934000"},{"id":21550,"name":"Tubará","native":null,"lat":"10.87562000","lon":"-74.97873000"},{"id":21576,"name":"Usiacurí","native":null,"lat":"10.74313000","lon":"-74.97604000"}]},{"id":4921,"name":"Bogotá D.C.","native":null,"cities":[{"id":149237,"name":"Bogotá D.C.","native":null,"lat":"4.61263889","lon":"-74.07050000"}]},{"id":2893,"name":"Bolívar","native":null,"cities":[{"id":20490,"name":"Achí","native":null,"lat":"8.56950000","lon":"-74.55715000"},{"id":20510,"name":"Altos del Rosario","native":null,"lat":"8.79162000","lon":"-74.16556000"},{"id":20543,"name":"Arenal","native":null,"lat":"8.45928000","lon":"-73.94331000"},{"id":20549,"name":"Arjona","native":null,"lat":"10.17594000","lon":"-75.35884000"},{"id":20554,"name":"Arroyohondo","native":null,"lat":"10.25220000","lon":"-75.01980000"},{"id":20573,"name":"Barranco de Loba","native":null,"lat":"8.94597000","lon":"-74.10647000"},{"id":20628,"name":"Calamar","native":null,"lat":"10.23377000","lon":"-74.94240000"},{"id":20645,"name":"Cantagallo","native":null,"lat":"7.37926000","lon":"-73.91550000"},{"id":20659,"name":"Cartagena de Indias","native":null,"lat":"10.39972000","lon":"-75.51444000"},{"id":20707,"name":"Cicuco","native":null,"lat":"9.27756000","lon":"-74.64312000"},{"id":20715,"name":"Clemencia","native":null,"lat":"10.56645000","lon":"-75.32499000"},{"id":20770,"name":"Córdoba","native":null,"lat":"9.55149000","lon":"-74.89800000"},{"id":20796,"name":"El Carmen de Bolívar","native":null,"lat":"9.71740000","lon":"-75.12023000"},{"id":20810,"name":"El Guamo","native":null,"lat":"10.01753000","lon":"-74.93483000"},{"id":20818,"name":"El Peñón","native":null,"lat":"8.98691000","lon":"-73.94697000"},{"id":20935,"name":"Hatillo de Loba","native":null,"lat":"8.95635000","lon":"-74.07819000"},{"id":21048,"name":"Magangué","native":null,"lat":"9.24202000","lon":"-74.75467000"},{"id":21050,"name":"Mahates","native":null,"lat":"10.23293000","lon":"-75.18985000"},{"id":21065,"name":"Margarita","native":null,"lat":"9.06325000","lon":"-74.28134000"},{"id":21072,"name":"María la Baja","native":null,"lat":"9.99228000","lon":"-75.34364000"},{"id":21093,"name":"Mompós","native":null,"lat":"9.13990000","lon":"-74.54513000"},{"id":21098,"name":"Montecristo","native":null,"lat":"8.29710000","lon":"-74.47330000"},{"id":21104,"name":"Morales","native":null,"lat":"8.27520000","lon":"-73.86884000"},{"id":21138,"name":"Norosí","native":null,"lat":"8.52692000","lon":"-74.03736000"},{"id":21207,"name":"Pinillos","native":null,"lat":"8.91925000","lon":"-74.46771000"},{"id":21280,"name":"Regidor","native":null,"lat":"8.72229000","lon":"-73.84891000"},{"id":21306,"name":"Río Viejo","native":null,"lat":"8.58740000","lon":"-73.83901000"},{"id":21350,"name":"San Cristóbal","native":null,"lat":"9.87809000","lon":"-75.25248000"},{"id":21353,"name":"San Estanislao","native":null,"lat":"10.39833000","lon":"-75.15111000"},{"id":21355,"name":"San Fernando","native":null,"lat":"9.27972000","lon":"-74.53389000"},{"id":21360,"name":"San Jacinto","native":null,"lat":"9.83906000","lon":"-75.11043000"},{"id":21361,"name":"San Jacinto del Cauca","native":null,"lat":"8.23729000","lon":"-74.66782000"},{"id":21372,"name":"San Juan Nepomuceno","native":null,"lat":"9.94976000","lon":"-75.07426000"},{"id":21386,"name":"San Martín de Loba","native":null,"lat":"8.88214000","lon":"-74.00353000"},{"id":21393,"name":"San Pablo","native":null,"lat":"10.05154000","lon":"-75.26775000"},{"id":21416,"name":"Santa Catalina","native":null,"lat":"10.60448000","lon":"-75.29555000"},{"id":21423,"name":"Santa Rosa","native":null,"lat":"10.47312000","lon":"-75.36160000"},{"id":21427,"name":"Santa Rosa del Sur","native":null,"lat":"7.96444000","lon":"-74.05444000"},{"id":21460,"name":"Simití","native":null,"lat":"7.81632000","lon":"-73.97922000"},{"id":21477,"name":"Soplaviento","native":null,"lat":"10.33176000","lon":"-75.11853000"},{"id":21505,"name":"Talaigua Nuevo","native":null,"lat":"9.30347000","lon":"-74.56477000"},{"id":21531,"name":"Tiquisio","native":null,"lat":"8.55666000","lon":"-74.26355000"},{"id":21555,"name":"Turbaco","native":null,"lat":"10.35707000","lon":"-75.38044000"},{"id":21556,"name":"Turbaná","native":null,"lat":"10.27169000","lon":"-75.44222000"},{"id":21609,"name":"Villanueva","native":null,"lat":"10.44759000","lon":"-75.26574000"},{"id":21629,"name":"Zambrano","native":null,"lat":"9.74823000","lon":"-74.88487000"}]},{"id":2903,"name":"Boyacá","native":null,"cities":[{"id":20507,"name":"Almeida","native":null,"lat":"4.97083000","lon":"-73.37972000"},{"id":20532,"name":"Aquitania","native":null,"lat":"5.40341000","lon":"-72.90192000"},{"id":20542,"name":"Arcabuco","native":null,"lat":"5.75463000","lon":"-73.43669000"},{"id":20583,"name":"Belén","native":null,"lat":"5.98892000","lon":"-72.91254000"},{"id":20587,"name":"Berbeo","native":null,"lat":"5.22760000","lon":"-73.12527000"},{"id":20591,"name":"Betéitiva","native":null,"lat":"5.91102000","lon":"-72.80926000"},{"id":20593,"name":"Boavita","native":null,"lat":"6.33031000","lon":"-72.58505000"},{"id":20600,"name":"Boyacá","native":null,"lat":"5.45371000","lon":"-73.36250000"},{"id":20601,"name":"Briceño","native":null,"lat":"5.68822000","lon":"-73.91784000"},{"id":20609,"name":"Buenavista","native":null,"lat":"5.50000000","lon":"-73.96667000"},{"id":20614,"name":"Busbanzá","native":null,"lat":"5.83047000","lon":"-72.88419000"},{"id":20632,"name":"Caldas","native":null,"lat":"5.57830000","lon":"-73.88066000"},{"id":20641,"name":"Campohermoso","native":null,"lat":"4.97733000","lon":"-73.16714000"},{"id":20670,"name":"Cerinza","native":null,"lat":"5.93649000","lon":"-72.99127000"},{"id":20687,"name":"Chinavita","native":null,"lat":"5.17915000","lon":"-73.37147000"},{"id":20693,"name":"Chiquinquirá","native":null,"lat":"5.61363000","lon":"-73.83848000"},{"id":20706,"name":"Chíquiza","native":null,"lat":"5.60412000","lon":"-73.48518000"},{"id":20695,"name":"Chiscas","native":null,"lat":"6.55642000","lon":"-72.50378000"},{"id":20696,"name":"Chita","native":null,"lat":"6.07788000","lon":"-72.46774000"},{"id":20698,"name":"Chitaraque","native":null,"lat":"5.96167000","lon":"-73.45761000"},{"id":20699,"name":"Chivatá","native":null,"lat":"5.55823000","lon":"-73.28198000"},{"id":20701,"name":"Chivor","native":null,"lat":"4.88556000","lon":"-73.36889000"},{"id":20714,"name":"Ciénega","native":null,"lat":"5.40867000","lon":"-73.29572000"},{"id":20723,"name":"Combita","native":null,"lat":"5.63333000","lon":"-73.31667000"},{"id":20736,"name":"Coper","native":null,"lat":"5.47681000","lon":"-74.04416000"},{"id":20740,"name":"Corrales","native":null,"lat":"5.82497000","lon":"-72.84539000"},{"id":20743,"name":"Covarachía","native":null,"lat":"6.50563000","lon":"-72.73310000"},{"id":20750,"name":"Cubará","native":null,"lat":"7.00578000","lon":"-72.10568000"},{"id":20751,"name":"Cucaita","native":null,"lat":"5.54373000","lon":"-73.45433000"},{"id":20762,"name":"Cuítiva","native":null,"lat":"5.58007000","lon":"-72.96687000"},{"id":20783,"name":"Duitama","native":null,"lat":"5.82450000","lon":"-73.03408000"},{"id":20802,"name":"El Cocuy","native":null,"lat":"6.32839000","lon":"-72.43577000"},{"id":20808,"name":"El Espino","native":null,"lat":"6.50812000","lon":"-72.48036000"},{"id":20846,"name":"Firavitoba","native":null,"lat":"5.66885000","lon":"-72.99289000"},{"id":20850,"name":"Floresta","native":null,"lat":"5.85903000","lon":"-72.92511000"},{"id":20873,"name":"Gachantivá","native":null,"lat":"5.74417000","lon":"-73.54253000"},{"id":20882,"name":"Gameza","native":null,"lat":"5.80313000","lon":"-72.73721000"},{"id":20883,"name":"Garagoa","native":null,"lat":"5.08236000","lon":"-73.36334000"},{"id":20896,"name":"Guacamayas","native":null,"lat":"6.44599000","lon":"-72.51676000"},{"id":20918,"name":"Guateque","native":null,"lat":"5.00619000","lon":"-73.47274000"},{"id":20924,"name":"Guayatá","native":null,"lat":"4.96417000","lon":"-73.48750000"},{"id":20933,"name":"Güicán","native":null,"lat":"6.46554000","lon":"-72.41539000"},{"id":20956,"name":"Iza","native":null,"lat":"5.61203000","lon":"-72.97930000"},{"id":20960,"name":"Jenesano","native":null,"lat":"5.38541000","lon":"-73.36364000"},{"id":20962,"name":"Jericó","native":null,"lat":"6.14577000","lon":"-72.58598000"},{"id":20973,"name":"La Capilla","native":null,"lat":"5.08076000","lon":"-73.48076000"},{"id":21010,"name":"La Uvita","native":null,"lat":"6.24262000","lon":"-72.56448000"},{"id":21015,"name":"La Victoria","native":null,"lat":"5.52278000","lon":"-74.23280000"},{"id":21018,"name":"Labranzagrande","native":null,"lat":"5.56223000","lon":"-72.57499000"},{"id":21042,"name":"Macanal","native":null,"lat":"4.95050000","lon":"-73.32029000"},{"id":21067,"name":"Maripí","native":null,"lat":"5.55194000","lon":"-74.00861000"},{"id":21084,"name":"Miraflores","native":null,"lat":"5.12216000","lon":"-73.21212000"},{"id":21094,"name":"Mongua","native":null,"lat":"5.75084000","lon":"-72.80339000"},{"id":21095,"name":"Monguí","native":null,"lat":"5.69752000","lon":"-72.83359000"},{"id":21096,"name":"Moniquirá","native":null,"lat":"5.84315000","lon":"-73.57775000"},{"id":21110,"name":"Motavita","native":null,"lat":"5.57655000","lon":"-73.36696000"},{"id":21123,"name":"Muzo","native":null,"lat":"5.53528000","lon":"-74.10778000"},{"id":21135,"name":"Nobsa","native":null,"lat":"5.76978000","lon":"-72.94099000"},{"id":21140,"name":"Nuevo Colón","native":null,"lat":"5.35368000","lon":"-73.45660000"},{"id":21148,"name":"Oicatá","native":null,"lat":"5.59548000","lon":"-73.30820000"},{"id":21156,"name":"Otanche","native":null,"lat":"5.77534000","lon":"-74.20315000"},{"id":21158,"name":"Pachavita","native":null,"lat":"5.13969000","lon":"-73.39739000"},{"id":21268,"name":"Páez","native":null,"lat":"5.10112000","lon":"-73.05123000"},{"id":21166,"name":"Paipa","native":null,"lat":"5.78013000","lon":"-73.11708000"},{"id":21168,"name":"Pajarito","native":null,"lat":"5.34751000","lon":"-72.72075000"},{"id":21180,"name":"Panqueba","native":null,"lat":"6.44533000","lon":"-72.46268000"},{"id":21186,"name":"Pauna","native":null,"lat":"5.65861000","lon":"-73.98250000"},{"id":21187,"name":"Paya","native":null,"lat":"5.62492000","lon":"-72.42345000"},{"id":21190,"name":"Paz de Río","native":null,"lat":"6.00219000","lon":"-72.78857000"},{"id":21196,"name":"Pesca","native":null,"lat":"5.50213000","lon":"-73.08794000"},{"id":21209,"name":"Pisba","native":null,"lat":"5.72396000","lon":"-72.48646000"},{"id":21236,"name":"Puerto Boyacá","native":null,"lat":"5.97214000","lon":"-74.46349000"},{"id":21276,"name":"Quípama","native":null,"lat":"5.51940000","lon":"-74.17765000"},{"id":21278,"name":"Ramiriquí","native":null,"lat":"5.40020000","lon":"-73.33544000"},{"id":21303,"name":"Ráquira","native":null,"lat":"5.53793000","lon":"-73.63201000"},{"id":21300,"name":"Rondón","native":null,"lat":"5.38173000","lon":"-73.19683000"},{"id":21315,"name":"Saboyá","native":null,"lat":"5.69636000","lon":"-73.76932000"},{"id":21502,"name":"Sáchica","native":null,"lat":"5.58453000","lon":"-73.54184000"},{"id":21324,"name":"Samacá","native":null,"lat":"5.49273000","lon":"-73.48537000"},{"id":21352,"name":"San Eduardo","native":null,"lat":"5.22396000","lon":"-73.07696000"},{"id":21368,"name":"San José de Pare","native":null,"lat":"6.01746000","lon":"-73.54703000"},{"id":21380,"name":"San Luis de Gaceno","native":null,"lat":"4.82052000","lon":"-73.16851000"},{"id":21387,"name":"San Mateo","native":null,"lat":"6.37704000","lon":"-72.57797000"},{"id":21390,"name":"San Miguel de Sema","native":null,"lat":"5.51847000","lon":"-73.72238000"},{"id":21394,"name":"San Pablo de Borbur","native":null,"lat":"5.66638000","lon":"-74.13723000"},{"id":21422,"name":"Santa María","native":null,"lat":"4.82282000","lon":"-73.25373000"},{"id":21426,"name":"Santa Rosa de Viterbo","native":null,"lat":"5.87401000","lon":"-72.98217000"},{"id":21430,"name":"Santa Sofía","native":null,"lat":"5.70213000","lon":"-73.62976000"},{"id":21433,"name":"Santana","native":null,"lat":"6.04464000","lon":"-73.51107000"},{"id":21447,"name":"Sativanorte","native":null,"lat":"6.13156000","lon":"-72.70895000"},{"id":21448,"name":"Sativasur","native":null,"lat":"6.08959000","lon":"-72.72432000"},{"id":21452,"name":"Siachoque","native":null,"lat":"5.51238000","lon":"-73.24436000"},{"id":21465,"name":"Soatá","native":null,"lat":"6.29966000","lon":"-72.72422000"},{"id":21466,"name":"Socha","native":null,"lat":"5.92926000","lon":"-72.70072000"},{"id":21469,"name":"Socotá","native":null,"lat":"6.04028000","lon":"-72.63509000"},{"id":21470,"name":"Sogamoso","native":null,"lat":"5.71434000","lon":"-72.93391000"},{"id":21473,"name":"Somondoco","native":null,"lat":"4.98495000","lon":"-73.43238000"},{"id":21479,"name":"Sora","native":null,"lat":"5.56514000","lon":"-73.45017000"},{"id":21480,"name":"Soracá","native":null,"lat":"5.50055000","lon":"-73.33299000"},{"id":21481,"name":"Sotaquirá","native":null,"lat":"5.76483000","lon":"-73.24758000"},{"id":21495,"name":"Susacón","native":null,"lat":"6.22978000","lon":"-72.69010000"},{"id":21496,"name":"Sutamarchán","native":null,"lat":"5.61538000","lon":"-73.61701000"},{"id":21498,"name":"Sutatenza","native":null,"lat":"5.02311000","lon":"-73.45230000"},{"id":21515,"name":"Tasco","native":null,"lat":"5.91044000","lon":"-72.78001000"},{"id":21521,"name":"Tenza","native":null,"lat":"5.07664000","lon":"-73.42077000"},{"id":21523,"name":"Tibaná","native":null,"lat":"5.31728000","lon":"-73.39655000"},{"id":21524,"name":"Tibasosa","native":null,"lat":"5.74722000","lon":"-73.01091000"},{"id":21529,"name":"Tinjacá","native":null,"lat":"5.57916000","lon":"-73.64486000"},{"id":21530,"name":"Tipacoque","native":null,"lat":"6.42031000","lon":"-72.69184000"},{"id":21533,"name":"Toca","native":null,"lat":"5.56393000","lon":"-73.18398000"},{"id":21536,"name":"Togüí","native":null,"lat":"5.93462000","lon":"-73.51297000"},{"id":21563,"name":"Tópaga","native":null,"lat":"5.75979000","lon":"-72.82583000"},{"id":21545,"name":"Tota","native":null,"lat":"5.55833000","lon":"-72.98757000"},{"id":21553,"name":"Tunja","native":null,"lat":"5.53528000","lon":"-73.36778000"},{"id":21554,"name":"Tununguá","native":null,"lat":"5.72967000","lon":"-73.94137000"},{"id":21558,"name":"Turmequé","native":null,"lat":"5.32360000","lon":"-73.49067000"},{"id":21559,"name":"Tuta","native":null,"lat":"5.68966000","lon":"-73.22779000"},{"id":21560,"name":"Tutazá","native":null,"lat":"6.03228000","lon":"-72.85639000"},{"id":21568,"name":"Umbita","native":null,"lat":"5.18411000","lon":"-73.48341000"},{"id":21589,"name":"Ventaquemada","native":null,"lat":"5.35987000","lon":"-73.55032000"},{"id":21598,"name":"Villa de Leyva","native":null,"lat":"5.67061000","lon":"-73.51554000"},{"id":21615,"name":"Viracachá","native":null,"lat":"5.43637000","lon":"-73.29606000"},{"id":21634,"name":"Zetaquira","native":null,"lat":"5.25824000","lon":"-73.18275000"}]},{"id":2887,"name":"Caldas","native":null,"cities":[{"id":20494,"name":"Aguadas","native":null,"lat":"5.61161000","lon":"-75.45624000"},{"id":20525,"name":"Anserma","native":null,"lat":"5.20427000","lon":"-75.79167000"},{"id":20534,"name":"Aranzazu","native":null,"lat":"5.25519000","lon":"-75.50984000"},{"id":20576,"name":"Belalcázar","native":null,"lat":"4.99528000","lon":"-75.81278000"},{"id":20688,"name":"Chinchiná","native":null,"lat":"4.97522000","lon":"-75.70416000"},{"id":20844,"name":"Filadelfia","native":null,"lat":"5.29606000","lon":"-75.56120000"},{"id":20981,"name":"La Dorada","native":null,"lat":"5.53333000","lon":"-74.70000000"},{"id":20992,"name":"La Merced","native":null,"lat":"5.38060000","lon":"-75.58842000"},{"id":21059,"name":"Manizales","native":null,"lat":"5.06889000","lon":"-75.51738000"},{"id":21061,"name":"Manzanares","native":null,"lat":"5.23305000","lon":"-75.15168000"},{"id":21068,"name":"Marmato","native":null,"lat":"5.47554000","lon":"-75.59710000"},{"id":21069,"name":"Marquetalia","native":null,"lat":"5.29069000","lon":"-75.08028000"},{"id":21071,"name":"Marulanda","native":null,"lat":"5.28393000","lon":"-75.26016000"},{"id":21131,"name":"Neira","native":null,"lat":"5.17534000","lon":"-75.52405000"},{"id":21137,"name":"Norcasia","native":null,"lat":"5.57535000","lon":"-74.88831000"},{"id":21267,"name":"Pácora","native":null,"lat":"5.50631000","lon":"-75.49054000"},{"id":21169,"name":"Palestina","native":null,"lat":"5.04571000","lon":"-75.69552000"},{"id":21193,"name":"Pensilvania","native":null,"lat":"5.38840000","lon":"-75.20420000"},{"id":21294,"name":"Riosucio","native":null,"lat":"5.42164000","lon":"-75.70318000"},{"id":21296,"name":"Risaralda","native":null,"lat":"5.11237000","lon":"-75.75861000"},{"id":21319,"name":"Salamina","native":null,"lat":"5.37014000","lon":"-75.41548000"},{"id":21326,"name":"Samaná","native":null,"lat":"5.54061000","lon":"-74.99346000"},{"id":21364,"name":"San José","native":null,"lat":"5.08221000","lon":"-75.79107000"},{"id":21492,"name":"Supía","native":null,"lat":"5.45303000","lon":"-75.65072000"},{"id":21594,"name":"Victoria","native":null,"lat":"5.45666000","lon":"-74.84061000"},{"id":21605,"name":"Villamaría","native":null,"lat":"4.95078000","lon":"-75.43680000"},{"id":21617,"name":"Viterbo","native":null,"lat":"5.06242000","lon":"-75.87159000"}]},{"id":2891,"name":"Caquetá","native":null,"cities":[{"id":20499,"name":"Albania","native":null,"lat":"1.26325000","lon":"-75.95366000"},{"id":20584,"name":"Belén de Los Andaquies","native":null,"lat":"1.41667000","lon":"-75.91667000"},{"id":20660,"name":"Cartagena del Chairá","native":null,"lat":"1.33488000","lon":"-74.84289000"},{"id":20759,"name":"Curillo","native":null,"lat":"1.03327000","lon":"-75.91907000"},{"id":20805,"name":"El Doncello","native":null,"lat":"1.67817000","lon":"-75.28466000"},{"id":20814,"name":"El Paujil","native":null,"lat":"1.57085000","lon":"-75.31403000"},{"id":20849,"name":"Florencia","native":null,"lat":"1.71619000","lon":"-75.59624000"},{"id":20994,"name":"La Montañita","native":null,"lat":"1.46389000","lon":"-75.30363000"},{"id":21082,"name":"Milán","native":null,"lat":"1.29034000","lon":"-75.50757000"},{"id":21105,"name":"Morelia","native":null,"lat":"1.48747000","lon":"-75.72581000"},{"id":21251,"name":"Puerto Rico","native":null,"lat":"1.90999000","lon":"-75.15931000"},{"id":21369,"name":"San José del Fragua","native":null,"lat":"1.30780000","lon":"-76.16554000"},{"id":149254,"name":"San Vicente del Caguán","native":null,"lat":"2.11527888","lon":"-74.77777777"},{"id":21471,"name":"Solano","native":null,"lat":"0.22842000","lon":"-73.27597000"},{"id":149255,"name":"Solita","native":null,"lat":"0.87583333","lon":"-75.61972222"},{"id":21583,"name":"Valparaíso","native":null,"lat":"1.19403000","lon":"-75.70746000"}]},{"id":2892,"name":"Casanare","native":null,"cities":[{"id":20495,"name":"Aguazul","native":null,"lat":"5.17282000","lon":"-72.54706000"},{"id":20677,"name":"Chameza","native":null,"lat":"5.19237000","lon":"-72.88952000"},{"id":20937,"name":"Hato Corozal","native":null,"lat":"6.15472222","lon":"-71.76527888"},{"id":149243,"name":"La Salina","native":null,"lat":"6.12755555","lon":"-72.33416777"},{"id":21062,"name":"Maní","native":null,"lat":"4.81638000","lon":"-72.27946000"},{"id":21101,"name":"Monterrey","native":null,"lat":"4.82015000","lon":"-72.87901000"},{"id":21141,"name":"Nunchía","native":null,"lat":"5.63589000","lon":"-72.19543000"},{"id":21153,"name":"Orocué","native":null,"lat":"4.79035000","lon":"-71.33917000"},{"id":149244,"name":"Paz de Ariporo","native":null,"lat":"5.88111111","lon":"-71.89166777"},{"id":21220,"name":"Pore","native":null,"lat":"5.72792000","lon":"-71.99266000"},{"id":21279,"name":"Recetor","native":null,"lat":"5.22947000","lon":"-72.76099000"},{"id":21310,"name":"Sabanalarga","native":null,"lat":"4.85430000","lon":"-73.04003000"},{"id":21501,"name":"Sácama","native":null,"lat":"6.09908000","lon":"-72.24880000"},{"id":21381,"name":"San Luis de Palenque","native":null,"lat":"5.42139000","lon":"-71.73167000"},{"id":21561,"name":"Támara","native":null,"lat":"5.82998000","lon":"-72.16286000"},{"id":21516,"name":"Tauramena","native":null,"lat":"5.01789000","lon":"-72.74675000"},{"id":21548,"name":"Trinidad","native":null,"lat":"5.34778000","lon":"-71.20194000"},{"id":21607,"name":"Villanueva","native":null,"lat":"5.28333000","lon":"-71.96667000"},{"id":21626,"name":"Yopal","native":null,"lat":"5.33775000","lon":"-72.39586000"}]},{"id":2884,"name":"Cauca","native":null,"cities":[{"id":20506,"name":"Almaguer","native":null,"lat":"1.91472000","lon":"-76.85482000"},{"id":20545,"name":"Argelia","native":null,"lat":"2.31728000","lon":"-77.25700000"},{"id":20562,"name":"Balboa","native":null,"lat":"2.08436000","lon":"-77.20781000"},{"id":20599,"name":"Bolívar","native":null,"lat":"1.84670000","lon":"-76.98292000"},{"id":20610,"name":"Buenos Aires","native":null,"lat":"3.04825000","lon":"-76.63066000"},{"id":20625,"name":"Cajibío","native":null,"lat":"2.62271000","lon":"-76.57039000"},{"id":20633,"name":"Caldono","native":null,"lat":"2.79739000","lon":"-76.48316000"},{"id":20637,"name":"Caloto","native":null,"lat":"3.03586000","lon":"-76.40788000"},{"id":20737,"name":"Corinto","native":null,"lat":"3.13598000","lon":"-76.20646000"},{"id":20831,"name":"El Tambo","native":null,"lat":"2.45199000","lon":"-76.81029000"},{"id":20848,"name":"Florencia","native":null,"lat":"1.68318000","lon":"-77.07331000"},{"id":149241,"name":"Guachené","native":null,"lat":"3.13361111","lon":"-76.39255555"},{"id":20909,"name":"Guapi","native":null,"lat":"2.55210000","lon":"-77.87865000"},{"id":20948,"name":"Inzá","native":null,"lat":"2.55452000","lon":"-76.06722000"},{"id":20957,"name":"Jambaló","native":null,"lat":"2.85065000","lon":"-76.32506000"},{"id":21003,"name":"La Sierra","native":null,"lat":"2.19665000","lon":"-76.78590000"},{"id":21011,"name":"La Vega","native":null,"lat":"2.06201000","lon":"-76.76808000"},{"id":21041,"name":"López de Micay","native":null,"lat":"3.00000000","lon":"-77.25000000"},{"id":21080,"name":"Mercaderes","native":null,"lat":"1.80175000","lon":"-77.17032000"},{"id":21085,"name":"Miranda","native":null,"lat":"3.23773000","lon":"-76.22093000"},{"id":21103,"name":"Morales","native":null,"lat":"2.75446000","lon":"-76.62791000"},{"id":21161,"name":"Padilla","native":null,"lat":"3.22038000","lon":"-76.31385000"},{"id":21163,"name":"Páez","native":null,"lat":"2.64644000","lon":"-75.97269000"},{"id":21185,"name":"Patía","native":null,"lat":"2.14018000","lon":"-77.01744000"},{"id":149245,"name":"Piamonte","native":null,"lat":"1.11583333","lon":"-76.32611111"},{"id":21202,"name":"Piendamo","native":null,"lat":"2.63918000","lon":"-76.53055000"},{"id":21219,"name":"Popayán","native":null,"lat":"2.43823000","lon":"-76.61316000"},{"id":21257,"name":"Puerto Tejada","native":null,"lat":"3.23393000","lon":"-76.41935000"},{"id":21263,"name":"Puracé","native":null,"lat":"2.33851000","lon":"-76.38759000"},{"id":21301,"name":"Rosas","native":null,"lat":"2.26093000","lon":"-76.73986000"},{"id":21404,"name":"San Sebastián","native":null,"lat":"1.91667000","lon":"-76.66667000"},{"id":149250,"name":"Santa Rosa","native":null,"lat":"1.70055666","lon":"-76.57277888"},{"id":21434,"name":"Santander de Quilichao","native":null,"lat":"3.00945000","lon":"-76.48494000"},{"id":21457,"name":"Silvia","native":null,"lat":"2.61557000","lon":"-76.38261000"},{"id":21482,"name":"Sotará","native":null,"lat":"2.25000000","lon":"-76.58333000"},{"id":21499,"name":"Suárez","native":null,"lat":"2.95395000","lon":"-76.69644000"},{"id":21489,"name":"Sucre","native":null,"lat":"2.06182000","lon":"-76.91438000"},{"id":149257,"name":"Timbío","native":null,"lat":"2.35277888","lon":"-76.68194444"},{"id":21528,"name":"Timbiquí","native":null,"lat":"2.77170000","lon":"-77.66536000"},{"id":21542,"name":"Toribio","native":null,"lat":"3.00000000","lon":"-76.16667000"},{"id":21546,"name":"Totoró","native":null,"lat":"2.50518000","lon":"-76.39254000"},{"id":21597,"name":"Villa Rica","native":null,"lat":"2.51420000","lon":"-76.84939000"}]},{"id":2899,"name":"Cesar","native":null,"cities":[{"id":20492,"name":"Aguachica","native":null,"lat":"8.30844000","lon":"-73.61660000"},{"id":20496,"name":"Agustín Codazzi","native":null,"lat":"10.03672000","lon":"-73.23558000"},{"id":20555,"name":"Astrea","native":null,"lat":"9.49828000","lon":"-73.97591000"},{"id":20575,"name":"Becerril","native":null,"lat":"9.70413000","lon":"-73.27930000"},{"id":149238,"name":"Bosconia","native":null,"lat":"9.97611111","lon":"-73.89033333"},{"id":20685,"name":"Chimichagua","native":null,"lat":"9.25778000","lon":"-73.81228000"},{"id":20694,"name":"Chiriguaná","native":null,"lat":"9.36238000","lon":"-73.60313000"},{"id":20761,"name":"Curumaní","native":null,"lat":"9.19992000","lon":"-73.54274000"},{"id":20804,"name":"El Copey","native":null,"lat":"10.15031000","lon":"-73.96140000"},{"id":20813,"name":"El Paso","native":null,"lat":"9.65724000","lon":"-73.74685000"},{"id":20880,"name":"Gamarra","native":null,"lat":"8.32969000","lon":"-73.71773000"},{"id":20890,"name":"González","native":null,"lat":"8.36735000","lon":"-73.40032000"},{"id":20985,"name":"La Gloria","native":null,"lat":"8.61160000","lon":"-73.63045000"},{"id":20987,"name":"La Jagua de Ibirico","native":null,"lat":"9.56228000","lon":"-73.33405000"},{"id":20997,"name":"La Paz","native":null,"lat":"10.10487000","lon":"-73.22056000"},{"id":21058,"name":"Manaure Balcón del Cesar","native":null,"lat":"10.39278000","lon":"-73.03250000"},{"id":21164,"name":"Pailitas","native":null,"lat":"8.95652000","lon":"-73.62548000"},{"id":21192,"name":"Pelaya","native":null,"lat":"8.68819000","lon":"-73.66451000"},{"id":149247,"name":"Pueblo Bello","native":null,"lat":"10.41638999","lon":"-73.58666777"},{"id":21307,"name":"Río de Oro","native":null,"lat":"8.17879000","lon":"-73.51218000"},{"id":21328,"name":"San Alberto","native":null,"lat":"7.76107000","lon":"-73.39220000"},{"id":21351,"name":"San Diego","native":null,"lat":"10.33623000","lon":"-73.18203000"},{"id":21384,"name":"San Martín","native":null,"lat":"8.00151000","lon":"-73.51126000"},{"id":21507,"name":"Tamalameque","native":null,"lat":"8.86422000","lon":"-73.78106000"},{"id":21582,"name":"Valledupar","native":null,"lat":"10.46314000","lon":"-73.25322000"}]},{"id":2876,"name":"Chocó","native":null,"cities":[{"id":20489,"name":"Acandí","native":null,"lat":"8.51158000","lon":"-77.27719000"},{"id":20509,"name":"Alto Baudó","native":null,"lat":"5.51604000","lon":"-76.97449000"},{"id":20557,"name":"Atrato","native":null,"lat":"5.57362000","lon":"-76.64063000"},{"id":20559,"name":"Bagadó","native":null,"lat":"5.41164000","lon":"-76.41520000"},{"id":20560,"name":"Bahía Solano","native":null,"lat":"6.22520000","lon":"-77.39147000"},{"id":20561,"name":"Bajo Baudó","native":null,"lat":"4.95334000","lon":"-77.36598000"},{"id":20596,"name":"Bojayá","native":null,"lat":"6.55645000","lon":"-76.88389000"},{"id":20657,"name":"Carmen del Darien","native":null,"lat":"7.15777888","lon":"-76.97083333"},{"id":20767,"name":"Cértegui","native":null,"lat":"5.37073000","lon":"-76.60440000"},{"id":20728,"name":"Condoto","native":null,"lat":"5.09351000","lon":"-76.64973000"},{"id":20791,"name":"El Cantón de San Pablo","native":null,"lat":"5.33889000","lon":"-76.73139000"},{"id":20795,"name":"El Carmen de Atrato","native":null,"lat":"5.83333000","lon":"-76.25000000"},{"id":20952,"name":"Istmina","native":null,"lat":"5.16054000","lon":"-76.68397000"},{"id":20969,"name":"Juradó","native":null,"lat":"7.10421000","lon":"-77.76200000"},{"id":21418,"name":"Litoral del San Juan","native":null,"lat":"4.25875000","lon":"-77.36516000"},{"id":21030,"name":"Lloró","native":null,"lat":"5.49605000","lon":"-76.54945000"},{"id":21076,"name":"Medio Atrato","native":null,"lat":"5.99500000","lon":"-76.78250000"},{"id":21077,"name":"Medio Baudó","native":null,"lat":"5.05000000","lon":"-77.05000000"},{"id":21078,"name":"Medio San Juan","native":null,"lat":"5.09278000","lon":"-76.69528000"},{"id":21143,"name":"Nóvita","native":null,"lat":"4.95511000","lon":"-76.60526000"},{"id":21142,"name":"Nuquí","native":null,"lat":"5.71250000","lon":"-77.27083000"},{"id":21272,"name":"Quibdó","native":null,"lat":"5.76075000","lon":"-76.83701000"},{"id":21304,"name":"Río Iro","native":null,"lat":"5.18333000","lon":"-76.48330000"},{"id":21305,"name":"Río Quito","native":null,"lat":"5.51667000","lon":"-76.75000000"},{"id":21295,"name":"Riosucio","native":null,"lat":"7.41667000","lon":"-77.16667000"},{"id":21371,"name":"San José del Palmar","native":null,"lat":"4.89616000","lon":"-76.23422000"},{"id":21462,"name":"Sipí","native":null,"lat":"4.65374000","lon":"-76.64442000"},{"id":21504,"name":"Tadó","native":null,"lat":"5.26598000","lon":"-76.56487000"},{"id":21570,"name":"Unguía","native":null,"lat":"8.04364000","lon":"-77.09137000"},{"id":21571,"name":"Unión Panamericana","native":null,"lat":"5.28139000","lon":"-76.63000000"}]},{"id":2898,"name":"Córdoba","native":null,"cities":[{"id":20558,"name":"Ayapel","native":null,"lat":"8.31372000","lon":"-75.13982000"},{"id":20608,"name":"Buenavista","native":null,"lat":"9.04963000","lon":"-76.00280000"},{"id":20642,"name":"Canalete","native":null,"lat":"8.67611000","lon":"-76.20417000"},{"id":20669,"name":"Cereté","native":null,"lat":"8.88479000","lon":"-75.79052000"},{"id":20686,"name":"Chimá","native":null,"lat":"9.14893000","lon":"-75.62841000"},{"id":20690,"name":"Chinú","native":null,"lat":"9.03869000","lon":"-75.34273000"},{"id":20713,"name":"Ciénaga de Oro","native":null,"lat":"8.83581000","lon":"-75.60425000"},{"id":20742,"name":"Cotorra","native":null,"lat":"9.03886000","lon":"-75.78969000"},{"id":20970,"name":"La Apartada","native":null,"lat":"8.04787000","lon":"-75.30097000"},{"id":21031,"name":"Lorica","native":null,"lat":"9.23648000","lon":"-75.81350000"},{"id":21033,"name":"Los Córdobas","native":null,"lat":"8.89403000","lon":"-76.35455000"},{"id":21092,"name":"Momil","native":null,"lat":"9.23767000","lon":"-75.67489000"},{"id":21112,"name":"Moñitos","native":null,"lat":"9.22615000","lon":"-76.13594000"},{"id":21099,"name":"Montelíbano","native":null,"lat":"7.97917000","lon":"-75.42020000"},{"id":21102,"name":"Montería","native":null,"lat":"8.74798000","lon":"-75.88143000"},{"id":21213,"name":"Planeta Rica","native":null,"lat":"8.41150000","lon":"-75.58508000"},{"id":21225,"name":"Pueblo Nuevo","native":null,"lat":"8.24110000","lon":"-74.95815000"},{"id":21241,"name":"Puerto Escondido","native":null,"lat":"8.99453000","lon":"-76.19351000"},{"id":21245,"name":"Puerto Libertador","native":null,"lat":"7.68181000","lon":"-75.78312000"},{"id":21266,"name":"Purísima","native":null,"lat":"9.23657000","lon":"-75.72191000"},{"id":21316,"name":"Sahagún","native":null,"lat":"8.94617000","lon":"-75.44275000"},{"id":21333,"name":"San Andrés de Sotavento","native":null,"lat":"9.12183000","lon":"-75.51627000"},{"id":21335,"name":"San Antero","native":null,"lat":"9.37410000","lon":"-75.75891000"},{"id":21343,"name":"San Bernardo del Viento","native":null,"lat":"9.35330000","lon":"-75.95244000"},{"id":21346,"name":"San Carlos","native":null,"lat":"8.79577000","lon":"-75.69947000"},{"id":149251,"name":"San José de Uré","native":null,"lat":"7.78722222","lon":"-75.53305666"},{"id":21401,"name":"San Pelayo","native":null,"lat":"8.95833000","lon":"-75.83627000"},{"id":21527,"name":"Tierralta","native":null,"lat":"7.87863000","lon":"-76.21307000"},{"id":149258,"name":"Tuchín","native":null,"lat":"9.18583333","lon":"-75.55527888"},{"id":21578,"name":"Valencia","native":null,"lat":"8.23350000","lon":"-76.21428000"}]},{"id":2875,"name":"Cundinamarca","native":null,"cities":[{"id":20491,"name":"Agua de Dios","native":null,"lat":"4.37648000","lon":"-74.66995000"},{"id":20501,"name":"Albán","native":null,"lat":"4.89432000","lon":"-74.44388000"},{"id":20516,"name":"Anapoima","native":null,"lat":"4.55099000","lon":"-74.53517000"},{"id":20523,"name":"Anolaima","native":null,"lat":"4.83362000","lon":"-74.49950000"},{"id":20530,"name":"Apulo","native":null,"lat":"4.51952000","lon":"-74.59293000"},{"id":20538,"name":"Arbeláez","native":null,"lat":"4.21251000","lon":"-74.41464000"},{"id":20581,"name":"Beltrán","native":null,"lat":"4.71947000","lon":"-74.75660000"},{"id":20592,"name":"Bituima","native":null,"lat":"4.87252000","lon":"-74.53925000"},{"id":143873,"name":"Bogotá D.C.","native":null,"lat":"4.61263889","lon":"-74.07050000"},{"id":20595,"name":"Bojacá","native":null,"lat":"4.73176000","lon":"-74.34129000"},{"id":20615,"name":"Cabrera","native":null,"lat":"3.98598000","lon":"-74.48283000"},{"id":20619,"name":"Cachipay","native":null,"lat":"5.26667000","lon":"-74.56667000"},{"id":20626,"name":"Cajicá","native":null,"lat":"4.91857000","lon":"-74.02799000"},{"id":20646,"name":"Caparrapí","native":null,"lat":"5.34644000","lon":"-74.49147000"},{"id":20648,"name":"Caqueza","native":null,"lat":"4.38708000","lon":"-73.95722000"},{"id":20655,"name":"Carmen de Carupa","native":null,"lat":"5.34862000","lon":"-73.90168000"},{"id":20675,"name":"Chaguaní","native":null,"lat":"4.94829000","lon":"-74.59392000"},{"id":20705,"name":"Chía","native":null,"lat":"4.84452000","lon":"-74.05848000"},{"id":20691,"name":"Chipaque","native":null,"lat":"4.44250000","lon":"-74.04417000"},{"id":20702,"name":"Choachí","native":null,"lat":"4.52897000","lon":"-73.92273000"},{"id":20703,"name":"Chocontá","native":null,"lat":"5.14468000","lon":"-73.68578000"},{"id":20718,"name":"Cogua","native":null,"lat":"5.06051000","lon":"-73.97925000"},{"id":20741,"name":"Cota","native":null,"lat":"4.80938000","lon":"-74.09800000"},{"id":20752,"name":"Cucunubá","native":null,"lat":"5.24958000","lon":"-73.76610000"},{"id":20803,"name":"El Colegio","native":null,"lat":"4.56047000","lon":"-74.42614000"},{"id":20817,"name":"El Peñón","native":null,"lat":"5.25264000","lon":"-74.29069000"},{"id":20826,"name":"El Rosal","native":null,"lat":"4.85314000","lon":"-74.25996000"},{"id":20842,"name":"Facatativá","native":null,"lat":"4.81367000","lon":"-74.35453000"},{"id":20854,"name":"Fomeque","native":null,"lat":"4.52806000","lon":"-73.78879000"},{"id":20857,"name":"Fosca","native":null,"lat":"4.33916000","lon":"-73.93852000"},{"id":20866,"name":"Funza","native":null,"lat":"4.71638000","lon":"-74.21195000"},{"id":20869,"name":"Fúquene","native":null,"lat":"5.41988000","lon":"-73.76997000"},{"id":20867,"name":"Fusagasugá","native":null,"lat":"4.33646000","lon":"-74.36378000"},{"id":20870,"name":"Gachala","native":null,"lat":"4.66667000","lon":"-73.50000000"},{"id":20872,"name":"Gachancipá","native":null,"lat":"4.99111000","lon":"-73.87154000"},{"id":20874,"name":"Gachetá","native":null,"lat":"4.87104000","lon":"-73.61730000"},{"id":20879,"name":"Gama","native":null,"lat":"4.76288000","lon":"-73.61091000"},{"id":20886,"name":"Girardot","native":null,"lat":"4.31802000","lon":"-74.83504000"},{"id":20892,"name":"Granada","native":null,"lat":"5.06667000","lon":"-74.56667000"},{"id":20898,"name":"Guachetá","native":null,"lat":"5.38425000","lon":"-73.68617000"},{"id":20903,"name":"Guaduas","native":null,"lat":"5.07430000","lon":"-74.59854000"},{"id":20914,"name":"Guasca","native":null,"lat":"4.86601000","lon":"-73.87748000"},{"id":20916,"name":"Guataquí","native":null,"lat":"4.51573000","lon":"-74.78935000"},{"id":20917,"name":"Guatavita","native":null,"lat":"4.93658000","lon":"-73.83314000"},{"id":20921,"name":"Guayabal de Siquima","native":null,"lat":"4.87881000","lon":"-74.48306000"},{"id":20923,"name":"Guayabetal","native":null,"lat":"4.21472000","lon":"-73.81719000"},{"id":20925,"name":"Gutiérrez","native":null,"lat":"4.18486000","lon":"-74.01168000"},{"id":20963,"name":"Jerusalén","native":null,"lat":"4.56309000","lon":"-74.69519000"},{"id":20968,"name":"Junín","native":null,"lat":"4.70725000","lon":"-73.69549000"},{"id":20972,"name":"La Calera","native":null,"lat":"4.68678000","lon":"-73.93590000"},{"id":20993,"name":"La Mesa","native":null,"lat":"4.65374000","lon":"-74.47316000"},{"id":20995,"name":"La Palma","native":null,"lat":"5.31732000","lon":"-74.43003000"},{"id":20999,"name":"La Peña","native":null,"lat":"5.19847000","lon":"-74.39368000"},{"id":21012,"name":"La Vega","native":null,"lat":"4.97382000","lon":"-74.34476000"},{"id":21026,"name":"Lenguazaque","native":null,"lat":"5.30711000","lon":"-73.71152000"},{"id":21045,"name":"Macheta","native":null,"lat":"5.08333000","lon":"-73.61667000"},{"id":21047,"name":"Madrid","native":null,"lat":"4.75564000","lon":"-74.27708000"},{"id":21060,"name":"Manta","native":null,"lat":"4.95720000","lon":"-73.58583000"},{"id":21075,"name":"Medina","native":null,"lat":"4.51005000","lon":"-73.34982000"},{"id":21109,"name":"Mosquera","native":null,"lat":"4.68935000","lon":"-74.23599000"},{"id":21127,"name":"Nariño","native":null,"lat":"4.39913000","lon":"-74.82239000"},{"id":21132,"name":"Nemocón","native":null,"lat":"5.06767000","lon":"-73.87769000"},{"id":21133,"name":"Nilo","native":null,"lat":"4.30604000","lon":"-74.62083000"},{"id":21134,"name":"Nimaima","native":null,"lat":"5.12614000","lon":"-74.38495000"},{"id":21136,"name":"Nocaima","native":null,"lat":"5.06696000","lon":"-74.38439000"},{"id":21159,"name":"Pacho","native":null,"lat":"5.13055555","lon":"-74.15833333"},{"id":21165,"name":"Paime","native":null,"lat":"5.37054000","lon":"-74.15219000"},{"id":21179,"name":"Pandi","native":null,"lat":"4.18032000","lon":"-74.47099000"},{"id":21182,"name":"Paratebueno","native":null,"lat":"4.37575000","lon":"-73.21547000"},{"id":21183,"name":"Pasca","native":null,"lat":"4.30722000","lon":"-74.30056000"},{"id":21254,"name":"Puerto Salgar","native":null,"lat":"5.61892000","lon":"-74.58483000"},{"id":21261,"name":"Pulí","native":null,"lat":"4.68116000","lon":"-74.71406000"},{"id":21270,"name":"Quebradanegra","native":null,"lat":"5.08262000","lon":"-74.52117000"},{"id":21271,"name":"Quetame","native":null,"lat":"4.33234000","lon":"-73.86141000"},{"id":21275,"name":"Quipile","native":null,"lat":"4.74517000","lon":"-74.53378000"},{"id":21287,"name":"Ricaurte","native":null,"lat":"4.28075000","lon":"-74.76469000"},{"id":21338,"name":"San Antonio del Tequendama","native":null,"lat":"4.61667000","lon":"-74.35000000"},{"id":21342,"name":"San Bernardo","native":null,"lat":"4.12956000","lon":"-74.35903000"},{"id":21348,"name":"San Cayetano","native":null,"lat":"5.31693000","lon":"-74.07141000"},{"id":21358,"name":"San Francisco","native":null,"lat":"4.96335000","lon":"-74.26613000"},{"id":21375,"name":"San Juan de Río Seco","native":null,"lat":"4.83077000","lon":"-74.68248000"},{"id":21446,"name":"Sasaima","native":null,"lat":"4.96705000","lon":"-74.43512000"},{"id":21450,"name":"Sesquilé","native":null,"lat":"5.04463000","lon":"-73.79724000"},{"id":21453,"name":"Sibaté","native":null,"lat":"4.49154000","lon":"-74.25957000"},{"id":21456,"name":"Silvania","native":null,"lat":"4.40367000","lon":"-74.38670000"},{"id":21459,"name":"Simijaca","native":null,"lat":"5.50415000","lon":"-73.86944000"},{"id":21464,"name":"Soacha","native":null,"lat":"4.57937000","lon":"-74.21682000"},{"id":21478,"name":"Sopó","native":null,"lat":"4.90750000","lon":"-73.93840000"},{"id":21486,"name":"Subachoque","native":null,"lat":"4.92614000","lon":"-74.17299000"},{"id":21490,"name":"Suesca","native":null,"lat":"5.10289000","lon":"-73.79845000"},{"id":21491,"name":"Supatá","native":null,"lat":"5.06097000","lon":"-74.23721000"},{"id":21494,"name":"Susa","native":null,"lat":"5.42700000","lon":"-73.84786000"},{"id":21497,"name":"Sutatausa","native":null,"lat":"5.24779000","lon":"-73.85238000"},{"id":21503,"name":"Tabio","native":null,"lat":"4.91726000","lon":"-74.09364000"},{"id":21517,"name":"Tausa","native":null,"lat":"5.19903000","lon":"-73.89128000"},{"id":21518,"name":"Tena","native":null,"lat":"4.66001000","lon":"-74.39258000"},{"id":21520,"name":"Tenjo","native":null,"lat":"4.87270000","lon":"-74.14435000"},{"id":21522,"name":"Tibacuy","native":null,"lat":"4.30606000","lon":"-74.51639000"},{"id":21525,"name":"Tibirita","native":null,"lat":"5.05227000","lon":"-73.50459000"},{"id":21534,"name":"Tocaima","native":null,"lat":"4.46073000","lon":"-74.65722000"},{"id":21535,"name":"Tocancipá","native":null,"lat":"4.96531000","lon":"-73.91301000"},{"id":21541,"name":"Topaipí","native":null,"lat":"5.33457000","lon":"-74.30292000"},{"id":21565,"name":"Ubalá","native":null,"lat":"4.74778000","lon":"-72.53694000"},{"id":21566,"name":"Ubaque","native":null,"lat":"4.48667000","lon":"-73.93748000"},{"id":21569,"name":"Une","native":null,"lat":"4.30691000","lon":"-74.07104000"},{"id":21640,"name":"Útica","native":null,"lat":"5.16977000","lon":"-74.50134000"},{"id":21587,"name":"Venecia","native":null,"lat":"4.08808000","lon":"-74.47746000"},{"id":21590,"name":"Vergara","native":null,"lat":"5.13600000","lon":"-74.31539000"},{"id":21593,"name":"Vianí","native":null,"lat":"4.89579000","lon":"-74.55398000"},{"id":21599,"name":"Villa de San Diego de Ubate","native":null,"lat":"5.31544000","lon":"-73.82045000"},{"id":21603,"name":"Villagómez","native":null,"lat":"5.27372000","lon":"-74.19614000"},{"id":21610,"name":"Villapinzón","native":null,"lat":"5.21617000","lon":"-73.59490000"},{"id":21613,"name":"Villeta","native":null,"lat":"5.00008000","lon":"-74.50498000"},{"id":21614,"name":"Viotá","native":null,"lat":"4.43713000","lon":"-74.52157000"},{"id":21619,"name":"Yacopí","native":null,"lat":"5.45948000","lon":"-74.33823000"},{"id":21635,"name":"Zipacón","native":null,"lat":"4.75881000","lon":"-74.38017000"},{"id":21636,"name":"Zipaquirá","native":null,"lat":"5.02208000","lon":"-74.00481000"}]},{"id":2882,"name":"Guainía","native":null,"cities":[{"id":20572,"name":"Barranco Minas","native":null,"lat":"3.09899000","lon":"-69.58297000"},{"id":20618,"name":"Cacahual","native":null,"lat":"3.32533000","lon":"-67.62397000"},{"id":20949,"name":"Inírida","native":null,"lat":"3.86528000","lon":"-67.92389000"},{"id":20986,"name":"La Guadalupe","native":null,"lat":"1.39579000","lon":"-67.00150000"},{"id":21063,"name":"Mapiripana","native":null,"lat":"2.81003000","lon":"-70.28568000"},{"id":21106,"name":"Morichal","native":null,"lat":"2.42980000","lon":"-69.83284000"},{"id":21178,"name":"Pana Pana","native":null,"lat":"1.96249000","lon":"-69.12600000"},{"id":21239,"name":"Puerto Colombia","native":null,"lat":"2.43903000","lon":"-68.16419000"},{"id":21354,"name":"San Felipe","native":null,"lat":"2.14321000","lon":"-67.34122000"}]},{"id":2888,"name":"Guaviare","native":null,"cities":[{"id":20627,"name":"Calamar","native":null,"lat":"1.95960000","lon":"-72.65315000"},{"id":20823,"name":"El Retorno","native":null,"lat":"2.33022000","lon":"-72.62765000"},{"id":21083,"name":"Miraflores","native":null,"lat":"1.33667000","lon":"-71.95111000"},{"id":21370,"name":"San José del Guaviare","native":null,"lat":"2.57286000","lon":"-72.64591000"}]},{"id":4871,"name":"Huila","native":null,"cities":[{"id":143877,"name":"Acevedo","native":null,"lat":"1.83611111","lon":"-75.85500000"},{"id":143878,"name":"Aipe","native":null,"lat":"3.22194444","lon":"-75.23750000"},{"id":143879,"name":"Algeciras","native":null,"lat":"2.52194444","lon":"-75.31444444"},{"id":143880,"name":"Altamira","native":null,"lat":"2.06333333","lon":"-75.78777778"},{"id":143881,"name":"Baraya","native":null,"lat":"3.15305556","lon":"-75.05250000"},{"id":143882,"name":"Campoalegre","native":null,"lat":"2.68666667","lon":"-75.32555556"},{"id":143883,"name":"Colombia","native":null,"lat":"3.37500000","lon":"-74.80194444"},{"id":143884,"name":"El Agrado","native":null,"lat":"2.25833056","lon":"-75.77250000"},{"id":143885,"name":"Elias","native":null,"lat":"2.01361111","lon":"-75.93972222"},{"id":143886,"name":"Garzón","native":null,"lat":"2.19611111","lon":"-75.62916667"},{"id":143887,"name":"Gigante","native":null,"lat":"2.38666944","lon":"-75.54610000"},{"id":143888,"name":"Guadalupe","native":null,"lat":"2.02500000","lon":"-75.75638889"},{"id":143889,"name":"Hobo","native":null,"lat":"2.58250000","lon":"-75.45111111"},{"id":143890,"name":"Iquira","native":null,"lat":"2.64833333","lon":"-75.63638889"},{"id":143891,"name":"Isnos","native":null,"lat":"1.92888889","lon":"-76.21583333"},{"id":149242,"name":"La Argentina","native":null,"lat":"2.19755555","lon":"-75.98888888"},{"id":143892,"name":"La Plata","native":null,"lat":"2.39000000","lon":"-75.89194444"},{"id":143893,"name":"Nataga","native":null,"lat":"2.54388889","lon":"-75.80861111"},{"id":143894,"name":"Neiva","native":null,"lat":"2.92750000","lon":"-75.28750000"},{"id":143895,"name":"Oporapa","native":null,"lat":"2.02305556","lon":"-75.99527778"},{"id":143896,"name":"Paicol","native":null,"lat":"2.44972222","lon":"-75.77388889"},{"id":143897,"name":"Palermo","native":null,"lat":"2.88833333","lon":"-75.43388889"},{"id":143898,"name":"Palestina","native":null,"lat":"1.72250000","lon":"-76.13055556"},{"id":143899,"name":"Pital","native":null,"lat":"2.26638889","lon":"-75.80444444"},{"id":143900,"name":"Pitalito","native":null,"lat":"1.85388889","lon":"-76.05138889"},{"id":143901,"name":"Rivera","native":null,"lat":"2.77722222","lon":"-75.25638889"},{"id":143902,"name":"Saladoblanco","native":null,"lat":"1.99333333","lon":"-76.04527778"},{"id":143903,"name":"San Agustín","native":null,"lat":"1.87916667","lon":"-76.26833333"},{"id":143904,"name":"Santa María","native":null,"lat":"2.93777778","lon":"-75.58694444"},{"id":143905,"name":"Suaza","native":null,"lat":"1.97500000","lon":"-75.79555556"},{"id":143906,"name":"Tarqui","native":null,"lat":"2.11055556","lon":"-75.82305556"},{"id":143907,"name":"Tello","native":null,"lat":"3.06666667","lon":"-75.13861111"},{"id":143908,"name":"Teruel","native":null,"lat":"2.74055556","lon":"-75.56833333"},{"id":143909,"name":"Tesalia","native":null,"lat":"2.48472222","lon":"-75.73000000"},{"id":143910,"name":"Timana","native":null,"lat":"1.97136000","lon":"-75.93123000"},{"id":143911,"name":"Villavieja","native":null,"lat":"3.21888889","lon":"-75.21833333"},{"id":143912,"name":"Yaguará","native":null,"lat":"2.66361111","lon":"-75.51750000"}]},{"id":2889,"name":"La Guajira","native":null,"cities":[{"id":20498,"name":"Albania","native":null,"lat":"11.16099000","lon":"-72.59238000"},{"id":20571,"name":"Barrancas","native":null,"lat":"10.97180000","lon":"-72.69115000"},{"id":20776,"name":"Dibulla","native":null,"lat":"11.27251000","lon":"-73.30911000"},{"id":20777,"name":"Distracción","native":null,"lat":"10.89784000","lon":"-72.88666000"},{"id":20812,"name":"El Molino","native":null,"lat":"10.65296000","lon":"-72.92461000"},{"id":20855,"name":"Fonseca","native":null,"lat":"10.82966000","lon":"-72.79778000"},{"id":20938,"name":"Hatonuevo","native":null,"lat":"11.06940000","lon":"-72.76690000"},{"id":20988,"name":"La Jagua del Pilar","native":null,"lat":"10.51061000","lon":"-73.07178000"},{"id":21051,"name":"Maicao","native":null,"lat":"11.37837000","lon":"-72.23950000"},{"id":21056,"name":"Manaure","native":null,"lat":"11.77505000","lon":"-72.44447000"},{"id":21291,"name":"Riohacha","native":null,"lat":"11.54444000","lon":"-72.90722000"},{"id":21377,"name":"San Juan del Cesar","native":null,"lat":"10.77107000","lon":"-73.00314000"},{"id":21573,"name":"Uribia","native":null,"lat":"12.02638000","lon":"-71.74887000"},{"id":21575,"name":"Urumita","native":null,"lat":"10.55894000","lon":"-73.01232000"},{"id":21608,"name":"Villanueva","native":null,"lat":"10.58333000","lon":"-72.96077000"}]},{"id":2886,"name":"Magdalena","native":null,"cities":[{"id":20505,"name":"Algarrobo","native":null,"lat":"10.18553000","lon":"-74.06158000"},{"id":20533,"name":"Aracataca","native":null,"lat":"10.59181000","lon":"-74.18983000"},{"id":20548,"name":"Ariguaní","native":null,"lat":"9.89383000","lon":"-74.13583000"},{"id":20673,"name":"Cerro de San Antonio","native":null,"lat":"10.32585000","lon":"-74.86933000"},{"id":20700,"name":"Chivolo","native":null,"lat":"10.02638888","lon":"-74.62138888"},{"id":20712,"name":"Ciénaga","native":null,"lat":"10.83333000","lon":"-74.08333000"},{"id":20726,"name":"Concordia","native":null,"lat":"9.83545000","lon":"-74.45548000"},{"id":20787,"name":"El Banco","native":null,"lat":"9.00114000","lon":"-73.97581000"},{"id":20820,"name":"El Piñon","native":null,"lat":"10.33333000","lon":"-74.66667000"},{"id":20824,"name":"El Retén","native":null,"lat":"10.61135000","lon":"-74.26824000"},{"id":20864,"name":"Fundación","native":null,"lat":"10.52066000","lon":"-74.18504000"},{"id":20907,"name":"Guamal","native":null,"lat":"9.14334000","lon":"-74.22384000"},{"id":21139,"name":"Nueva Granada","native":null,"lat":"9.80168000","lon":"-74.39304000"},{"id":21191,"name":"Pedraza","native":null,"lat":"10.18739000","lon":"-74.91504000"},{"id":21205,"name":"Pijiño del Carmen","native":null,"lat":"9.32908000","lon":"-74.45302000"},{"id":21210,"name":"Pivijay","native":null,"lat":"10.46167000","lon":"-74.61621000"},{"id":21214,"name":"Plato","native":null,"lat":"9.77267000","lon":"-74.74548000"},{"id":21228,"name":"Puebloviejo","native":null,"lat":"10.84239000","lon":"-74.38538000"},{"id":21282,"name":"Remolino","native":null,"lat":"10.65048000","lon":"-74.58442000"},{"id":21313,"name":"Sabanas de San Angel","native":null,"lat":"10.11072000","lon":"-74.26007000"},{"id":21318,"name":"Salamina","native":null,"lat":"10.49027000","lon":"-74.79463000"},{"id":20606,"name":"San Sebastián de Buenavista","native":null,"lat":"9.23916666","lon":"-74.35194444"},{"id":21409,"name":"San Zenón","native":null,"lat":"9.32686000","lon":"-74.32914000"},{"id":21411,"name":"Santa Ana","native":null,"lat":"9.51484000","lon":"-74.34330000"},{"id":21415,"name":"Santa Bárbara de Pinto","native":null,"lat":"9.52107000","lon":"-74.64912000"},{"id":21421,"name":"Santa Marta","native":null,"lat":"11.24348000","lon":"-74.20835000"},{"id":21463,"name":"Sitionuevo","native":null,"lat":"10.77737000","lon":"-74.72049000"},{"id":21519,"name":"Tenerife","native":null,"lat":"9.93201000","lon":"-74.73465000"},{"id":21631,"name":"Zapayán","native":null,"lat":"10.11846000","lon":"-74.69143000"},{"id":21637,"name":"Zona Bananera","native":null,"lat":"10.76417000","lon":"-74.15722000"}]},{"id":2878,"name":"Meta","native":null,"cities":[{"id":20488,"name":"Acacías","native":null,"lat":"3.98695000","lon":"-73.75797000"},{"id":20569,"name":"Barranca de Upía","native":null,"lat":"4.56963000","lon":"-72.96676000"},{"id":20617,"name":"Cabuyaro","native":null,"lat":"4.28170000","lon":"-72.79399000"},{"id":20665,"name":"Castilla la Nueva","native":null,"lat":"3.82722000","lon":"-73.68831000"},{"id":20749,"name":"Cubarral","native":null,"lat":"3.79536000","lon":"-73.84063000"},{"id":20754,"name":"Cumaral","native":null,"lat":"4.23814000","lon":"-73.34101000"},{"id":20790,"name":"El Calvario","native":null,"lat":"4.35426000","lon":"-73.74431000"},{"id":20799,"name":"El Castillo","native":null,"lat":"3.56363000","lon":"-73.79488000"},{"id":149240,"name":"El Dorado","native":null,"lat":"3.73916777","lon":"-73.83527888"},{"id":20863,"name":"Fuente de Oro","native":null,"lat":"3.46263000","lon":"-73.62162000"},{"id":20894,"name":"Granada","native":null,"lat":"3.54625000","lon":"-73.70687000"},{"id":20906,"name":"Guamal","native":null,"lat":"3.88043000","lon":"-73.76566000"},{"id":20990,"name":"La Macarena","native":null,"lat":"2.00702000","lon":"-74.07320000"},{"id":21025,"name":"Lejanías","native":null,"lat":"3.52762000","lon":"-74.02335000"},{"id":21064,"name":"Mapiripán","native":null,"lat":"2.89115000","lon":"-72.13328000"},{"id":21081,"name":"Mesetas","native":null,"lat":"3.38463000","lon":"-74.04424000"},{"id":21240,"name":"Puerto Concordia","native":null,"lat":"2.62206000","lon":"-72.75724000"},{"id":21242,"name":"Puerto Gaitán","native":null,"lat":"4.31328000","lon":"-72.08157000"},{"id":21246,"name":"Puerto Lleras","native":null,"lat":"3.21794000","lon":"-73.23215000"},{"id":21247,"name":"Puerto López","native":null,"lat":"4.04426000","lon":"-72.65731000"},{"id":21252,"name":"Puerto Rico","native":null,"lat":"2.93833000","lon":"-73.20833000"},{"id":21284,"name":"Restrepo","native":null,"lat":"4.25833000","lon":"-73.56142000"},{"id":21347,"name":"San Carlos de Guaroa","native":null,"lat":"3.71161000","lon":"-73.24344000"},{"id":21373,"name":"San Juan de Arama","native":null,"lat":"3.29034000","lon":"-73.82065000"},{"id":149252,"name":"San Juanito","native":null,"lat":"4.45861111","lon":"-73.67555666"},{"id":21385,"name":"San Martín","native":null,"lat":"3.50819000","lon":"-73.03975000"},{"id":149259,"name":"Uribe","native":null,"lat":"3.24083333","lon":"-74.35361111"},{"id":21612,"name":"Villavicencio","native":null,"lat":"4.07424000","lon":"-73.49150000"},{"id":21616,"name":"Vistahermosa","native":null,"lat":"3.12428000","lon":"-73.75156000"}]},{"id":2897,"name":"Nariño","native":null,"cities":[{"id":20503,"name":"Aldana","native":null,"lat":"0.88283000","lon":"-77.70103000"},{"id":20517,"name":"Ancuya","native":null,"lat":"1.26330000","lon":"-77.51376000"},{"id":20539,"name":"Arboleda","native":null,"lat":"1.49830000","lon":"-77.13613000"},{"id":20565,"name":"Barbacoas","native":null,"lat":"1.67154000","lon":"-78.13978000"},{"id":20582,"name":"Belén","native":null,"lat":"1.59477000","lon":"-77.05408000"},{"id":20611,"name":"Buesaco","native":null,"lat":"1.38364000","lon":"-77.15622000"},{"id":20674,"name":"Chachagüí","native":null,"lat":"1.35943000","lon":"-77.28367000"},{"id":20722,"name":"Colón","native":null,"lat":"1.62850000","lon":"-77.02927000"},{"id":20730,"name":"Consaca","native":null,"lat":"1.20841000","lon":"-77.46323000"},{"id":20732,"name":"Contadero","native":null,"lat":"0.93072000","lon":"-77.53333000"},{"id":20769,"name":"Córdoba","native":null,"lat":"0.85362000","lon":"-77.51817000"},{"id":20748,"name":"Cuaspud","native":null,"lat":"0.87570000","lon":"-77.73640000"},{"id":20756,"name":"Cumbal","native":null,"lat":"0.90875000","lon":"-77.79145000"},{"id":20757,"name":"Cumbitara","native":null,"lat":"1.64786000","lon":"-77.57819000"},{"id":20801,"name":"El Charco","native":null,"lat":"2.47926000","lon":"-78.10972000"},{"id":20816,"name":"El Peñol","native":null,"lat":"1.45365000","lon":"-77.44017000"},{"id":20827,"name":"El Rosario","native":null,"lat":"1.84593000","lon":"-77.40620000"},{"id":20829,"name":"El Tablón de Gómez","native":null,"lat":"1.42717000","lon":"-77.09693000"},{"id":20832,"name":"El Tambo","native":null,"lat":"1.43049000","lon":"-77.38326000"},{"id":20858,"name":"Francisco Pizarro","native":null,"lat":"2.04060000","lon":"-78.65877000"},{"id":20865,"name":"Funes","native":null,"lat":"1.00075000","lon":"-77.44918000"},{"id":20899,"name":"Guachucal","native":null,"lat":"0.96093000","lon":"-77.73161000"},{"id":20904,"name":"Guaitarilla","native":null,"lat":"1.13103000","lon":"-77.54815000"},{"id":20905,"name":"Gualmatán","native":null,"lat":"0.91992000","lon":"-77.56738000"},{"id":20946,"name":"Iles","native":null,"lat":"0.97040000","lon":"-77.52146000"},{"id":20947,"name":"Imués","native":null,"lat":"1.05516000","lon":"-77.49669000"},{"id":20950,"name":"Ipiales","native":null,"lat":"0.82501000","lon":"-77.63966000"},{"id":20978,"name":"La Cruz","native":null,"lat":"1.60221000","lon":"-76.97130000"},{"id":20984,"name":"La Florida","native":null,"lat":"1.35693000","lon":"-77.41271000"},{"id":20989,"name":"La Llanada","native":null,"lat":"1.47310000","lon":"-77.58024000"},{"id":21005,"name":"La Tola","native":null,"lat":"2.39949000","lon":"-78.18923000"},{"id":21008,"name":"La Unión","native":null,"lat":"1.60450000","lon":"-77.13152000"},{"id":21024,"name":"Leiva","native":null,"lat":"1.93497000","lon":"-77.30634000"},{"id":21029,"name":"Linares","native":null,"lat":"1.35078000","lon":"-77.52339000"},{"id":21032,"name":"Los Andes","native":null,"lat":"1.49474000","lon":"-77.52136000"},{"id":21189,"name":"Magüí Payán","native":null,"lat":"1.76645000","lon":"-78.18326000"},{"id":21054,"name":"Mallama","native":null,"lat":"1.14109000","lon":"-77.86479000"},{"id":21108,"name":"Mosquera","native":null,"lat":"2.49139000","lon":"-78.44307000"},{"id":21125,"name":"Nariño","native":null,"lat":"1.28995000","lon":"-77.35721000"},{"id":21150,"name":"Olaya Herrera","native":null,"lat":"1.24803000","lon":"-77.49085000"},{"id":21155,"name":"Ospina","native":null,"lat":"1.02962000","lon":"-77.55252000"},{"id":21184,"name":"Pasto","native":null,"lat":"1.21467000","lon":"-77.27865000"},{"id":21216,"name":"Policarpa","native":null,"lat":"1.62843000","lon":"-77.45956000"},{"id":21221,"name":"Potosí","native":null,"lat":"0.80739000","lon":"-77.57216000"},{"id":149246,"name":"Providencia","native":null,"lat":"1.23888999","lon":"-77.59755555"},{"id":21230,"name":"Puerres","native":null,"lat":"1.19374000","lon":"-77.26661000"},{"id":21262,"name":"Pupiales","native":null,"lat":"0.87136000","lon":"-77.64027000"},{"id":21288,"name":"Ricaurte","native":null,"lat":"1.21474000","lon":"-77.99801000"},{"id":21297,"name":"Roberto Payán","native":null,"lat":"1.91757000","lon":"-78.38191000"},{"id":21325,"name":"Samaniego","native":null,"lat":"1.33849000","lon":"-77.59570000"},{"id":21341,"name":"San Bernardo","native":null,"lat":"1.51525000","lon":"-77.04679000"},{"id":21365,"name":"San José de Albán","native":null,"lat":"1.47388999","lon":"-77.08083333"},{"id":21378,"name":"San Lorenzo","native":null,"lat":"1.55731000","lon":"-77.24599000"},{"id":21392,"name":"San Pablo","native":null,"lat":"1.67250000","lon":"-77.01389000"},{"id":21398,"name":"San Pedro de Cartago","native":null,"lat":"1.55151000","lon":"-77.11948000"},{"id":21410,"name":"Sandoná","native":null,"lat":"1.28626000","lon":"-77.46921000"},{"id":21413,"name":"Santa Bárbara","native":null,"lat":"2.30185000","lon":"-77.91487000"},{"id":21431,"name":"Santacruz","native":null,"lat":"1.52090000","lon":"-77.26206000"},{"id":21443,"name":"Sapuyes","native":null,"lat":"1.03728000","lon":"-77.62094000"},{"id":21509,"name":"Taminango","native":null,"lat":"1.57032000","lon":"-77.28043000"},{"id":21510,"name":"Tangua","native":null,"lat":"1.09189000","lon":"-77.38645000"},{"id":21552,"name":"Tumaco","native":null,"lat":"1.79112000","lon":"-78.79275000"},{"id":21564,"name":"Túquerres","native":null,"lat":"1.08647000","lon":"-77.61858000"},{"id":21620,"name":"Yacuanquer","native":null,"lat":"1.11577000","lon":"-77.40169000"}]},{"id":2877,"name":"Norte de Santander","native":null,"cities":[{"id":20486,"name":"Abrego","native":null,"lat":"8.00000000","lon":"-73.20000000"},{"id":20540,"name":"Arboledas","native":null,"lat":"7.63494000","lon":"-72.86050000"},{"id":20594,"name":"Bochalema","native":null,"lat":"7.60217000","lon":"-72.68839000"},{"id":20604,"name":"Bucarasica","native":null,"lat":"8.04096000","lon":"-72.86538000"},{"id":20620,"name":"Cachirá","native":null,"lat":"7.75000000","lon":"-73.16667000"},{"id":20765,"name":"Cácota","native":null,"lat":"7.26787000","lon":"-72.64197000"},{"id":20689,"name":"Chinácota","native":null,"lat":"7.60731000","lon":"-72.60108000"},{"id":20697,"name":"Chitagá","native":null,"lat":"7.13781000","lon":"-72.66456000"},{"id":20734,"name":"Convención","native":null,"lat":"8.82242000","lon":"-73.22850000"},{"id":20772,"name":"Cúcuta","native":null,"lat":"7.89391000","lon":"-72.50782000"},{"id":20753,"name":"Cucutilla","native":null,"lat":"7.53941000","lon":"-72.77238000"},{"id":20784,"name":"Durania","native":null,"lat":"7.71307000","lon":"-72.65759000"},{"id":20793,"name":"El Carmen","native":null,"lat":"8.51064000","lon":"-73.44776000"},{"id":20833,"name":"El Tarra","native":null,"lat":"8.57562000","lon":"-73.09489000"},{"id":20834,"name":"El Zulia","native":null,"lat":"7.93248000","lon":"-72.60125000"},{"id":20891,"name":"Gramalote","native":null,"lat":"7.88752000","lon":"-72.79749000"},{"id":20934,"name":"Hacarí","native":null,"lat":"8.32333000","lon":"-73.14889000"},{"id":20940,"name":"Herrán","native":null,"lat":"7.50611000","lon":"-72.48332000"},{"id":20982,"name":"La Esperanza","native":null,"lat":"8.21043000","lon":"-72.46399000"},{"id":21001,"name":"La Playa","native":null,"lat":"8.25833000","lon":"-73.19222000"},{"id":21017,"name":"Labateca","native":null,"lat":"7.24558000","lon":"-72.55286000"},{"id":21035,"name":"Los Patios","native":null,"lat":"7.83793000","lon":"-72.50370000"},{"id":21037,"name":"Lourdes","native":null,"lat":"7.96774000","lon":"-72.84519000"},{"id":21122,"name":"Mutiscua","native":null,"lat":"7.29810000","lon":"-72.79879000"},{"id":21146,"name":"Ocaña","native":null,"lat":"8.23773000","lon":"-73.35604000"},{"id":21176,"name":"Pamplona","native":null,"lat":"7.37565000","lon":"-72.64795000"},{"id":21177,"name":"Pamplonita","native":null,"lat":"7.45814000","lon":"-72.65965000"},{"id":21255,"name":"Puerto Santander","native":null,"lat":"8.36361000","lon":"-72.40630000"},{"id":21277,"name":"Ragonvalia","native":null,"lat":"7.57749000","lon":"-72.47574000"},{"id":21320,"name":"Salazar","native":null,"lat":"7.78249000","lon":"-72.85741000"},{"id":21344,"name":"San Calixto","native":null,"lat":"8.40210000","lon":"-73.20737000"},{"id":21349,"name":"San Cayetano","native":null,"lat":"7.84771000","lon":"-72.61014000"},{"id":21436,"name":"Santiago","native":null,"lat":"7.86930000","lon":"-72.73753000"},{"id":21445,"name":"Sardinata","native":null,"lat":"8.08289000","lon":"-72.80071000"},{"id":21455,"name":"Silos","native":null,"lat":"7.20524000","lon":"-72.75639000"},{"id":149256,"name":"Teorama","native":null,"lat":"8.43527888","lon":"-73.28638999"},{"id":21526,"name":"Tibú","native":null,"lat":"8.63895000","lon":"-72.73583000"},{"id":21538,"name":"Toledo","native":null,"lat":"7.30984000","lon":"-72.48295000"},{"id":149260,"name":"Villa Caro","native":null,"lat":"7.91472222","lon":"-72.97194444"},{"id":21601,"name":"Villa del Rosario","native":null,"lat":"7.75816000","lon":"-72.48182000"}]},{"id":2896,"name":"Putumayo","native":null,"cities":[{"id":20721,"name":"Colón","native":null,"lat":"1.19034000","lon":"-76.97369000"},{"id":21089,"name":"Mocoa","native":null,"lat":"1.15284000","lon":"-76.65208000"},{"id":21152,"name":"Orito","native":null,"lat":"0.66749000","lon":"-76.87297000"},{"id":21233,"name":"Puerto Asís","native":null,"lat":"0.50514000","lon":"-76.49571000"},{"id":149248,"name":"Puerto Caicedo","native":null,"lat":"0.68555555","lon":"-76.60444444"},{"id":21243,"name":"Puerto Guzmán","native":null,"lat":"0.97028000","lon":"-76.58583000"},{"id":21244,"name":"Puerto Leguízamo","native":null,"lat":"-0.19337000","lon":"-74.78189000"},{"id":21356,"name":"San Francisco","native":null,"lat":"1.17644000","lon":"-76.87838000"},{"id":21389,"name":"San Miguel","native":null,"lat":"0.34361111","lon":"-76.91083333"},{"id":21435,"name":"Santiago","native":null,"lat":"1.14844000","lon":"-77.00450000"},{"id":21454,"name":"Sibundoy","native":null,"lat":"1.20296000","lon":"-76.92275000"},{"id":21581,"name":"Valle del Guamuez","native":null,"lat":"0.45250000","lon":"-76.91917000"},{"id":21602,"name":"Villagarzón","native":null,"lat":"0.89663000","lon":"-76.72794000"}]},{"id":2874,"name":"Quindío","native":null,"cities":[{"id":20550,"name":"Armenia","native":null,"lat":"4.53307000","lon":"-75.70438000"},{"id":20607,"name":"Buenavista","native":null,"lat":"4.35969000","lon":"-75.73888000"},{"id":20629,"name":"Calarca","native":null,"lat":"4.50000000","lon":"-75.63333000"},{"id":20709,"name":"Circasia","native":null,"lat":"4.59940000","lon":"-75.68536000"},{"id":20771,"name":"Córdoba","native":null,"lat":"4.38055000","lon":"-75.66685000"},{"id":20845,"name":"Filandia","native":null,"lat":"4.67525000","lon":"-75.67142000"},{"id":20930,"name":"Génova","native":null,"lat":"4.22743000","lon":"-75.75480000"},{"id":21004,"name":"La Tebaida","native":null,"lat":"4.43353000","lon":"-75.81476000"},{"id":21100,"name":"Montenegro","native":null,"lat":"4.52676000","lon":"-75.82265000"},{"id":21204,"name":"Pijao","native":null,"lat":"4.33350000","lon":"-75.70463000"},{"id":21273,"name":"Quimbaya","native":null,"lat":"4.59342000","lon":"-75.83758000"},{"id":21322,"name":"Salento","native":null,"lat":"4.63643000","lon":"-75.56740000"}]},{"id":2879,"name":"Risaralda","native":null,"cities":[{"id":20531,"name":"Apía","native":null,"lat":"5.10658000","lon":"-75.94244000"},{"id":20563,"name":"Balboa","native":null,"lat":"4.92284000","lon":"-75.94030000"},{"id":20585,"name":"Belén de Umbría","native":null,"lat":"5.20087000","lon":"-75.86865000"},{"id":20782,"name":"Dosquebradas","native":null,"lat":"4.83916000","lon":"-75.66727000"},{"id":20926,"name":"Guática","native":null,"lat":"5.31569000","lon":"-75.79826000"},{"id":20975,"name":"La Celia","native":null,"lat":"5.00332000","lon":"-76.00355000"},{"id":21016,"name":"La Virginia","native":null,"lat":"4.89972000","lon":"-75.88250000"},{"id":21070,"name":"Marsella","native":null,"lat":"4.95238000","lon":"-75.75265000"},{"id":21087,"name":"Mistrató","native":null,"lat":"5.29622000","lon":"-75.88390000"},{"id":21195,"name":"Pereira","native":null,"lat":"4.76896000","lon":"-75.72222000"},{"id":21226,"name":"Pueblo Rico","native":null,"lat":"5.29453000","lon":"-76.06702000"},{"id":21274,"name":"Quinchía","native":null,"lat":"5.33957000","lon":"-75.73018000"},{"id":21424,"name":"Santa Rosa de Cabal","native":null,"lat":"4.86806000","lon":"-75.62139000"},{"id":21442,"name":"Santuario","native":null,"lat":"5.05321000","lon":"-75.99060000"}]},{"id":2901,"name":"Santander","native":null,"cities":[{"id":20493,"name":"Aguada","native":null,"lat":"6.16019000","lon":"-73.52747000"},{"id":20497,"name":"Albania","native":null,"lat":"5.75894000","lon":"-73.91376000"},{"id":20535,"name":"Aratoca","native":null,"lat":"6.69432000","lon":"-73.01868000"},{"id":20567,"name":"Barbosa","native":null,"lat":"5.93168000","lon":"-73.61507000"},{"id":20568,"name":"Barichara","native":null,"lat":"6.63572000","lon":"-73.22282000"},{"id":20570,"name":"Barrancabermeja","native":null,"lat":"7.06528000","lon":"-73.85472000"},{"id":20590,"name":"Betulia","native":null,"lat":"6.90069000","lon":"-73.28347000"},{"id":20597,"name":"Bolívar","native":null,"lat":"5.98930000","lon":"-73.77058000"},{"id":20603,"name":"Bucaramanga","native":null,"lat":"7.12539000","lon":"-73.11980000"},{"id":20616,"name":"Cabrera","native":null,"lat":"6.56443000","lon":"-73.26768000"},{"id":20635,"name":"California","native":null,"lat":"7.34340000","lon":"-72.95815000"},{"id":20647,"name":"Capitanejo","native":null,"lat":"6.52881000","lon":"-72.69595000"},{"id":20651,"name":"Carcasí","native":null,"lat":"6.62711000","lon":"-72.62625000"},{"id":20668,"name":"Cepitá","native":null,"lat":"6.75427000","lon":"-72.97440000"},{"id":20671,"name":"Cerrito","native":null,"lat":"6.84315000","lon":"-72.69404000"},{"id":20679,"name":"Charalá","native":null,"lat":"6.17513000","lon":"-73.17587000"},{"id":20680,"name":"Charta","native":null,"lat":"7.28025000","lon":"-72.96782000"},{"id":20684,"name":"Chima","native":null,"lat":"6.36289000","lon":"-73.42534000"},{"id":20692,"name":"Chipatá","native":null,"lat":"6.06196000","lon":"-73.63718000"},{"id":20708,"name":"Cimitarra","native":null,"lat":"6.31419000","lon":"-73.94968000"},{"id":20725,"name":"Concepción","native":null,"lat":"6.76619000","lon":"-72.69400000"},{"id":20729,"name":"Confines","native":null,"lat":"6.34875000","lon":"-73.20990000"},{"id":20733,"name":"Contratación","native":null,"lat":"6.29005000","lon":"-73.47354000"},{"id":20738,"name":"Coromoro","native":null,"lat":"6.29461000","lon":"-73.04022000"},{"id":20760,"name":"Curití","native":null,"lat":"6.60519000","lon":"-73.06809000"},{"id":20797,"name":"El Carmen de Chucurí","native":null,"lat":"6.69736000","lon":"-73.51117000"},{"id":20809,"name":"El Guacamayo","native":null,"lat":"6.24856000","lon":"-73.52957000"},{"id":20819,"name":"El Peñón","native":null,"lat":"6.09900000","lon":"-73.92835000"},{"id":20822,"name":"El Playón","native":null,"lat":"7.47131000","lon":"-73.20310000"},{"id":20836,"name":"Encino","native":null,"lat":"6.13735000","lon":"-73.09847000"},{"id":20837,"name":"Enciso","native":null,"lat":"6.64651000","lon":"-72.70709000"},{"id":20853,"name":"Florián","native":null,"lat":"5.80487000","lon":"-73.97029000"},{"id":20852,"name":"Floridablanca","native":null,"lat":"7.06315000","lon":"-73.08586000"},{"id":20878,"name":"Galán","native":null,"lat":"6.66271000","lon":"-73.34233000"},{"id":20881,"name":"Gambita","native":null,"lat":"5.90273000","lon":"-73.36788000"},{"id":20889,"name":"Girón","native":null,"lat":"7.06820000","lon":"-73.16981000"},{"id":20895,"name":"Guaca","native":null,"lat":"6.87621000","lon":"-72.85594000"},{"id":20902,"name":"Guadalupe","native":null,"lat":"6.24640000","lon":"-73.41833000"},{"id":20910,"name":"Guapotá","native":null,"lat":"6.30697000","lon":"-73.32848000"},{"id":20919,"name":"Guavatá","native":null,"lat":"5.95502000","lon":"-73.70018000"},{"id":20932,"name":"Güepsa","native":null,"lat":"6.02505000","lon":"-73.57313000"},{"id":20936,"name":"Hato","native":null,"lat":"6.56113000","lon":"-73.35895000"},{"id":20964,"name":"Jesús María","native":null,"lat":"5.87715000","lon":"-73.78097000"},{"id":20965,"name":"Jordán","native":null,"lat":"6.69857000","lon":"-73.10966000"},{"id":20971,"name":"La Belleza","native":null,"lat":"5.86371000","lon":"-73.96167000"},{"id":20996,"name":"La Paz","native":null,"lat":"6.17848000","lon":"-73.58948000"},{"id":21019,"name":"Landázuri","native":null,"lat":"6.21826000","lon":"-73.81121000"},{"id":21021,"name":"Lebrija","native":null,"lat":"7.11317000","lon":"-73.21780000"},{"id":21036,"name":"Los Santos","native":null,"lat":"6.79734000","lon":"-73.12490000"},{"id":21043,"name":"Macaravita","native":null,"lat":"6.50567000","lon":"-72.59299000"},{"id":21124,"name":"Málaga","native":null,"lat":"6.69903000","lon":"-72.73233000"},{"id":21073,"name":"Matanza","native":null,"lat":"7.35605000","lon":"-73.05303000"},{"id":21090,"name":"Mogotes","native":null,"lat":"6.47559000","lon":"-72.97046000"},{"id":21091,"name":"Molagavita","native":null,"lat":"6.67315000","lon":"-72.80875000"},{"id":21145,"name":"Ocamonte","native":null,"lat":"6.34001000","lon":"-73.12205000"},{"id":21147,"name":"Oiba","native":null,"lat":"6.26387000","lon":"-73.29876000"},{"id":21151,"name":"Onzaga","native":null,"lat":"6.34434000","lon":"-72.81726000"},{"id":21170,"name":"Palmar","native":null,"lat":"6.49740000","lon":"-73.30740000"},{"id":21172,"name":"Palmas del Socorro","native":null,"lat":"6.40756000","lon":"-73.28824000"},{"id":21269,"name":"Páramo","native":null,"lat":"6.43750000","lon":"-73.18027000"},{"id":21199,"name":"Piedecuesta","native":null,"lat":"6.97443000","lon":"-73.02284000"},{"id":21206,"name":"Pinchote","native":null,"lat":"6.53226000","lon":"-73.17309000"},{"id":21229,"name":"Puente Nacional","native":null,"lat":"5.87739000","lon":"-73.67810000"},{"id":21250,"name":"Puerto Parra","native":null,"lat":"6.65149000","lon":"-74.05734000"},{"id":21259,"name":"Puerto Wilches","native":null,"lat":"7.34828000","lon":"-73.89601000"},{"id":21292,"name":"Rionegro","native":null,"lat":"7.50000000","lon":"-73.33333000"},{"id":21308,"name":"Sabana de Torres","native":null,"lat":"7.39150000","lon":"-73.49574000"},{"id":21332,"name":"San Andrés","native":null,"lat":"6.81148000","lon":"-72.84929000"},{"id":21339,"name":"San Benito","native":null,"lat":"6.10206000","lon":"-73.53753000"},{"id":21359,"name":"San Gil","native":null,"lat":"6.55952000","lon":"-73.13637000"},{"id":21363,"name":"San Joaquín","native":null,"lat":"6.46554000","lon":"-72.84852000"},{"id":21367,"name":"San José de Miranda","native":null,"lat":"6.63051000","lon":"-72.73155000"},{"id":21388,"name":"San Miguel","native":null,"lat":"6.57583000","lon":"-72.64591000"},{"id":21408,"name":"San Vicente de Chucurí","native":null,"lat":"6.88100000","lon":"-73.40977000"},{"id":21412,"name":"Santa Bárbara","native":null,"lat":"6.99022000","lon":"-72.90700000"},{"id":149249,"name":"Santa Helena Del Opón","native":null,"lat":"6.33916777","lon":"-73.61666777"},{"id":21458,"name":"Simacota","native":null,"lat":"6.44290000","lon":"-73.33688000"},{"id":21468,"name":"Socorro","native":null,"lat":"6.45647000","lon":"-73.25502000"},{"id":21484,"name":"Suaita","native":null,"lat":"6.08221000","lon":"-73.37008000"},{"id":21488,"name":"Sucre","native":null,"lat":"5.96995000","lon":"-73.96629000"},{"id":21493,"name":"Suratá","native":null,"lat":"7.36633000","lon":"-72.98361000"},{"id":21540,"name":"Tona","native":null,"lat":"7.15727000","lon":"-72.96559000"},{"id":21579,"name":"Valle de San José","native":null,"lat":"6.41984000","lon":"-73.12946000"},{"id":21618,"name":"Vélez","native":null,"lat":"6.23274000","lon":"-73.72582000"},{"id":21592,"name":"Vetas","native":null,"lat":"7.30911000","lon":"-72.87122000"},{"id":21606,"name":"Villanueva","native":null,"lat":"6.67169000","lon":"-73.17421000"},{"id":21630,"name":"Zapatoca","native":null,"lat":"6.81532000","lon":"-73.26768000"}]},{"id":2902,"name":"Sucre","native":null,"cities":[{"id":149239,"name":"Buenavista","native":null,"lat":"9.31972222","lon":"-74.97166777"},{"id":20623,"name":"Caimito","native":null,"lat":"8.78834000","lon":"-75.13583000"},{"id":20676,"name":"Chalán","native":null,"lat":"9.54765000","lon":"-75.31128000"},{"id":20719,"name":"Coloso","native":null,"lat":"9.51176000","lon":"-75.36233000"},{"id":20739,"name":"Corozal","native":null,"lat":"9.31847000","lon":"-75.29330000"},{"id":20744,"name":"Coveñas","native":null,"lat":"9.40254000","lon":"-75.68029000"},{"id":20825,"name":"El Roble","native":null,"lat":"9.10193000","lon":"-75.19508000"},{"id":20877,"name":"Galeras","native":null,"lat":"9.16095000","lon":"-75.04811000"},{"id":20912,"name":"Guaranda","native":null,"lat":"8.46746000","lon":"-74.53617000"},{"id":21007,"name":"La Unión","native":null,"lat":"8.84965000","lon":"-75.27942000"},{"id":21034,"name":"Los Palmitos","native":null,"lat":"9.37899000","lon":"-75.26769000"},{"id":21052,"name":"Majagual","native":null,"lat":"8.53500000","lon":"-74.71499000"},{"id":21107,"name":"Morroa","native":null,"lat":"9.33348000","lon":"-75.30542000"},{"id":21157,"name":"Ovejas","native":null,"lat":"9.54083000","lon":"-75.18333000"},{"id":21174,"name":"Palmito","native":null,"lat":"9.33667000","lon":"-75.56333000"},{"id":21327,"name":"Sampués","native":null,"lat":"9.18361000","lon":"-75.38167000"},{"id":21340,"name":"San Benito Abad","native":null,"lat":"8.78833000","lon":"-74.95666000"},{"id":21374,"name":"San Juan de Betulia","native":null,"lat":"9.27345000","lon":"-75.24103000"},{"id":21382,"name":"San Luis de Sincé","native":null,"lat":"9.24391000","lon":"-75.14675000"},{"id":21383,"name":"San Marcos","native":null,"lat":"8.58333000","lon":"-75.16667000"},{"id":21391,"name":"San Onofre","native":null,"lat":"9.73586000","lon":"-75.52626000"},{"id":21395,"name":"San Pedro","native":null,"lat":"9.39560000","lon":"-75.06476000"},{"id":21438,"name":"Santiago de Tolú","native":null,"lat":"9.52392000","lon":"-75.58139000"},{"id":21461,"name":"Sincelejo","native":null,"lat":"9.30472000","lon":"-75.39778000"},{"id":21487,"name":"Sucre","native":null,"lat":"8.81136000","lon":"-74.72084000"},{"id":21539,"name":"Tolú Viejo","native":null,"lat":"9.45082000","lon":"-75.43864000"}]},{"id":2883,"name":"Tolima","native":null,"cities":[{"id":20508,"name":"Alpujarra","native":null,"lat":"3.39222000","lon":"-74.93271000"},{"id":20511,"name":"Alvarado","native":null,"lat":"4.58826000","lon":"-74.97810000"},{"id":20514,"name":"Ambalema","native":null,"lat":"4.78405000","lon":"-74.76268000"},{"id":20528,"name":"Anzoátegui","native":null,"lat":"4.62232000","lon":"-75.18046000"},{"id":20552,"name":"Armero","native":null,"lat":"5.03055666","lon":"-74.88444444"},{"id":20556,"name":"Ataco","native":null,"lat":"3.59147000","lon":"-75.38178000"},{"id":20624,"name":"Cajamarca","native":null,"lat":"4.41667000","lon":"-75.50000000"},{"id":20654,"name":"Carmen de Apicalá","native":null,"lat":"4.14725000","lon":"-74.72014000"},{"id":20664,"name":"Casabianca","native":null,"lat":"5.07959000","lon":"-75.12059000"},{"id":20678,"name":"Chaparral","native":null,"lat":"3.75000000","lon":"-75.58333000"},{"id":20717,"name":"Coello","native":null,"lat":"4.37330000","lon":"-74.88655000"},{"id":20745,"name":"Coyaima","native":null,"lat":"3.72781000","lon":"-75.17397000"},{"id":20758,"name":"Cunday","native":null,"lat":"4.00284000","lon":"-74.69295000"},{"id":20779,"name":"Dolores","native":null,"lat":"3.60534000","lon":"-74.80585000"},{"id":20841,"name":"Espinal","native":null,"lat":"4.14924000","lon":"-74.88429000"},{"id":20843,"name":"Falan","native":null,"lat":"5.12383000","lon":"-74.95181000"},{"id":20847,"name":"Flandes","native":null,"lat":"4.25000000","lon":"-74.83333000"},{"id":20860,"name":"Fresno","native":null,"lat":"5.15264000","lon":"-75.03624000"},{"id":20908,"name":"Guamo","native":null,"lat":"4.07457000","lon":"-74.97689000"},{"id":20941,"name":"Herveo","native":null,"lat":"5.08004000","lon":"-75.17556000"},{"id":20943,"name":"Honda","native":null,"lat":"5.20856000","lon":"-74.73584000"},{"id":20944,"name":"Ibagué","native":null,"lat":"4.43889000","lon":"-75.23222000"},{"id":20945,"name":"Icononzo","native":null,"lat":"4.17698000","lon":"-74.53254000"},{"id":21039,"name":"Lérida","native":null,"lat":"4.86242000","lon":"-74.90977000"},{"id":21040,"name":"Líbano","native":null,"lat":"4.83560000","lon":"-75.10834000"},{"id":21079,"name":"Melgar","native":null,"lat":"4.20475000","lon":"-74.64075000"},{"id":21119,"name":"Murillo","native":null,"lat":"4.87393000","lon":"-75.17151000"},{"id":21128,"name":"Natagaima","native":null,"lat":"3.55212000","lon":"-75.11345000"},{"id":21154,"name":"Ortega","native":null,"lat":"3.94514000","lon":"-75.27245000"},{"id":21175,"name":"Palocabildo","native":null,"lat":"5.11705000","lon":"-75.01732000"},{"id":21201,"name":"Piedras","native":null,"lat":"4.50000000","lon":"-74.91667000"},{"id":21212,"name":"Planadas","native":null,"lat":"3.10326000","lon":"-75.81680000"},{"id":21223,"name":"Prado","native":null,"lat":"3.73219000","lon":"-74.86494000"},{"id":21264,"name":"Purificación","native":null,"lat":"3.85871000","lon":"-74.93129000"},{"id":21289,"name":"Rioblanco","native":null,"lat":"3.50000000","lon":"-75.83333000"},{"id":21299,"name":"Roncesvalles","native":null,"lat":"4.01080000","lon":"-75.60493000"},{"id":21302,"name":"Rovira","native":null,"lat":"4.21222000","lon":"-75.34210000"},{"id":21321,"name":"Saldaña","native":null,"lat":"3.92923000","lon":"-75.01517000"},{"id":21337,"name":"San Antonio","native":null,"lat":"3.95664000","lon":"-75.50000000"},{"id":21379,"name":"San Luis","native":null,"lat":"4.16667000","lon":"-75.08333000"},{"id":21405,"name":"San Sebastián de Mariquita","native":null,"lat":"5.24269000","lon":"-74.90772000"},{"id":21419,"name":"Santa Isabel","native":null,"lat":"4.72626000","lon":"-75.22391000"},{"id":21500,"name":"Suárez","native":null,"lat":"4.04897000","lon":"-74.81821000"},{"id":21580,"name":"Valle de San Juan","native":null,"lat":"4.19869000","lon":"-75.11733000"},{"id":21586,"name":"Venadillo","native":null,"lat":"4.69177000","lon":"-74.93669000"},{"id":21604,"name":"Villahermosa","native":null,"lat":"4.96503000","lon":"-75.15650000"},{"id":21611,"name":"Villarrica","native":null,"lat":"3.83099000","lon":"-74.65258000"}]},{"id":2904,"name":"Valle del Cauca","native":null,"cities":[{"id":20502,"name":"Alcalá","native":null,"lat":"4.67458000","lon":"-75.77188000"},{"id":20519,"name":"Andalucía","native":null,"lat":"4.14035000","lon":"-76.14739000"},{"id":20526,"name":"Ansermanuevo","native":null,"lat":"4.79722000","lon":"-75.99500000"},{"id":20546,"name":"Argelia","native":null,"lat":"4.72904000","lon":"-76.11637000"},{"id":20598,"name":"Bolívar","native":null,"lat":"4.37710000","lon":"-76.34870000"},{"id":20605,"name":"Buenaventura","native":null,"lat":"3.88010000","lon":"-77.03116000"},{"id":20612,"name":"Bugalagrande","native":null,"lat":"4.21207000","lon":"-76.15564000"},{"id":20622,"name":"Caicedonia","native":null,"lat":"4.33240000","lon":"-75.82665000"},{"id":20634,"name":"Cali","native":null,"lat":"3.41033000","lon":"-76.58097000"},{"id":20636,"name":"Calima","native":null,"lat":"3.92511000","lon":"-76.62654000"},{"id":20644,"name":"Candelaria","native":null,"lat":"3.38367000","lon":"-76.42466000"},{"id":20661,"name":"Cartago","native":null,"lat":"4.74639000","lon":"-75.91167000"},{"id":20774,"name":"Dagua","native":null,"lat":"3.65685000","lon":"-76.68859000"},{"id":20835,"name":"El Águila","native":null,"lat":"4.91946000","lon":"-76.05680000"},{"id":20789,"name":"El Cairo","native":null,"lat":"4.74889000","lon":"-76.24443000"},{"id":20800,"name":"El Cerrito","native":null,"lat":"3.64273000","lon":"-76.20960000"},{"id":20806,"name":"El Dovio","native":null,"lat":"4.50790000","lon":"-76.23619000"},{"id":20851,"name":"Florida","native":null,"lat":"3.30940000","lon":"-76.18989000"},{"id":20884,"name":"Ginebra","native":null,"lat":"3.74296000","lon":"-76.19412000"},{"id":20897,"name":"Guacarí","native":null,"lat":"3.76383000","lon":"-76.33292000"},{"id":20900,"name":"Guadalajara de Buga","native":null,"lat":"3.90089000","lon":"-76.29783000"},{"id":20958,"name":"Jamundí","native":null,"lat":"3.26074000","lon":"-76.53499000"},{"id":20979,"name":"La Cumbre","native":null,"lat":"3.72250000","lon":"-76.02083000"},{"id":21006,"name":"La Unión","native":null,"lat":"4.53282000","lon":"-76.10318000"},{"id":21013,"name":"La Victoria","native":null,"lat":"4.52483000","lon":"-76.03921000"},{"id":21144,"name":"Obando","native":null,"lat":"4.59590000","lon":"-75.94879000"},{"id":21173,"name":"Palmira","native":null,"lat":"3.53969000","lon":"-76.22607000"},{"id":21222,"name":"Pradera","native":null,"lat":"3.42793000","lon":"-76.17159000"},{"id":21285,"name":"Restrepo","native":null,"lat":"3.82203000","lon":"-76.52242000"},{"id":21290,"name":"Riofrío","native":null,"lat":"4.15710000","lon":"-76.28852000"},{"id":21298,"name":"Roldanillo","native":null,"lat":"4.41256000","lon":"-76.15457000"},{"id":21397,"name":"San Pedro","native":null,"lat":"3.99936000","lon":"-76.26123000"},{"id":21451,"name":"Sevilla","native":null,"lat":"4.19345000","lon":"-75.88829000"},{"id":21544,"name":"Toro","native":null,"lat":"4.61167000","lon":"-76.08139000"},{"id":21549,"name":"Trujillo","native":null,"lat":"4.23696000","lon":"-76.34730000"},{"id":21551,"name":"Tuluá","native":null,"lat":"4.08466000","lon":"-76.19536000"},{"id":21567,"name":"Ulloa","native":null,"lat":"4.70745000","lon":"-75.77781000"},{"id":21591,"name":"Versalles","native":null,"lat":"4.66335000","lon":"-76.24649000"},{"id":21596,"name":"Vijes","native":null,"lat":"3.73283000","lon":"-76.49363000"},{"id":21627,"name":"Yotoco","native":null,"lat":"3.86048000","lon":"-76.38364000"},{"id":21628,"name":"Yumbo","native":null,"lat":"3.58234000","lon":"-76.49146000"},{"id":21633,"name":"Zarzal","native":null,"lat":"4.39462000","lon":"-76.07150000"}]},{"id":2885,"name":"Vaupés","native":null,"cities":[{"id":20663,"name":"Caruru","native":null,"lat":"1.02081000","lon":"-71.33788000"},{"id":21088,"name":"Mitú","native":null,"lat":"1.25778000","lon":"-70.23472000"},{"id":21160,"name":"Pacoa","native":null,"lat":"0.15636000","lon":"-70.89274000"},{"id":21181,"name":"Papunaua","native":null,"lat":"1.68335000","lon":"-70.70968000"},{"id":21511,"name":"Taraira","native":null,"lat":"-0.74835000","lon":"-69.89662000"},{"id":21623,"name":"Yavaraté","native":null,"lat":"0.82828000","lon":"-69.62959000"}]},{"id":2894,"name":"Vichada","native":null,"cities":[{"id":20755,"name":"Cumaribo","native":null,"lat":"4.44552000","lon":"-69.79897000"},{"id":21002,"name":"La Primavera","native":null,"lat":"5.49056000","lon":"-70.40917000"},{"id":21237,"name":"Puerto Carreño","native":null,"lat":"6.18903000","lon":"-67.48588000"},{"id":21428,"name":"Santa Rosalia","native":null,"lat":"5.13356000","lon":"-70.86233000"}]}]