[{"id":1215,"name":"Alajuela Province","native":null,"cities":[{"id":21643,"name":"Alajuela","native":null,"lat":"10.01625000","lon":"-84.21163000"},{"id":21647,"name":"Atenas","native":null,"lat":"9.98333000","lon":"-84.38333000"},{"id":21653,"name":"Bijagua","native":null,"lat":"10.73279000","lon":"-85.05676000"},{"id":21658,"name":"Carrillos","native":null,"lat":"10.02918000","lon":"-84.27403000"},{"id":21672,"name":"Desamparados","native":null,"lat":"9.94727000","lon":"-84.50626000"},{"id":21678,"name":"Esquipulas","native":null,"lat":"10.05676000","lon":"-84.42337000"},{"id":21685,"name":"Grecia","native":null,"lat":"10.06892000","lon":"-84.31458000"},{"id":21687,"name":"Guatuso","native":null,"lat":"10.66667000","lon":"-84.83333000"},{"id":21698,"name":"La Fortuna","native":null,"lat":"10.47089000","lon":"-84.64535000"},{"id":21705,"name":"Los Chiles","native":null,"lat":"10.86667000","lon":"-84.66667000"},{"id":21715,"name":"Naranjo","native":null,"lat":"10.11667000","lon":"-84.40000000"},{"id":21719,"name":"Orotina","native":null,"lat":"9.90000000","lon":"-84.56667000"},{"id":21722,"name":"Palmares","native":null,"lat":"10.03333000","lon":"-84.43333000"},{"id":21729,"name":"Pital","native":null,"lat":"10.45056000","lon":"-84.27406000"},{"id":21733,"name":"Poás","native":null,"lat":"10.08333000","lon":"-84.23333000"},{"id":21732,"name":"Pocosol","native":null,"lat":"10.36667000","lon":"-84.61667000"},{"id":21739,"name":"Quesada","native":null,"lat":"10.32381000","lon":"-84.42714000"},{"id":21741,"name":"Río Segundo","native":null,"lat":"10.24138000","lon":"-84.27933000"},{"id":21742,"name":"Sabanilla","native":null,"lat":"10.07404000","lon":"-84.21551000"},{"id":21747,"name":"San Carlos","native":null,"lat":"10.58333000","lon":"-84.41667000"},{"id":21755,"name":"San José","native":null,"lat":"10.95173000","lon":"-85.13610000"},{"id":21758,"name":"San Juan","native":null,"lat":"10.10248000","lon":"-84.31694000"},{"id":21761,"name":"San Mateo","native":null,"lat":"9.95000000","lon":"-84.51667000"},{"id":21766,"name":"San Rafael","native":null,"lat":"10.06403000","lon":"-84.47281000"},{"id":21770,"name":"San Ramón","native":null,"lat":"10.08718000","lon":"-84.47044000"},{"id":21777,"name":"Santiago","native":null,"lat":"10.02275000","lon":"-84.44420000"},{"id":21795,"name":"Upala","native":null,"lat":"10.85000000","lon":"-85.16667000"},{"id":21796,"name":"Valverde Vega","native":null,"lat":"10.18721000","lon":"-84.30290000"},{"id":21798,"name":"Zarcero","native":null,"lat":"10.20000000","lon":"-84.40000000"}]},{"id":1209,"name":"Guanacaste Province","native":null,"cities":[{"id":21641,"name":"Abangares","native":null,"lat":"10.21667000","lon":"-85.00000000"},{"id":21648,"name":"Bagaces","native":null,"lat":"10.50000000","lon":"-85.25000000"},{"id":21651,"name":"Belén","native":null,"lat":"10.40789000","lon":"-85.58836000"},{"id":21660,"name":"Cañas","native":null,"lat":"10.48005000","lon":"-85.11349000"},{"id":21657,"name":"Carrillo","native":null,"lat":"10.41667000","lon":"-85.58333000"},{"id":21680,"name":"Fortuna","native":null,"lat":"10.67384000","lon":"-85.19984000"},{"id":21691,"name":"Hojancha","native":null,"lat":"9.96667000","lon":"-85.41667000"},{"id":21695,"name":"Juntas","native":null,"lat":"10.28089000","lon":"-84.95951000"},{"id":21697,"name":"La Cruz","native":null,"lat":"11.00000000","lon":"-85.58333000"},{"id":21702,"name":"Liberia","native":null,"lat":"10.63504000","lon":"-85.43772000"},{"id":21714,"name":"Nandayure","native":null,"lat":"9.91667000","lon":"-85.28333000"},{"id":21716,"name":"Nicoya","native":null,"lat":"10.08333000","lon":"-85.50000000"},{"id":21784,"name":"Sámara","native":null,"lat":"9.88147000","lon":"-85.52809000"},{"id":21776,"name":"Santa Cruz","native":null,"lat":"10.25000000","lon":"-85.66667000"},{"id":21781,"name":"Sardinal","native":null,"lat":"10.51674000","lon":"-85.64748000"},{"id":21789,"name":"Tilarán","native":null,"lat":"10.45878000","lon":"-84.97513000"}]},{"id":1212,"name":"Heredia Province","native":null,"cities":[{"id":21799,"name":"Ángeles","native":null,"lat":"9.99591000","lon":"-84.05126000"},{"id":21649,"name":"Barva","native":null,"lat":"10.08333000","lon":"-84.10000000"},{"id":21652,"name":"Belén","native":null,"lat":"9.98333000","lon":"-84.16667000"},{"id":21679,"name":"Flores","native":null,"lat":"10.00000000","lon":"-84.15000000"},{"id":21690,"name":"Heredia","native":null,"lat":"10.00236000","lon":"-84.11651000"},{"id":21696,"name":"La Asunción","native":null,"lat":"9.97961000","lon":"-84.17281000"},{"id":21704,"name":"Llorente","native":null,"lat":"9.99844000","lon":"-84.15448000"},{"id":21708,"name":"Mercedes","native":null,"lat":"10.00695000","lon":"-84.13396000"},{"id":21746,"name":"San Antonio","native":null,"lat":"9.98333000","lon":"-84.18333000"},{"id":21750,"name":"San Francisco","native":null,"lat":"9.99299000","lon":"-84.12934000"},{"id":21753,"name":"San Isidro","native":null,"lat":"10.03333000","lon":"-84.03333000"},{"id":21754,"name":"San Josecito","native":null,"lat":"10.01667000","lon":"-84.10000000"},{"id":21763,"name":"San Pablo","native":null,"lat":"10.00000000","lon":"-84.08333000"},{"id":21767,"name":"San Rafael","native":null,"lat":"10.05000000","lon":"-84.06667000"},{"id":21775,"name":"Santa Bárbara","native":null,"lat":"10.08333000","lon":"-84.15000000"},{"id":21779,"name":"Santo Domingo","native":null,"lat":"10.06389000","lon":"-84.15499000"},{"id":21780,"name":"Sarapiquí","native":null,"lat":"10.50000000","lon":"-84.00000000"}]},{"id":1213,"name":"Limón Province","native":null,"cities":[{"id":21650,"name":"Batán","native":null,"lat":"10.08354000","lon":"-83.33413000"},{"id":21688,"name":"Guácimo","native":null,"lat":"10.20000000","lon":"-83.66667000"},{"id":21689,"name":"Guápiles","native":null,"lat":"10.21682000","lon":"-83.78483000"},{"id":21703,"name":"Limón","native":null,"lat":"9.99074000","lon":"-83.03596000"},{"id":21706,"name":"Matina","native":null,"lat":"10.00000000","lon":"-83.25000000"},{"id":21730,"name":"Pococí","native":null,"lat":"10.50000000","lon":"-83.63333000"},{"id":21731,"name":"Pocora","native":null,"lat":"10.17185000","lon":"-83.60439000"},{"id":21740,"name":"Roxana","native":null,"lat":"10.26712000","lon":"-83.75110000"},{"id":21782,"name":"Siquirres","native":null,"lat":"10.11667000","lon":"-83.50000000"},{"id":21783,"name":"Sixaola","native":null,"lat":"9.52766000","lon":"-82.62185000"},{"id":21785,"name":"Talamanca","native":null,"lat":"9.50000000","lon":"-83.08333000"}]},{"id":1211,"name":"Provincia de Cartago","native":null,"cities":[{"id":21645,"name":"Alvarado","native":null,"lat":"9.93333000","lon":"-83.80000000"},{"id":21659,"name":"Cartago","native":null,"lat":"9.86444000","lon":"-83.91944000"},{"id":21665,"name":"Concepción","native":null,"lat":"9.93333000","lon":"-84.00000000"},{"id":21668,"name":"Cot","native":null,"lat":"9.89449000","lon":"-83.87302000"},{"id":21675,"name":"El Guarco","native":null,"lat":"9.75000000","lon":"-83.91667000"},{"id":21694,"name":"Jiménez","native":null,"lat":"9.75000000","lon":"-83.68333000"},{"id":21699,"name":"La Suiza","native":null,"lat":"9.85065000","lon":"-83.61690000"},{"id":21700,"name":"La Unión","native":null,"lat":"9.91667000","lon":"-83.98333000"},{"id":21717,"name":"Oreamuno","native":null,"lat":"10.00000000","lon":"-83.83333000"},{"id":21718,"name":"Orosí","native":null,"lat":"9.79617000","lon":"-83.85383000"},{"id":21721,"name":"Pacayas","native":null,"lat":"9.80709000","lon":"-84.04764000"},{"id":21725,"name":"Paraíso","native":null,"lat":"9.75000000","lon":"-83.80000000"},{"id":21728,"name":"Pejibaye","native":null,"lat":"9.81135000","lon":"-83.70336000"},{"id":21748,"name":"San Diego","native":null,"lat":"9.89898000","lon":"-84.00287000"},{"id":21790,"name":"Tobosi","native":null,"lat":"9.83837000","lon":"-83.98391000"},{"id":21791,"name":"Tres Ríos","native":null,"lat":"9.90644000","lon":"-83.98760000"},{"id":21792,"name":"Tucurrique","native":null,"lat":"9.85336000","lon":"-83.72273000"},{"id":21793,"name":"Turrialba","native":null,"lat":"9.80000000","lon":"-83.53333000"}]},{"id":1210,"name":"Puntarenas Province","native":null,"cities":[{"id":21654,"name":"Buenos Aires","native":null,"lat":"9.11667000","lon":"-83.25000000"},{"id":21656,"name":"Canoas","native":null,"lat":"8.53305000","lon":"-82.83844000"},{"id":21661,"name":"Chacarita","native":null,"lat":"9.98424000","lon":"-84.77892000"},{"id":21662,"name":"Ciudad Cortés","native":null,"lat":"8.95988000","lon":"-83.52381000"},{"id":21666,"name":"Corredor","native":null,"lat":"8.64002000","lon":"-82.94600000"},{"id":21667,"name":"Corredores","native":null,"lat":"8.58333000","lon":"-82.91667000"},{"id":21669,"name":"Coto Brus","native":null,"lat":"8.88333000","lon":"-82.96667000"},{"id":21677,"name":"Esparza","native":null,"lat":"10.00000000","lon":"-84.66667000"},{"id":21681,"name":"Garabito","native":null,"lat":"9.61903000","lon":"-84.62013000"},{"id":21683,"name":"Golfito","native":null,"lat":"8.60000000","lon":"-83.12000000"},{"id":21693,"name":"Jacó","native":null,"lat":"9.61497000","lon":"-84.62975000"},{"id":21709,"name":"Miramar","native":null,"lat":"10.09250000","lon":"-84.72978000"},{"id":21711,"name":"Montes de Oro","native":null,"lat":"10.10000000","lon":"-84.75000000"},{"id":21720,"name":"Osa","native":null,"lat":"8.83333000","lon":"-83.50000000"},{"id":21724,"name":"Paquera","native":null,"lat":"9.82005000","lon":"-84.93513000"},{"id":21726,"name":"Parrita","native":null,"lat":"9.55000000","lon":"-84.33333000"},{"id":21734,"name":"Puntarenas","native":null,"lat":"9.97625000","lon":"-84.83836000"},{"id":21738,"name":"Quepos","native":null,"lat":"9.43187000","lon":"-84.16141000"},{"id":21773,"name":"San Vito","native":null,"lat":"8.82079000","lon":"-82.97092000"}]},{"id":1214,"name":"San José Province","native":null,"cities":[{"id":21642,"name":"Acosta","native":null,"lat":"9.80000000","lon":"-84.20000000"},{"id":21644,"name":"Alajuelita","native":null,"lat":"9.90000000","lon":"-84.10000000"},{"id":21646,"name":"Aserrí","native":null,"lat":"9.86667000","lon":"-84.10000000"},{"id":21655,"name":"Calle Blancos","native":null,"lat":"9.95000000","lon":"-84.06667000"},{"id":21663,"name":"Colima","native":null,"lat":"9.95091000","lon":"-84.08503000"},{"id":21664,"name":"Colón","native":null,"lat":"9.91491000","lon":"-84.24170000"},{"id":21670,"name":"Curridabat","native":null,"lat":"9.91667000","lon":"-84.03333000"},{"id":21671,"name":"Daniel Flores","native":null,"lat":"9.33554000","lon":"-83.66940000"},{"id":21673,"name":"Desamparados","native":null,"lat":"9.90000000","lon":"-84.06667000"},{"id":21674,"name":"Dota","native":null,"lat":"9.65000000","lon":"-83.95000000"},{"id":21676,"name":"Escazú","native":null,"lat":"9.93333000","lon":"-84.13333000"},{"id":21682,"name":"Goicoechea","native":null,"lat":"9.94848000","lon":"-84.06365000"},{"id":21684,"name":"Granadilla","native":null,"lat":"9.93491000","lon":"-84.01688000"},{"id":21686,"name":"Guadalupe","native":null,"lat":"9.94805000","lon":"-84.05665000"},{"id":21692,"name":"Ipís","native":null,"lat":"9.96745000","lon":"-84.01326000"},{"id":21701,"name":"León Cortés","native":null,"lat":"9.68300000","lon":"-84.04781000"},{"id":21707,"name":"Mercedes","native":null,"lat":"9.26270000","lon":"-83.58202000"},{"id":21710,"name":"Montes de Oca","native":null,"lat":"9.93960000","lon":"-84.03013000"},{"id":21712,"name":"Mora","native":null,"lat":"9.91667000","lon":"-84.25000000"},{"id":21713,"name":"Moravia","native":null,"lat":"10.04000000","lon":"-84.00000000"},{"id":21723,"name":"Palmichal","native":null,"lat":"9.83778000","lon":"-84.20478000"},{"id":21727,"name":"Patarrá","native":null,"lat":"9.88071000","lon":"-84.03501000"},{"id":21737,"name":"Pérez Zeledón","native":null,"lat":"9.35473000","lon":"-83.63484000"},{"id":21735,"name":"Puriscal","native":null,"lat":"9.75000000","lon":"-84.41667000"},{"id":21736,"name":"Purral","native":null,"lat":"9.95808000","lon":"-84.03050000"},{"id":21743,"name":"Sabanilla","native":null,"lat":"9.94522000","lon":"-84.03927000"},{"id":21744,"name":"Salitral","native":null,"lat":"9.91163000","lon":"-84.17835000"},{"id":21745,"name":"Salitrillos","native":null,"lat":"9.85259000","lon":"-84.09062000"},{"id":21749,"name":"San Felipe","native":null,"lat":"9.90488000","lon":"-84.10551000"},{"id":21751,"name":"San Ignacio","native":null,"lat":"9.79853000","lon":"-84.16173000"},{"id":21752,"name":"San Isidro","native":null,"lat":"9.36740000","lon":"-83.69713000"},{"id":21756,"name":"San José","native":null,"lat":"9.93333000","lon":"-84.08333000"},{"id":21757,"name":"San Juan","native":null,"lat":"9.95974000","lon":"-84.08165000"},{"id":21759,"name":"San Juan de Dios","native":null,"lat":"9.87730000","lon":"-84.08470000"},{"id":21760,"name":"San Marcos","native":null,"lat":"9.66010000","lon":"-84.02026000"},{"id":21762,"name":"San Miguel","native":null,"lat":"9.87121000","lon":"-84.06084000"},{"id":21764,"name":"San Pedro","native":null,"lat":"9.92829000","lon":"-84.05074000"},{"id":21765,"name":"San Rafael","native":null,"lat":"9.92787000","lon":"-84.13722000"},{"id":21768,"name":"San Rafael Abajo","native":null,"lat":"9.83100000","lon":"-84.29008000"},{"id":21769,"name":"San Rafael Arriba","native":null,"lat":"9.87556000","lon":"-84.07661000"},{"id":21771,"name":"San Vicente","native":null,"lat":"9.96016000","lon":"-84.04762000"},{"id":21772,"name":"San Vicente de Moravia","native":null,"lat":"9.96164000","lon":"-84.04880000"},{"id":21774,"name":"Santa Ana","native":null,"lat":"9.93260000","lon":"-84.18255000"},{"id":21778,"name":"Santiago","native":null,"lat":"9.84636000","lon":"-84.31428000"},{"id":21786,"name":"Tarrazú","native":null,"lat":"9.65965000","lon":"-84.02138000"},{"id":21787,"name":"Tejar","native":null,"lat":"9.74622000","lon":"-84.23368000"},{"id":21788,"name":"Tibás","native":null,"lat":"9.96667000","lon":"-84.08333000"},{"id":21794,"name":"Turrubares","native":null,"lat":"9.75000000","lon":"-84.50000000"},{"id":21797,"name":"Vázquez de Coronado","native":null,"lat":"10.06000000","lon":"-84.00000000"}]}]