[{"name":"Alajuela Province","native":null,"cities":[{"name":"Alajuela","native":null,"lat":"10.01625000","lon":"-84.21163000"},{"name":"Atenas","native":null,"lat":"9.98333000","lon":"-84.38333000"},{"name":"Bijagua","native":null,"lat":"10.73279000","lon":"-85.05676000"},{"name":"Carrillos","native":null,"lat":"10.02918000","lon":"-84.27403000"},{"name":"Desamparados","native":null,"lat":"9.94727000","lon":"-84.50626000"},{"name":"Esquipulas","native":null,"lat":"10.05676000","lon":"-84.42337000"},{"name":"Grecia","native":null,"lat":"10.06892000","lon":"-84.31458000"},{"name":"Guatuso","native":null,"lat":"10.66667000","lon":"-84.83333000"},{"name":"La Fortuna","native":null,"lat":"10.47089000","lon":"-84.64535000"},{"name":"Los Chiles","native":null,"lat":"10.86667000","lon":"-84.66667000"},{"name":"Naranjo","native":null,"lat":"10.11667000","lon":"-84.40000000"},{"name":"Orotina","native":null,"lat":"9.90000000","lon":"-84.56667000"},{"name":"Palmares","native":null,"lat":"10.03333000","lon":"-84.43333000"},{"name":"Pital","native":null,"lat":"10.45056000","lon":"-84.27406000"},{"name":"Poás","native":null,"lat":"10.08333000","lon":"-84.23333000"},{"name":"Pocosol","native":null,"lat":"10.36667000","lon":"-84.61667000"},{"name":"Quesada","native":null,"lat":"10.32381000","lon":"-84.42714000"},{"name":"Río Segundo","native":null,"lat":"10.24138000","lon":"-84.27933000"},{"name":"Sabanilla","native":null,"lat":"10.07404000","lon":"-84.21551000"},{"name":"San Carlos","native":null,"lat":"10.58333000","lon":"-84.41667000"},{"name":"San José","native":null,"lat":"10.95173000","lon":"-85.13610000"},{"name":"San Juan","native":null,"lat":"10.10248000","lon":"-84.31694000"},{"name":"San Mateo","native":null,"lat":"9.95000000","lon":"-84.51667000"},{"name":"San Rafael","native":null,"lat":"10.06403000","lon":"-84.47281000"},{"name":"San Ramón","native":null,"lat":"10.08718000","lon":"-84.47044000"},{"name":"Santiago","native":null,"lat":"10.02275000","lon":"-84.44420000"},{"name":"Upala","native":null,"lat":"10.85000000","lon":"-85.16667000"},{"name":"Valverde Vega","native":null,"lat":"10.18721000","lon":"-84.30290000"},{"name":"Zarcero","native":null,"lat":"10.20000000","lon":"-84.40000000"}]},{"name":"Guanacaste Province","native":null,"cities":[{"name":"Abangares","native":null,"lat":"10.21667000","lon":"-85.00000000"},{"name":"Bagaces","native":null,"lat":"10.50000000","lon":"-85.25000000"},{"name":"Belén","native":null,"lat":"10.40789000","lon":"-85.58836000"},{"name":"Cañas","native":null,"lat":"10.48005000","lon":"-85.11349000"},{"name":"Carrillo","native":null,"lat":"10.41667000","lon":"-85.58333000"},{"name":"Fortuna","native":null,"lat":"10.67384000","lon":"-85.19984000"},{"name":"Hojancha","native":null,"lat":"9.96667000","lon":"-85.41667000"},{"name":"Juntas","native":null,"lat":"10.28089000","lon":"-84.95951000"},{"name":"La Cruz","native":null,"lat":"11.00000000","lon":"-85.58333000"},{"name":"Liberia","native":null,"lat":"10.63504000","lon":"-85.43772000"},{"name":"Nandayure","native":null,"lat":"9.91667000","lon":"-85.28333000"},{"name":"Nicoya","native":null,"lat":"10.08333000","lon":"-85.50000000"},{"name":"Sámara","native":null,"lat":"9.88147000","lon":"-85.52809000"},{"name":"Santa Cruz","native":null,"lat":"10.25000000","lon":"-85.66667000"},{"name":"Sardinal","native":null,"lat":"10.51674000","lon":"-85.64748000"},{"name":"Tilarán","native":null,"lat":"10.45878000","lon":"-84.97513000"}]},{"name":"Heredia Province","native":null,"cities":[{"name":"Ángeles","native":null,"lat":"9.99591000","lon":"-84.05126000"},{"name":"Barva","native":null,"lat":"10.08333000","lon":"-84.10000000"},{"name":"Belén","native":null,"lat":"9.98333000","lon":"-84.16667000"},{"name":"Flores","native":null,"lat":"10.00000000","lon":"-84.15000000"},{"name":"Heredia","native":null,"lat":"10.00236000","lon":"-84.11651000"},{"name":"La Asunción","native":null,"lat":"9.97961000","lon":"-84.17281000"},{"name":"Llorente","native":null,"lat":"9.99844000","lon":"-84.15448000"},{"name":"Mercedes","native":null,"lat":"10.00695000","lon":"-84.13396000"},{"name":"San Antonio","native":null,"lat":"9.98333000","lon":"-84.18333000"},{"name":"San Francisco","native":null,"lat":"9.99299000","lon":"-84.12934000"},{"name":"San Isidro","native":null,"lat":"10.03333000","lon":"-84.03333000"},{"name":"San Josecito","native":null,"lat":"10.01667000","lon":"-84.10000000"},{"name":"San Pablo","native":null,"lat":"10.00000000","lon":"-84.08333000"},{"name":"San Rafael","native":null,"lat":"10.05000000","lon":"-84.06667000"},{"name":"Santa Bárbara","native":null,"lat":"10.08333000","lon":"-84.15000000"},{"name":"Santo Domingo","native":null,"lat":"10.06389000","lon":"-84.15499000"},{"name":"Sarapiquí","native":null,"lat":"10.50000000","lon":"-84.00000000"}]},{"name":"Limón Province","native":null,"cities":[{"name":"Batán","native":null,"lat":"10.08354000","lon":"-83.33413000"},{"name":"Guácimo","native":null,"lat":"10.20000000","lon":"-83.66667000"},{"name":"Guápiles","native":null,"lat":"10.21682000","lon":"-83.78483000"},{"name":"Limón","native":null,"lat":"9.99074000","lon":"-83.03596000"},{"name":"Matina","native":null,"lat":"10.00000000","lon":"-83.25000000"},{"name":"Pococí","native":null,"lat":"10.50000000","lon":"-83.63333000"},{"name":"Pocora","native":null,"lat":"10.17185000","lon":"-83.60439000"},{"name":"Roxana","native":null,"lat":"10.26712000","lon":"-83.75110000"},{"name":"Siquirres","native":null,"lat":"10.11667000","lon":"-83.50000000"},{"name":"Sixaola","native":null,"lat":"9.52766000","lon":"-82.62185000"},{"name":"Talamanca","native":null,"lat":"9.50000000","lon":"-83.08333000"}]},{"name":"Provincia de Cartago","native":null,"cities":[{"name":"Alvarado","native":null,"lat":"9.93333000","lon":"-83.80000000"},{"name":"Cartago","native":null,"lat":"9.86444000","lon":"-83.91944000"},{"name":"Concepción","native":null,"lat":"9.93333000","lon":"-84.00000000"},{"name":"Cot","native":null,"lat":"9.89449000","lon":"-83.87302000"},{"name":"El Guarco","native":null,"lat":"9.75000000","lon":"-83.91667000"},{"name":"Jiménez","native":null,"lat":"9.75000000","lon":"-83.68333000"},{"name":"La Suiza","native":null,"lat":"9.85065000","lon":"-83.61690000"},{"name":"La Unión","native":null,"lat":"9.91667000","lon":"-83.98333000"},{"name":"Oreamuno","native":null,"lat":"10.00000000","lon":"-83.83333000"},{"name":"Orosí","native":null,"lat":"9.79617000","lon":"-83.85383000"},{"name":"Pacayas","native":null,"lat":"9.80709000","lon":"-84.04764000"},{"name":"Paraíso","native":null,"lat":"9.75000000","lon":"-83.80000000"},{"name":"Pejibaye","native":null,"lat":"9.81135000","lon":"-83.70336000"},{"name":"San Diego","native":null,"lat":"9.89898000","lon":"-84.00287000"},{"name":"Tobosi","native":null,"lat":"9.83837000","lon":"-83.98391000"},{"name":"Tres Ríos","native":null,"lat":"9.90644000","lon":"-83.98760000"},{"name":"Tucurrique","native":null,"lat":"9.85336000","lon":"-83.72273000"},{"name":"Turrialba","native":null,"lat":"9.80000000","lon":"-83.53333000"}]},{"name":"Puntarenas Province","native":null,"cities":[{"name":"Buenos Aires","native":null,"lat":"9.11667000","lon":"-83.25000000"},{"name":"Canoas","native":null,"lat":"8.53305000","lon":"-82.83844000"},{"name":"Chacarita","native":null,"lat":"9.98424000","lon":"-84.77892000"},{"name":"Ciudad Cortés","native":null,"lat":"8.95988000","lon":"-83.52381000"},{"name":"Corredor","native":null,"lat":"8.64002000","lon":"-82.94600000"},{"name":"Corredores","native":null,"lat":"8.58333000","lon":"-82.91667000"},{"name":"Coto Brus","native":null,"lat":"8.88333000","lon":"-82.96667000"},{"name":"Esparza","native":null,"lat":"10.00000000","lon":"-84.66667000"},{"name":"Garabito","native":null,"lat":"9.61903000","lon":"-84.62013000"},{"name":"Golfito","native":null,"lat":"8.60000000","lon":"-83.12000000"},{"name":"Jacó","native":null,"lat":"9.61497000","lon":"-84.62975000"},{"name":"Miramar","native":null,"lat":"10.09250000","lon":"-84.72978000"},{"name":"Montes de Oro","native":null,"lat":"10.10000000","lon":"-84.75000000"},{"name":"Osa","native":null,"lat":"8.83333000","lon":"-83.50000000"},{"name":"Paquera","native":null,"lat":"9.82005000","lon":"-84.93513000"},{"name":"Parrita","native":null,"lat":"9.55000000","lon":"-84.33333000"},{"name":"Puntarenas","native":null,"lat":"9.97625000","lon":"-84.83836000"},{"name":"Quepos","native":null,"lat":"9.43187000","lon":"-84.16141000"},{"name":"San Vito","native":null,"lat":"8.82079000","lon":"-82.97092000"}]},{"name":"San José Province","native":null,"cities":[{"name":"Acosta","native":null,"lat":"9.80000000","lon":"-84.20000000"},{"name":"Alajuelita","native":null,"lat":"9.90000000","lon":"-84.10000000"},{"name":"Aserrí","native":null,"lat":"9.86667000","lon":"-84.10000000"},{"name":"Calle Blancos","native":null,"lat":"9.95000000","lon":"-84.06667000"},{"name":"Colima","native":null,"lat":"9.95091000","lon":"-84.08503000"},{"name":"Colón","native":null,"lat":"9.91491000","lon":"-84.24170000"},{"name":"Curridabat","native":null,"lat":"9.91667000","lon":"-84.03333000"},{"name":"Daniel Flores","native":null,"lat":"9.33554000","lon":"-83.66940000"},{"name":"Desamparados","native":null,"lat":"9.90000000","lon":"-84.06667000"},{"name":"Dota","native":null,"lat":"9.65000000","lon":"-83.95000000"},{"name":"Escazú","native":null,"lat":"9.93333000","lon":"-84.13333000"},{"name":"Goicoechea","native":null,"lat":"9.94848000","lon":"-84.06365000"},{"name":"Granadilla","native":null,"lat":"9.93491000","lon":"-84.01688000"},{"name":"Guadalupe","native":null,"lat":"9.94805000","lon":"-84.05665000"},{"name":"Ipís","native":null,"lat":"9.96745000","lon":"-84.01326000"},{"name":"León Cortés","native":null,"lat":"9.68300000","lon":"-84.04781000"},{"name":"Mercedes","native":null,"lat":"9.26270000","lon":"-83.58202000"},{"name":"Montes de Oca","native":null,"lat":"9.93960000","lon":"-84.03013000"},{"name":"Mora","native":null,"lat":"9.91667000","lon":"-84.25000000"},{"name":"Moravia","native":null,"lat":"10.04000000","lon":"-84.00000000"},{"name":"Palmichal","native":null,"lat":"9.83778000","lon":"-84.20478000"},{"name":"Patarrá","native":null,"lat":"9.88071000","lon":"-84.03501000"},{"name":"Pérez Zeledón","native":null,"lat":"9.35473000","lon":"-83.63484000"},{"name":"Puriscal","native":null,"lat":"9.75000000","lon":"-84.41667000"},{"name":"Purral","native":null,"lat":"9.95808000","lon":"-84.03050000"},{"name":"Sabanilla","native":null,"lat":"9.94522000","lon":"-84.03927000"},{"name":"Salitral","native":null,"lat":"9.91163000","lon":"-84.17835000"},{"name":"Salitrillos","native":null,"lat":"9.85259000","lon":"-84.09062000"},{"name":"San Felipe","native":null,"lat":"9.90488000","lon":"-84.10551000"},{"name":"San Ignacio","native":null,"lat":"9.79853000","lon":"-84.16173000"},{"name":"San Isidro","native":null,"lat":"9.36740000","lon":"-83.69713000"},{"name":"San José","native":null,"lat":"9.93333000","lon":"-84.08333000"},{"name":"San Juan","native":null,"lat":"9.95974000","lon":"-84.08165000"},{"name":"San Juan de Dios","native":null,"lat":"9.87730000","lon":"-84.08470000"},{"name":"San Marcos","native":null,"lat":"9.66010000","lon":"-84.02026000"},{"name":"San Miguel","native":null,"lat":"9.87121000","lon":"-84.06084000"},{"name":"San Pedro","native":null,"lat":"9.92829000","lon":"-84.05074000"},{"name":"San Rafael","native":null,"lat":"9.92787000","lon":"-84.13722000"},{"name":"San Rafael Abajo","native":null,"lat":"9.83100000","lon":"-84.29008000"},{"name":"San Rafael Arriba","native":null,"lat":"9.87556000","lon":"-84.07661000"},{"name":"San Vicente","native":null,"lat":"9.96016000","lon":"-84.04762000"},{"name":"San Vicente de Moravia","native":null,"lat":"9.96164000","lon":"-84.04880000"},{"name":"Santa Ana","native":null,"lat":"9.93260000","lon":"-84.18255000"},{"name":"Santiago","native":null,"lat":"9.84636000","lon":"-84.31428000"},{"name":"Tarrazú","native":null,"lat":"9.65965000","lon":"-84.02138000"},{"name":"Tejar","native":null,"lat":"9.74622000","lon":"-84.23368000"},{"name":"Tibás","native":null,"lat":"9.96667000","lon":"-84.08333000"},{"name":"Turrubares","native":null,"lat":"9.75000000","lon":"-84.50000000"},{"name":"Vázquez de Coronado","native":null,"lat":"10.06000000","lon":"-84.00000000"}]}]