[{"id":2933,"name":"Ali Sabieh Region","native":null,"cities":[{"id":30561,"name":"'Ali Sabieh","native":null,"lat":"11.15583000","lon":"42.71250000"},{"id":30567,"name":"Goubétto","native":null,"lat":"11.42389000","lon":"43.00028000"},{"id":30569,"name":"Holhol","native":null,"lat":"11.31028000","lon":"42.92944000"}]},{"id":2932,"name":"Arta Region","native":null,"cities":[{"id":30563,"name":"Arta","native":null,"lat":"11.52639000","lon":"42.85194000"}]},{"id":2930,"name":"Dikhil Region","native":null,"cities":[{"id":30564,"name":"Dikhil","native":null,"lat":"11.10454000","lon":"42.36971000"},{"id":30568,"name":"Gâlâfi","native":null,"lat":"11.71583000","lon":"41.83611000"}]},{"id":2929,"name":"Djibouti","native":null,"cities":[{"id":30565,"name":"Djibouti","native":null,"lat":"11.58901000","lon":"43.14503000"},{"id":30570,"name":"Loyada","native":null,"lat":"11.46111000","lon":"43.25278000"}]},{"id":2928,"name":"Obock Region","native":null,"cities":[{"id":30562,"name":"Alaïli Ḏaḏḏa‘","native":null,"lat":"12.42167000","lon":"42.89556000"},{"id":30571,"name":"Obock","native":null,"lat":"11.96693000","lon":"43.28835000"}]},{"id":2931,"name":"Tadjourah Region","native":null,"cities":[{"id":30566,"name":"Dorra","native":null,"lat":"12.15028000","lon":"42.47624000"},{"id":30572,"name":"Tadjourah","native":null,"lat":"11.78778000","lon":"42.88222000"}]}]