[{"id":1530,"name":"Capital Region of Denmark","native":null,"cities":[{"id":30990,"name":"Åkirkeby","native":null,"lat":"55.07080000","lon":"14.91978000"},{"id":30577,"name":"Albertslund","native":null,"lat":"55.65691000","lon":"12.36381000"},{"id":30578,"name":"Albertslund Kommune","native":null,"lat":"55.68022000","lon":"12.34797000"},{"id":30579,"name":"Allerød Kommune","native":null,"lat":"55.85856000","lon":"12.32558000"},{"id":30589,"name":"Ballerup","native":null,"lat":"55.73165000","lon":"12.36328000"},{"id":30590,"name":"Ballerup Kommune","native":null,"lat":"55.73248000","lon":"12.35793000"},{"id":30595,"name":"Birkerød","native":null,"lat":"55.84759000","lon":"12.42791000"},{"id":30598,"name":"Blovstrød","native":null,"lat":"55.87038000","lon":"12.38640000"},{"id":30601,"name":"Bornholm Kommune","native":null,"lat":"55.12386000","lon":"14.91115000"},{"id":30610,"name":"Brøndby Kommune","native":null,"lat":"55.64290000","lon":"12.41101000"},{"id":30616,"name":"Charlottenlund","native":null,"lat":"55.75238000","lon":"12.57450000"},{"id":30618,"name":"Christianshavn","native":null,"lat":"55.67383000","lon":"12.59541000"},{"id":30619,"name":"Christiansø","native":null,"lat":"55.31982000","lon":"15.18783000"},{"id":30620,"name":"Copenhagen","native":null,"lat":"55.67594000","lon":"12.56553000"},{"id":30622,"name":"Dragør","native":null,"lat":"55.59280000","lon":"12.67221000"},{"id":30623,"name":"Dragør Kommune","native":null,"lat":"55.58233000","lon":"12.62756000"},{"id":30627,"name":"Egedal Kommune","native":null,"lat":"55.75556000","lon":"12.22778000"},{"id":30633,"name":"Espergærde","native":null,"lat":"55.99464000","lon":"12.54733000"},{"id":30638,"name":"Farum","native":null,"lat":"55.80858000","lon":"12.36066000"},{"id":30645,"name":"Fløng","native":null,"lat":"55.66212000","lon":"12.18698000"},{"id":30648,"name":"Fredensborg","native":null,"lat":"55.97558000","lon":"12.40314000"},{"id":30649,"name":"Fredensborg Kommune","native":null,"lat":"55.95000000","lon":"12.45000000"},{"id":30652,"name":"Frederiksberg","native":null,"lat":"55.67938000","lon":"12.53463000"},{"id":30654,"name":"Frederiksberg Kommune","native":null,"lat":"55.67856000","lon":"12.52216000"},{"id":30657,"name":"Frederikssund","native":null,"lat":"55.83956000","lon":"12.06896000"},{"id":30658,"name":"Frederikssund Kommune","native":null,"lat":"55.80957000","lon":"12.04038000"},{"id":30659,"name":"Frederiksværk","native":null,"lat":"55.97073000","lon":"12.02250000"},{"id":30662,"name":"Furesø Kommune","native":null,"lat":"55.78333000","lon":"12.34167000"},{"id":30664,"name":"Ganløse","native":null,"lat":"55.79124000","lon":"12.26421000"},{"id":30665,"name":"Gentofte Kommune","native":null,"lat":"55.75000000","lon":"12.55000000"},{"id":30666,"name":"Gilleleje","native":null,"lat":"56.12196000","lon":"12.31056000"},{"id":30670,"name":"Gladsaxe Municipality","native":null,"lat":"55.76667000","lon":"12.43333000"},{"id":30672,"name":"Glostrup","native":null,"lat":"55.66660000","lon":"12.40377000"},{"id":30673,"name":"Glostrup Kommune","native":null,"lat":"55.68188000","lon":"12.41018000"},{"id":30681,"name":"Græsted","native":null,"lat":"56.06558000","lon":"12.28512000"},{"id":30678,"name":"Gribskov Kommune","native":null,"lat":"56.05833000","lon":"12.24167000"},{"id":30691,"name":"Halsnæs Kommune","native":null,"lat":"55.96765000","lon":"11.94214000"},{"id":30700,"name":"Hellebæk","native":null,"lat":"56.06823000","lon":"12.55782000"},{"id":30701,"name":"Helsinge","native":null,"lat":"56.02283000","lon":"12.19752000"},{"id":30702,"name":"Helsingør","native":null,"lat":"56.03606000","lon":"12.61360000"},{"id":30703,"name":"Helsingør Kommune","native":null,"lat":"56.05000000","lon":"12.50000000"},{"id":30704,"name":"Herlev Kommune","native":null,"lat":"55.73317000","lon":"12.43106000"},{"id":30707,"name":"Hillerød","native":null,"lat":"55.92791000","lon":"12.30081000"},{"id":30708,"name":"Hillerød Kommune","native":null,"lat":"55.92319000","lon":"12.23794000"},{"id":30722,"name":"Hornbæk","native":null,"lat":"56.09027000","lon":"12.45693000"},{"id":30736,"name":"Høje-Taastrup Kommune","native":null,"lat":"55.65643000","lon":"12.24854000"},{"id":30739,"name":"Hørsholm","native":null,"lat":"55.88098000","lon":"12.50111000"},{"id":30740,"name":"Hørsholm Kommune","native":null,"lat":"55.88759000","lon":"12.48566000"},{"id":30727,"name":"Humlebæk","native":null,"lat":"55.96180000","lon":"12.53410000"},{"id":30728,"name":"Hundested","native":null,"lat":"55.96397000","lon":"11.85044000"},{"id":30731,"name":"Hvidovre","native":null,"lat":"55.65719000","lon":"12.47364000"},{"id":30732,"name":"Hvidovre Kommune","native":null,"lat":"55.63166000","lon":"12.46615000"},{"id":30745,"name":"Ishøj","native":null,"lat":"55.61543000","lon":"12.35182000"},{"id":30746,"name":"Ishøj Kommune","native":null,"lat":"55.62299000","lon":"12.30567000"},{"id":30752,"name":"Jægerspris","native":null,"lat":"55.85248000","lon":"11.98565000"},{"id":30762,"name":"Kokkedal","native":null,"lat":"55.91179000","lon":"12.49952000"},{"id":30766,"name":"Kongens Lyngby","native":null,"lat":"55.77044000","lon":"12.50378000"},{"id":30770,"name":"København","native":null,"lat":"55.67110000","lon":"12.56529000"},{"id":30780,"name":"Lillerød","native":null,"lat":"55.87496000","lon":"12.34579000"},{"id":30782,"name":"Liseleje","native":null,"lat":"56.01295000","lon":"11.96544000"},{"id":30785,"name":"Lyngby-Tårbæk Kommune","native":null,"lat":"55.78456000","lon":"12.50508000"},{"id":30786,"name":"Lynge","native":null,"lat":"55.83941000","lon":"12.27725000"},{"id":30803,"name":"Måløv","native":null,"lat":"55.75528000","lon":"12.32327000"},{"id":30808,"name":"Nexø","native":null,"lat":"55.06067000","lon":"15.13058000"},{"id":30810,"name":"Nivå","native":null,"lat":"55.93405000","lon":"12.50485000"},{"id":30823,"name":"Nødebo","native":null,"lat":"55.97877000","lon":"12.34685000"},{"id":31000,"name":"Ølstykke","native":null,"lat":"55.79567000","lon":"12.15509000"},{"id":30857,"name":"Rødovre","native":null,"lat":"55.68062000","lon":"12.45373000"},{"id":30858,"name":"Rødovre Kommune","native":null,"lat":"55.68852000","lon":"12.44834000"},{"id":30861,"name":"Rønne","native":null,"lat":"55.10091000","lon":"14.70664000"},{"id":30849,"name":"Rudersdal Kommune","native":null,"lat":"55.82500000","lon":"12.49167000"},{"id":30880,"name":"Skævinge","native":null,"lat":"55.90785000","lon":"12.15036000"},{"id":30874,"name":"Skibby","native":null,"lat":"55.75122000","lon":"11.96083000"},{"id":30884,"name":"Slangerup","native":null,"lat":"55.85000000","lon":"12.18333000"},{"id":30885,"name":"Smørumnedre","native":null,"lat":"55.74232000","lon":"12.30276000"},{"id":30896,"name":"Stavnsholt","native":null,"lat":"55.81479000","lon":"12.40545000"},{"id":30900,"name":"Stenløse","native":null,"lat":"55.76828000","lon":"12.19723000"},{"id":30930,"name":"Taastrup","native":null,"lat":"55.65006000","lon":"12.30160000"},{"id":30946,"name":"Tårnby","native":null,"lat":"55.63030000","lon":"12.60035000"},{"id":30947,"name":"Tårnby Kommune","native":null,"lat":"55.60391000","lon":"12.59599000"},{"id":30944,"name":"Trørød","native":null,"lat":"55.83946000","lon":"12.54432000"},{"id":30957,"name":"Vallensbæk","native":null,"lat":"55.62199000","lon":"12.38511000"},{"id":30958,"name":"Vallensbæk Kommune","native":null,"lat":"55.63128000","lon":"12.37369000"},{"id":30960,"name":"Vanløse","native":null,"lat":"55.68361000","lon":"12.48713000"},{"id":30988,"name":"Værløse","native":null,"lat":"55.78251000","lon":"12.36856000"},{"id":30967,"name":"Veksø","native":null,"lat":"55.75473000","lon":"12.23837000"}]},{"id":1531,"name":"Central Denmark Region","native":null,"cities":[{"id":30580,"name":"Allingåbro","native":null,"lat":"56.46432000","lon":"10.31957000"},{"id":30993,"name":"Århus","native":null,"lat":"56.15674000","lon":"10.21076000"},{"id":30994,"name":"Århus Kommune","native":null,"lat":"56.16317000","lon":"10.16897000"},{"id":30585,"name":"Assentoft","native":null,"lat":"56.44210000","lon":"10.15170000"},{"id":30587,"name":"Auning","native":null,"lat":"56.43079000","lon":"10.37818000"},{"id":30588,"name":"Avlum","native":null,"lat":"56.26539000","lon":"8.79256000"},{"id":30591,"name":"Beder","native":null,"lat":"56.06025000","lon":"10.21179000"},{"id":30596,"name":"Bjerringbro","native":null,"lat":"56.37797000","lon":"9.66065000"},{"id":30600,"name":"Bording Kirkeby","native":null,"lat":"56.16871000","lon":"9.24384000"},{"id":30604,"name":"Brande","native":null,"lat":"55.94316000","lon":"9.12798000"},{"id":30609,"name":"Brædstrup","native":null,"lat":"55.97153000","lon":"9.61129000"},{"id":30626,"name":"Ebeltoft","native":null,"lat":"56.19442000","lon":"10.68210000"},{"id":30639,"name":"Favrskov Kommune","native":null,"lat":"56.31667000","lon":"9.94000000"},{"id":30647,"name":"Framlev","native":null,"lat":"56.15664000","lon":"10.01318000"},{"id":30663,"name":"Galten","native":null,"lat":"56.15902000","lon":"9.91691000"},{"id":30669,"name":"Gjellerup","native":null,"lat":"56.14616000","lon":"9.05467000"},{"id":30675,"name":"Grenaa","native":null,"lat":"56.41578000","lon":"10.87825000"},{"id":30688,"name":"Hadsten","native":null,"lat":"56.32819000","lon":"10.04931000"},{"id":30692,"name":"Hammel","native":null,"lat":"56.25762000","lon":"9.86316000"},{"id":30693,"name":"Hammerum","native":null,"lat":"56.13361000","lon":"9.06121000"},{"id":30695,"name":"Harboøre","native":null,"lat":"56.61752000","lon":"8.18069000"},{"id":30698,"name":"Hedensted","native":null,"lat":"55.77043000","lon":"9.70110000"},{"id":30699,"name":"Hedensted Kommune","native":null,"lat":"55.79680000","lon":"9.74400000"},{"id":30705,"name":"Herning","native":null,"lat":"56.13615000","lon":"8.97662000"},{"id":30706,"name":"Herning Kommune","native":null,"lat":"56.14997000","lon":"8.89712000"},{"id":30709,"name":"Hinnerup","native":null,"lat":"56.26608000","lon":"10.06299000"},{"id":30712,"name":"Hjortshøj","native":null,"lat":"56.24811000","lon":"10.26533000"},{"id":30719,"name":"Holstebro","native":null,"lat":"56.36009000","lon":"8.61607000"},{"id":30720,"name":"Holstebro Kommune","native":null,"lat":"56.35916000","lon":"8.59631000"},{"id":30723,"name":"Hornslet","native":null,"lat":"56.31550000","lon":"10.32041000"},{"id":30724,"name":"Hornsyld","native":null,"lat":"55.75621000","lon":"9.85643000"},{"id":30725,"name":"Horsens","native":null,"lat":"55.86066000","lon":"9.85034000"},{"id":30726,"name":"Horsens Kommune","native":null,"lat":"55.92740000","lon":"9.77377000"},{"id":30738,"name":"Hørning","native":null,"lat":"56.08701000","lon":"10.03716000"},{"id":30730,"name":"Hvide Sande","native":null,"lat":"55.99866000","lon":"8.12605000"},{"id":30743,"name":"Ikast","native":null,"lat":"56.13883000","lon":"9.15768000"},{"id":30744,"name":"Ikast-Brande Kommune","native":null,"lat":"55.98333000","lon":"9.21667000"},{"id":30749,"name":"Juelsminde","native":null,"lat":"55.70876000","lon":"10.01668000"},{"id":30755,"name":"Karup","native":null,"lat":"56.30673000","lon":"9.16835000"},{"id":30758,"name":"Kibæk","native":null,"lat":"56.03170000","lon":"8.85697000"},{"id":30760,"name":"Kjellerup","native":null,"lat":"56.28581000","lon":"9.43528000"},{"id":30765,"name":"Kolt","native":null,"lat":"56.10845000","lon":"10.06986000"},{"id":30775,"name":"Langå","native":null,"lat":"56.39026000","lon":"9.89486000"},{"id":30778,"name":"Lemvig","native":null,"lat":"56.54856000","lon":"8.31019000"},{"id":30779,"name":"Lemvig Kommune","native":null,"lat":"56.49136000","lon":"8.29927000"},{"id":30781,"name":"Lind","native":null,"lat":"56.10600000","lon":"8.97915000"},{"id":30790,"name":"Løgten","native":null,"lat":"56.27459000","lon":"10.31181000"},{"id":30787,"name":"Lystrup","native":null,"lat":"56.23750000","lon":"10.23778000"},{"id":30794,"name":"Malling","native":null,"lat":"56.03632000","lon":"10.19632000"},{"id":30804,"name":"Mårslet","native":null,"lat":"56.06690000","lon":"10.16112000"},{"id":30813,"name":"Norddjurs Kommune","native":null,"lat":"56.44124000","lon":"10.76660000"},{"id":30827,"name":"Odder","native":null,"lat":"55.97313000","lon":"10.15300000"},{"id":30828,"name":"Odder Kommune","native":null,"lat":"55.92967000","lon":"10.15304000"},{"id":30838,"name":"Randers","native":null,"lat":"56.46070000","lon":"10.03639000"},{"id":30839,"name":"Randers Kommune","native":null,"lat":"56.51561000","lon":"10.06901000"},{"id":30843,"name":"Ringkøbing","native":null,"lat":"56.09006000","lon":"8.24402000"},{"id":30844,"name":"Ringkøbing-Skjern Kommune","native":null,"lat":"56.01000000","lon":"8.39667000"},{"id":30860,"name":"Rønde","native":null,"lat":"56.30145000","lon":"10.47505000"},{"id":30851,"name":"Ry","native":null,"lat":"56.09038000","lon":"9.76505000"},{"id":30852,"name":"Ryomgård","native":null,"lat":"56.38430000","lon":"10.50295000"},{"id":30863,"name":"Sabro","native":null,"lat":"56.21333000","lon":"10.03441000"},{"id":30865,"name":"Samsø Kommune","native":null,"lat":"55.85245000","lon":"10.60045000"},{"id":30867,"name":"Silkeborg","native":null,"lat":"56.16970000","lon":"9.54508000"},{"id":30868,"name":"Silkeborg Kommune","native":null,"lat":"56.17495000","lon":"9.54666000"},{"id":30872,"name":"Skanderborg","native":null,"lat":"56.03434000","lon":"9.93177000"},{"id":30873,"name":"Skanderborg Kommune","native":null,"lat":"56.07956000","lon":"9.89868000"},{"id":30875,"name":"Skive","native":null,"lat":"56.56699000","lon":"9.02707000"},{"id":30876,"name":"Skive Kommune","native":null,"lat":"56.64478000","lon":"8.97660000"},{"id":30877,"name":"Skjern","native":null,"lat":"55.95000000","lon":"8.50000000"},{"id":30878,"name":"Skovby","native":null,"lat":"56.15672000","lon":"9.94523000"},{"id":30886,"name":"Snejbjerg","native":null,"lat":"56.13291000","lon":"8.90353000"},{"id":30888,"name":"Solbjerg","native":null,"lat":"56.04271000","lon":"10.08631000"},{"id":30925,"name":"Søften","native":null,"lat":"56.23801000","lon":"10.08510000"},{"id":30894,"name":"Spentrup","native":null,"lat":"56.53703000","lon":"10.03792000"},{"id":30897,"name":"Stavtrup","native":null,"lat":"56.13124000","lon":"10.11987000"},{"id":30903,"name":"Stilling","native":null,"lat":"56.06224000","lon":"9.98822000"},{"id":30904,"name":"Stoholm","native":null,"lat":"56.48454000","lon":"9.14617000"},{"id":30909,"name":"Struer","native":null,"lat":"56.49205000","lon":"8.59397000"},{"id":30910,"name":"Struer Kommune","native":null,"lat":"56.46667000","lon":"8.58333000"},{"id":30915,"name":"Sunds","native":null,"lat":"56.20743000","lon":"9.01386000"},{"id":30917,"name":"Svejbæk","native":null,"lat":"56.13255000","lon":"9.63289000"},{"id":30923,"name":"Syddjurs Kommune","native":null,"lat":"56.31250000","lon":"10.52083000"},{"id":30931,"name":"Tarm","native":null,"lat":"55.90861000","lon":"8.53041000"},{"id":30936,"name":"Thyborøn","native":null,"lat":"56.69846000","lon":"8.21238000"},{"id":30952,"name":"Tørring","native":null,"lat":"55.85000000","lon":"9.48333000"},{"id":30942,"name":"Tranbjerg","native":null,"lat":"56.09519000","lon":"10.13605000"},{"id":30943,"name":"Trige","native":null,"lat":"56.25291000","lon":"10.14840000"},{"id":30953,"name":"Ulfborg","native":null,"lat":"56.26725000","lon":"8.32167000"},{"id":30955,"name":"Ulstrup","native":null,"lat":"56.38994000","lon":"9.79354000"},{"id":30972,"name":"Viborg","native":null,"lat":"56.45319000","lon":"9.40201000"},{"id":30973,"name":"Viborg Kommune","native":null,"lat":"56.45000000","lon":"9.36667000"},{"id":30975,"name":"Videbæk","native":null,"lat":"56.08760000","lon":"8.62852000"},{"id":30976,"name":"Vildbjerg","native":null,"lat":"56.20000000","lon":"8.76667000"},{"id":30978,"name":"Vinderup","native":null,"lat":"56.48176000","lon":"8.77991000"},{"id":30981,"name":"Virklund","native":null,"lat":"56.13218000","lon":"9.55582000"}]},{"id":1532,"name":"North Denmark Region","native":null,"cities":[{"id":30575,"name":"Aalborg","native":null,"lat":"57.04800000","lon":"9.91870000"},{"id":30576,"name":"Aars","native":null,"lat":"56.80399000","lon":"9.51441000"},{"id":30989,"name":"Åbybro","native":null,"lat":"57.16249000","lon":"9.72996000"},{"id":30991,"name":"Ålborg Kommune","native":null,"lat":"57.00000000","lon":"9.95000000"},{"id":30992,"name":"Ålestrup","native":null,"lat":"56.69470000","lon":"9.49336000"},{"id":30581,"name":"Arden","native":null,"lat":"56.76899000","lon":"9.86184000"},{"id":30608,"name":"Brovst","native":null,"lat":"57.09750000","lon":"9.52264000"},{"id":30611,"name":"Brønderslev","native":null,"lat":"57.27021000","lon":"9.94102000"},{"id":30612,"name":"Brønderslev Kommune","native":null,"lat":"57.23506000","lon":"10.10061000"},{"id":30624,"name":"Dronninglund","native":null,"lat":"57.16035000","lon":"10.29287000"},{"id":30637,"name":"Farsø","native":null,"lat":"56.77276000","lon":"9.33925000"},{"id":30644,"name":"Fjerritslev","native":null,"lat":"57.08822000","lon":"9.26622000"},{"id":30655,"name":"Frederikshavn","native":null,"lat":"57.44073000","lon":"10.53661000"},{"id":30656,"name":"Frederikshavn Kommune","native":null,"lat":"57.43347000","lon":"10.42507000"},{"id":30660,"name":"Frejlev","native":null,"lat":"57.00623000","lon":"9.81711000"},{"id":30667,"name":"Gistrup","native":null,"lat":"56.99430000","lon":"9.99085000"},{"id":30689,"name":"Hadsund","native":null,"lat":"56.71482000","lon":"10.11682000"},{"id":30690,"name":"Hals","native":null,"lat":"56.99609000","lon":"10.30807000"},{"id":30694,"name":"Hanstholm","native":null,"lat":"57.11667000","lon":"8.61667000"},{"id":30710,"name":"Hirtshals","native":null,"lat":"57.58812000","lon":"9.95922000"},{"id":30711,"name":"Hjallerup","native":null,"lat":"57.16466000","lon":"10.14571000"},{"id":30713,"name":"Hjørring","native":null,"lat":"57.46417000","lon":"9.98229000"},{"id":30714,"name":"Hjørring Kommune","native":null,"lat":"57.45682000","lon":"10.05859000"},{"id":30715,"name":"Hobro","native":null,"lat":"56.64306000","lon":"9.79029000"},{"id":30729,"name":"Hurup","native":null,"lat":"56.74944000","lon":"8.41953000"},{"id":30747,"name":"Jammerbugt Kommune","native":null,"lat":"57.14583000","lon":"9.56250000"},{"id":30769,"name":"Kås","native":null,"lat":"57.19774000","lon":"9.67173000"},{"id":30761,"name":"Klarup","native":null,"lat":"57.01194000","lon":"10.05617000"},{"id":30788,"name":"Læso Kommune","native":null,"lat":"57.26774000","lon":"11.02265000"},{"id":30789,"name":"Løgstør","native":null,"lat":"56.96245000","lon":"9.25830000"},{"id":30793,"name":"Løkken","native":null,"lat":"57.37047000","lon":"9.71466000"},{"id":30795,"name":"Mariager","native":null,"lat":"56.64985000","lon":"9.97515000"},{"id":30796,"name":"Mariagerfjord Kommune","native":null,"lat":"56.69722000","lon":"9.84722000"},{"id":30801,"name":"Morsø Kommune","native":null,"lat":"56.79622000","lon":"8.73272000"},{"id":30809,"name":"Nibe","native":null,"lat":"56.98150000","lon":"9.63917000"},{"id":30826,"name":"Nørresundby","native":null,"lat":"57.05877000","lon":"9.92284000"},{"id":30818,"name":"Nykøbing Mors","native":null,"lat":"56.79334000","lon":"8.85282000"},{"id":30836,"name":"Pandrup","native":null,"lat":"57.22147000","lon":"9.67569000"},{"id":30840,"name":"Rebild Kommune","native":null,"lat":"56.80556000","lon":"9.77778000"},{"id":30924,"name":"Sæby","native":null,"lat":"57.33188000","lon":"10.52251000"},{"id":30869,"name":"Sindal","native":null,"lat":"57.47117000","lon":"10.20312000"},{"id":30871,"name":"Skagen","native":null,"lat":"57.72093000","lon":"10.58394000"},{"id":30881,"name":"Skørping","native":null,"lat":"56.83626000","lon":"9.89255000"},{"id":30906,"name":"Storvorde","native":null,"lat":"57.00392000","lon":"10.10125000"},{"id":30913,"name":"Støvring","native":null,"lat":"56.88536000","lon":"9.83839000"},{"id":30907,"name":"Strandby","native":null,"lat":"57.49150000","lon":"10.49609000"},{"id":30920,"name":"Svenstrup","native":null,"lat":"56.97230000","lon":"9.84806000"},{"id":30948,"name":"Tårs","native":null,"lat":"57.38333000","lon":"10.11667000"},{"id":30933,"name":"Thisted","native":null,"lat":"56.95523000","lon":"8.69491000"},{"id":30934,"name":"Thisted Kommune","native":null,"lat":"57.00397000","lon":"8.61834000"},{"id":30956,"name":"Vadum","native":null,"lat":"57.11790000","lon":"9.85700000"},{"id":30968,"name":"Vestbjerg","native":null,"lat":"57.13166000","lon":"9.95942000"},{"id":30969,"name":"Vester Hassing","native":null,"lat":"57.06767000","lon":"10.12558000"},{"id":30971,"name":"Vesthimmerland Kommune","native":null,"lat":"56.80000000","lon":"9.37083000"},{"id":30983,"name":"Vodskov","native":null,"lat":"57.10854000","lon":"10.02215000"},{"id":30987,"name":"Vrå","native":null,"lat":"57.35370000","lon":"9.94176000"}]},{"id":1529,"name":"Region of Southern Denmark","native":null,"cities":[{"id":30573,"name":"Aabenraa","native":null,"lat":"55.04434000","lon":"9.41741000"},{"id":30574,"name":"Aabenraa Kommune","native":null,"lat":"54.98980000","lon":"9.31282000"},{"id":30995,"name":"Årslev","native":null,"lat":"55.30353000","lon":"10.46428000"},{"id":30996,"name":"Årup","native":null,"lat":"55.37315000","lon":"10.04131000"},{"id":30583,"name":"Assens","native":null,"lat":"55.27023000","lon":"9.90081000"},{"id":30584,"name":"Assens Kommune","native":null,"lat":"55.29958000","lon":"10.07952000"},{"id":30586,"name":"Augustenborg","native":null,"lat":"54.95201000","lon":"9.87216000"},{"id":30997,"name":"Ærø Kommune","native":null,"lat":"54.85833000","lon":"10.43333000"},{"id":30998,"name":"Ærøskøbing","native":null,"lat":"54.88803000","lon":"10.41117000"},{"id":30592,"name":"Bellinge","native":null,"lat":"55.33535000","lon":"10.32045000"},{"id":30593,"name":"Billund","native":null,"lat":"55.73349000","lon":"9.10785000"},{"id":30594,"name":"Billund Kommune","native":null,"lat":"55.73079000","lon":"8.96844000"},{"id":30599,"name":"Bogense","native":null,"lat":"55.56691000","lon":"10.08863000"},{"id":30615,"name":"Børkop","native":null,"lat":"55.64195000","lon":"9.64958000"},{"id":30603,"name":"Bramming","native":null,"lat":"55.46946000","lon":"8.70007000"},{"id":30605,"name":"Brejning","native":null,"lat":"55.66594000","lon":"9.67217000"},{"id":30606,"name":"Brenderup","native":null,"lat":"55.48407000","lon":"9.97908000"},{"id":30607,"name":"Broager","native":null,"lat":"54.88940000","lon":"9.67465000"},{"id":30613,"name":"Brørup","native":null,"lat":"55.48194000","lon":"9.01756000"},{"id":30614,"name":"Bullerup","native":null,"lat":"55.42686000","lon":"10.47137000"},{"id":30617,"name":"Christiansfeld","native":null,"lat":"55.35817000","lon":"9.48701000"},{"id":30625,"name":"Dybbøl","native":null,"lat":"54.91079000","lon":"9.73601000"},{"id":30628,"name":"Egtved","native":null,"lat":"55.61613000","lon":"9.30763000"},{"id":30629,"name":"Ejby","native":null,"lat":"55.43010000","lon":"9.92973000"},{"id":30631,"name":"Esbjerg","native":null,"lat":"55.47028000","lon":"8.45187000"},{"id":30632,"name":"Esbjerg Kommune","native":null,"lat":"55.46893000","lon":"8.46222000"},{"id":30634,"name":"Faaborg","native":null,"lat":"55.09510000","lon":"10.24226000"},{"id":30635,"name":"Faaborg-Midtfyn Kommune","native":null,"lat":"55.22667000","lon":"10.40667000"},{"id":30636,"name":"Fanø Kommune","native":null,"lat":"55.41667000","lon":"8.41667000"},{"id":30650,"name":"Fredericia","native":null,"lat":"55.56568000","lon":"9.75257000"},{"id":30651,"name":"Fredericia Kommune","native":null,"lat":"55.57271000","lon":"9.69489000"},{"id":30668,"name":"Give","native":null,"lat":"55.84523000","lon":"9.23769000"},{"id":30671,"name":"Glamsbjerg","native":null,"lat":"55.27237000","lon":"10.10483000"},{"id":30674,"name":"Gram","native":null,"lat":"55.28948000","lon":"9.04913000"},{"id":30680,"name":"Gråsten","native":null,"lat":"54.91918000","lon":"9.59523000"},{"id":30679,"name":"Grindsted","native":null,"lat":"55.75726000","lon":"8.92750000"},{"id":30682,"name":"Guderup","native":null,"lat":"54.98978000","lon":"9.87174000"},{"id":30686,"name":"Haderslev","native":null,"lat":"55.24943000","lon":"9.48771000"},{"id":30687,"name":"Haderslev Kommune","native":null,"lat":"55.24441000","lon":"9.32261000"},{"id":30733,"name":"Hårby","native":null,"lat":"55.22357000","lon":"10.12268000"},{"id":30721,"name":"Holsted","native":null,"lat":"55.51086000","lon":"8.91872000"},{"id":30735,"name":"Højby","native":null,"lat":"55.33177000","lon":"10.43725000"},{"id":30741,"name":"Høruphav","native":null,"lat":"54.91017000","lon":"9.89872000"},{"id":30748,"name":"Jelling","native":null,"lat":"55.75588000","lon":"9.42580000"},{"id":30756,"name":"Kerteminde","native":null,"lat":"55.44903000","lon":"10.65769000"},{"id":30757,"name":"Kerteminde Kommune","native":null,"lat":"55.45498000","lon":"10.62220000"},{"id":30763,"name":"Kolding","native":null,"lat":"55.49040000","lon":"9.47216000"},{"id":30764,"name":"Kolding Kommune","native":null,"lat":"55.45006000","lon":"9.45807000"},{"id":30768,"name":"Kruså","native":null,"lat":"54.85097000","lon":"9.40129000"},{"id":30773,"name":"Langeland Kommune","native":null,"lat":"54.90000000","lon":"10.77222000"},{"id":30774,"name":"Langeskov","native":null,"lat":"55.35655000","lon":"10.58447000"},{"id":30791,"name":"Løgumkloster","native":null,"lat":"55.05941000","lon":"8.95508000"},{"id":30792,"name":"Løjt Kirkeby","native":null,"lat":"55.08959000","lon":"9.46084000"},{"id":30784,"name":"Lunderskov","native":null,"lat":"55.48375000","lon":"9.29917000"},{"id":30798,"name":"Marstal","native":null,"lat":"54.85621000","lon":"10.51726000"},{"id":30799,"name":"Middelfart","native":null,"lat":"55.50591000","lon":"9.73054000"},{"id":30800,"name":"Middelfart Kommune","native":null,"lat":"55.45782000","lon":"9.88100000"},{"id":30802,"name":"Munkebo","native":null,"lat":"55.45553000","lon":"10.55433000"},{"id":30806,"name":"Neder Holluf","native":null,"lat":"55.36451000","lon":"10.44824000"},{"id":30811,"name":"Nordborg","native":null,"lat":"55.05732000","lon":"9.74080000"},{"id":30812,"name":"Nordby","native":null,"lat":"55.44603000","lon":"8.39786000"},{"id":30814,"name":"Nordfyns Kommune","native":null,"lat":"55.52222000","lon":"10.22222000"},{"id":30825,"name":"Nørre Åby","native":null,"lat":"55.46107000","lon":"9.87940000"},{"id":30815,"name":"Nyborg","native":null,"lat":"55.31274000","lon":"10.78964000"},{"id":30816,"name":"Nyborg Kommune","native":null,"lat":"55.29473000","lon":"10.70310000"},{"id":30829,"name":"Odense","native":null,"lat":"55.39594000","lon":"10.38831000"},{"id":30830,"name":"Odense Kommune","native":null,"lat":"55.39570000","lon":"10.37761000"},{"id":30832,"name":"Oksbøl","native":null,"lat":"55.62680000","lon":"8.28757000"},{"id":30834,"name":"Otterup","native":null,"lat":"55.51527000","lon":"10.39756000"},{"id":30999,"name":"Ølgod","native":null,"lat":"55.80682000","lon":"8.62859000"},{"id":30835,"name":"Padborg","native":null,"lat":"54.82657000","lon":"9.36247000"},{"id":30841,"name":"Ribe","native":null,"lat":"55.33051000","lon":"8.76966000"},{"id":30842,"name":"Ringe","native":null,"lat":"55.23828000","lon":"10.47860000"},{"id":30855,"name":"Rødding","native":null,"lat":"55.36569000","lon":"9.06316000"},{"id":30856,"name":"Rødekro","native":null,"lat":"55.07076000","lon":"9.33531000"},{"id":30850,"name":"Rudkøbing","native":null,"lat":"54.93639000","lon":"10.71019000"},{"id":30866,"name":"Seden","native":null,"lat":"55.42648000","lon":"10.44265000"},{"id":30870,"name":"Skaerbaek","native":null,"lat":"55.15735000","lon":"8.76901000"},{"id":30887,"name":"Snoghøj","native":null,"lat":"55.52253000","lon":"9.72125000"},{"id":30926,"name":"Sønder Bjert","native":null,"lat":"55.45272000","lon":"9.56741000"},{"id":30927,"name":"Sønderborg","native":null,"lat":"54.90896000","lon":"9.78917000"},{"id":30928,"name":"Sønderborg Kommune","native":null,"lat":"54.91667000","lon":"9.80000000"},{"id":30929,"name":"Søndersø","native":null,"lat":"55.48526000","lon":"10.25540000"},{"id":30895,"name":"Starup","native":null,"lat":"55.24097000","lon":"9.53503000"},{"id":30902,"name":"Stige","native":null,"lat":"55.43941000","lon":"10.40940000"},{"id":30908,"name":"Strib","native":null,"lat":"55.54021000","lon":"9.76748000"},{"id":30918,"name":"Svendborg","native":null,"lat":"55.05982000","lon":"10.60677000"},{"id":30919,"name":"Svendborg Kommune","native":null,"lat":"55.08410000","lon":"10.61391000"},{"id":30932,"name":"Taulov","native":null,"lat":"55.54582000","lon":"9.61553000"},{"id":30935,"name":"Thurø By","native":null,"lat":"55.04740000","lon":"10.66385000"},{"id":30937,"name":"Tinglev","native":null,"lat":"54.93788000","lon":"9.25547000"},{"id":30938,"name":"Tjæreborg","native":null,"lat":"55.46457000","lon":"8.57968000"},{"id":30939,"name":"Toftlund","native":null,"lat":"55.18858000","lon":"9.06925000"},{"id":30940,"name":"Tommerup","native":null,"lat":"55.31952000","lon":"10.20659000"},{"id":30941,"name":"Tommerup Stationsby","native":null,"lat":"55.34535000","lon":"10.17594000"},{"id":30950,"name":"Tønder","native":null,"lat":"54.93306000","lon":"8.86674000"},{"id":30951,"name":"Tønder Kommune","native":null,"lat":"55.07304000","lon":"8.87214000"},{"id":30954,"name":"Ullerslev","native":null,"lat":"55.36172000","lon":"10.65190000"},{"id":30959,"name":"Vamdrup","native":null,"lat":"55.42764000","lon":"9.28435000"},{"id":30961,"name":"Varde","native":null,"lat":"55.62112000","lon":"8.48069000"},{"id":30962,"name":"Varde Kommune","native":null,"lat":"55.61667000","lon":"8.50000000"},{"id":30963,"name":"Vejen","native":null,"lat":"55.48117000","lon":"9.13795000"},{"id":30964,"name":"Vejen Kommune","native":null,"lat":"55.46312000","lon":"9.05004000"},{"id":30965,"name":"Vejle","native":null,"lat":"55.70927000","lon":"9.53570000"},{"id":30966,"name":"Vejle Kommune","native":null,"lat":"55.74874000","lon":"9.40421000"},{"id":30970,"name":"Vester-Skerninge","native":null,"lat":"55.07322000","lon":"10.45536000"},{"id":30977,"name":"Vindeby","native":null,"lat":"55.04489000","lon":"10.61309000"},{"id":30982,"name":"Vissenbjerg","native":null,"lat":"55.38482000","lon":"10.13784000"},{"id":30984,"name":"Vojens","native":null,"lat":"55.24639000","lon":"9.30603000"}]},{"id":1528,"name":"Region Zealand","native":null,"cities":[{"id":30582,"name":"Asnæs","native":null,"lat":"55.81229000","lon":"11.50129000"},{"id":30597,"name":"Bjæverskov","native":null,"lat":"55.45756000","lon":"12.03651000"},{"id":30602,"name":"Borup","native":null,"lat":"55.49472000","lon":"11.97584000"},{"id":30621,"name":"Dianalund","native":null,"lat":"55.53133000","lon":"11.49250000"},{"id":30630,"name":"Ejby","native":null,"lat":"55.48580000","lon":"12.08171000"},{"id":30640,"name":"Faxe","native":null,"lat":"55.25561000","lon":"12.11926000"},{"id":30641,"name":"Faxe Kommune","native":null,"lat":"55.29444000","lon":"12.06111000"},{"id":30642,"name":"Faxe Ladeplads","native":null,"lat":"55.21981000","lon":"12.17013000"},{"id":30643,"name":"Fensmark","native":null,"lat":"55.27919000","lon":"11.80382000"},{"id":30646,"name":"Forlev","native":null,"lat":"55.37445000","lon":"11.25966000"},{"id":30653,"name":"Frederiksberg","native":null,"lat":"55.41618000","lon":"11.56934000"},{"id":30661,"name":"Fuglebjerg","native":null,"lat":"55.30604000","lon":"11.54766000"},{"id":30685,"name":"Gørlev","native":null,"lat":"55.53926000","lon":"11.22708000"},{"id":30676,"name":"Greve","native":null,"lat":"55.58333000","lon":"12.30000000"},{"id":30677,"name":"Greve Kommune","native":null,"lat":"55.58770000","lon":"12.25060000"},{"id":30683,"name":"Guldborgsund Kommune","native":null,"lat":"54.76944000","lon":"11.83611000"},{"id":30684,"name":"Gundsømagle","native":null,"lat":"55.73565000","lon":"12.15158000"},{"id":30734,"name":"Hårlev","native":null,"lat":"55.34936000","lon":"12.23382000"},{"id":30696,"name":"Haslev","native":null,"lat":"55.32346000","lon":"11.96389000"},{"id":30697,"name":"Havdrup","native":null,"lat":"55.54481000","lon":"12.12392000"},{"id":30716,"name":"Holbæk","native":null,"lat":"55.71750000","lon":"11.71279000"},{"id":30717,"name":"Holbæk Kommune","native":null,"lat":"55.65919000","lon":"11.62049000"},{"id":30718,"name":"Holeby","native":null,"lat":"54.71148000","lon":"11.46416000"},{"id":30737,"name":"Høng","native":null,"lat":"55.50736000","lon":"11.28873000"},{"id":30742,"name":"Hørve","native":null,"lat":"55.75292000","lon":"11.45298000"},{"id":30750,"name":"Jyderup","native":null,"lat":"55.66399000","lon":"11.42029000"},{"id":30751,"name":"Jyllinge","native":null,"lat":"55.75295000","lon":"12.10315000"},{"id":30753,"name":"Kalundborg","native":null,"lat":"55.67954000","lon":"11.08864000"},{"id":30754,"name":"Kalundborg Kommune","native":null,"lat":"55.63545000","lon":"11.19993000"},{"id":30759,"name":"Kirke Hvalsø","native":null,"lat":"55.59170000","lon":"11.86253000"},{"id":30767,"name":"Korsør","native":null,"lat":"55.32993000","lon":"11.13857000"},{"id":30771,"name":"Køge","native":null,"lat":"55.45802000","lon":"12.18214000"},{"id":30772,"name":"Køge Kommune","native":null,"lat":"55.45668000","lon":"12.07332000"},{"id":30776,"name":"Lejre","native":null,"lat":"55.60461000","lon":"11.97477000"},{"id":30777,"name":"Lejre Kommune","native":null,"lat":"55.63375000","lon":"11.92234000"},{"id":30783,"name":"Lolland Kommune","native":null,"lat":"54.80238000","lon":"11.29524000"},{"id":30797,"name":"Maribo","native":null,"lat":"54.77662000","lon":"11.50017000"},{"id":30805,"name":"Nakskov","native":null,"lat":"54.83038000","lon":"11.13567000"},{"id":30821,"name":"Næstved","native":null,"lat":"55.22992000","lon":"11.76092000"},{"id":30822,"name":"Næstved Kommune","native":null,"lat":"55.25855000","lon":"11.74615000"},{"id":30807,"name":"Neder Vindinge","native":null,"lat":"55.03211000","lon":"11.88356000"},{"id":30824,"name":"Nørre Alslev","native":null,"lat":"54.89784000","lon":"11.88414000"},{"id":30817,"name":"Nykøbing Falster","native":null,"lat":"54.76906000","lon":"11.87425000"},{"id":30819,"name":"Nykøbing Sjælland","native":null,"lat":"55.92491000","lon":"11.67109000"},{"id":30820,"name":"Nyråd","native":null,"lat":"55.00511000","lon":"11.96060000"},{"id":30831,"name":"Odsherred Kommune","native":null,"lat":"55.88333000","lon":"11.59444000"},{"id":30833,"name":"Osted","native":null,"lat":"55.56228000","lon":"11.95786000"},{"id":31001,"name":"Ørslev","native":null,"lat":"55.04356000","lon":"11.96792000"},{"id":30837,"name":"Præstø","native":null,"lat":"55.12374000","lon":"12.04477000"},{"id":30845,"name":"Ringsted","native":null,"lat":"55.44260000","lon":"11.79011000"},{"id":30846,"name":"Ringsted Kommune","native":null,"lat":"55.44721000","lon":"11.81720000"},{"id":30847,"name":"Roskilde","native":null,"lat":"55.64152000","lon":"12.08035000"},{"id":30848,"name":"Roskilde Kommune","native":null,"lat":"55.65000000","lon":"12.10000000"},{"id":30853,"name":"Rødby","native":null,"lat":"54.69495000","lon":"11.38885000"},{"id":30854,"name":"Rødbyhavn","native":null,"lat":"54.65944000","lon":"11.35504000"},{"id":30859,"name":"Rødvig","native":null,"lat":"55.25540000","lon":"12.37936000"},{"id":30862,"name":"Rønnede","native":null,"lat":"55.25710000","lon":"12.02125000"},{"id":30864,"name":"Sakskøbing","native":null,"lat":"54.79970000","lon":"11.62599000"},{"id":30879,"name":"Skælskør","native":null,"lat":"55.25058000","lon":"11.29352000"},{"id":30882,"name":"Slagelse","native":null,"lat":"55.40276000","lon":"11.35459000"},{"id":30883,"name":"Slagelse Kommune","native":null,"lat":"55.34546000","lon":"11.33390000"},{"id":30889,"name":"Solrød","native":null,"lat":"55.53628000","lon":"12.18270000"},{"id":30890,"name":"Solrød Kommune","native":null,"lat":"55.53553000","lon":"12.17337000"},{"id":30891,"name":"Solrød Strand","native":null,"lat":"55.53285000","lon":"12.22227000"},{"id":30892,"name":"Sorø","native":null,"lat":"55.43184000","lon":"11.55547000"},{"id":30893,"name":"Sorø Kommune","native":null,"lat":"55.48268000","lon":"11.55693000"},{"id":30898,"name":"Stege","native":null,"lat":"54.98704000","lon":"12.28461000"},{"id":30899,"name":"Stenlille","native":null,"lat":"55.53888000","lon":"11.59120000"},{"id":30901,"name":"Stevns Kommune","native":null,"lat":"55.33373000","lon":"12.30692000"},{"id":30905,"name":"Store Heddinge","native":null,"lat":"55.30965000","lon":"12.38885000"},{"id":30911,"name":"Strøby Egede","native":null,"lat":"55.41382000","lon":"12.24502000"},{"id":30912,"name":"Stubbekøbing","native":null,"lat":"54.88875000","lon":"12.04102000"},{"id":30914,"name":"Sundby","native":null,"lat":"54.76711000","lon":"11.84979000"},{"id":30916,"name":"Svebølle","native":null,"lat":"55.65183000","lon":"11.28658000"},{"id":30921,"name":"Svinninge","native":null,"lat":"55.72111000","lon":"11.46547000"},{"id":30922,"name":"Svogerslev","native":null,"lat":"55.63423000","lon":"12.01465000"},{"id":30949,"name":"Tølløse","native":null,"lat":"55.61250000","lon":"11.77034000"},{"id":30945,"name":"Tune","native":null,"lat":"55.59287000","lon":"12.16968000"},{"id":30974,"name":"Viby","native":null,"lat":"55.54872000","lon":"12.02391000"},{"id":30979,"name":"Vindinge","native":null,"lat":"55.62298000","lon":"12.13870000"},{"id":30980,"name":"Vipperød","native":null,"lat":"55.66768000","lon":"11.73967000"},{"id":30985,"name":"Vordingborg","native":null,"lat":"55.00801000","lon":"11.91057000"},{"id":30986,"name":"Vordingborg Kommune","native":null,"lat":"55.01383000","lon":"12.10008000"}]}]