[{"id":4082,"name":"Saint Andrew Parish","native":null,"cities":[{"id":31003,"name":"Calibishie","native":null,"lat":"15.59297000","lon":"-61.34901000"},{"id":31008,"name":"Marigot","native":null,"lat":"15.53886000","lon":"-61.28375000"},{"id":31017,"name":"Wesley","native":null,"lat":"15.56667000","lon":"-61.31667000"},{"id":31018,"name":"Woodford Hill","native":null,"lat":"15.58093000","lon":"-61.33149000"}]},{"id":4078,"name":"Saint David Parish","native":null,"cities":[{"id":31004,"name":"Castle Bruce","native":null,"lat":"15.44397000","lon":"-61.25723000"},{"id":31012,"name":"Rosalie","native":null,"lat":"15.36667000","lon":"-61.26667000"}]},{"id":4079,"name":"Saint George Parish","native":null,"cities":[{"id":31013,"name":"Roseau","native":null,"lat":"15.30174000","lon":"-61.38808000"}]},{"id":4076,"name":"Saint John Parish","native":null,"cities":[{"id":31011,"name":"Portsmouth","native":null,"lat":"15.58333000","lon":"-61.46667000"}]},{"id":4085,"name":"Saint Joseph Parish","native":null,"cities":[{"id":31014,"name":"Saint Joseph","native":null,"lat":"15.40000000","lon":"-61.43333000"},{"id":31015,"name":"Salisbury","native":null,"lat":"15.43689000","lon":"-61.43637000"}]},{"id":4083,"name":"Saint Luke Parish","native":null,"cities":[{"id":31009,"name":"Pointe Michel","native":null,"lat":"15.25976000","lon":"-61.37452000"}]},{"id":4077,"name":"Saint Mark Parish","native":null,"cities":[{"id":31016,"name":"Soufrière","native":null,"lat":"15.23374000","lon":"-61.35881000"}]},{"id":4080,"name":"Saint Patrick Parish","native":null,"cities":[{"id":31002,"name":"Berekua","native":null,"lat":"15.23333000","lon":"-61.31667000"},{"id":31006,"name":"La Plaine","native":null,"lat":"15.32768000","lon":"-61.24753000"}]},{"id":4084,"name":"Saint Paul Parish","native":null,"cities":[{"id":31007,"name":"Mahaut","native":null,"lat":"15.36357000","lon":"-61.39701000"},{"id":31010,"name":"Pont Cassé","native":null,"lat":"15.36667000","lon":"-61.35000000"}]},{"id":4081,"name":"Saint Peter Parish","native":null,"cities":[{"id":31005,"name":"Colihaut","native":null,"lat":"15.48478000","lon":"-61.46215000"}]}]