[{"name":"Saint Andrew Parish","native":null,"cities":[{"name":"Calibishie","native":null,"lat":"15.59297000","lon":"-61.34901000"},{"name":"Marigot","native":null,"lat":"15.53886000","lon":"-61.28375000"},{"name":"Wesley","native":null,"lat":"15.56667000","lon":"-61.31667000"},{"name":"Woodford Hill","native":null,"lat":"15.58093000","lon":"-61.33149000"}]},{"name":"Saint David Parish","native":null,"cities":[{"name":"Castle Bruce","native":null,"lat":"15.44397000","lon":"-61.25723000"},{"name":"Rosalie","native":null,"lat":"15.36667000","lon":"-61.26667000"}]},{"name":"Saint George Parish","native":null,"cities":[{"name":"Roseau","native":null,"lat":"15.30174000","lon":"-61.38808000"}]},{"name":"Saint John Parish","native":null,"cities":[{"name":"Portsmouth","native":null,"lat":"15.58333000","lon":"-61.46667000"}]},{"name":"Saint Joseph Parish","native":null,"cities":[{"name":"Saint Joseph","native":null,"lat":"15.40000000","lon":"-61.43333000"},{"name":"Salisbury","native":null,"lat":"15.43689000","lon":"-61.43637000"}]},{"name":"Saint Luke Parish","native":null,"cities":[{"name":"Pointe Michel","native":null,"lat":"15.25976000","lon":"-61.37452000"}]},{"name":"Saint Mark Parish","native":null,"cities":[{"name":"Soufrière","native":null,"lat":"15.23374000","lon":"-61.35881000"}]},{"name":"Saint Patrick Parish","native":null,"cities":[{"name":"Berekua","native":null,"lat":"15.23333000","lon":"-61.31667000"},{"name":"La Plaine","native":null,"lat":"15.32768000","lon":"-61.24753000"}]},{"name":"Saint Paul Parish","native":null,"cities":[{"name":"Mahaut","native":null,"lat":"15.36357000","lon":"-61.39701000"},{"name":"Pont Cassé","native":null,"lat":"15.36667000","lon":"-61.35000000"}]},{"name":"Saint Peter Parish","native":null,"cities":[{"name":"Colihaut","native":null,"lat":"15.48478000","lon":"-61.46215000"}]}]