[{"id":1118,"name":"Adrar","native":null,"cities":[{"id":31227,"name":"Adrar","native":null,"lat":"27.87429000","lon":"-0.29388000"},{"id":31234,"name":"Aoulef","native":null,"lat":"26.96667000","lon":"1.08333000"},{"id":31406,"name":"Reggane","native":null,"lat":"26.71576000","lon":"0.17140000"},{"id":31450,"name":"Timimoun","native":null,"lat":"29.26388000","lon":"0.23098000"}]},{"id":1119,"name":"Aïn Defla","native":null,"cities":[{"id":31243,"name":"Aïn Defla","native":null,"lat":"36.26405000","lon":"1.96790000"},{"id":31325,"name":"El Abadia","native":null,"lat":"36.26951000","lon":"1.68609000"},{"id":31331,"name":"El Attaf","native":null,"lat":"36.22393000","lon":"1.67187000"},{"id":31361,"name":"Khemis Miliana","native":null,"lat":"36.26104000","lon":"2.22015000"},{"id":31448,"name":"Theniet el Had","native":null,"lat":"35.87111000","lon":"2.02806000"}]},{"id":1122,"name":"Aïn Témouchent","native":null,"cities":[{"id":31250,"name":"Aïn Temouchent","native":null,"lat":"35.29749000","lon":"-1.14037000"},{"id":31265,"name":"Beni Saf","native":null,"lat":"35.30099000","lon":"-1.38226000"},{"id":31329,"name":"El Amria","native":null,"lat":"35.52439000","lon":"-1.01577000"},{"id":31340,"name":"El Malah","native":null,"lat":"35.39137000","lon":"-1.09238000"},{"id":31351,"name":"Hammam Bou Hadjar","native":null,"lat":"35.37889000","lon":"-0.96778000"}]},{"id":1144,"name":"Algiers","native":null,"cities":[{"id":31249,"name":"Aïn Taya","native":null,"lat":"36.79333000","lon":"3.28694000"},{"id":31230,"name":"Algiers","native":null,"lat":"36.73225000","lon":"3.08746000"},{"id":31254,"name":"Bab Ezzouar","native":null,"lat":"36.72615000","lon":"3.18291000"},{"id":31274,"name":"Birkhadem","native":null,"lat":"36.71499000","lon":"3.05002000"},{"id":31281,"name":"Bordj el Kiffan","native":null,"lat":"36.74871000","lon":"3.19249000"},{"id":31312,"name":"Dar el Beïda","native":null,"lat":"36.71333000","lon":"3.21250000"},{"id":31413,"name":"Rouiba","native":null,"lat":"36.73829000","lon":"3.28079000"}]},{"id":1103,"name":"Annaba","native":null,"cities":[{"id":31233,"name":"Annaba","native":null,"lat":"36.90000000","lon":"7.76667000"},{"id":31267,"name":"Berrahal","native":null,"lat":"36.83528000","lon":"7.45333000"},{"id":31323,"name":"Drean","native":null,"lat":"36.68482000","lon":"7.75111000"},{"id":31334,"name":"El Hadjar","native":null,"lat":"36.80377000","lon":"7.73684000"}]},{"id":1142,"name":"Batna","native":null,"cities":[{"id":31251,"name":"Aïn Touta","native":null,"lat":"35.37675000","lon":"5.90001000"},{"id":31237,"name":"Arris","native":null,"lat":"35.25881000","lon":"6.34706000"},{"id":31257,"name":"Barika","native":null,"lat":"35.38901000","lon":"5.36584000"},{"id":31258,"name":"Batna","native":null,"lat":"35.55597000","lon":"6.17414000"},{"id":31292,"name":"Boumagueur","native":null,"lat":"35.50520000","lon":"5.55250000"},{"id":31382,"name":"Merouana","native":null,"lat":"35.63106000","lon":"5.91186000"},{"id":31415,"name":"Râs el Aïoun","native":null,"lat":"35.67384000","lon":"5.64530000"},{"id":31444,"name":"Tazoult-Lambese","native":null,"lat":"35.48171000","lon":"6.26074000"}]},{"id":1108,"name":"Béchar","native":null,"cities":[{"id":31298,"name":"Béchar","native":null,"lat":"31.61667000","lon":"-2.21667000"}]},{"id":1128,"name":"Béjaïa","native":null,"cities":[{"id":31229,"name":"Akbou","native":null,"lat":"36.45750000","lon":"4.53494000"},{"id":31231,"name":"Amizour","native":null,"lat":"36.64022000","lon":"4.90131000"},{"id":31256,"name":"Barbacha","native":null,"lat":"36.56667000","lon":"4.96667000"},{"id":31259,"name":"Bejaïa","native":null,"lat":"36.75587000","lon":"5.08433000"},{"id":31467,"name":"el hed","native":null,"lat":"36.65000000","lon":"4.77361000"},{"id":31339,"name":"El Kseur","native":null,"lat":"36.67942000","lon":"4.85550000"},{"id":31344,"name":"Feraoun","native":null,"lat":"36.56041000","lon":"4.85454000"},{"id":31421,"name":"Seddouk","native":null,"lat":"36.54722000","lon":"4.68611000"}]},{"id":4909,"name":"Béni Abbès","native":null,"cities":[]},{"id":1114,"name":"Biskra","native":null,"cities":[{"id":31275,"name":"Biskra","native":null,"lat":"34.85038000","lon":"5.72805000"},{"id":31405,"name":"Oumache","native":null,"lat":"34.69292000","lon":"5.68092000"},{"id":31427,"name":"Sidi Khaled","native":null,"lat":"34.38700000","lon":"4.98785000"},{"id":31430,"name":"Sidi Okba","native":null,"lat":"34.74512000","lon":"5.89833000"},{"id":31461,"name":"Tolga","native":null,"lat":"34.72224000","lon":"5.37845000"},{"id":31466,"name":"Zeribet el Oued","native":null,"lat":"34.68284000","lon":"6.51109000"}]},{"id":1111,"name":"Blida","native":null,"cities":[{"id":31263,"name":"Beni Mered","native":null,"lat":"36.52389000","lon":"2.86131000"},{"id":31276,"name":"Blida","native":null,"lat":"36.47004000","lon":"2.82770000"},{"id":31296,"name":"Boû Arfa","native":null,"lat":"36.46298000","lon":"2.81464000"},{"id":31287,"name":"Boufarik","native":null,"lat":"36.57413000","lon":"2.91214000"},{"id":31289,"name":"Bougara","native":null,"lat":"36.54178000","lon":"3.08100000"},{"id":31290,"name":"Bouinan","native":null,"lat":"36.53167000","lon":"2.99194000"},{"id":31301,"name":"Chebli","native":null,"lat":"36.57722000","lon":"3.00917000"},{"id":31307,"name":"Chiffa","native":null,"lat":"36.46293000","lon":"2.73873000"},{"id":31369,"name":"Larbaâ","native":null,"lat":"36.56471000","lon":"3.15434000"},{"id":31377,"name":"Meftah","native":null,"lat":"36.62040000","lon":"3.22248000"},{"id":31428,"name":"Sidi Moussa","native":null,"lat":"36.60637000","lon":"3.08783000"},{"id":31438,"name":"Souma","native":null,"lat":"36.51833000","lon":"2.90528000"}]},{"id":4908,"name":"Bordj Baji Mokhtar","native":null,"cities":[]},{"id":1116,"name":"Bordj Bou Arréridj","native":null,"cities":[{"id":31278,"name":"Bordj Bou Arreridj","native":null,"lat":"36.07321000","lon":"4.76108000"},{"id":31279,"name":"Bordj Ghdir","native":null,"lat":"35.90111000","lon":"4.89806000"},{"id":31280,"name":"Bordj Zemoura","native":null,"lat":"36.27462000","lon":"4.85668000"},{"id":31327,"name":"El Achir","native":null,"lat":"36.06386000","lon":"4.62744000"},{"id":31373,"name":"Mansourah","native":null,"lat":"36.08725000","lon":"4.45192000"},{"id":31381,"name":"Melouza","native":null,"lat":"35.97999000","lon":"4.18665000"},{"id":31416,"name":"Râs el Oued","native":null,"lat":"35.94410000","lon":"5.03107000"}]},{"id":1104,"name":"Bouïra","native":null,"cities":[{"id":31241,"name":"Aïn Bessem","native":null,"lat":"36.29333000","lon":"3.67319000"},{"id":31295,"name":"Bouïra","native":null,"lat":"36.37489000","lon":"3.90200000"},{"id":31309,"name":"Chorfa","native":null,"lat":"36.36505000","lon":"4.32636000"},{"id":31322,"name":"Draa el Mizan","native":null,"lat":"36.53628000","lon":"3.83340000"},{"id":31368,"name":"Lakhdaria","native":null,"lat":"36.56463000","lon":"3.59330000"},{"id":31439,"name":"Sour el Ghozlane","native":null,"lat":"36.14766000","lon":"3.69123000"}]},{"id":1125,"name":"Boumerdès","native":null,"cities":[{"id":31235,"name":"Arbatache","native":null,"lat":"36.63773000","lon":"3.37127000"},{"id":31261,"name":"Beni Amrane","native":null,"lat":"36.66774000","lon":"3.59115000"},{"id":31286,"name":"Boudouaou","native":null,"lat":"36.72735000","lon":"3.40995000"},{"id":31294,"name":"Boumerdas","native":null,"lat":"36.76639000","lon":"3.47717000"},{"id":31299,"name":"Chabet el Ameur","native":null,"lat":"36.63709000","lon":"3.69474000"},{"id":31314,"name":"Dellys","native":null,"lat":"36.91716000","lon":"3.91311000"},{"id":31362,"name":"Khemis el Khechna","native":null,"lat":"36.64997000","lon":"3.33080000"},{"id":31372,"name":"Makouda","native":null,"lat":"36.78567000","lon":"4.06273000"},{"id":31393,"name":"Naciria","native":null,"lat":"36.74625000","lon":"3.83163000"},{"id":31403,"name":"Ouled Moussa","native":null,"lat":"36.68394000","lon":"3.36661000"},{"id":31407,"name":"Reghaïa","native":null,"lat":"36.73587000","lon":"3.34018000"},{"id":31441,"name":"Tadmaït","native":null,"lat":"36.74413000","lon":"3.90045000"},{"id":31447,"name":"Thenia","native":null,"lat":"36.72544000","lon":"3.55665000"},{"id":31456,"name":"Tizi Gheniff","native":null,"lat":"36.58839000","lon":"3.77445000"}]},{"id":1105,"name":"Chlef","native":null,"cities":[{"id":31226,"name":"Abou el Hassan","native":null,"lat":"36.41657000","lon":"1.19616000"},{"id":31291,"name":"Boukadir","native":null,"lat":"36.06629000","lon":"1.12602000"},{"id":31308,"name":"Chlef","native":null,"lat":"36.16525000","lon":"1.33452000"},{"id":31324,"name":"Ech Chettia","native":null,"lat":"36.19591000","lon":"1.25537000"},{"id":31397,"name":"Oued Fodda","native":null,"lat":"36.18503000","lon":"1.53299000"},{"id":31399,"name":"Oued Sly","native":null,"lat":"36.10124000","lon":"1.19949000"},{"id":31424,"name":"Sidi Akkacha","native":null,"lat":"36.46472000","lon":"1.30258000"}]},{"id":1121,"name":"Constantine","native":null,"cities":[{"id":31469,"name":"’Aïn Abid","native":null,"lat":"36.23194000","lon":"6.94333000"},{"id":31248,"name":"Aïn Smara","native":null,"lat":"36.26740000","lon":"6.50135000"},{"id":31310,"name":"Constantine","native":null,"lat":"36.36500000","lon":"6.61472000"},{"id":31315,"name":"Didouche Mourad","native":null,"lat":"36.45250000","lon":"6.63639000"},{"id":31338,"name":"El Khroub","native":null,"lat":"36.26333000","lon":"6.69361000"},{"id":31350,"name":"Hamma Bouziane","native":null,"lat":"36.41205000","lon":"6.59603000"}]},{"id":4912,"name":"Djanet","native":null,"cities":[]},{"id":1098,"name":"Djelfa","native":null,"cities":[{"id":31474,"name":"’Aïn el Bell","native":null,"lat":"34.34381000","lon":"3.22475000"},{"id":31246,"name":"Aïn Oussera","native":null,"lat":"35.45139000","lon":"2.90583000"},{"id":31273,"name":"Birine","native":null,"lat":"35.63500000","lon":"3.22500000"},{"id":31300,"name":"Charef","native":null,"lat":"34.62098000","lon":"2.79503000"},{"id":31311,"name":"Dar Chioukh","native":null,"lat":"34.89638000","lon":"3.48543000"},{"id":31318,"name":"Djelfa","native":null,"lat":"34.67279000","lon":"3.26300000"},{"id":31336,"name":"El Idrissia","native":null,"lat":"34.44542000","lon":"2.52749000"},{"id":31385,"name":"Messaad","native":null,"lat":"34.15429000","lon":"3.50309000"}]},{"id":1129,"name":"El Bayadh","native":null,"cities":[{"id":31297,"name":"Brezina","native":null,"lat":"33.09892000","lon":"1.26082000"},{"id":31326,"name":"El Abiodh Sidi Cheikh","native":null,"lat":"32.89300000","lon":"0.54839000"},{"id":31332,"name":"El Bayadh","native":null,"lat":"33.68318000","lon":"1.01927000"}]},{"id":4905,"name":"El M'ghair","native":null,"cities":[]},{"id":4906,"name":"El Menia","native":null,"cities":[]},{"id":1099,"name":"El Oued","native":null,"cities":[{"id":31313,"name":"Debila","native":null,"lat":"33.51667000","lon":"6.95000000"},{"id":31341,"name":"El Oued","native":null,"lat":"33.35608000","lon":"6.86319000"},{"id":31408,"name":"Reguiba","native":null,"lat":"33.56391000","lon":"6.70326000"},{"id":31411,"name":"Robbah","native":null,"lat":"33.27967000","lon":"6.90984000"}]},{"id":1100,"name":"El Tarf","native":null,"cities":[{"id":31260,"name":"Ben Mehidi","native":null,"lat":"36.76967000","lon":"7.90641000"},{"id":31270,"name":"Besbes","native":null,"lat":"36.70222000","lon":"7.84722000"},{"id":31337,"name":"El Kala","native":null,"lat":"36.89556000","lon":"8.44333000"},{"id":31342,"name":"El Tarf","native":null,"lat":"36.76720000","lon":"8.31377000"}]},{"id":1127,"name":"Ghardaïa","native":null,"cities":[{"id":31268,"name":"Berriane","native":null,"lat":"32.82648000","lon":"3.76689000"},{"id":31347,"name":"Ghardaïa","native":null,"lat":"32.49094000","lon":"3.67347000"},{"id":31386,"name":"Metlili Chaamba","native":null,"lat":"32.26667000","lon":"3.63333000"}]},{"id":1137,"name":"Guelma","native":null,"cities":[{"id":31293,"name":"Boumahra Ahmed","native":null,"lat":"36.45833000","lon":"7.51389000"},{"id":31348,"name":"Guelma","native":null,"lat":"36.46214000","lon":"7.42608000"},{"id":31355,"name":"Héliopolis","native":null,"lat":"36.50361000","lon":"7.44278000"}]},{"id":1112,"name":"Illizi","native":null,"cities":[{"id":31358,"name":"Illizi","native":null,"lat":"26.48333000","lon":"8.46667000"}]},{"id":4914,"name":"In Guezzam","native":null,"cities":[]},{"id":4913,"name":"In Salah","native":null,"cities":[]},{"id":1113,"name":"Jijel","native":null,"cities":[{"id":31359,"name":"Jijel","native":null,"lat":"36.82055000","lon":"5.76671000"}]},{"id":1126,"name":"Khenchela","native":null,"cities":[{"id":31363,"name":"Khenchela","native":null,"lat":"35.43583000","lon":"7.14333000"}]},{"id":1138,"name":"Laghouat","native":null,"cities":[{"id":31228,"name":"Aflou","native":null,"lat":"34.11279000","lon":"2.10228000"},{"id":31367,"name":"Laghouat","native":null,"lat":"33.80000000","lon":"2.86514000"}]},{"id":1134,"name":"M'Sila","native":null,"cities":[{"id":31468,"name":"‘Aïn el Hadjel","native":null,"lat":"35.67003000","lon":"3.88153000"},{"id":31477,"name":"’Aïn el Melh","native":null,"lat":"34.84146000","lon":"4.16383000"},{"id":31391,"name":"M’Sila","native":null,"lat":"35.70583000","lon":"4.54194000"},{"id":31426,"name":"Sidi Aïssa","native":null,"lat":"35.88548000","lon":"3.77236000"}]},{"id":1124,"name":"Mascara","native":null,"cities":[{"id":31282,"name":"Bou Hanifia el Hamamat","native":null,"lat":"35.31473000","lon":"-0.05037000"},{"id":31375,"name":"Mascara","native":null,"lat":"35.39664000","lon":"0.14027000"},{"id":31400,"name":"Oued el Abtal","native":null,"lat":"35.45595000","lon":"0.68778000"},{"id":31433,"name":"Sig","native":null,"lat":"35.52832000","lon":"-0.19369000"}]},{"id":1109,"name":"Médéa","native":null,"cities":[{"id":31471,"name":"’Aïn Boucif","native":null,"lat":"35.89123000","lon":"3.15850000"},{"id":31269,"name":"Berrouaghia","native":null,"lat":"36.13516000","lon":"2.91085000"},{"id":31366,"name":"Ksar el Boukhari","native":null,"lat":"35.88889000","lon":"2.74905000"},{"id":31390,"name":"Médéa","native":null,"lat":"36.26417000","lon":"2.75393000"}]},{"id":1132,"name":"Mila","native":null,"cities":[{"id":31302,"name":"Chelghoum el Aïd","native":null,"lat":"36.16286000","lon":"6.16651000"},{"id":31387,"name":"Mila","native":null,"lat":"36.45028000","lon":"6.26444000"},{"id":31412,"name":"Rouached","native":null,"lat":"36.45774000","lon":"6.04267000"},{"id":31429,"name":"Sidi Mérouane","native":null,"lat":"36.52056000","lon":"6.26111000"},{"id":31446,"name":"Telerghma","native":null,"lat":"36.11653000","lon":"6.35434000"}]},{"id":1140,"name":"Mostaganem","native":null,"cities":[{"id":31388,"name":"Mostaganem","native":null,"lat":"35.93115000","lon":"0.08918000"}]},{"id":1102,"name":"Naama","native":null,"cities":[{"id":31247,"name":"Aïn Sefra","native":null,"lat":"32.75000000","lon":"-0.58333000"},{"id":31392,"name":"Naama","native":null,"lat":"33.26667000","lon":"-0.31667000"}]},{"id":1101,"name":"Oran","native":null,"cities":[{"id":31478,"name":"’Aïn el Turk","native":null,"lat":"35.74381000","lon":"-0.76930000"},{"id":31252,"name":"Aïn el Bya","native":null,"lat":"35.80389000","lon":"-0.30178000"},{"id":31272,"name":"Bir el Djir","native":null,"lat":"35.72000000","lon":"-0.54500000"},{"id":31284,"name":"Bou Tlelis","native":null,"lat":"35.57272000","lon":"-0.89960000"},{"id":31343,"name":"Es Senia","native":null,"lat":"35.64779000","lon":"-0.62397000"},{"id":31383,"name":"Mers el Kebir","native":null,"lat":"35.72790000","lon":"-0.70810000"},{"id":31395,"name":"Oran","native":null,"lat":"35.69906000","lon":"-0.63588000"},{"id":31432,"name":"Sidi ech Chahmi","native":null,"lat":"35.65903000","lon":"-0.52168000"}]},{"id":1139,"name":"Ouargla","native":null,"cities":[{"id":31316,"name":"Djamaa","native":null,"lat":"33.53388000","lon":"5.99306000"},{"id":31335,"name":"El Hadjira","native":null,"lat":"32.61336000","lon":"5.51259000"},{"id":31353,"name":"Hassi Messaoud","native":null,"lat":"31.68041000","lon":"6.07286000"},{"id":31378,"name":"Megarine","native":null,"lat":"33.19195000","lon":"6.08695000"},{"id":31396,"name":"Ouargla","native":null,"lat":"31.94932000","lon":"5.32502000"},{"id":31414,"name":"Rouissat","native":null,"lat":"31.92427000","lon":"5.35018000"},{"id":31425,"name":"Sidi Amrane","native":null,"lat":"33.49885000","lon":"6.00803000"},{"id":31445,"name":"Tebesbest","native":null,"lat":"33.11667000","lon":"6.08333000"},{"id":31462,"name":"Touggourt","native":null,"lat":"33.10527000","lon":"6.05796000"}]},{"id":4907,"name":"Ouled Djellal","native":null,"cities":[]},{"id":1136,"name":"Oum El Bouaghi","native":null,"cities":[{"id":31242,"name":"Aïn Beïda","native":null,"lat":"35.79639000","lon":"7.39278000"},{"id":31244,"name":"Aïn Fakroun","native":null,"lat":"35.97108000","lon":"6.87374000"},{"id":31245,"name":"Aïn Kercha","native":null,"lat":"35.92472000","lon":"6.69528000"},{"id":31330,"name":"El Aouinet","native":null,"lat":"35.86691000","lon":"7.88673000"},{"id":31384,"name":"Meskiana","native":null,"lat":"35.63058000","lon":"7.66606000"},{"id":31404,"name":"Oum el Bouaghi","native":null,"lat":"35.87541000","lon":"7.11353000"}]},{"id":1130,"name":"Relizane","native":null,"cities":[{"id":31473,"name":"’Aïn Merane","native":null,"lat":"36.16277000","lon":"0.97037000"},{"id":31232,"name":"Ammi Moussa","native":null,"lat":"35.86781000","lon":"1.11143000"},{"id":31319,"name":"Djidiouia","native":null,"lat":"35.92989000","lon":"0.82871000"},{"id":31376,"name":"Mazouna","native":null,"lat":"36.12232000","lon":"0.89865000"},{"id":31398,"name":"Oued Rhiou","native":null,"lat":"35.96124000","lon":"0.91896000"},{"id":31409,"name":"Relizane","native":null,"lat":"35.73734000","lon":"0.55599000"},{"id":31435,"name":"Smala","native":null,"lat":"35.71652000","lon":"0.75437000"},{"id":31464,"name":"Zemoura","native":null,"lat":"35.72251000","lon":"0.75509000"}]},{"id":1123,"name":"Saïda","native":null,"cities":[{"id":31475,"name":"’Aïn el Hadjar","native":null,"lat":"34.75846000","lon":"0.14528000"},{"id":31419,"name":"Saïda","native":null,"lat":"34.83033000","lon":"0.15171000"}]},{"id":1141,"name":"Sétif","native":null,"cities":[{"id":31240,"name":"Aïn Arnat","native":null,"lat":"36.18683000","lon":"5.31347000"},{"id":31253,"name":"BABOR - VILLE","native":null,"lat":"36.48994000","lon":"5.53930000"},{"id":31288,"name":"Bougaa","native":null,"lat":"36.33293000","lon":"5.08843000"},{"id":31333,"name":"El Eulma","native":null,"lat":"36.15281000","lon":"5.69016000"},{"id":31417,"name":"Salah Bey","native":null,"lat":"35.85451000","lon":"5.29053000"},{"id":31440,"name":"Sétif","native":null,"lat":"36.19112000","lon":"5.41373000"}]},{"id":4902,"name":"Sidi Bel Abbès","native":null,"cities":[{"id":146185,"name":"Aïn El Berd District","native":null,"lat":"35.35000000","lon":"-0.51667000"},{"id":146186,"name":"Balidat Ameur","native":null,"lat":"32.95138900","lon":"5.98055600"},{"id":146187,"name":"Belarbi","native":null,"lat":"35.15149480","lon":"-0.45679090"},{"id":146188,"name":"Ben Badis Sid Bel Abbés","native":null,"lat":"34.95277778","lon":"-0.91444444"},{"id":146189,"name":"Djamaa","native":null,"lat":"33.53137870","lon":"5.99098210"},{"id":146190,"name":"El Bour","native":null,"lat":"32.16305556","lon":"5.34527778"},{"id":146191,"name":"El Hadjira","native":null,"lat":"32.61666667","lon":"5.51666667"},{"id":146192,"name":"Haoud El Hamra","native":null,"lat":"31.88944444","lon":"5.97305556"},{"id":146193,"name":"Hassi Messaoud","native":null,"lat":"31.70000000","lon":"6.06666667"},{"id":146194,"name":"Lamtar","native":null,"lat":"35.07062700","lon":"-0.79814000"},{"id":146195,"name":"Marhoum","native":null,"lat":"34.44600420","lon":"-0.19502440"},{"id":146196,"name":"Megarine","native":null,"lat":"33.19262320","lon":"6.09346390"},{"id":146197,"name":"Merine","native":null,"lat":"34.78074720","lon":"-0.45104030"},{"id":146198,"name":"Mezaourou","native":null,"lat":"34.81732670","lon":"-0.62331890"},{"id":146199,"name":"Moggar","native":null,"lat":"33.26722222","lon":"6.06777778"},{"id":146200,"name":"Moulay Slissen","native":null,"lat":"34.81666667","lon":"-0.76666667"},{"id":146201,"name":"N'Goussa","native":null,"lat":"32.14087970","lon":"5.30828480"},{"id":146202,"name":"Ouargla","native":null,"lat":"31.95000000","lon":"5.31666667"},{"id":146203,"name":"Rouissat","native":null,"lat":"31.93657600","lon":"5.33540730"},{"id":146204,"name":"Sfissef","native":null,"lat":"35.23440280","lon":"-0.24341580"},{"id":146205,"name":"Sidi Ali Boussidi","native":null,"lat":"35.10000000","lon":"-0.83333333"},{"id":146206,"name":"Sidi Amrane","native":null,"lat":"33.50000000","lon":"6.01666667"},{"id":146207,"name":"Sidi Bel Abbès","native":null,"lat":"35.20000000","lon":"-0.63333333"},{"id":146208,"name":"Sidi Brahim","native":null,"lat":"35.26055600","lon":"-0.56750000"},{"id":146209,"name":"Sidi Hamadouche","native":null,"lat":"35.29916667","lon":"-0.54888889"},{"id":146210,"name":"Sidi Slimane","native":null,"lat":"33.28861111","lon":"6.09472222"},{"id":146211,"name":"Sidi Yacoub","native":null,"lat":"35.13333333","lon":"-0.78333333"},{"id":146212,"name":"Sidi Yahia","native":null,"lat":"33.52166667","lon":"5.94555556"},{"id":146213,"name":"Tabia Sid Bel Abbés","native":null,"lat":"35.01783660","lon":"-0.73385240"},{"id":146214,"name":"Taibet","native":null,"lat":"33.08391890","lon":"6.39996530"},{"id":146215,"name":"Tamellaht","native":null,"lat":"33.01190000","lon":"6.00972000"},{"id":146216,"name":"Tamerna Djedida","native":null,"lat":"33.44640000","lon":"5.95639000"},{"id":146217,"name":"Tebesbest","native":null,"lat":"33.12001290","lon":"6.08007430"},{"id":146218,"name":"Teghalimet","native":null,"lat":"34.88283300","lon":"-0.56000230"},{"id":146219,"name":"Telagh","native":null,"lat":"34.78490640","lon":"-0.57317730"},{"id":146220,"name":"Tenezara","native":null,"lat":"34.96341170","lon":"-0.61446190"},{"id":146221,"name":"Tenira","native":null,"lat":"35.01966420","lon":"-0.53206440"},{"id":146222,"name":"Tessala","native":null,"lat":"35.24300000","lon":"-0.77316300"},{"id":146223,"name":"Touggourt","native":null,"lat":"33.10000000","lon":"6.06666667"},{"id":146224,"name":"Zerouala","native":null,"lat":"35.24232450","lon":"-0.52219390"}]},{"id":1110,"name":"Skikda","native":null,"cities":[{"id":31239,"name":"Azzaba","native":null,"lat":"36.73944000","lon":"7.10528000"},{"id":31360,"name":"Karkira","native":null,"lat":"36.92917000","lon":"6.58556000"},{"id":31434,"name":"Skikda","native":null,"lat":"36.87617000","lon":"6.90921000"},{"id":31442,"name":"Tamalous","native":null,"lat":"36.83763000","lon":"6.64018000"}]},{"id":1143,"name":"Souk Ahras","native":null,"cities":[{"id":31422,"name":"Sedrata","native":null,"lat":"36.12868000","lon":"7.53376000"},{"id":31437,"name":"Souk Ahras","native":null,"lat":"36.28639000","lon":"7.95111000"}]},{"id":1135,"name":"Tamanghasset","native":null,"cities":[{"id":31356,"name":"I-n-Salah","native":null,"lat":"27.19351000","lon":"2.46069000"},{"id":31443,"name":"Tamanrasset","native":null,"lat":"22.78500000","lon":"5.52278000"}]},{"id":1117,"name":"Tébessa","native":null,"cities":[{"id":31271,"name":"Bir el Ater","native":null,"lat":"34.74488000","lon":"8.06024000"},{"id":31305,"name":"Cheria","native":null,"lat":"35.27306000","lon":"7.75194000"},{"id":31352,"name":"Hammamet","native":null,"lat":"35.44862000","lon":"7.95184000"},{"id":31463,"name":"Tébessa","native":null,"lat":"35.40417000","lon":"8.12417000"}]},{"id":1106,"name":"Tiaret","native":null,"cities":[{"id":31472,"name":"’Aïn Deheb","native":null,"lat":"34.84218000","lon":"1.54697000"},{"id":31317,"name":"Djebilet Rosfa","native":null,"lat":"34.86375000","lon":"0.83496000"},{"id":31346,"name":"Frenda","native":null,"lat":"35.06544000","lon":"1.04945000"},{"id":31365,"name":"Ksar Chellala","native":null,"lat":"35.21222000","lon":"2.31889000"},{"id":31379,"name":"Mehdia daira de meghila","native":null,"lat":"35.43058000","lon":"1.75714000"},{"id":31436,"name":"Sougueur","native":null,"lat":"35.18568000","lon":"1.49612000"},{"id":31449,"name":"Tiaret","native":null,"lat":"35.37103000","lon":"1.31699000"}]},{"id":4910,"name":"Timimoun","native":null,"cities":[]},{"id":1120,"name":"Tindouf","native":null,"cities":[{"id":31452,"name":"Tindouf","native":null,"lat":"27.67111000","lon":"-8.14743000"}]},{"id":1115,"name":"Tipasa","native":null,"cities":[{"id":31470,"name":"’Aïn Benian","native":null,"lat":"36.80277000","lon":"2.92185000"},{"id":31255,"name":"Baraki","native":null,"lat":"36.66655000","lon":"3.09606000"},{"id":31283,"name":"Bou Ismaïl","native":null,"lat":"36.64262000","lon":"2.69007000"},{"id":31304,"name":"Cheraga","native":null,"lat":"36.76775000","lon":"2.95924000"},{"id":31320,"name":"Douera","native":null,"lat":"36.67000000","lon":"2.94444000"},{"id":31328,"name":"El Affroun","native":null,"lat":"36.47010000","lon":"2.62528000"},{"id":31349,"name":"Hadjout","native":null,"lat":"36.51257000","lon":"2.41382000"},{"id":31364,"name":"Kolea","native":null,"lat":"36.63888000","lon":"2.76845000"},{"id":31389,"name":"Mouzaïa","native":null,"lat":"36.46695000","lon":"2.68991000"},{"id":31401,"name":"Oued el Alleug","native":null,"lat":"36.55528000","lon":"2.79028000"},{"id":31418,"name":"Saoula","native":null,"lat":"36.70456000","lon":"3.02462000"},{"id":31453,"name":"Tipasa","native":null,"lat":"36.58972000","lon":"2.44750000"},{"id":31465,"name":"Zeralda","native":null,"lat":"36.71169000","lon":"2.84244000"}]},{"id":1133,"name":"Tissemsilt","native":null,"cities":[{"id":31370,"name":"Lardjem","native":null,"lat":"35.74922000","lon":"1.54778000"},{"id":31455,"name":"Tissemsilt","native":null,"lat":"35.60722000","lon":"1.81081000"}]},{"id":1131,"name":"Tizi Ouzou","native":null,"cities":[{"id":31476,"name":"’Aïn el Hammam","native":null,"lat":"36.56471000","lon":"4.30619000"},{"id":31236,"name":"Arhribs","native":null,"lat":"36.79361000","lon":"4.31158000"},{"id":31238,"name":"Azazga","native":null,"lat":"36.74472000","lon":"4.37222000"},{"id":31262,"name":"Beni Douala","native":null,"lat":"36.61954000","lon":"4.08282000"},{"id":31277,"name":"Boghni","native":null,"lat":"36.54222000","lon":"3.95306000"},{"id":31285,"name":"Boudjima","native":null,"lat":"36.80218000","lon":"4.15187000"},{"id":31303,"name":"Chemini","native":null,"lat":"36.60000000","lon":"4.61667000"},{"id":31321,"name":"Draa Ben Khedda","native":null,"lat":"36.73436000","lon":"3.96223000"},{"id":31345,"name":"Freha","native":null,"lat":"36.75234000","lon":"4.31550000"},{"id":31357,"name":"Ighram","native":null,"lat":"36.46295000","lon":"4.50532000"},{"id":31371,"name":"L’Arbaa Naït Irathen","native":null,"lat":"36.63112000","lon":"4.19864000"},{"id":31380,"name":"Mekla","native":null,"lat":"36.68178000","lon":"4.26378000"},{"id":31451,"name":"Timizart","native":null,"lat":"36.80000000","lon":"4.26667000"},{"id":31454,"name":"Tirmitine","native":null,"lat":"36.65393000","lon":"3.98143000"},{"id":31457,"name":"Tizi Ouzou","native":null,"lat":"36.71182000","lon":"4.04591000"},{"id":31458,"name":"Tizi Rached","native":null,"lat":"36.67176000","lon":"4.19176000"},{"id":31459,"name":"Tizi-n-Tleta","native":null,"lat":"36.54569000","lon":"4.05712000"}]},{"id":1107,"name":"Tlemcen","native":null,"cities":[{"id":31264,"name":"Beni Mester","native":null,"lat":"34.87045000","lon":"-1.42319000"},{"id":31266,"name":"Bensekrane","native":null,"lat":"35.07465000","lon":"-1.22431000"},{"id":31306,"name":"Chetouane","native":null,"lat":"34.92129000","lon":"-1.29512000"},{"id":31354,"name":"Hennaya","native":null,"lat":"34.95139000","lon":"-1.36806000"},{"id":31374,"name":"Mansoûra","native":null,"lat":"34.86158000","lon":"-1.33935000"},{"id":31394,"name":"Nedroma","native":null,"lat":"35.01361000","lon":"-1.74799000"},{"id":31402,"name":"Ouled Mimoun","native":null,"lat":"34.90472000","lon":"-1.03394000"},{"id":31410,"name":"Remchi","native":null,"lat":"35.06196000","lon":"-1.43362000"},{"id":31420,"name":"Sebdou","native":null,"lat":"34.63703000","lon":"-1.33143000"},{"id":31423,"name":"Sidi Abdelli","native":null,"lat":"35.06937000","lon":"-1.13706000"},{"id":31431,"name":"Sidi Senoussi سيدي سنوسي","native":null,"lat":"34.99691000","lon":"-1.09449000"},{"id":31460,"name":"Tlemcen","native":null,"lat":"34.87833000","lon":"-1.31500000"}]},{"id":4911,"name":"Touggourt","native":null,"cities":[]}]