[{"id":3567,"name":"Harju County","native":null,"cities":[{"id":31595,"name":"Anija vald","native":null,"lat":"59.27644000","lon":"25.48168000"},{"id":31598,"name":"Aruküla","native":null,"lat":"59.36686000","lon":"25.07618000"},{"id":31602,"name":"Haabneeme","native":null,"lat":"59.51358000","lon":"24.82225000"},{"id":31607,"name":"Harku","native":null,"lat":"59.38641000","lon":"24.57176000"},{"id":31608,"name":"Harku vald","native":null,"lat":"59.39157000","lon":"24.46206000"},{"id":31613,"name":"Jõelähtme vald","native":null,"lat":"59.43996000","lon":"25.13535000"},{"id":31618,"name":"Jüri","native":null,"lat":"59.35417000","lon":"24.89417000"},{"id":31626,"name":"Kehra","native":null,"lat":"59.33611000","lon":"25.32111000"},{"id":31629,"name":"Keila","native":null,"lat":"59.30361000","lon":"24.41306000"},{"id":31631,"name":"Kiili","native":null,"lat":"59.30775000","lon":"24.83776000"},{"id":31632,"name":"Kiili vald","native":null,"lat":"59.29672000","lon":"24.85292000"},{"id":31640,"name":"Kose","native":null,"lat":"59.46001000","lon":"24.87824000"},{"id":31644,"name":"Kuusalu","native":null,"lat":"59.44389000","lon":"25.44139000"},{"id":31647,"name":"Laagri","native":null,"lat":"59.35083000","lon":"24.61418000"},{"id":31651,"name":"Loksa","native":null,"lat":"59.57639000","lon":"25.72139000"},{"id":31652,"name":"Loksa linn","native":null,"lat":"59.57844000","lon":"25.71667000"},{"id":31653,"name":"Loo","native":null,"lat":"59.43123000","lon":"24.94949000"},{"id":31658,"name":"Maardu","native":null,"lat":"59.46529000","lon":"24.98215000"},{"id":31659,"name":"Maardu linn","native":null,"lat":"59.46385000","lon":"24.97350000"},{"id":31676,"name":"Paldiski","native":null,"lat":"59.35667000","lon":"24.05306000"},{"id":31678,"name":"Pringi","native":null,"lat":"59.53459000","lon":"24.79726000"},{"id":31688,"name":"Raasiku","native":null,"lat":"59.36639000","lon":"25.18306000"},{"id":31689,"name":"Rae vald","native":null,"lat":"59.33202000","lon":"24.93932000"},{"id":31695,"name":"Riisipere","native":null,"lat":"59.11417000","lon":"24.31056000"},{"id":31698,"name":"Rummu","native":null,"lat":"59.53528000","lon":"24.79972000"},{"id":31704,"name":"Saku","native":null,"lat":"59.30354000","lon":"24.66382000"},{"id":31705,"name":"Saku vald","native":null,"lat":"59.28069000","lon":"24.71649000"},{"id":31706,"name":"Saue","native":null,"lat":"59.32258000","lon":"24.54967000"},{"id":31707,"name":"Saue vald","native":null,"lat":"59.29255000","lon":"24.52503000"},{"id":31714,"name":"Tabasalu","native":null,"lat":"59.42607000","lon":"24.55330000"},{"id":31716,"name":"Tallinn","native":null,"lat":"59.43696000","lon":"24.75353000"},{"id":31727,"name":"Turba","native":null,"lat":"59.08306000","lon":"24.22500000"},{"id":31734,"name":"Vaida","native":null,"lat":"59.28546000","lon":"24.97897000"},{"id":31737,"name":"Viimsi","native":null,"lat":"59.50502000","lon":"24.84807000"},{"id":31738,"name":"Viimsi vald","native":null,"lat":"59.50204000","lon":"24.84833000"}]},{"id":3555,"name":"Hiiu County","native":null,"cities":[{"id":31645,"name":"Kärdla","native":null,"lat":"58.99778000","lon":"22.74917000"}]},{"id":3569,"name":"Ida-Viru County","native":null,"cities":[{"id":31610,"name":"Iisaku","native":null,"lat":"59.10139000","lon":"27.30806000"},{"id":31616,"name":"Jõhvi","native":null,"lat":"59.35917000","lon":"27.42111000"},{"id":31617,"name":"Jõhvi vald","native":null,"lat":"59.35653000","lon":"27.39304000"},{"id":31634,"name":"Kiviõli","native":null,"lat":"59.35306000","lon":"26.97111000"},{"id":31638,"name":"Kohtla-Järve","native":null,"lat":"59.39861000","lon":"27.27306000"},{"id":31639,"name":"Kohtla-Nõmme","native":null,"lat":"59.35167000","lon":"27.17500000"},{"id":31657,"name":"Lüganuse vald","native":null,"lat":"59.39262000","lon":"27.07641000"},{"id":31665,"name":"Narva","native":null,"lat":"59.37722000","lon":"28.19028000"},{"id":31666,"name":"Narva-Jõesuu","native":null,"lat":"59.45889000","lon":"28.04083000"},{"id":31667,"name":"Narva-Jõesuu linn","native":null,"lat":"59.44127000","lon":"28.02142000"},{"id":31687,"name":"Püssi","native":null,"lat":"59.36000000","lon":"27.04972000"},{"id":31709,"name":"Sillamäe","native":null,"lat":"59.39697000","lon":"27.76331000"},{"id":31724,"name":"Toila","native":null,"lat":"59.42127000","lon":"27.50807000"},{"id":31745,"name":"Voka","native":null,"lat":"59.40776000","lon":"27.58263000"}]},{"id":3566,"name":"Järva County","native":null,"cities":[{"id":31611,"name":"Järva-Jaani","native":null,"lat":"59.03861000","lon":"25.88639000"},{"id":31635,"name":"Koeru","native":null,"lat":"58.96306000","lon":"26.03083000"},{"id":31672,"name":"Paide","native":null,"lat":"58.88556000","lon":"25.55722000"},{"id":31673,"name":"Paide linn","native":null,"lat":"58.88504000","lon":"25.56021000"},{"id":31712,"name":"Särevere","native":null,"lat":"58.79000000","lon":"25.42806000"},{"id":31729,"name":"Türi","native":null,"lat":"58.80861000","lon":"25.43250000"},{"id":31730,"name":"Türi vald","native":null,"lat":"58.74143000","lon":"25.46443000"}]},{"id":3565,"name":"Jõgeva County","native":null,"cities":[{"id":31614,"name":"Jõgeva","native":null,"lat":"58.74667000","lon":"26.39389000"},{"id":31615,"name":"Jõgeva vald","native":null,"lat":"58.78732000","lon":"26.38122000"},{"id":31661,"name":"Mustvee","native":null,"lat":"58.84861000","lon":"26.93972000"},{"id":31683,"name":"Põltsamaa","native":null,"lat":"58.65250000","lon":"25.97056000"},{"id":31684,"name":"Põltsamaa vald","native":null,"lat":"58.64067000","lon":"26.00957000"}]},{"id":3568,"name":"Lääne County","native":null,"cities":[{"id":31603,"name":"Haapsalu","native":null,"lat":"58.94306000","lon":"23.54139000"},{"id":31604,"name":"Haapsalu linn","native":null,"lat":"58.93580000","lon":"23.53005000"},{"id":31609,"name":"Hullo","native":null,"lat":"58.99004000","lon":"23.24441000"},{"id":31656,"name":"Lääne-Nigula vald","native":null,"lat":"58.96045000","lon":"23.74489000"},{"id":31715,"name":"Taebla","native":null,"lat":"58.95389000","lon":"23.75222000"},{"id":31731,"name":"Uuemõisa","native":null,"lat":"58.93944000","lon":"23.58944000"},{"id":31746,"name":"Vormsi vald","native":null,"lat":"58.99986000","lon":"23.23408000"}]},{"id":3564,"name":"Lääne-Viru County","native":null,"cities":[{"id":31599,"name":"Aseri","native":null,"lat":"59.45056000","lon":"26.86750000"},{"id":31605,"name":"Haljala","native":null,"lat":"59.43361000","lon":"26.26139000"},{"id":31606,"name":"Haljala vald","native":null,"lat":"59.45427000","lon":"26.22015000"},{"id":31619,"name":"Kadrina","native":null,"lat":"59.33472000","lon":"26.14500000"},{"id":31620,"name":"Kadrina vald","native":null,"lat":"59.37463000","lon":"26.04150000"},{"id":31641,"name":"Kunda","native":null,"lat":"59.49861000","lon":"26.52611000"},{"id":31675,"name":"Pajusti","native":null,"lat":"59.27444000","lon":"26.42333000"},{"id":31690,"name":"Rakke","native":null,"lat":"58.98167000","lon":"26.25444000"},{"id":31691,"name":"Rakvere","native":null,"lat":"59.34639000","lon":"26.35583000"},{"id":31692,"name":"Rakvere vald","native":null,"lat":"59.32457000","lon":"26.29757000"},{"id":31713,"name":"Sõmeru","native":null,"lat":"59.36111000","lon":"26.43750000"},{"id":31717,"name":"Tamsalu","native":null,"lat":"59.15861000","lon":"26.11528000"},{"id":31718,"name":"Tapa","native":null,"lat":"59.26056000","lon":"25.95861000"},{"id":31719,"name":"Tapa vald","native":null,"lat":"59.23821000","lon":"25.84572000"},{"id":31733,"name":"Vaiatu","native":null,"lat":"59.35556000","lon":"25.99528000"},{"id":31747,"name":"Väike-Maarja","native":null,"lat":"59.12639000","lon":"26.25000000"},{"id":31748,"name":"Väike-Maarja vald","native":null,"lat":"59.06556000","lon":"26.31417000"},{"id":31742,"name":"Vinni","native":null,"lat":"59.29583000","lon":"26.43222000"},{"id":31743,"name":"Vinni vald","native":null,"lat":"59.23744000","lon":"26.62261000"},{"id":31744,"name":"Viru-Nigula vald","native":null,"lat":"59.46387000","lon":"26.58585000"}]},{"id":3562,"name":"Pärnu County","native":null,"cities":[{"id":31600,"name":"Audru","native":null,"lat":"58.40861000","lon":"24.37389000"},{"id":31630,"name":"Kihnu vald","native":null,"lat":"58.13000000","lon":"23.99002000"},{"id":31633,"name":"Kilingi-Nõmme","native":null,"lat":"58.15028000","lon":"24.96417000"},{"id":31648,"name":"Lihula","native":null,"lat":"58.68139000","lon":"23.84528000"},{"id":31650,"name":"Linaküla","native":null,"lat":"58.13722000","lon":"23.97444000"},{"id":31674,"name":"Paikuse","native":null,"lat":"58.37917000","lon":"24.63444000"},{"id":31680,"name":"Pärnu","native":null,"lat":"58.38588000","lon":"24.49711000"},{"id":31681,"name":"Pärnu linn","native":null,"lat":"58.37901000","lon":"24.52784000"},{"id":31682,"name":"Pärnu-Jaagupi","native":null,"lat":"58.61052000","lon":"24.50689000"},{"id":31703,"name":"Saarde vald","native":null,"lat":"58.13802000","lon":"24.95564000"},{"id":31708,"name":"Sauga","native":null,"lat":"58.42720000","lon":"24.49496000"},{"id":31710,"name":"Sindi","native":null,"lat":"58.40056000","lon":"24.66750000"},{"id":31725,"name":"Tootsi","native":null,"lat":"58.57806000","lon":"24.79250000"},{"id":31726,"name":"Tori vald","native":null,"lat":"58.48663000","lon":"24.88961000"},{"id":31732,"name":"Uulu","native":null,"lat":"58.28361000","lon":"24.58722000"},{"id":31749,"name":"Vändra","native":null,"lat":"58.64806000","lon":"25.03611000"}]},{"id":3563,"name":"Põlva County","native":null,"cities":[{"id":31623,"name":"Kanepi","native":null,"lat":"57.98306000","lon":"26.75639000"},{"id":31624,"name":"Kanepi vald","native":null,"lat":"57.98058000","lon":"26.76151000"},{"id":31685,"name":"Põlva","native":null,"lat":"58.06028000","lon":"27.06944000"},{"id":31686,"name":"Põlva vald","native":null,"lat":"58.08368000","lon":"26.98242000"},{"id":31699,"name":"Räpina","native":null,"lat":"58.09806000","lon":"27.46361000"},{"id":31700,"name":"Räpina vald","native":null,"lat":"58.10777000","lon":"27.38580000"}]},{"id":3559,"name":"Rapla County","native":null,"cities":[{"id":31612,"name":"Järvakandi","native":null,"lat":"58.77889000","lon":"24.82583000"},{"id":31627,"name":"Kehtna","native":null,"lat":"58.93028000","lon":"24.87806000"},{"id":31628,"name":"Kehtna vald","native":null,"lat":"58.84274000","lon":"24.89002000"},{"id":31636,"name":"Kohila","native":null,"lat":"59.16806000","lon":"24.75750000"},{"id":31637,"name":"Kohila vald","native":null,"lat":"59.15283000","lon":"24.73337000"},{"id":31662,"name":"Märjamaa","native":null,"lat":"58.90389000","lon":"24.43056000"},{"id":31663,"name":"Märjamaa vald","native":null,"lat":"58.90262000","lon":"24.39423000"},{"id":31693,"name":"Rapla","native":null,"lat":"59.00722000","lon":"24.79278000"},{"id":31694,"name":"Rapla vald","native":null,"lat":"59.03309000","lon":"24.71793000"}]},{"id":3561,"name":"Saare County","native":null,"cities":[{"id":31643,"name":"Kuressaare","native":null,"lat":"58.24806000","lon":"22.50389000"},{"id":31649,"name":"Liiva","native":null,"lat":"58.60194000","lon":"23.24694000"},{"id":31660,"name":"Muhu vald","native":null,"lat":"58.58486000","lon":"23.25609000"},{"id":31670,"name":"Orissaare","native":null,"lat":"58.55917000","lon":"23.08262000"},{"id":31696,"name":"Ruhnu","native":null,"lat":"57.80028000","lon":"23.24833000"},{"id":31697,"name":"Ruhnu vald","native":null,"lat":"57.80309000","lon":"23.24250000"},{"id":31723,"name":"Tehumardi","native":null,"lat":"58.18027000","lon":"22.24646000"}]},{"id":3557,"name":"Tartu County","native":null,"cities":[{"id":31594,"name":"Alatskivi","native":null,"lat":"58.59806000","lon":"27.13361000"},{"id":31601,"name":"Elva","native":null,"lat":"58.22250000","lon":"26.42111000"},{"id":31621,"name":"Kallaste","native":null,"lat":"58.66312000","lon":"27.16164000"},{"id":31622,"name":"Kambja vald","native":null,"lat":"58.20255000","lon":"26.68996000"},{"id":31646,"name":"Kõrveküla","native":null,"lat":"58.42417000","lon":"26.78222000"},{"id":31642,"name":"Kurepalu","native":null,"lat":"58.31861000","lon":"26.84083000"},{"id":31654,"name":"Luunja","native":null,"lat":"58.35583000","lon":"26.88083000"},{"id":31655,"name":"Luunja vald","native":null,"lat":"58.39178000","lon":"26.95574000"},{"id":31668,"name":"Nõo","native":null,"lat":"58.27556000","lon":"26.53750000"},{"id":31669,"name":"Nõo vald","native":null,"lat":"58.24199000","lon":"26.52499000"},{"id":31677,"name":"Peipsiääre vald","native":null,"lat":"58.51559000","lon":"27.18444000"},{"id":31679,"name":"Puhja","native":null,"lat":"58.34194000","lon":"26.31472000"},{"id":31720,"name":"Tartu","native":null,"lat":"58.38062000","lon":"26.72509000"},{"id":31721,"name":"Tartu linn","native":null,"lat":"58.37498000","lon":"26.73256000"},{"id":31722,"name":"Tartu vald","native":null,"lat":"58.47800000","lon":"26.74956000"},{"id":31754,"name":"Ülenurme","native":null,"lat":"58.31620000","lon":"26.72517000"}]},{"id":3558,"name":"Valga County","native":null,"cities":[{"id":31671,"name":"Otepää vald","native":null,"lat":"58.02177000","lon":"26.45306000"},{"id":31728,"name":"Tõrva","native":null,"lat":"58.00278000","lon":"25.93500000"},{"id":31735,"name":"Valga","native":null,"lat":"57.77781000","lon":"26.04730000"}]},{"id":3556,"name":"Viljandi County","native":null,"cities":[{"id":31593,"name":"Abja-Paluoja","native":null,"lat":"58.12528000","lon":"25.34972000"},{"id":31625,"name":"Karksi-Nuia","native":null,"lat":"58.10333000","lon":"25.56278000"},{"id":31664,"name":"Mõisaküla","native":null,"lat":"58.09222000","lon":"25.18639000"},{"id":31711,"name":"Suure-Jaani","native":null,"lat":"58.53611000","lon":"25.47056000"},{"id":31739,"name":"Viiratsi","native":null,"lat":"58.36000000","lon":"25.63722000"},{"id":31740,"name":"Viljandi","native":null,"lat":"58.36389000","lon":"25.59000000"},{"id":31741,"name":"Viljandi vald","native":null,"lat":"58.36392000","lon":"25.49103000"},{"id":31751,"name":"Võhma","native":null,"lat":"58.62833000","lon":"25.54833000"}]},{"id":3560,"name":"Võru County","native":null,"cities":[{"id":31596,"name":"Antsla","native":null,"lat":"57.82556000","lon":"26.54056000"},{"id":31597,"name":"Antsla vald","native":null,"lat":"57.77738000","lon":"26.59520000"},{"id":31701,"name":"Rõuge","native":null,"lat":"57.72778000","lon":"26.90972000"},{"id":31702,"name":"Rõuge vald","native":null,"lat":"57.72780000","lon":"26.88033000"},{"id":31736,"name":"Vana-Antsla","native":null,"lat":"57.86611000","lon":"26.53222000"},{"id":31750,"name":"Värska","native":null,"lat":"57.95806000","lon":"27.63806000"},{"id":31752,"name":"Võru","native":null,"lat":"57.83389000","lon":"27.01944000"},{"id":31753,"name":"Võru vald","native":null,"lat":"57.86618000","lon":"26.97418000"}]}]