[{"id":5089,"name":"A Coruña","native":null,"cities":[{"id":31906,"name":"Abegondo","native":null,"lat":"43.21667000","lon":"-8.28333000"},{"id":32364,"name":"Amés","native":null,"lat":"42.90426000","lon":"-8.65551000"},{"id":32411,"name":"Aranga","native":null,"lat":"43.23469000","lon":"-8.01705000"},{"id":32455,"name":"Ares","native":null,"lat":"43.42995000","lon":"-8.24254000"},{"id":32522,"name":"Arteixo","native":null,"lat":"43.30482000","lon":"-8.50749000"},{"id":32529,"name":"Arzúa","native":null,"lat":"42.93333000","lon":"-8.15000000"},{"id":32533,"name":"As Pontes de García Rodríguez","native":null,"lat":"43.45266000","lon":"-7.85178000"},{"id":151031,"name":"Baña A","native":null,"lat":"0.00000000","lon":"0.00000000"},{"id":32851,"name":"Bergondo","native":null,"lat":"43.31667000","lon":"-8.23333000"},{"id":32879,"name":"Betanzos","native":null,"lat":"43.28042000","lon":"-8.21467000"},{"id":32933,"name":"Boimorto","native":null,"lat":"43.00000000","lon":"-8.13333000"},{"id":32934,"name":"Boiro","native":null,"lat":"42.64725000","lon":"-8.88459000"},{"id":151032,"name":"Boqueixón","native":null,"lat":"0.00000000","lon":"0.00000000"},{"id":151033,"name":"Brión","native":null,"lat":"0.00000000","lon":"0.00000000"},{"id":151034,"name":"Cabana de Bergantiños","native":null,"lat":"0.00000000","lon":"0.00000000"},{"id":151035,"name":"Cabanas","native":null,"lat":"0.00000000","lon":"0.00000000"},{"id":33169,"name":"Camariñas","native":null,"lat":"43.13115000","lon":"-9.18172000"},{"id":33176,"name":"Cambre","native":null,"lat":"43.29438000","lon":"-8.34736000"},{"id":151036,"name":"Capela A","native":null,"lat":"0.00000000","lon":"0.00000000"},{"id":33283,"name":"Carballo","native":null,"lat":"43.21300000","lon":"-8.69104000"},{"id":33307,"name":"Cariño","native":null,"lat":"43.74134000","lon":"-7.86715000"},{"id":33312,"name":"Carnota","native":null,"lat":"42.82330000","lon":"-9.08913000"},{"id":33316,"name":"Carral","native":null,"lat":"43.22860000","lon":"-8.35545000"},{"id":33554,"name":"Cedeira","native":null,"lat":"43.66044000","lon":"-8.05719000"},{"id":33559,"name":"Cee","native":null,"lat":"42.95466000","lon":"-9.18800000"},{"id":151037,"name":"Cerceda","native":null,"lat":"0.00000000","lon":"0.00000000"},{"id":33581,"name":"Cerdido","native":null,"lat":"43.62063000","lon":"-7.99959000"},{"id":33607,"name":"Cesuras","native":null,"lat":"43.17282000","lon":"-8.20061000"},{"id":33725,"name":"Coirós","native":null,"lat":"43.25000000","lon":"-8.16667000"},{"id":33779,"name":"Corcubión","native":null,"lat":"42.94414000","lon":"-9.19260000"},{"id":33792,"name":"Coristanco","native":null,"lat":"43.20000000","lon":"-8.75000000"},{"id":151038,"name":"Coruña A","native":null,"lat":"0.00000000","lon":"0.00000000"},{"id":33882,"name":"Culleredo","native":null,"lat":"43.28788000","lon":"-8.38858000"},{"id":33887,"name":"Curtis","native":null,"lat":"43.12374000","lon":"-8.14818000"},{"id":151039,"name":"Dodro","native":null,"lat":"0.00000000","lon":"0.00000000"},{"id":33960,"name":"Dumbría","native":null,"lat":"43.00836000","lon":"-9.11328000"},{"id":34172,"name":"Fene","native":null,"lat":"43.45000000","lon":"-8.15000000"},{"id":34182,"name":"Ferrol","native":null,"lat":"43.48961000","lon":"-8.21940000"},{"id":34192,"name":"Fisterra","native":null,"lat":"42.90492000","lon":"-9.26289000"},{"id":151040,"name":"Frades","native":null,"lat":"0.00000000","lon":"0.00000000"},{"id":34759,"name":"Irixoa","native":null,"lat":"43.28470000","lon":"-8.05916000"},{"id":151042,"name":"Laracha A","native":null,"lat":"0.00000000","lon":"0.00000000"},{"id":151041,"name":"Laxe","native":null,"lat":"0.00000000","lon":"0.00000000"},{"id":35144,"name":"Lousame","native":null,"lat":"42.76477000","lon":"-8.84926000"},{"id":151043,"name":"Malpica de Bergantiños","native":null,"lat":"0.00000000","lon":"0.00000000"},{"id":151044,"name":"Mañón","native":null,"lat":"0.00000000","lon":"0.00000000"},{"id":35354,"name":"Mazaricos","native":null,"lat":"42.94033000","lon":"-8.97187000"},{"id":151045,"name":"Melide","native":null,"lat":"0.00000000","lon":"0.00000000"},{"id":35410,"name":"Mesia","native":null,"lat":"43.10000000","lon":"-8.26667000"},{"id":35457,"name":"Miño","native":null,"lat":"43.35000000","lon":"-8.20000000"},{"id":35465,"name":"Moeche","native":null,"lat":"43.55000000","lon":"-8.01667000"},{"id":35512,"name":"Monfero","native":null,"lat":"43.33333000","lon":"-8.01667000"},{"id":35658,"name":"Mugardos","native":null,"lat":"43.46040000","lon":"-8.25507000"},{"id":35659,"name":"Mugia","native":null,"lat":"43.10414000","lon":"-9.21791000"},{"id":35685,"name":"Muros","native":null,"lat":"42.77617000","lon":"-9.06032000"},{"id":151046,"name":"Muxía","native":null,"lat":"0.00000000","lon":"0.00000000"},{"id":35720,"name":"Narón","native":null,"lat":"43.50175000","lon":"-8.19082000"},{"id":151047,"name":"Neda","native":null,"lat":"0.00000000","lon":"0.00000000"},{"id":35797,"name":"Negreira","native":null,"lat":"42.90402000","lon":"-8.74273000"},{"id":151048,"name":"Noia","native":null,"lat":"0.00000000","lon":"0.00000000"},{"id":35876,"name":"Oleiros","native":null,"lat":"43.33333000","lon":"-8.31667000"},{"id":35939,"name":"Ordes","native":null,"lat":"43.07654000","lon":"-8.40900000"},{"id":35959,"name":"Oroso","native":null,"lat":"42.98333000","lon":"-8.43333000"},{"id":151049,"name":"Ortigueira","native":null,"lat":"0.00000000","lon":"0.00000000"},{"id":35987,"name":"Outes","native":null,"lat":"42.86189000","lon":"-8.90181000"},{"id":151050,"name":"Oza dos Ríos","native":null,"lat":"0.00000000","lon":"0.00000000"},{"id":151051,"name":"Paderne","native":null,"lat":"0.00000000","lon":"0.00000000"},{"id":35995,"name":"Padrón","native":null,"lat":"42.73875000","lon":"-8.66057000"},{"id":151052,"name":"Pino O","native":null,"lat":"0.00000000","lon":"0.00000000"},{"id":151053,"name":"Pobra do Caramiñal A","native":null,"lat":"0.00000000","lon":"0.00000000"},{"id":151054,"name":"Ponteceso","native":null,"lat":"0.00000000","lon":"0.00000000"},{"id":151055,"name":"Pontedeume","native":null,"lat":"0.00000000","lon":"0.00000000"},{"id":151056,"name":"Pontes de García Rodríguez As","native":null,"lat":"0.00000000","lon":"0.00000000"},{"id":36296,"name":"Porto do Son","native":null,"lat":"42.72482000","lon":"-9.00527000"},{"id":36603,"name":"Rianxo","native":null,"lat":"42.64977000","lon":"-8.81763000"},{"id":36614,"name":"Ribeira","native":null,"lat":"42.74611000","lon":"-8.44392000"},{"id":151057,"name":"Rois","native":null,"lat":"0.00000000","lon":"0.00000000"},{"id":36732,"name":"Sada","native":null,"lat":"43.35619000","lon":"-8.25796000"},{"id":151058,"name":"San Sadurniño","native":null,"lat":"0.00000000","lon":"0.00000000"},{"id":37021,"name":"Santa Comba","native":null,"lat":"43.03306000","lon":"-8.80925000"},{"id":37114,"name":"Santiago de Compostela","native":null,"lat":"42.88052000","lon":"-8.54569000"},{"id":37132,"name":"Santiso","native":null,"lat":"42.87388000","lon":"-8.05497000"},{"id":37274,"name":"Sobrado","native":null,"lat":"43.03882000","lon":"-8.02784000"},{"id":151059,"name":"Somozas As","native":null,"lat":"0.00000000","lon":"0.00000000"},{"id":37404,"name":"Teo","native":null,"lat":"42.75000000","lon":"-8.50000000"},{"id":151060,"name":"Toques","native":null,"lat":"0.00000000","lon":"0.00000000"},{"id":151061,"name":"Tordoia","native":null,"lat":"0.00000000","lon":"0.00000000"},{"id":37608,"name":"Touro","native":null,"lat":"42.86812000","lon":"-8.30764000"},{"id":37624,"name":"Trazo","native":null,"lat":"43.01667000","lon":"-8.53333000"},{"id":151062,"name":"Val do Dubra","native":null,"lat":"0.00000000","lon":"0.00000000"},{"id":37812,"name":"Valdoviño","native":null,"lat":"43.60000000","lon":"-8.13333000"},{"id":37902,"name":"Vedra","native":null,"lat":"42.77817000","lon":"-8.47636000"},{"id":151063,"name":"Vilarmaior","native":null,"lat":"0.00000000","lon":"0.00000000"},{"id":38002,"name":"Vilasantar","native":null,"lat":"43.07106000","lon":"-8.12163000"},{"id":38388,"name":"Vimianzo","native":null,"lat":"43.10988000","lon":"-9.03351000"},{"id":38488,"name":"Zas","native":null,"lat":"43.09885000","lon":"-8.91558000"}]},{"id":5109,"name":"Albacete","native":null,"cities":[{"id":152202,"name":"Abengibre","native":null,"lat":"0.00000000","lon":"0.00000000"},{"id":152203,"name":"Alatoz","native":null,"lat":"0.00000000","lon":"0.00000000"},{"id":152204,"name":"Albacete","native":null,"lat":"0.00000000","lon":"0.00000000"},{"id":152205,"name":"Albatana","native":null,"lat":"0.00000000","lon":"0.00000000"},{"id":152206,"name":"Alborea","native":null,"lat":"0.00000000","lon":"0.00000000"},{"id":152207,"name":"Alcadozo","native":null,"lat":"0.00000000","lon":"0.00000000"},{"id":152208,"name":"Alcalá del Júcar","native":null,"lat":"0.00000000","lon":"0.00000000"},{"id":152209,"name":"Alcaraz","native":null,"lat":"0.00000000","lon":"0.00000000"},{"id":152210,"name":"Almansa","native":null,"lat":"0.00000000","lon":"0.00000000"},{"id":152211,"name":"Alpera","native":null,"lat":"0.00000000","lon":"0.00000000"},{"id":152212,"name":"Ayna","native":null,"lat":"0.00000000","lon":"0.00000000"},{"id":152213,"name":"Balazote","native":null,"lat":"0.00000000","lon":"0.00000000"},{"id":152215,"name":"Ballestero El","native":null,"lat":"0.00000000","lon":"0.00000000"},{"id":152214,"name":"Balsa de Ves","native":null,"lat":"0.00000000","lon":"0.00000000"},{"id":152216,"name":"Barrax","native":null,"lat":"0.00000000","lon":"0.00000000"},{"id":152217,"name":"Bienservida","native":null,"lat":"0.00000000","lon":"0.00000000"},{"id":152218,"name":"Bogarra","native":null,"lat":"0.00000000","lon":"0.00000000"},{"id":152219,"name":"Bonete","native":null,"lat":"0.00000000","lon":"0.00000000"},{"id":152220,"name":"Bonillo El","native":null,"lat":"0.00000000","lon":"0.00000000"},{"id":152221,"name":"Carcelén","native":null,"lat":"0.00000000","lon":"0.00000000"},{"id":152222,"name":"Casas de Juan Núñez","native":null,"lat":"0.00000000","lon":"0.00000000"},{"id":152223,"name":"Casas de Lázaro","native":null,"lat":"0.00000000","lon":"0.00000000"},{"id":152224,"name":"Casas de Ves","native":null,"lat":"0.00000000","lon":"0.00000000"},{"id":152225,"name":"Casas-Ibáñez","native":null,"lat":"0.00000000","lon":"0.00000000"},{"id":152226,"name":"Caudete","native":null,"lat":"0.00000000","lon":"0.00000000"},{"id":152227,"name":"Cenizate","native":null,"lat":"0.00000000","lon":"0.00000000"},{"id":152230,"name":"Chinchilla de Monte-Aragón","native":null,"lat":"0.00000000","lon":"0.00000000"},{"id":152228,"name":"Corral-Rubio","native":null,"lat":"0.00000000","lon":"0.00000000"},{"id":152229,"name":"Cotillas","native":null,"lat":"0.00000000","lon":"0.00000000"},{"id":152231,"name":"Elche de la Sierra","native":null,"lat":"0.00000000","lon":"0.00000000"},{"id":152232,"name":"Férez","native":null,"lat":"0.00000000","lon":"0.00000000"},{"id":152233,"name":"Fuensanta","native":null,"lat":"0.00000000","lon":"0.00000000"},{"id":152234,"name":"Fuente-Álamo","native":null,"lat":"0.00000000","lon":"0.00000000"},{"id":152235,"name":"Fuentealbilla","native":null,"lat":"0.00000000","lon":"0.00000000"},{"id":152236,"name":"Gineta La","native":null,"lat":"0.00000000","lon":"0.00000000"},{"id":152237,"name":"Golosalvo","native":null,"lat":"0.00000000","lon":"0.00000000"},{"id":152238,"name":"Hellín","native":null,"lat":"0.00000000","lon":"0.00000000"},{"id":152239,"name":"Herrera La","native":null,"lat":"0.00000000","lon":"0.00000000"},{"id":152240,"name":"Higueruela","native":null,"lat":"0.00000000","lon":"0.00000000"},{"id":152241,"name":"Hoya-Gonzalo","native":null,"lat":"0.00000000","lon":"0.00000000"},{"id":152242,"name":"Jorquera","native":null,"lat":"0.00000000","lon":"0.00000000"},{"id":152243,"name":"Letur","native":null,"lat":"0.00000000","lon":"0.00000000"},{"id":152244,"name":"Lezuza","native":null,"lat":"0.00000000","lon":"0.00000000"},{"id":152245,"name":"Liétor","native":null,"lat":"0.00000000","lon":"0.00000000"},{"id":152246,"name":"Madrigueras","native":null,"lat":"0.00000000","lon":"0.00000000"},{"id":152247,"name":"Mahora","native":null,"lat":"0.00000000","lon":"0.00000000"},{"id":152248,"name":"Masegoso","native":null,"lat":"0.00000000","lon":"0.00000000"},{"id":152249,"name":"Minaya","native":null,"lat":"0.00000000","lon":"0.00000000"},{"id":152250,"name":"Molinicos","native":null,"lat":"0.00000000","lon":"0.00000000"},{"id":152251,"name":"Montalvos","native":null,"lat":"0.00000000","lon":"0.00000000"},{"id":152252,"name":"Montealegre del Castillo","native":null,"lat":"0.00000000","lon":"0.00000000"},{"id":152253,"name":"Motilleja","native":null,"lat":"0.00000000","lon":"0.00000000"},{"id":152254,"name":"Munera","native":null,"lat":"0.00000000","lon":"0.00000000"},{"id":152255,"name":"Navas de Jorquera","native":null,"lat":"0.00000000","lon":"0.00000000"},{"id":152256,"name":"Nerpio","native":null,"lat":"0.00000000","lon":"0.00000000"},{"id":152257,"name":"Ontur","native":null,"lat":"0.00000000","lon":"0.00000000"},{"id":152258,"name":"Ossa de Montiel","native":null,"lat":"0.00000000","lon":"0.00000000"},{"id":152259,"name":"Paterna del Madera","native":null,"lat":"0.00000000","lon":"0.00000000"},{"id":152261,"name":"Peñas de San Pedro","native":null,"lat":"0.00000000","lon":"0.00000000"},{"id":152260,"name":"Peñascosa","native":null,"lat":"0.00000000","lon":"0.00000000"},{"id":152262,"name":"Pétrola","native":null,"lat":"0.00000000","lon":"0.00000000"},{"id":152263,"name":"Povedilla","native":null,"lat":"0.00000000","lon":"0.00000000"},{"id":152288,"name":"Pozo Cañada","native":null,"lat":"0.00000000","lon":"0.00000000"},{"id":152265,"name":"Pozo-Lorente","native":null,"lat":"0.00000000","lon":"0.00000000"},{"id":152264,"name":"Pozohondo","native":null,"lat":"0.00000000","lon":"0.00000000"},{"id":152266,"name":"Pozuelo","native":null,"lat":"0.00000000","lon":"0.00000000"},{"id":152267,"name":"Recueja La","native":null,"lat":"0.00000000","lon":"0.00000000"},{"id":152268,"name":"Riópar","native":null,"lat":"0.00000000","lon":"0.00000000"},{"id":152269,"name":"Robledo","native":null,"lat":"0.00000000","lon":"0.00000000"},{"id":152270,"name":"Roda La","native":null,"lat":"0.00000000","lon":"0.00000000"},{"id":152271,"name":"Salobre","native":null,"lat":"0.00000000","lon":"0.00000000"},{"id":152272,"name":"San Pedro","native":null,"lat":"0.00000000","lon":"0.00000000"},{"id":152273,"name":"Socovos","native":null,"lat":"0.00000000","lon":"0.00000000"},{"id":152274,"name":"Tarazona de la Mancha","native":null,"lat":"0.00000000","lon":"0.00000000"},{"id":152275,"name":"Tobarra","native":null,"lat":"0.00000000","lon":"0.00000000"},{"id":152276,"name":"Valdeganga","native":null,"lat":"0.00000000","lon":"0.00000000"},{"id":152277,"name":"Vianos","native":null,"lat":"0.00000000","lon":"0.00000000"},{"id":152278,"name":"Villa de Ves","native":null,"lat":"0.00000000","lon":"0.00000000"},{"id":152279,"name":"Villalgordo del Júcar","native":null,"lat":"0.00000000","lon":"0.00000000"},{"id":152280,"name":"Villamalea","native":null,"lat":"0.00000000","lon":"0.00000000"},{"id":152281,"name":"Villapalacios","native":null,"lat":"0.00000000","lon":"0.00000000"},{"id":152282,"name":"Villarrobledo","native":null,"lat":"0.00000000","lon":"0.00000000"},{"id":152283,"name":"Villatoya","native":null,"lat":"0.00000000","lon":"0.00000000"},{"id":152284,"name":"Villavaliente","native":null,"lat":"0.00000000","lon":"0.00000000"},{"id":152285,"name":"Villaverde de Guadalimar","native":null,"lat":"0.00000000","lon":"0.00000000"},{"id":152286,"name":"Viveros","native":null,"lat":"0.00000000","lon":"0.00000000"},{"id":152287,"name":"Yeste","native":null,"lat":"0.00000000","lon":"0.00000000"}]},{"id":5108,"name":"Alicante","native":null,"cities":[{"id":31941,"name":"Adsubia","native":null,"lat":"38.84819000","lon":"-0.15324000"},{"id":31947,"name":"Agost","native":null,"lat":"38.44003000","lon":"-0.63836000"},{"id":31949,"name":"Agres","native":null,"lat":"38.78333000","lon":"-0.51667000"},{"id":152154,"name":"Aigües","native":null,"lat":"0.00000000","lon":"0.00000000"},{"id":32032,"name":"Albatera","native":null,"lat":"38.17902000","lon":"-0.87059000"},{"id":32067,"name":"Alcalalí","native":null,"lat":"38.75038000","lon":"-0.04013000"},{"id":32099,"name":"Alcocer de Planes","native":null,"lat":"38.79501000","lon":"-0.40244000"},{"id":152155,"name":"Alcoleja","native":null,"lat":"0.00000000","lon":"0.00000000"},{"id":152156,"name":"Alcoy/Alcoi","native":null,"lat":"0.00000000","lon":"0.00000000"},{"id":32190,"name":"Alfafara","native":null,"lat":"38.77339000","lon":"-0.55551000"},{"id":152157,"name":"Alfàs del Pi l","native":null,"lat":"0.00000000","lon":"0.00000000"},{"id":32226,"name":"Algorfa","native":null,"lat":"38.08636000","lon":"-0.79646000"},{"id":32230,"name":"Algueña","native":null,"lat":"38.33905000","lon":"-1.00433000"},{"id":152158,"name":"Alicante/Alacant","native":null,"lat":"0.00000000","lon":"0.00000000"},{"id":32306,"name":"Almoradí","native":null,"lat":"38.10879000","lon":"-0.79197000"},{"id":32310,"name":"Almudaina","native":null,"lat":"38.75999000","lon":"-0.35149000"},{"id":152159,"name":"Alqueria dAsnar l","native":null,"lat":"0.00000000","lon":"0.00000000"},{"id":32340,"name":"Altea","native":null,"lat":"38.59885000","lon":"-0.05139000"},{"id":32537,"name":"Aspe","native":null,"lat":"38.34511000","lon":"-0.76721000"},{"id":32626,"name":"Balones","native":null,"lat":"38.73726000","lon":"-0.34324000"},{"id":152160,"name":"Banyeres de Mariola","native":null,"lat":"0.00000000","lon":"0.00000000"},{"id":32776,"name":"Benasau","native":null,"lat":"38.69047000","lon":"-0.34278000"},{"id":32785,"name":"Beneixama","native":null,"lat":"38.70000000","lon":"-0.76667000"},{"id":32787,"name":"Benejúzar","native":null,"lat":"38.07728000","lon":"-0.83942000"},{"id":32789,"name":"Benferri","native":null,"lat":"38.14129000","lon":"-0.96212000"},{"id":32790,"name":"Beniarbeig","native":null,"lat":"38.82232000","lon":"-0.00210000"},{"id":32791,"name":"Beniardá","native":null,"lat":"38.68433000","lon":"-0.21629000"},{"id":32793,"name":"Beniarrés","native":null,"lat":"38.82019000","lon":"-0.37741000"},{"id":32798,"name":"Benidoleig","native":null,"lat":"38.79278000","lon":"-0.02992000"},{"id":32799,"name":"Benidorm","native":null,"lat":"38.53816000","lon":"-0.13098000"},{"id":32804,"name":"Benifallim","native":null,"lat":"38.66259000","lon":"-0.39994000"},{"id":152162,"name":"Benifato","native":null,"lat":"0.00000000","lon":"0.00000000"},{"id":152161,"name":"Benigembla","native":null,"lat":"0.00000000","lon":"0.00000000"},{"id":32807,"name":"Benijofar","native":null,"lat":"38.07785000","lon":"-0.73680000"},{"id":32808,"name":"Benilloba","native":null,"lat":"38.70012000","lon":"-0.38998000"},{"id":32809,"name":"Benillup","native":null,"lat":"38.75397000","lon":"-0.37991000"},{"id":32810,"name":"Benimantell","native":null,"lat":"38.67709000","lon":"-0.21057000"},{"id":32811,"name":"Benimarfull","native":null,"lat":"38.77590000","lon":"-0.39079000"},{"id":32812,"name":"Benimassot","native":null,"lat":"38.75000000","lon":"-0.28333000"},{"id":32813,"name":"Benimeli","native":null,"lat":"38.82362000","lon":"-0.04221000"},{"id":32819,"name":"Benissa","native":null,"lat":"38.71492000","lon":"0.04849000"},{"id":152163,"name":"Benitachell/Poble Nou de Benitatxell el","native":null,"lat":"0.00000000","lon":"0.00000000"},{"id":32885,"name":"Biar","native":null,"lat":"38.63117000","lon":"-0.76458000"},{"id":32892,"name":"Bigastro","native":null,"lat":"38.06237000","lon":"-0.89841000"},{"id":32941,"name":"Bolulla","native":null,"lat":"38.67529000","lon":"-0.11184000"},{"id":33035,"name":"Busot","native":null,"lat":"38.48206000","lon":"-0.41918000"},{"id":33146,"name":"Callosa de Segura","native":null,"lat":"38.12497000","lon":"-0.87822000"},{"id":152164,"name":"Callosa dEn Sarrià","native":null,"lat":"0.00000000","lon":"0.00000000"},{"id":33151,"name":"Calp","native":null,"lat":"38.64470000","lon":"0.04450000"},{"id":152165,"name":"Campello el","native":null,"lat":"0.00000000","lon":"0.00000000"},{"id":152166,"name":"Campo de Mirra/Camp de Mirra el","native":null,"lat":"0.00000000","lon":"0.00000000"},{"id":152167,"name":"Cañada","native":null,"lat":"0.00000000","lon":"0.00000000"},{"id":33396,"name":"Castalla","native":null,"lat":"38.59694000","lon":"-0.67207000"},{"id":33411,"name":"Castell de Castells","native":null,"lat":"38.72555000","lon":"-0.19242000"},{"id":152173,"name":"Castell de Guadalest el","native":null,"lat":"0.00000000","lon":"0.00000000"},{"id":33516,"name":"Catral","native":null,"lat":"38.16061000","lon":"-0.80209000"},{"id":33716,"name":"Cocentaina","native":null,"lat":"38.73975000","lon":"-0.43976000"},{"id":33757,"name":"Confrides","native":null,"lat":"38.68451000","lon":"-0.26890000"},{"id":33829,"name":"Cox","native":null,"lat":"38.14164000","lon":"-0.88736000"},{"id":152168,"name":"Crevillent","native":null,"lat":"0.00000000","lon":"0.00000000"},{"id":33915,"name":"Daya Nueva","native":null,"lat":"38.11313000","lon":"-0.76028000"},{"id":33916,"name":"Daya Vieja","native":null,"lat":"38.10480000","lon":"-0.73804000"},{"id":33926,"name":"Denia","native":null,"lat":"38.84078000","lon":"0.10574000"},{"id":33936,"name":"Dolores","native":null,"lat":"38.14002000","lon":"-0.77088000"},{"id":152170,"name":"Elche/Elx","native":null,"lat":"0.00000000","lon":"0.00000000"},{"id":34033,"name":"Elda","native":null,"lat":"38.47783000","lon":"-0.79157000"},{"id":34156,"name":"Facheca","native":null,"lat":"38.73501000","lon":"-0.26766000"},{"id":34160,"name":"Famorca","native":null,"lat":"38.73101000","lon":"-0.24726000"},{"id":34189,"name":"Finestrat","native":null,"lat":"38.56737000","lon":"-0.21235000"},{"id":152174,"name":"Fondó de les Neus el/Hondón de las Nieves","native":null,"lat":"0.00000000","lon":"0.00000000"},{"id":152171,"name":"Formentera del Segura","native":null,"lat":"0.00000000","lon":"0.00000000"},{"id":152172,"name":"Gaianes","native":null,"lat":"0.00000000","lon":"0.00000000"},{"id":34435,"name":"Gata de Gorgos","native":null,"lat":"38.77443000","lon":"0.08538000"},{"id":34487,"name":"Gorga","native":null,"lat":"38.71896000","lon":"-0.35589000"},{"id":34501,"name":"Granja de Rocamora","native":null,"lat":"38.15157000","lon":"-0.89170000"},{"id":34535,"name":"Guardamar del Segura","native":null,"lat":"38.09031000","lon":"-0.65556000"},{"id":34635,"name":"Hondón de los Frailes","native":null,"lat":"38.27390000","lon":"-0.92938000"},{"id":34727,"name":"Ibi","native":null,"lat":"38.62533000","lon":"-0.57225000"},{"id":34788,"name":"Jacarilla","native":null,"lat":"38.06247000","lon":"-0.86822000"},{"id":152176,"name":"Jávea/Xàbia","native":null,"lat":"0.00000000","lon":"0.00000000"},{"id":152177,"name":"Jijona/Xixona","native":null,"lat":"0.00000000","lon":"0.00000000"},{"id":152179,"name":"Llíber","native":null,"lat":"0.00000000","lon":"0.00000000"},{"id":152178,"name":"Lorcha/Orxa l","native":null,"lat":"0.00000000","lon":"0.00000000"},{"id":35433,"name":"Millena","native":null,"lat":"38.73082000","lon":"-0.36274000"},{"id":35516,"name":"Monforte del Cid","native":null,"lat":"38.38027000","lon":"-0.72850000"},{"id":152180,"name":"Monóvar/Monòver","native":null,"lat":"0.00000000","lon":"0.00000000"},{"id":152201,"name":"Montesinos Los","native":null,"lat":"0.00000000","lon":"0.00000000"},{"id":35680,"name":"Murla","native":null,"lat":"38.76037000","lon":"-0.08208000"},{"id":152181,"name":"Muro de Alcoy","native":null,"lat":"0.00000000","lon":"0.00000000"},{"id":35691,"name":"Mutxamel","native":null,"lat":"38.41580000","lon":"-0.44529000"},{"id":35828,"name":"Novelda","native":null,"lat":"38.38479000","lon":"-0.76773000"},{"id":152182,"name":"Nucia la","native":null,"lat":"0.00000000","lon":"0.00000000"},{"id":35923,"name":"Ondara","native":null,"lat":"38.82817000","lon":"0.01720000"},{"id":35925,"name":"Onil","native":null,"lat":"38.62606000","lon":"-0.67313000"},{"id":35932,"name":"Orba","native":null,"lat":"38.78041000","lon":"-0.06278000"},{"id":35950,"name":"Orihuela","native":null,"lat":"38.08483000","lon":"-0.94401000"},{"id":152183,"name":"Orxeta","native":null,"lat":"0.00000000","lon":"0.00000000"},{"id":36062,"name":"Parcent","native":null,"lat":"38.74502000","lon":"-0.06446000"},{"id":36095,"name":"Pedreguer","native":null,"lat":"38.79312000","lon":"0.03411000"},{"id":36115,"name":"Pego","native":null,"lat":"38.84305000","lon":"-0.11707000"},{"id":152184,"name":"Penàguila","native":null,"lat":"0.00000000","lon":"0.00000000"},{"id":152185,"name":"Petrer","native":null,"lat":"0.00000000","lon":"0.00000000"},{"id":36187,"name":"Pilar de la Horadada","native":null,"lat":"37.86591000","lon":"-0.79256000"},{"id":152186,"name":"Pinós el/Pinoso","native":null,"lat":"0.00000000","lon":"0.00000000"},{"id":36234,"name":"Planes","native":null,"lat":"38.78524000","lon":"-0.34271000"},{"id":152200,"name":"Poblets els","native":null,"lat":"0.00000000","lon":"0.00000000"},{"id":36264,"name":"Polop","native":null,"lat":"38.62258000","lon":"-0.13090000"},{"id":152169,"name":"Quatretondeta","native":null,"lat":"0.00000000","lon":"0.00000000"},{"id":36539,"name":"Rafal","native":null,"lat":"38.10458000","lon":"-0.84904000"},{"id":152187,"name":"Ràfol dAlmúnia El","native":null,"lat":"0.00000000","lon":"0.00000000"},{"id":36562,"name":"Redován","native":null,"lat":"38.11619000","lon":"-0.90981000"},{"id":36571,"name":"Relleu","native":null,"lat":"38.58725000","lon":"-0.31157000"},{"id":36665,"name":"Rojales","native":null,"lat":"38.08799000","lon":"-0.72544000"},{"id":152188,"name":"Romana la","native":null,"lat":"0.00000000","lon":"0.00000000"},{"id":36737,"name":"Sagra","native":null,"lat":"38.81102000","lon":"-0.06559000"},{"id":36763,"name":"Salinas","native":null,"lat":"38.52025000","lon":"-0.91202000"},{"id":152189,"name":"San Fulgencio","native":null,"lat":"0.00000000","lon":"0.00000000"},{"id":36839,"name":"San Isidro","native":null,"lat":"28.07617000","lon":"-16.55800000"},{"id":36883,"name":"San Miguel de Salinas","native":null,"lat":"37.97972000","lon":"-0.78904000"},{"id":152191,"name":"San Vicente del Raspeig/Sant Vicent del Raspeig","native":null,"lat":"0.00000000","lon":"0.00000000"},{"id":36942,"name":"Sanet y Negrals","native":null,"lat":"38.81967000","lon":"-0.03406000"},{"id":152190,"name":"Sant Joan dAlacant","native":null,"lat":"0.00000000","lon":"0.00000000"},{"id":37098,"name":"Santa Pola","native":null,"lat":"38.19165000","lon":"-0.56580000"},{"id":37181,"name":"Sax","native":null,"lat":"38.53729000","lon":"-0.81779000"},{"id":37203,"name":"Sella","native":null,"lat":"38.60926000","lon":"-0.27305000"},{"id":37210,"name":"Senija","native":null,"lat":"38.72804000","lon":"0.04176000"},{"id":152192,"name":"Tàrbena","native":null,"lat":"0.00000000","lon":"0.00000000"},{"id":37418,"name":"Teulada","native":null,"lat":"38.72940000","lon":"0.10383000"},{"id":37420,"name":"Tibi","native":null,"lat":"38.53072000","lon":"-0.57776000"},{"id":37444,"name":"Tollos","native":null,"lat":"38.75629000","lon":"-0.27466000"},{"id":37470,"name":"Tormos","native":null,"lat":"38.80143000","lon":"-0.07160000"},{"id":152193,"name":"Torremanzanas/Torre de les Maçanes la","native":null,"lat":"0.00000000","lon":"0.00000000"},{"id":37584,"name":"Torrevieja","native":null,"lat":"37.97872000","lon":"-0.68222000"},{"id":152194,"name":"Vall dAlcalà la","native":null,"lat":"0.00000000","lon":"0.00000000"},{"id":152196,"name":"Vall de Gallinera","native":null,"lat":"0.00000000","lon":"0.00000000"},{"id":152197,"name":"Vall de Laguar la","native":null,"lat":"0.00000000","lon":"0.00000000"},{"id":152195,"name":"Vall dEbo la","native":null,"lat":"0.00000000","lon":"0.00000000"},{"id":152198,"name":"Verger el","native":null,"lat":"0.00000000","lon":"0.00000000"},{"id":152199,"name":"Villajoyosa/Vila Joiosa la","native":null,"lat":"0.00000000","lon":"0.00000000"},{"id":38369,"name":"Villena","native":null,"lat":"38.63730000","lon":"-0.86568000"},{"id":152175,"name":"Xaló","native":null,"lat":"0.00000000","lon":"0.00000000"}]},{"id":5095,"name":"Almeria","native":null,"cities":[{"id":31915,"name":"Abla","native":null,"lat":"37.14245000","lon":"-2.77808000"},{"id":31918,"name":"Abrucena","native":null,"lat":"37.13226000","lon":"-2.79711000"},{"id":31936,"name":"Adra","native":null,"lat":"36.74961000","lon":"-3.02055000"},{"id":32063,"name":"Albánchez","native":null,"lat":"37.28361000","lon":"-2.18229000"},{"id":151347,"name":"Alboloduy","native":null,"lat":"0.00000000","lon":"0.00000000"},{"id":32056,"name":"Albox","native":null,"lat":"37.38856000","lon":"-2.14949000"},{"id":32103,"name":"Alcolea","native":null,"lat":"36.97458000","lon":"-2.96150000"},{"id":32138,"name":"Alcóntar","native":null,"lat":"37.33647000","lon":"-2.59725000"},{"id":32130,"name":"Alcudia de Monteagud","native":null,"lat":"37.23529000","lon":"-2.26650000"},{"id":32232,"name":"Alhabia","native":null,"lat":"36.99003000","lon":"-2.58655000"},{"id":32233,"name":"Alhama de Almería","native":null,"lat":"36.95692000","lon":"-2.56861000"},{"id":32245,"name":"Alicún","native":null,"lat":"36.96580000","lon":"-2.60212000"},{"id":32290,"name":"Almería","native":null,"lat":"37.16667000","lon":"-2.33333000"},{"id":32316,"name":"Almócita","native":null,"lat":"37.00262000","lon":"-2.79051000"},{"id":32336,"name":"Alsodux","native":null,"lat":"37.00247000","lon":"-2.59476000"},{"id":32390,"name":"Antas","native":null,"lat":"37.24536000","lon":"-1.91760000"},{"id":32426,"name":"Arboleas","native":null,"lat":"37.35024000","lon":"-2.07384000"},{"id":32491,"name":"Armuña de Almanzora","native":null,"lat":"37.35030000","lon":"-2.41150000"},{"id":151348,"name":"Bacares","native":null,"lat":"0.00000000","lon":"0.00000000"},{"id":32699,"name":"Bayárcal","native":null,"lat":"37.03073000","lon":"-2.99606000"},{"id":32696,"name":"Bayarque","native":null,"lat":"37.33062000","lon":"-2.43610000"},{"id":33057,"name":"Bédar","native":null,"lat":"37.19389000","lon":"-1.98166000"},{"id":32732,"name":"Beires","native":null,"lat":"37.01237000","lon":"-2.79134000"},{"id":32762,"name":"Benahadux","native":null,"lat":"36.92493000","lon":"-2.45941000"},{"id":32823,"name":"Benitagla","native":null,"lat":"37.23138000","lon":"-2.23935000"},{"id":32824,"name":"Benizalón","native":null,"lat":"37.21213000","lon":"-2.24180000"},{"id":32827,"name":"Bentarique","native":null,"lat":"36.98823000","lon":"-2.61991000"},{"id":32853,"name":"Berja","native":null,"lat":"36.84693000","lon":"-2.94966000"},{"id":33245,"name":"Canjáyar","native":null,"lat":"37.00959000","lon":"-2.73943000"},{"id":33260,"name":"Cantoria","native":null,"lat":"37.35146000","lon":"-2.19209000"},{"id":33285,"name":"Carboneras","native":null,"lat":"36.99666000","lon":"-1.89651000"},{"id":33488,"name":"Castro de Filabres","native":null,"lat":"37.18484000","lon":"-2.44024000"},{"id":33627,"name":"Chercos","native":null,"lat":"37.25450000","lon":"-2.26657000"},{"id":33643,"name":"Chirivel","native":null,"lat":"37.59527000","lon":"-2.26844000"},{"id":33902,"name":"Cóbdar","native":null,"lat":"37.26166000","lon":"-2.21098000"},{"id":33876,"name":"Cuevas del Almanzora","native":null,"lat":"37.29678000","lon":"-1.88218000"},{"id":33911,"name":"Dalías","native":null,"lat":"36.82179000","lon":"-2.87138000"},{"id":151359,"name":"Ejido El","native":null,"lat":"0.00000000","lon":"0.00000000"},{"id":34060,"name":"Enix","native":null,"lat":"36.87732000","lon":"-2.60180000"},{"id":151349,"name":"Felix","native":null,"lat":"0.00000000","lon":"0.00000000"},{"id":34194,"name":"Fiñana","native":null,"lat":"37.17150000","lon":"-2.84011000"},{"id":34188,"name":"Fines","native":null,"lat":"37.36074000","lon":"-2.25810000"},{"id":34205,"name":"Fondón","native":null,"lat":"36.98020000","lon":"-2.85957000"},{"id":34558,"name":"Gádor","native":null,"lat":"36.95322000","lon":"-2.49254000"},{"id":151350,"name":"Gallardos Los","native":null,"lat":"0.00000000","lon":"0.00000000"},{"id":34427,"name":"Garrucha","native":null,"lat":"37.18141000","lon":"-1.82252000"},{"id":34562,"name":"Gérgal","native":null,"lat":"37.11886000","lon":"-2.54012000"},{"id":34706,"name":"Huécija","native":null,"lat":"36.96804000","lon":"-2.60941000"},{"id":34711,"name":"Huércal de Almería","native":null,"lat":"36.88507000","lon":"-2.43760000"},{"id":34712,"name":"Huércal-Overa","native":null,"lat":"37.38918000","lon":"-1.94300000"},{"id":34746,"name":"Illar","native":null,"lat":"36.98562000","lon":"-2.63871000"},{"id":34757,"name":"Instinción","native":null,"lat":"36.99344000","lon":"-2.66046000"},{"id":34977,"name":"Laroya","native":null,"lat":"37.29771000","lon":"-2.33419000"},{"id":35004,"name":"Laujar de Andarax","native":null,"lat":"36.99516000","lon":"-2.89033000"},{"id":151351,"name":"Líjar","native":null,"lat":"0.00000000","lon":"0.00000000"},{"id":35147,"name":"Lubrín","native":null,"lat":"37.21538000","lon":"-2.06677000"},{"id":35148,"name":"Lucainena de las Torres","native":null,"lat":"37.04037000","lon":"-2.20095000"},{"id":35177,"name":"Lúcar","native":null,"lat":"37.40035000","lon":"-2.42496000"},{"id":35179,"name":"Macael","native":null,"lat":"37.33318000","lon":"-2.30087000"},{"id":35312,"name":"María","native":null,"lat":"37.71023000","lon":"-2.16454000"},{"id":35473,"name":"Mojacar","native":null,"lat":"37.14020000","lon":"-1.85102000"},{"id":151360,"name":"Mojonera La","native":null,"lat":"0.00000000","lon":"0.00000000"},{"id":151352,"name":"Nacimiento","native":null,"lat":"0.00000000","lon":"0.00000000"},{"id":35844,"name":"Níjar","native":null,"lat":"36.96655000","lon":"-2.20595000"},{"id":35863,"name":"Ohanes","native":null,"lat":"37.03861000","lon":"-2.74524000"},{"id":35914,"name":"Olula de Castro","native":null,"lat":"37.17475000","lon":"-2.47430000"},{"id":35915,"name":"Olula del Río","native":null,"lat":"37.35445000","lon":"-2.29754000"},{"id":35948,"name":"Oria","native":null,"lat":"37.48530000","lon":"-2.29292000"},{"id":35997,"name":"Padules","native":null,"lat":"36.99813000","lon":"-2.77367000"},{"id":36072,"name":"Partaloa","native":null,"lat":"37.40764000","lon":"-2.22526000"},{"id":36081,"name":"Paterna del Río","native":null,"lat":"37.02222000","lon":"-2.95343000"},{"id":151353,"name":"Pechina","native":null,"lat":"0.00000000","lon":"0.00000000"},{"id":36469,"name":"Pulpí","native":null,"lat":"37.41154000","lon":"-1.74496000"},{"id":36475,"name":"Purchena","native":null,"lat":"37.34744000","lon":"-2.36080000"},{"id":36714,"name":"Rágol","native":null,"lat":"36.99523000","lon":"-2.68178000"},{"id":36630,"name":"Rioja","native":null,"lat":"36.94508000","lon":"-2.46302000"},{"id":36675,"name":"Roquetas de Mar","native":null,"lat":"36.76419000","lon":"-2.61475000"},{"id":151354,"name":"Santa Cruz de Marchena","native":null,"lat":"0.00000000","lon":"0.00000000"},{"id":37059,"name":"Santa Fe de Mondújar","native":null,"lat":"36.97479000","lon":"-2.53126000"},{"id":151355,"name":"Senés","native":null,"lat":"0.00000000","lon":"0.00000000"},{"id":37228,"name":"Serón","native":null,"lat":"37.34485000","lon":"-2.50913000"},{"id":37248,"name":"Sierro","native":null,"lat":"37.32237000","lon":"-2.39844000"},{"id":37288,"name":"Somontín","native":null,"lat":"37.39176000","lon":"-2.38828000"},{"id":37298,"name":"Sorbas","native":null,"lat":"37.09761000","lon":"-2.12349000"},{"id":37331,"name":"Suflí","native":null,"lat":"37.33866000","lon":"-2.38817000"},{"id":37343,"name":"Tabernas","native":null,"lat":"37.04992000","lon":"-2.39084000"},{"id":151356,"name":"Taberno","native":null,"lat":"0.00000000","lon":"0.00000000"},{"id":37350,"name":"Tahal","native":null,"lat":"37.22797000","lon":"-2.28470000"},{"id":37406,"name":"Terque","native":null,"lat":"36.98393000","lon":"-2.59679000"},{"id":37667,"name":"Tíjola","native":null,"lat":"37.34606000","lon":"-2.43326000"},{"id":151358,"name":"Tres Villas Las","native":null,"lat":"0.00000000","lon":"0.00000000"},{"id":37656,"name":"Turre","native":null,"lat":"37.15224000","lon":"-1.89497000"},{"id":37657,"name":"Turrillas","native":null,"lat":"37.02948000","lon":"-2.26607000"},{"id":37679,"name":"Uleila del Campo","native":null,"lat":"37.18460000","lon":"-2.20491000"},{"id":37697,"name":"Urrácal","native":null,"lat":"37.39740000","lon":"-2.36485000"},{"id":37926,"name":"Velefique","native":null,"lat":"37.19407000","lon":"-2.40155000"},{"id":38415,"name":"Vélez-Blanco","native":null,"lat":"37.69178000","lon":"-2.09587000"},{"id":151357,"name":"Vélez-Rubio","native":null,"lat":"0.00000000","lon":"0.00000000"},{"id":37947,"name":"Vera","native":null,"lat":"37.24345000","lon":"-1.85905000"},{"id":37961,"name":"Viator","native":null,"lat":"36.89006000","lon":"-2.42695000"},{"id":38417,"name":"Vícar","native":null,"lat":"36.83155000","lon":"-2.64273000"},{"id":38510,"name":"Zurgena","native":null,"lat":"37.34218000","lon":"-2.03985000"}]},{"id":5093,"name":"Araba","native":null,"cities":[{"id":151219,"name":"Alegría-Dulantzi","native":null,"lat":"0.00000000","lon":"0.00000000"},{"id":32361,"name":"Amurrio","native":null,"lat":"43.05000000","lon":"-3.00000000"},{"id":151245,"name":"Añana","native":null,"lat":"0.00000000","lon":"0.00000000"},{"id":151220,"name":"Aramaio","native":null,"lat":"0.00000000","lon":"0.00000000"},{"id":32489,"name":"Armiñón","native":null,"lat":"42.72313000","lon":"-2.87172000"},{"id":151238,"name":"Arraia-Maeztu","native":null,"lat":"0.00000000","lon":"0.00000000"},{"id":151222,"name":"Arrazua-Ubarrundia","native":null,"lat":"0.00000000","lon":"0.00000000"},{"id":151221,"name":"Artziniega","native":null,"lat":"0.00000000","lon":"0.00000000"},{"id":151223,"name":"Asparrena","native":null,"lat":"0.00000000","lon":"0.00000000"},{"id":151224,"name":"Ayala/Aiara","native":null,"lat":"0.00000000","lon":"0.00000000"},{"id":151225,"name":"Baños de Ebro/Mañueta","native":null,"lat":"0.00000000","lon":"0.00000000"},{"id":151226,"name":"Barrundia","native":null,"lat":"0.00000000","lon":"0.00000000"},{"id":32832,"name":"Berantevilla","native":null,"lat":"42.68254000","lon":"-2.85832000"},{"id":151227,"name":"Bernedo","native":null,"lat":"0.00000000","lon":"0.00000000"},{"id":151228,"name":"Campezo/Kanpezu","native":null,"lat":"0.00000000","lon":"0.00000000"},{"id":151232,"name":"Elburgo/Burgelu","native":null,"lat":"0.00000000","lon":"0.00000000"},{"id":34032,"name":"Elciego","native":null,"lat":"42.51569000","lon":"-2.61897000"},{"id":151233,"name":"Elvillar/Bilar","native":null,"lat":"0.00000000","lon":"0.00000000"},{"id":151243,"name":"Erriberagoitia/Ribera Alta","native":null,"lat":"0.00000000","lon":"0.00000000"},{"id":151250,"name":"Harana/Valle de Arana","native":null,"lat":"0.00000000","lon":"0.00000000"},{"id":151257,"name":"Iruña Oka/Iruña de Oca","native":null,"lat":"0.00000000","lon":"0.00000000"},{"id":151234,"name":"Iruraiz-Gauna","native":null,"lat":"0.00000000","lon":"0.00000000"},{"id":151230,"name":"Kripan","native":null,"lat":"0.00000000","lon":"0.00000000"},{"id":151231,"name":"Kuartango","native":null,"lat":"0.00000000","lon":"0.00000000"},{"id":151235,"name":"Labastida/Bastida","native":null,"lat":"0.00000000","lon":"0.00000000"},{"id":34942,"name":"Lagrán","native":null,"lat":"42.62625000","lon":"-2.58385000"},{"id":34943,"name":"Laguardia","native":null,"lat":"42.55461000","lon":"-2.58528000"},{"id":151236,"name":"Lanciego/Lantziego","native":null,"lat":"0.00000000","lon":"0.00000000"},{"id":151258,"name":"Lantarón","native":null,"lat":"0.00000000","lon":"0.00000000"},{"id":34973,"name":"Lapuebla de Labarca","native":null,"lat":"42.49455000","lon":"-2.57341000"},{"id":151237,"name":"Laudio/Llodio","native":null,"lat":"0.00000000","lon":"0.00000000"},{"id":151252,"name":"Legutio","native":null,"lat":"0.00000000","lon":"0.00000000"},{"id":35039,"name":"Leza","native":null,"lat":"42.56552000","lon":"-2.63324000"},{"id":151239,"name":"Moreda de Álava/Moreda Araba","native":null,"lat":"0.00000000","lon":"0.00000000"},{"id":35770,"name":"Navaridas","native":null,"lat":"42.54566000","lon":"-2.62650000"},{"id":151240,"name":"Okondo","native":null,"lat":"0.00000000","lon":"0.00000000"},{"id":151241,"name":"Oyón-Oion","native":null,"lat":"0.00000000","lon":"0.00000000"},{"id":151242,"name":"Peñacerrada-Urizaharra","native":null,"lat":"0.00000000","lon":"0.00000000"},{"id":151244,"name":"Ribera Baja/Erribera Beitia","native":null,"lat":"0.00000000","lon":"0.00000000"},{"id":151246,"name":"Salvatierra/Agurain","native":null,"lat":"0.00000000","lon":"0.00000000"},{"id":36789,"name":"Samaniego","native":null,"lat":"42.56854000","lon":"-2.67974000"},{"id":151247,"name":"San Millán/Donemiliaga","native":null,"lat":"0.00000000","lon":"0.00000000"},{"id":151248,"name":"Urkabustaiz","native":null,"lat":"0.00000000","lon":"0.00000000"},{"id":151249,"name":"Valdegovía/Gaubea","native":null,"lat":"0.00000000","lon":"0.00000000"},{"id":151251,"name":"Villabuena de Álava/Eskuernaga","native":null,"lat":"0.00000000","lon":"0.00000000"},{"id":151253,"name":"Vitoria-Gasteiz","native":null,"lat":"0.00000000","lon":"0.00000000"},{"id":151254,"name":"Yécora/Iekora","native":null,"lat":"0.00000000","lon":"0.00000000"},{"id":151255,"name":"Zalduondo","native":null,"lat":"0.00000000","lon":"0.00000000"},{"id":38464,"name":"Zambrana","native":null,"lat":"42.66102000","lon":"-2.87909000"},{"id":151229,"name":"Zigoitia","native":null,"lat":"0.00000000","lon":"0.00000000"},{"id":151256,"name":"Zuia","native":null,"lat":"0.00000000","lon":"0.00000000"}]},{"id":1160,"name":"Asturias","native":null,"cities":[{"id":152574,"name":"Allande","native":null,"lat":"0.00000000","lon":"0.00000000"},{"id":152575,"name":"Aller","native":null,"lat":"0.00000000","lon":"0.00000000"},{"id":152576,"name":"Amieva","native":null,"lat":"0.00000000","lon":"0.00000000"},{"id":152577,"name":"Avilés","native":null,"lat":"0.00000000","lon":"0.00000000"},{"id":152578,"name":"Belmonte de Miranda","native":null,"lat":"0.00000000","lon":"0.00000000"},{"id":152579,"name":"Bimenes","native":null,"lat":"0.00000000","lon":"0.00000000"},{"id":152580,"name":"Boal","native":null,"lat":"0.00000000","lon":"0.00000000"},{"id":152581,"name":"Cabrales","native":null,"lat":"0.00000000","lon":"0.00000000"},{"id":152582,"name":"Cabranes","native":null,"lat":"0.00000000","lon":"0.00000000"},{"id":152583,"name":"Candamo","native":null,"lat":"0.00000000","lon":"0.00000000"},{"id":152585,"name":"Cangas de Onís","native":null,"lat":"0.00000000","lon":"0.00000000"},{"id":152584,"name":"Cangas del Narcea","native":null,"lat":"0.00000000","lon":"0.00000000"},{"id":152586,"name":"Caravia","native":null,"lat":"0.00000000","lon":"0.00000000"},{"id":152587,"name":"Carreño","native":null,"lat":"0.00000000","lon":"0.00000000"},{"id":152588,"name":"Caso","native":null,"lat":"0.00000000","lon":"0.00000000"},{"id":152589,"name":"Castrillón","native":null,"lat":"0.00000000","lon":"0.00000000"},{"id":152590,"name":"Castropol","native":null,"lat":"0.00000000","lon":"0.00000000"},{"id":152591,"name":"Coaña","native":null,"lat":"0.00000000","lon":"0.00000000"},{"id":152592,"name":"Colunga","native":null,"lat":"0.00000000","lon":"0.00000000"},{"id":152593,"name":"Corvera de Asturias","native":null,"lat":"0.00000000","lon":"0.00000000"},{"id":152594,"name":"Cudillero","native":null,"lat":"0.00000000","lon":"0.00000000"},{"id":152595,"name":"Degaña","native":null,"lat":"0.00000000","lon":"0.00000000"},{"id":152596,"name":"Franco El","native":null,"lat":"0.00000000","lon":"0.00000000"},{"id":152597,"name":"Gijón","native":null,"lat":"0.00000000","lon":"0.00000000"},{"id":152598,"name":"Gozón","native":null,"lat":"0.00000000","lon":"0.00000000"},{"id":152599,"name":"Grado","native":null,"lat":"0.00000000","lon":"0.00000000"},{"id":152600,"name":"Grandas de Salime","native":null,"lat":"0.00000000","lon":"0.00000000"},{"id":152601,"name":"Ibias","native":null,"lat":"0.00000000","lon":"0.00000000"},{"id":152602,"name":"Illano","native":null,"lat":"0.00000000","lon":"0.00000000"},{"id":152603,"name":"Illas","native":null,"lat":"0.00000000","lon":"0.00000000"},{"id":152604,"name":"Langreo","native":null,"lat":"0.00000000","lon":"0.00000000"},{"id":152605,"name":"Laviana","native":null,"lat":"0.00000000","lon":"0.00000000"},{"id":152606,"name":"Lena","native":null,"lat":"0.00000000","lon":"0.00000000"},{"id":152608,"name":"Llanera","native":null,"lat":"0.00000000","lon":"0.00000000"},{"id":152609,"name":"Llanes","native":null,"lat":"0.00000000","lon":"0.00000000"},{"id":152610,"name":"Morcín","native":null,"lat":"0.00000000","lon":"0.00000000"},{"id":152611,"name":"Muros de Nalón","native":null,"lat":"0.00000000","lon":"0.00000000"},{"id":152612,"name":"Nava","native":null,"lat":"0.00000000","lon":"0.00000000"},{"id":152613,"name":"Navia","native":null,"lat":"0.00000000","lon":"0.00000000"},{"id":152614,"name":"Noreña","native":null,"lat":"0.00000000","lon":"0.00000000"},{"id":152615,"name":"Onís","native":null,"lat":"0.00000000","lon":"0.00000000"},{"id":152616,"name":"Oviedo","native":null,"lat":"0.00000000","lon":"0.00000000"},{"id":152617,"name":"Parres","native":null,"lat":"0.00000000","lon":"0.00000000"},{"id":152618,"name":"Peñamellera Alta","native":null,"lat":"0.00000000","lon":"0.00000000"},{"id":152619,"name":"Peñamellera Baja","native":null,"lat":"0.00000000","lon":"0.00000000"},{"id":152620,"name":"Pesoz","native":null,"lat":"0.00000000","lon":"0.00000000"},{"id":152621,"name":"Piloña","native":null,"lat":"0.00000000","lon":"0.00000000"},{"id":152622,"name":"Ponga","native":null,"lat":"0.00000000","lon":"0.00000000"},{"id":152623,"name":"Pravia","native":null,"lat":"0.00000000","lon":"0.00000000"},{"id":152624,"name":"Proaza","native":null,"lat":"0.00000000","lon":"0.00000000"},{"id":152625,"name":"Quirós","native":null,"lat":"0.00000000","lon":"0.00000000"},{"id":152626,"name":"Regueras Las","native":null,"lat":"0.00000000","lon":"0.00000000"},{"id":152627,"name":"Ribadedeva","native":null,"lat":"0.00000000","lon":"0.00000000"},{"id":152628,"name":"Ribadesella","native":null,"lat":"0.00000000","lon":"0.00000000"},{"id":152629,"name":"Ribera de Arriba","native":null,"lat":"0.00000000","lon":"0.00000000"},{"id":152630,"name":"Riosa","native":null,"lat":"0.00000000","lon":"0.00000000"},{"id":152631,"name":"Salas","native":null,"lat":"0.00000000","lon":"0.00000000"},{"id":152633,"name":"San Martín de Oscos","native":null,"lat":"0.00000000","lon":"0.00000000"},{"id":152632,"name":"San Martín del Rey Aurelio","native":null,"lat":"0.00000000","lon":"0.00000000"},{"id":152635,"name":"San Tirso de Abres","native":null,"lat":"0.00000000","lon":"0.00000000"},{"id":152634,"name":"Santa Eulalia de Oscos","native":null,"lat":"0.00000000","lon":"0.00000000"},{"id":152636,"name":"Santo Adriano","native":null,"lat":"0.00000000","lon":"0.00000000"},{"id":152637,"name":"Sariego","native":null,"lat":"0.00000000","lon":"0.00000000"},{"id":152638,"name":"Siero","native":null,"lat":"0.00000000","lon":"0.00000000"},{"id":152639,"name":"Sobrescobio","native":null,"lat":"0.00000000","lon":"0.00000000"},{"id":152640,"name":"Somiedo","native":null,"lat":"0.00000000","lon":"0.00000000"},{"id":152641,"name":"Soto del Barco","native":null,"lat":"0.00000000","lon":"0.00000000"},{"id":152642,"name":"Tapia de Casariego","native":null,"lat":"0.00000000","lon":"0.00000000"},{"id":152643,"name":"Taramundi","native":null,"lat":"0.00000000","lon":"0.00000000"},{"id":152644,"name":"Teverga","native":null,"lat":"0.00000000","lon":"0.00000000"},{"id":152645,"name":"Tineo","native":null,"lat":"0.00000000","lon":"0.00000000"},{"id":152607,"name":"Valdés","native":null,"lat":"0.00000000","lon":"0.00000000"},{"id":152646,"name":"Vegadeo","native":null,"lat":"0.00000000","lon":"0.00000000"},{"id":152647,"name":"Villanueva de Oscos","native":null,"lat":"0.00000000","lon":"0.00000000"},{"id":152648,"name":"Villaviciosa","native":null,"lat":"0.00000000","lon":"0.00000000"},{"id":152649,"name":"Villayón","native":null,"lat":"0.00000000","lon":"0.00000000"},{"id":152650,"name":"Yernes y Tameza","native":null,"lat":"0.00000000","lon":"0.00000000"}]},{"id":1189,"name":"Ávila","native":null,"cities":[{"id":31930,"name":"Adanero","native":null,"lat":"40.94487000","lon":"-4.60561000"},{"id":152699,"name":"Adrada La","native":null,"lat":"0.00000000","lon":"0.00000000"},{"id":32055,"name":"Albornos","native":null,"lat":"40.83795000","lon":"-4.88129000"},{"id":32162,"name":"Aldeanueva de Santa Cruz","native":null,"lat":"40.38189000","lon":"-5.42142000"},{"id":32170,"name":"Aldeaseca","native":null,"lat":"41.04912000","lon":"-4.81707000"},{"id":152700,"name":"Aldehuela La","native":null,"lat":"0.00000000","lon":"0.00000000"},{"id":32348,"name":"Amavida","native":null,"lat":"40.57371000","lon":"-5.06541000"},{"id":152701,"name":"Arenal El","native":null,"lat":"0.00000000","lon":"0.00000000"},{"id":32447,"name":"Arenas de San Pedro","native":null,"lat":"40.21041000","lon":"-5.08694000"},{"id":152702,"name":"Arevalillo","native":null,"lat":"0.00000000","lon":"0.00000000"},{"id":32531,"name":"Arévalo","native":null,"lat":"41.06255000","lon":"-4.72042000"},{"id":32564,"name":"Aveinte","native":null,"lat":"40.78227000","lon":"-4.83649000"},{"id":32565,"name":"Avellaneda","native":null,"lat":"40.38909000","lon":"-5.38811000"},{"id":38576,"name":"Ávila","native":null,"lat":"40.65724000","lon":"-4.69951000"},{"id":152703,"name":"Barco de Ávila El","native":null,"lat":"0.00000000","lon":"0.00000000"},{"id":152704,"name":"Barraco El","native":null,"lat":"0.00000000","lon":"0.00000000"},{"id":32680,"name":"Barromán","native":null,"lat":"41.06536000","lon":"-4.93066000"},{"id":32721,"name":"Becedas","native":null,"lat":"40.40369000","lon":"-5.63577000"},{"id":32722,"name":"Becedillas","native":null,"lat":"40.53821000","lon":"-5.32561000"},{"id":32841,"name":"Bercial de Zapardiel","native":null,"lat":"41.04675000","lon":"-4.96910000"},{"id":152705,"name":"Berlanas Las","native":null,"lat":"0.00000000","lon":"0.00000000"},{"id":152706,"name":"Bernuy-Zapardiel","native":null,"lat":"0.00000000","lon":"0.00000000"},{"id":32872,"name":"Berrocalejo de Aragona","native":null,"lat":"40.69436000","lon":"-4.59474000"},{"id":32910,"name":"Blascomillán","native":null,"lat":"40.80146000","lon":"-5.08703000"},{"id":152707,"name":"Blasconuño de Matacabras","native":null,"lat":"0.00000000","lon":"0.00000000"},{"id":32911,"name":"Blascosancho","native":null,"lat":"40.87744000","lon":"-4.63743000"},{"id":152708,"name":"Bohodón El","native":null,"lat":"0.00000000","lon":"0.00000000"},{"id":32932,"name":"Bohoyo","native":null,"lat":"40.31584000","lon":"-5.44294000"},{"id":32948,"name":"Bonilla de la Sierra","native":null,"lat":"40.53063000","lon":"-5.26452000"},{"id":32968,"name":"Brabos","native":null,"lat":"40.77846000","lon":"-4.93934000"},{"id":152709,"name":"Bularros","native":null,"lat":"0.00000000","lon":"0.00000000"},{"id":33025,"name":"Burgohondo","native":null,"lat":"40.41416000","lon":"-4.78509000"},{"id":33085,"name":"Cabezas de Alambre","native":null,"lat":"40.94218000","lon":"-4.84184000"},{"id":33086,"name":"Cabezas del Pozo","native":null,"lat":"41.00139000","lon":"-4.95453000"},{"id":33087,"name":"Cabezas del Villar","native":null,"lat":"40.71557000","lon":"-5.20956000"},{"id":33096,"name":"Cabizuela","native":null,"lat":"40.90090000","lon":"-4.80212000"},{"id":33222,"name":"Canales","native":null,"lat":"41.00331000","lon":"-4.90163000"},{"id":33228,"name":"Candeleda","native":null,"lat":"40.15521000","lon":"-5.24045000"},{"id":33259,"name":"Cantiveros","native":null,"lat":"40.95215000","lon":"-4.95455000"},{"id":33301,"name":"Cardeñosa","native":null,"lat":"40.74240000","lon":"-4.74579000"},{"id":152710,"name":"Carrera La","native":null,"lat":"0.00000000","lon":"0.00000000"},{"id":152711,"name":"Casas del Puerto","native":null,"lat":"0.00000000","lon":"0.00000000"},{"id":152712,"name":"Casasola","native":null,"lat":"0.00000000","lon":"0.00000000"},{"id":33382,"name":"Casavieja","native":null,"lat":"40.28325000","lon":"-4.76670000"},{"id":33388,"name":"Casillas","native":null,"lat":"40.32610000","lon":"-4.57182000"},{"id":33417,"name":"Castellanos de Zapardiel","native":null,"lat":"41.08450000","lon":"-4.90984000"},{"id":33551,"name":"Cebreros","native":null,"lat":"40.45835000","lon":"-4.46433000"},{"id":33577,"name":"Cepeda la Mora","native":null,"lat":"40.45780000","lon":"-5.04833000"},{"id":33614,"name":"Chamartín","native":null,"lat":"40.70267000","lon":"-4.95769000"},{"id":33615,"name":"Chamartín","native":null,"lat":"40.46206000","lon":"-3.67660000"},{"id":33672,"name":"Cillán","native":null,"lat":"40.70675000","lon":"-4.98135000"},{"id":33690,"name":"Cisla","native":null,"lat":"40.96662000","lon":"-5.01405000"},{"id":152713,"name":"Colilla La","native":null,"lat":"0.00000000","lon":"0.00000000"},{"id":33734,"name":"Collado de Contreras","native":null,"lat":"40.88743000","lon":"-4.93140000"},{"id":33735,"name":"Collado del Mirón","native":null,"lat":"40.55307000","lon":"-5.35398000"},{"id":33767,"name":"Constanzana","native":null,"lat":"40.93821000","lon":"-4.87515000"},{"id":33834,"name":"Crespos","native":null,"lat":"40.87128000","lon":"-4.97094000"},{"id":33879,"name":"Cuevas del Valle","native":null,"lat":"40.29418000","lon":"-5.00938000"},{"id":152753,"name":"Diego del Carpio","native":null,"lat":"0.00000000","lon":"0.00000000"},{"id":33945,"name":"Donjimeno","native":null,"lat":"40.95978000","lon":"-4.84627000"},{"id":33947,"name":"Donvidas","native":null,"lat":"41.08954000","lon":"-4.80634000"},{"id":152714,"name":"Espinosa de los Caballeros","native":null,"lat":"0.00000000","lon":"0.00000000"},{"id":34196,"name":"Flores de Ávila","native":null,"lat":"40.93358000","lon":"-5.07914000"},{"id":34217,"name":"Fontiveros","native":null,"lat":"40.92997000","lon":"-4.96445000"},{"id":34248,"name":"Fresnedilla","native":null,"lat":"40.23233000","lon":"-4.62201000"},{"id":152715,"name":"Fresno El","native":null,"lat":"0.00000000","lon":"0.00000000"},{"id":152716,"name":"Fuente el Saúz","native":null,"lat":"0.00000000","lon":"0.00000000"},{"id":34340,"name":"Fuentes de Año","native":null,"lat":"41.01769000","lon":"-4.89907000"},{"id":152717,"name":"Gallegos de Altamiros","native":null,"lat":"0.00000000","lon":"0.00000000"},{"id":34389,"name":"Gallegos de Sobrinos","native":null,"lat":"40.71693000","lon":"-5.11224000"},{"id":34416,"name":"Garganta del Villar","native":null,"lat":"40.44965000","lon":"-5.10420000"},{"id":34440,"name":"Gavilanes","native":null,"lat":"40.27791000","lon":"-4.85321000"},{"id":34450,"name":"Gemuño","native":null,"lat":"40.59159000","lon":"-4.78178000"},{"id":152719,"name":"Gil García","native":null,"lat":"0.00000000","lon":"0.00000000"},{"id":152718,"name":"Gilbuena","native":null,"lat":"0.00000000","lon":"0.00000000"},{"id":34465,"name":"Gimialcón","native":null,"lat":"40.87705000","lon":"-5.12308000"},{"id":34489,"name":"Gotarrendura","native":null,"lat":"40.82652000","lon":"-4.74090000"},{"id":152720,"name":"Grandes y San Martín","native":null,"lat":"0.00000000","lon":"0.00000000"},{"id":34551,"name":"Guisando","native":null,"lat":"40.22225000","lon":"-5.13950000"},{"id":34556,"name":"Gutierre-Muñoz","native":null,"lat":"40.98295000","lon":"-4.63839000"},{"id":34589,"name":"Hernansancho","native":null,"lat":"40.85753000","lon":"-4.73045000"},{"id":152721,"name":"Herradón de Pinares","native":null,"lat":"0.00000000","lon":"0.00000000"},{"id":34600,"name":"Herreros de Suso","native":null,"lat":"40.80361000","lon":"-5.03892000"},{"id":34613,"name":"Higuera de las Dueñas","native":null,"lat":"40.23903000","lon":"-4.60361000"},{"id":152722,"name":"Hija de Dios La","native":null,"lat":"0.00000000","lon":"0.00000000"},{"id":152723,"name":"Horcajada La","native":null,"lat":"0.00000000","lon":"0.00000000"},{"id":34653,"name":"Horcajo de las Torres","native":null,"lat":"41.06497000","lon":"-5.09092000"},{"id":152724,"name":"Hornillo El","native":null,"lat":"0.00000000","lon":"0.00000000"},{"id":152725,"name":"Hoyo de Pinares El","native":null,"lat":"0.00000000","lon":"0.00000000"},{"id":34675,"name":"Hoyocasero","native":null,"lat":"40.39890000","lon":"-4.97455000"},{"id":34676,"name":"Hoyorredondo","native":null,"lat":"40.46270000","lon":"-5.41097000"},{"id":34678,"name":"Hoyos de Miguel Muñoz","native":null,"lat":"40.39237000","lon":"-5.06713000"},{"id":34679,"name":"Hoyos del Collado","native":null,"lat":"40.35945000","lon":"-5.20027000"},{"id":34680,"name":"Hoyos del Espino","native":null,"lat":"40.35623000","lon":"-5.17505000"},{"id":34704,"name":"Hurtumpascual","native":null,"lat":"40.69200000","lon":"-5.11379000"},{"id":34830,"name":"Junciana","native":null,"lat":"40.41076000","lon":"-5.55698000"},{"id":34962,"name":"Langa","native":null,"lat":"41.00550000","lon":"-4.85946000"},{"id":152726,"name":"Lanzahíta","native":null,"lat":"0.00000000","lon":"0.00000000"},{"id":152728,"name":"Llanos de Tormes Los","native":null,"lat":"0.00000000","lon":"0.00000000"},{"id":152727,"name":"Losar del Barco El","native":null,"lat":"0.00000000","lon":"0.00000000"},{"id":35190,"name":"Madrigal de las Altas Torres","native":null,"lat":"41.08968000","lon":"-4.99863000"},{"id":35198,"name":"Maello","native":null,"lat":"40.80929000","lon":"-4.51186000"},{"id":35226,"name":"Malpartida de Corneja","native":null,"lat":"40.52208000","lon":"-5.35026000"},{"id":35235,"name":"Mamblas","native":null,"lat":"41.01925000","lon":"-5.00873000"},{"id":35241,"name":"Mancera de Arriba","native":null,"lat":"40.79139000","lon":"-5.14772000"},{"id":35252,"name":"Manjabálago","native":null,"lat":"40.66441000","lon":"-5.07719000"},{"id":152729,"name":"Marlín","native":null,"lat":"0.00000000","lon":"0.00000000"},{"id":35299,"name":"Martiherrero","native":null,"lat":"40.67392000","lon":"-4.78156000"},{"id":35309,"name":"Martínez","native":null,"lat":"40.63046000","lon":"-5.34801000"},{"id":35368,"name":"Mediana de Voltoya","native":null,"lat":"40.70104000","lon":"-4.56341000"},{"id":35375,"name":"Medinilla","native":null,"lat":"40.43967000","lon":"-5.61772000"},{"id":35404,"name":"Mengamuñoz","native":null,"lat":"40.50006000","lon":"-4.99983000"},{"id":35409,"name":"Mesegar de Corneja","native":null,"lat":"40.50209000","lon":"-5.30131000"},{"id":35426,"name":"Mijares","native":null,"lat":"40.29655000","lon":"-4.83651000"},{"id":35438,"name":"Mingorría","native":null,"lat":"40.75192000","lon":"-4.66583000"},{"id":152730,"name":"Mirón El","native":null,"lat":"0.00000000","lon":"0.00000000"},{"id":35455,"name":"Mironcillo","native":null,"lat":"40.55435000","lon":"-4.82449000"},{"id":152731,"name":"Mirueña de los Infanzones","native":null,"lat":"0.00000000","lon":"0.00000000"},{"id":35491,"name":"Mombeltrán","native":null,"lat":"40.25987000","lon":"-5.01749000"},{"id":35526,"name":"Monsalupe","native":null,"lat":"40.76953000","lon":"-4.78131000"},{"id":35603,"name":"Moraleja de Matacabras","native":null,"lat":"41.10732000","lon":"-4.95717000"},{"id":35692,"name":"Muñana","native":null,"lat":"40.59042000","lon":"-5.01447000"},{"id":35693,"name":"Muñico","native":null,"lat":"40.70678000","lon":"-5.02717000"},{"id":35694,"name":"Muñogalindo","native":null,"lat":"40.60324000","lon":"-4.89895000"},{"id":35695,"name":"Muñogrande","native":null,"lat":"40.82181000","lon":"-4.92223000"},{"id":35696,"name":"Muñomer del Peco","native":null,"lat":"40.85878000","lon":"-4.87992000"},{"id":35698,"name":"Muñopepe","native":null,"lat":"40.63408000","lon":"-4.81876000"},{"id":35699,"name":"Muñosancho","native":null,"lat":"40.92097000","lon":"-5.03559000"},{"id":35700,"name":"Muñotello","native":null,"lat":"40.54236000","lon":"-5.04187000"},{"id":35714,"name":"Narrillos del Álamo","native":null,"lat":"40.56673000","lon":"-5.46584000"},{"id":35713,"name":"Narrillos del Rebollar","native":null,"lat":"40.66488000","lon":"-4.96577000"},{"id":35717,"name":"Narros de Saldueña","native":null,"lat":"40.87268000","lon":"-4.86909000"},{"id":35718,"name":"Narros del Castillo","native":null,"lat":"40.85869000","lon":"-5.06010000"},{"id":35719,"name":"Narros del Puerto","native":null,"lat":"40.54131000","lon":"-4.99291000"},{"id":35721,"name":"Nava de Arévalo","native":null,"lat":"40.97803000","lon":"-4.77573000"},{"id":35727,"name":"Nava del Barco","native":null,"lat":"40.29321000","lon":"-5.54022000"},{"id":35730,"name":"Navacepedilla de Corneja","native":null,"lat":"40.48602000","lon":"-5.18380000"},{"id":35733,"name":"Navadijos","native":null,"lat":"40.42524000","lon":"-5.08285000"},{"id":35734,"name":"Navaescurial","native":null,"lat":"40.47163000","lon":"-5.27756000"},{"id":35737,"name":"Navahondilla","native":null,"lat":"40.32510000","lon":"-4.49661000"},{"id":35741,"name":"Navalacruz","native":null,"lat":"40.43993000","lon":"-4.93122000"},{"id":35750,"name":"Navalmoral","native":null,"lat":"40.46028000","lon":"-4.76859000"},{"id":152732,"name":"Navalonguilla","native":null,"lat":"0.00000000","lon":"0.00000000"},{"id":35754,"name":"Navalosa","native":null,"lat":"40.40212000","lon":"-4.92999000"},{"id":35755,"name":"Navalperal de Pinares","native":null,"lat":"40.59398000","lon":"-4.41149000"},{"id":35756,"name":"Navalperal de Tormes","native":null,"lat":"40.35280000","lon":"-5.30084000"},{"id":35759,"name":"Navaluenga","native":null,"lat":"40.41123000","lon":"-4.70897000"},{"id":35764,"name":"Navaquesera","native":null,"lat":"40.42558000","lon":"-4.91108000"},{"id":35771,"name":"Navarredonda de Gredos","native":null,"lat":"40.36136000","lon":"-5.13268000"},{"id":35773,"name":"Navarredondilla","native":null,"lat":"40.45416000","lon":"-4.82199000"},{"id":35774,"name":"Navarrevisca","native":null,"lat":"40.36417000","lon":"-4.89352000"},{"id":152733,"name":"Navas del Marqués Las","native":null,"lat":"0.00000000","lon":"0.00000000"},{"id":35787,"name":"Navatalgordo","native":null,"lat":"40.41520000","lon":"-4.87155000"},{"id":35788,"name":"Navatejares","native":null,"lat":"40.33602000","lon":"-5.53220000"},{"id":35800,"name":"Neila de San Miguel","native":null,"lat":"40.42372000","lon":"-5.65090000"},{"id":35811,"name":"Niharra","native":null,"lat":"40.58945000","lon":"-4.83895000"},{"id":35869,"name":"Ojos-Albos","native":null,"lat":"40.70596000","lon":"-4.51633000"},{"id":35934,"name":"Orbita","native":null,"lat":"40.99846000","lon":"-4.64833000"},{"id":152734,"name":"Oso El","native":null,"lat":"0.00000000","lon":"0.00000000"},{"id":35990,"name":"Padiernos","native":null,"lat":"40.62168000","lon":"-4.84523000"},{"id":36000,"name":"Pajares de Adaja","native":null,"lat":"40.92398000","lon":"-4.64048000"},{"id":36006,"name":"Palacios de Goda","native":null,"lat":"41.11798000","lon":"-4.78496000"},{"id":36051,"name":"Papatrigo","native":null,"lat":"40.86790000","lon":"-4.83399000"},{"id":152735,"name":"Parral El","native":null,"lat":"0.00000000","lon":"0.00000000"},{"id":152736,"name":"Pascualcobo","native":null,"lat":"0.00000000","lon":"0.00000000"},{"id":36099,"name":"Pedro Bernardo","native":null,"lat":"40.24214000","lon":"-4.90963000"},{"id":152737,"name":"Pedro-Rodríguez","native":null,"lat":"0.00000000","lon":"0.00000000"},{"id":36117,"name":"Peguerinos","native":null,"lat":"40.62620000","lon":"-4.23154000"},{"id":36166,"name":"Peñalba de Ávila","native":null,"lat":"40.77266000","lon":"-4.74595000"},{"id":152738,"name":"Piedrahíta","native":null,"lat":"0.00000000","lon":"0.00000000"},{"id":36182,"name":"Piedralaves","native":null,"lat":"40.31721000","lon":"-4.70025000"},{"id":36306,"name":"Poveda","native":null,"lat":"40.56799000","lon":"-5.07909000"},{"id":36310,"name":"Poyales del Hoyo","native":null,"lat":"40.17254000","lon":"-5.16597000"},{"id":36315,"name":"Pozanco","native":null,"lat":"40.80095000","lon":"-4.66772000"},{"id":36349,"name":"Pradosegar","native":null,"lat":"40.55020000","lon":"-5.07015000"},{"id":36444,"name":"Puerto Castilla","native":null,"lat":"40.28800000","lon":"-5.62366000"},{"id":36550,"name":"Rasueros","native":null,"lat":"41.02344000","lon":"-5.07377000"},{"id":152739,"name":"Riocabado","native":null,"lat":"0.00000000","lon":"0.00000000"},{"id":152740,"name":"Riofrío","native":null,"lat":"0.00000000","lon":"0.00000000"},{"id":36640,"name":"Rivilla de Barajas","native":null,"lat":"40.90210000","lon":"-4.98836000"},{"id":36772,"name":"Salobral","native":null,"lat":"40.61179000","lon":"-4.81013000"},{"id":36781,"name":"Salvadiós","native":null,"lat":"40.87836000","lon":"-5.09629000"},{"id":36807,"name":"San Bartolomé de Béjar","native":null,"lat":"40.40783000","lon":"-5.66261000"},{"id":36808,"name":"San Bartolomé de Corneja","native":null,"lat":"40.49257000","lon":"-5.38519000"},{"id":152741,"name":"San Bartolomé de Pinares","native":null,"lat":"0.00000000","lon":"0.00000000"},{"id":36831,"name":"San Esteban de los Patos","native":null,"lat":"40.74705000","lon":"-4.62413000"},{"id":152742,"name":"San Esteban de Zapardiel","native":null,"lat":"0.00000000","lon":"0.00000000"},{"id":36833,"name":"San Esteban del Valle","native":null,"lat":"40.27510000","lon":"-4.98215000"},{"id":36837,"name":"San García de Ingelmos","native":null,"lat":"40.76912000","lon":"-5.11523000"},{"id":152751,"name":"San Juan de Gredos","native":null,"lat":"0.00000000","lon":"0.00000000"},{"id":36846,"name":"San Juan de la Encinilla","native":null,"lat":"40.83020000","lon":"-4.83957000"},{"id":36847,"name":"San Juan de la Nava","native":null,"lat":"40.47880000","lon":"-4.68238000"},{"id":36850,"name":"San Juan del Molinillo","native":null,"lat":"40.45909000","lon":"-4.81711000"},{"id":152743,"name":"San Juan del Olmo","native":null,"lat":"0.00000000","lon":"0.00000000"},{"id":36859,"name":"San Lorenzo de Tormes","native":null,"lat":"40.36984000","lon":"-5.48848000"},{"id":36874,"name":"San Martín de la Vega del Alberche","native":null,"lat":"40.43053000","lon":"-5.15500000"},{"id":36876,"name":"San Martín del Pimpollar","native":null,"lat":"40.36830000","lon":"-5.05443000"},{"id":36881,"name":"San Miguel de Corneja","native":null,"lat":"40.48722000","lon":"-5.28654000"},{"id":36884,"name":"San Miguel de Serrezuela","native":null,"lat":"40.67064000","lon":"-5.28857000"},{"id":36898,"name":"San Pascual","native":null,"lat":"40.88141000","lon":"-4.75612000"},{"id":36909,"name":"San Pedro del Arroyo","native":null,"lat":"40.80213000","lon":"-4.87075000"},{"id":36927,"name":"San Vicente de Arévalo","native":null,"lat":"40.96773000","lon":"-4.80194000"},{"id":36935,"name":"Sanchidrián","native":null,"lat":"40.89347000","lon":"-4.58132000"},{"id":36937,"name":"Sanchorreja","native":null,"lat":"40.66475000","lon":"-4.91494000"},{"id":37035,"name":"Santa Cruz de Pinares","native":null,"lat":"40.54265000","lon":"-4.58036000"},{"id":37045,"name":"Santa Cruz del Valle","native":null,"lat":"40.25160000","lon":"-5.00133000"},{"id":37083,"name":"Santa María de los Caballeros","native":null,"lat":"40.38925000","lon":"-5.45112000"},{"id":152744,"name":"Santa María del Arroyo","native":null,"lat":"0.00000000","lon":"0.00000000"},{"id":37084,"name":"Santa María del Berrocal","native":null,"lat":"40.50845000","lon":"-5.40483000"},{"id":152752,"name":"Santa María del Cubillo","native":null,"lat":"0.00000000","lon":"0.00000000"},{"id":152745,"name":"Santa María del Tiétar","native":null,"lat":"0.00000000","lon":"0.00000000"},{"id":37118,"name":"Santiago del Collado","native":null,"lat":"40.43326000","lon":"-5.35631000"},{"id":152754,"name":"Santiago del Tormes","native":null,"lat":"0.00000000","lon":"0.00000000"},{"id":37142,"name":"Santo Domingo de las Posadas","native":null,"lat":"40.81200000","lon":"-4.63383000"},{"id":37144,"name":"Santo Tomé de Zabarcos","native":null,"lat":"40.78726000","lon":"-4.91048000"},{"id":152746,"name":"Serrada La","native":null,"lat":"0.00000000","lon":"0.00000000"},{"id":37224,"name":"Serranillos","native":null,"lat":"40.33625000","lon":"-4.91165000"},{"id":37251,"name":"Sigeres","native":null,"lat":"40.79939000","lon":"-4.93361000"},{"id":37263,"name":"Sinlabajos","native":null,"lat":"41.07650000","lon":"-4.83242000"},{"id":152747,"name":"Solana de Ávila","native":null,"lat":"0.00000000","lon":"0.00000000"},{"id":152748,"name":"Solana de Rioalmar","native":null,"lat":"0.00000000","lon":"0.00000000"},{"id":37284,"name":"Solosancho","native":null,"lat":"40.55294000","lon":"-4.90479000"},{"id":37311,"name":"Sotalbo","native":null,"lat":"40.54170000","lon":"-4.84548000"},{"id":37313,"name":"Sotillo de la Adrada","native":null,"lat":"40.29120000","lon":"-4.58385000"},{"id":152749,"name":"Tiemblo El","native":null,"lat":"0.00000000","lon":"0.00000000"},{"id":37434,"name":"Tiñosillos","native":null,"lat":"40.93400000","lon":"-4.72767000"},{"id":37442,"name":"Tolbaños","native":null,"lat":"40.75168000","lon":"-4.58191000"},{"id":37469,"name":"Tormellas","native":null,"lat":"40.30404000","lon":"-5.51185000"},{"id":37473,"name":"Tornadizos de Ávila","native":null,"lat":"40.62757000","lon":"-4.61426000"},{"id":152750,"name":"Torre La","native":null,"lat":"0.00000000","lon":"0.00000000"},{"id":37669,"name":"Tórtoles","native":null,"lat":"40.56120000","lon":"-5.26120000"},{"id":37686,"name":"Umbrías","native":null,"lat":"40.31530000","lon":"-5.58037000"},{"id":37717,"name":"Vadillo de la Sierra","native":null,"lat":"40.60634000","lon":"-5.12506000"},{"id":37739,"name":"Valdecasa","native":null,"lat":"40.65931000","lon":"-5.01183000"},{"id":37908,"name":"Vega de Santa María","native":null,"lat":"40.83618000","lon":"-4.64287000"},{"id":37925,"name":"Velayos","native":null,"lat":"40.84157000","lon":"-4.62324000"},{"id":38052,"name":"Villaflor","native":null,"lat":"40.75865000","lon":"-4.87379000"},{"id":38059,"name":"Villafranca de la Sierra","native":null,"lat":"40.49806000","lon":"-5.23005000"},{"id":152755,"name":"Villanueva de Ávila","native":null,"lat":"0.00000000","lon":"0.00000000"},{"id":38185,"name":"Villanueva de Gómez","native":null,"lat":"40.88269000","lon":"-4.71650000"},{"id":38211,"name":"Villanueva del Aceral","native":null,"lat":"41.04095000","lon":"-4.85419000"},{"id":38214,"name":"Villanueva del Campillo","native":null,"lat":"40.57646000","lon":"-5.18002000"},{"id":38237,"name":"Villar de Corneja","native":null,"lat":"40.47462000","lon":"-5.43307000"},{"id":38276,"name":"Villarejo del Valle","native":null,"lat":"40.28638000","lon":"-4.99674000"},{"id":38331,"name":"Villatoro","native":null,"lat":"40.55609000","lon":"-5.11262000"},{"id":38409,"name":"Viñegra de Moraña","native":null,"lat":"40.85074000","lon":"-4.92115000"},{"id":38401,"name":"Vita","native":null,"lat":"40.81178000","lon":"-5.00583000"},{"id":38468,"name":"Zapardiel de la Cañada","native":null,"lat":"40.60648000","lon":"-5.33791000"},{"id":38469,"name":"Zapardiel de la Ribera","native":null,"lat":"40.35554000","lon":"-5.32826000"}]},{"id":5092,"name":"Badajoz","native":null,"cities":[{"id":31924,"name":"Acedera","native":null,"lat":"39.07678000","lon":"-5.57384000"},{"id":31926,"name":"Aceuchal","native":null,"lat":"38.64627000","lon":"-6.48636000"},{"id":31977,"name":"Ahillones","native":null,"lat":"38.26667000","lon":"-5.85000000"},{"id":31999,"name":"Alange","native":null,"lat":"38.78495000","lon":"-6.24574000"},{"id":151167,"name":"Albuera La","native":null,"lat":"0.00000000","lon":"0.00000000"},{"id":32059,"name":"Alburquerque","native":null,"lat":"39.22076000","lon":"-7.00234000"},{"id":32115,"name":"Alconchel","native":null,"lat":"38.51648000","lon":"-7.07161000"},{"id":32118,"name":"Alconera","native":null,"lat":"38.40000000","lon":"-6.46667000"},{"id":32252,"name":"Aljucén","native":null,"lat":"39.04425000","lon":"-6.33109000"},{"id":32286,"name":"Almendral","native":null,"lat":"38.61418000","lon":"-6.82097000"},{"id":32288,"name":"Almendralejo","native":null,"lat":"38.68316000","lon":"-6.40747000"},{"id":32508,"name":"Arroyo de San Serván","native":null,"lat":"38.85443000","lon":"-6.45402000"},{"id":32544,"name":"Atalaya","native":null,"lat":"38.33333000","lon":"-6.46667000"},{"id":32588,"name":"Azuaga","native":null,"lat":"38.26667000","lon":"-5.68333000"},{"id":32601,"name":"Badajoz","native":null,"lat":"38.87789000","lon":"-6.97061000"},{"id":32652,"name":"Barcarrota","native":null,"lat":"38.51473000","lon":"-6.84923000"},{"id":32694,"name":"Baterno","native":null,"lat":"38.95578000","lon":"-4.91039000"},{"id":151168,"name":"Benquerencia de la Serena","native":null,"lat":"0.00000000","lon":"0.00000000"},{"id":32854,"name":"Berlanga","native":null,"lat":"38.28333000","lon":"-5.81667000"},{"id":32890,"name":"Bienvenida","native":null,"lat":"38.30000000","lon":"-6.20000000"},{"id":32927,"name":"Bodonal de la Sierra","native":null,"lat":"38.14751000","lon":"-6.55950000"},{"id":33029,"name":"Burguillos del Cerro","native":null,"lat":"38.38008000","lon":"-6.59037000"},{"id":33077,"name":"Cabeza del Buey","native":null,"lat":"38.72227000","lon":"-5.21946000"},{"id":33079,"name":"Cabeza la Vaca","native":null,"lat":"38.08333000","lon":"-6.41667000"},{"id":33129,"name":"Calamonte","native":null,"lat":"38.88861000","lon":"-6.38791000"},{"id":33140,"name":"Calera de León","native":null,"lat":"38.10000000","lon":"-6.33333000"},{"id":151169,"name":"Calzadilla de los Barros","native":null,"lat":"0.00000000","lon":"0.00000000"},{"id":33181,"name":"Campanario","native":null,"lat":"38.86440000","lon":"-5.61744000"},{"id":33193,"name":"Campillo de Llerena","native":null,"lat":"38.50196000","lon":"-5.83139000"},{"id":33269,"name":"Capilla","native":null,"lat":"38.82037000","lon":"-5.08417000"},{"id":33311,"name":"Carmonita","native":null,"lat":"39.15455000","lon":"-6.33864000"},{"id":151170,"name":"Carrascalejo El","native":null,"lat":"0.00000000","lon":"0.00000000"},{"id":33361,"name":"Casas de Don Pedro","native":null,"lat":"39.10822000","lon":"-5.33077000"},{"id":33370,"name":"Casas de Reina","native":null,"lat":"38.20000000","lon":"-5.96667000"},{"id":33446,"name":"Castilblanco","native":null,"lat":"39.28487000","lon":"-5.09098000"},{"id":33512,"name":"Castuera","native":null,"lat":"38.73204000","lon":"-5.54390000"},{"id":33622,"name":"Cheles","native":null,"lat":"38.51225000","lon":"-7.28177000"},{"id":151171,"name":"Codosera La","native":null,"lat":"0.00000000","lon":"0.00000000"},{"id":33780,"name":"Cordobilla de Lácara","native":null,"lat":"39.14763000","lon":"-6.43619000"},{"id":151172,"name":"Coronada La","native":null,"lat":"0.00000000","lon":"0.00000000"},{"id":33805,"name":"Corte de Peleas","native":null,"lat":"38.72631000","lon":"-6.67035000"},{"id":33836,"name":"Cristina","native":null,"lat":"38.83745000","lon":"-6.09867000"},{"id":33942,"name":"Don Álvaro","native":null,"lat":"38.84837000","lon":"-6.27475000"},{"id":33941,"name":"Don Benito","native":null,"lat":"38.95627000","lon":"-5.86162000"},{"id":34064,"name":"Entrín Bajo","native":null,"lat":"38.71855000","lon":"-6.71349000"},{"id":34105,"name":"Esparragalejo","native":null,"lat":"38.94330000","lon":"-6.43549000"},{"id":34107,"name":"Esparragosa de la Serena","native":null,"lat":"38.65100000","lon":"-5.60657000"},{"id":34106,"name":"Esparragosa de Lares","native":null,"lat":"38.97517000","lon":"-5.26968000"},{"id":34173,"name":"Feria","native":null,"lat":"38.51151000","lon":"-6.56416000"},{"id":34242,"name":"Fregenal de la Sierra","native":null,"lat":"38.16922000","lon":"-6.65370000"},{"id":34284,"name":"Fuenlabrada de los Montes","native":null,"lat":"39.13288000","lon":"-4.93513000"},{"id":34295,"name":"Fuente de Cantos","native":null,"lat":"38.25000000","lon":"-6.30000000"},{"id":151173,"name":"Fuente del Arco","native":null,"lat":"0.00000000","lon":"0.00000000"},{"id":34299,"name":"Fuente del Maestre","native":null,"lat":"38.52656000","lon":"-6.44782000"},{"id":34345,"name":"Fuentes de León","native":null,"lat":"38.06866000","lon":"-6.53884000"},{"id":34407,"name":"Garbayuela","native":null,"lat":"39.04956000","lon":"-4.99856000"},{"id":34420,"name":"Garlitos","native":null,"lat":"38.88022000","lon":"-5.04759000"},{"id":151174,"name":"Garrovilla La","native":null,"lat":"0.00000000","lon":"0.00000000"},{"id":34502,"name":"Granja de Torrehermosa","native":null,"lat":"38.31667000","lon":"-5.58333000"},{"id":34537,"name":"Guareña","native":null,"lat":"38.85952000","lon":"-6.09987000"},{"id":151175,"name":"Haba La","native":null,"lat":"0.00000000","lon":"0.00000000"},{"id":151176,"name":"Helechosa de los Montes","native":null,"lat":"0.00000000","lon":"0.00000000"},{"id":34599,"name":"Herrera del Duque","native":null,"lat":"39.16840000","lon":"-5.05049000"},{"id":34611,"name":"Higuera de la Serena","native":null,"lat":"38.64616000","lon":"-5.74129000"},{"id":151177,"name":"Higuera de Llerena","native":null,"lat":"0.00000000","lon":"0.00000000"},{"id":34610,"name":"Higuera de Vargas","native":null,"lat":"38.44700000","lon":"-6.97517000"},{"id":34614,"name":"Higuera la Real","native":null,"lat":"38.14088000","lon":"-6.68922000"},{"id":34628,"name":"Hinojosa del Valle","native":null,"lat":"38.48333000","lon":"-6.18333000"},{"id":34659,"name":"Hornachos","native":null,"lat":"38.55428000","lon":"-6.06829000"},{"id":34813,"name":"Jerez de los Caballeros","native":null,"lat":"38.32063000","lon":"-6.77260000"},{"id":151178,"name":"Lapa La","native":null,"lat":"0.00000000","lon":"0.00000000"},{"id":35075,"name":"Llera","native":null,"lat":"38.45000000","lon":"-6.05000000"},{"id":35076,"name":"Llerena","native":null,"lat":"38.23333000","lon":"-6.01667000"},{"id":35097,"name":"Lobón","native":null,"lat":"38.84876000","lon":"-6.62365000"},{"id":35199,"name":"Magacela","native":null,"lat":"38.89648000","lon":"-5.73437000"},{"id":35204,"name":"Maguilla","native":null,"lat":"38.36667000","lon":"-5.83333000"},{"id":35221,"name":"Malcocinado","native":null,"lat":"38.11667000","lon":"-5.68333000"},{"id":35229,"name":"Malpartida de la Serena","native":null,"lat":"38.67470000","lon":"-5.64054000"},{"id":35243,"name":"Manchita","native":null,"lat":"38.81404000","lon":"-6.02041000"},{"id":35367,"name":"Medellín","native":null,"lat":"38.96265000","lon":"-5.95785000"},{"id":35372,"name":"Medina de las Torres","native":null,"lat":"38.33333000","lon":"-6.40000000"},{"id":35403,"name":"Mengabril","native":null,"lat":"38.93554000","lon":"-5.93335000"},{"id":35707,"name":"Mérida","native":null,"lat":"38.91611000","lon":"-6.34366000"},{"id":35452,"name":"Mirandilla","native":null,"lat":"39.00200000","lon":"-6.28893000"},{"id":35509,"name":"Monesterio","native":null,"lat":"38.08333000","lon":"-6.26667000"},{"id":35561,"name":"Montemolín","native":null,"lat":"38.15000000","lon":"-6.20000000"},{"id":35568,"name":"Monterrubio de la Serena","native":null,"lat":"38.58876000","lon":"-5.44569000"},{"id":35576,"name":"Montijo","native":null,"lat":"38.90839000","lon":"-6.61785000"},{"id":151179,"name":"Morera La","native":null,"lat":"0.00000000","lon":"0.00000000"},{"id":151180,"name":"Nava de Santiago La","native":null,"lat":"0.00000000","lon":"0.00000000"},{"id":35761,"name":"Navalvillar de Pela","native":null,"lat":"39.09436000","lon":"-5.46810000"},{"id":35816,"name":"Nogales","native":null,"lat":"38.58629000","lon":"-6.74901000"},{"id":35887,"name":"Oliva de la Frontera","native":null,"lat":"38.27595000","lon":"-6.91873000"},{"id":35885,"name":"Oliva de Mérida","native":null,"lat":"38.79051000","lon":"-6.12402000"},{"id":35892,"name":"Olivenza","native":null,"lat":"38.68269000","lon":"-7.10046000"},{"id":151181,"name":"Orellana de la Sierra","native":null,"lat":"0.00000000","lon":"0.00000000"},{"id":35943,"name":"Orellana la Vieja","native":null,"lat":"39.00617000","lon":"-5.53441000"},{"id":36038,"name":"Palomas","native":null,"lat":"38.69277000","lon":"-6.13490000"},{"id":151182,"name":"Parra La","native":null,"lat":"0.00000000","lon":"0.00000000"},{"id":36167,"name":"Peñalsordo","native":null,"lat":"38.82019000","lon":"-5.11405000"},{"id":151183,"name":"Peraleda del Zaucejo","native":null,"lat":"0.00000000","lon":"0.00000000"},{"id":36409,"name":"Puebla de Alcocer","native":null,"lat":"38.98648000","lon":"-5.25633000"},{"id":36426,"name":"Puebla de la Calzada","native":null,"lat":"38.89441000","lon":"-6.62592000"},{"id":36427,"name":"Puebla de la Reina","native":null,"lat":"38.66455000","lon":"-6.10216000"},{"id":36419,"name":"Puebla de Obando","native":null,"lat":"39.17630000","lon":"-6.62764000"},{"id":36424,"name":"Puebla de Sancho Pérez","native":null,"lat":"38.40000000","lon":"-6.40000000"},{"id":36428,"name":"Puebla del Maestre","native":null,"lat":"38.08333000","lon":"-6.08333000"},{"id":36429,"name":"Puebla del Prior","native":null,"lat":"38.57032000","lon":"-6.19584000"},{"id":151192,"name":"Pueblonuevo del Guadiana","native":null,"lat":"0.00000000","lon":"0.00000000"},{"id":36502,"name":"Quintana de la Serena","native":null,"lat":"38.74595000","lon":"-5.67233000"},{"id":36567,"name":"Reina","native":null,"lat":"38.18333000","lon":"-5.95000000"},{"id":36575,"name":"Rena","native":null,"lat":"39.05252000","lon":"-5.80868000"},{"id":151184,"name":"Retamal de Llerena","native":null,"lat":"0.00000000","lon":"0.00000000"},{"id":36615,"name":"Ribera del Fresno","native":null,"lat":"38.55177000","lon":"-6.23768000"},{"id":151185,"name":"Risco","native":null,"lat":"0.00000000","lon":"0.00000000"},{"id":151186,"name":"Roca de la Sierra La","native":null,"lat":"0.00000000","lon":"0.00000000"},{"id":36783,"name":"Salvaleón","native":null,"lat":"38.51020000","lon":"-6.78627000"},{"id":36788,"name":"Salvatierra de los Barros","native":null,"lat":"38.49091000","lon":"-6.68423000"},{"id":36907,"name":"San Pedro de Mérida","native":null,"lat":"38.95007000","lon":"-6.18645000"},{"id":36926,"name":"San Vicente de Alcántara","native":null,"lat":"39.36132000","lon":"-7.13766000"},{"id":37003,"name":"Santa Amalia","native":null,"lat":"39.01118000","lon":"-6.01158000"},{"id":37069,"name":"Santa Marta","native":null,"lat":"38.61421000","lon":"-6.62799000"},{"id":151188,"name":"Santos de Maimona Los","native":null,"lat":"0.00000000","lon":"0.00000000"},{"id":37195,"name":"Segura de León","native":null,"lat":"38.11667000","lon":"-6.51667000"},{"id":37264,"name":"Siruela","native":null,"lat":"38.97718000","lon":"-5.04969000"},{"id":37279,"name":"Solana de los Barros","native":null,"lat":"38.72527000","lon":"-6.53899000"},{"id":37356,"name":"Talarrubias","native":null,"lat":"39.03697000","lon":"-5.23423000"},{"id":37357,"name":"Talavera La Real","native":null,"lat":"38.87794000","lon":"-6.76856000"},{"id":37663,"name":"Táliga","native":null,"lat":"38.52861000","lon":"-7.01713000"},{"id":37367,"name":"Tamurejo","native":null,"lat":"38.98333000","lon":"-4.93333000"},{"id":37494,"name":"Torre de Miguel Sesmero","native":null,"lat":"38.61913000","lon":"-6.79580000"},{"id":37552,"name":"Torremayor","native":null,"lat":"38.90140000","lon":"-6.53858000"},{"id":151189,"name":"Torremejía","native":null,"lat":"0.00000000","lon":"0.00000000"},{"id":37619,"name":"Trasierra","native":null,"lat":"38.18333000","lon":"-6.00000000"},{"id":37644,"name":"Trujillanos","native":null,"lat":"38.95233000","lon":"-6.25759000"},{"id":37703,"name":"Usagre","native":null,"lat":"38.35000000","lon":"-6.16667000"},{"id":37737,"name":"Valdecaballeros","native":null,"lat":"39.24289000","lon":"-5.19000000"},{"id":37753,"name":"Valdelacalzada","native":null,"lat":"38.88943000","lon":"-6.70029000"},{"id":37803,"name":"Valdetorres","native":null,"lat":"38.91542000","lon":"-6.06765000"},{"id":37819,"name":"Valencia de las Torres","native":null,"lat":"38.40518000","lon":"-6.00403000"},{"id":37820,"name":"Valencia del Mombuey","native":null,"lat":"38.24243000","lon":"-7.11965000"},{"id":37821,"name":"Valencia del Ventoso","native":null,"lat":"38.26667000","lon":"-6.46667000"},{"id":37848,"name":"Valle de la Serena","native":null,"lat":"38.71010000","lon":"-5.79847000"},{"id":37845,"name":"Valle de Matamoros","native":null,"lat":"38.37889000","lon":"-6.80371000"},{"id":37846,"name":"Valle de Santa Ana","native":null,"lat":"38.36637000","lon":"-6.78860000"},{"id":37883,"name":"Valverde de Burguillos","native":null,"lat":"38.32710000","lon":"-6.53648000"},{"id":37886,"name":"Valverde de Leganés","native":null,"lat":"38.67059000","lon":"-6.98036000"},{"id":37887,"name":"Valverde de Llerena","native":null,"lat":"38.21667000","lon":"-5.81667000"},{"id":37888,"name":"Valverde de Mérida","native":null,"lat":"38.91122000","lon":"-6.21999000"},{"id":38060,"name":"Villafranca de los Barros","native":null,"lat":"38.56144000","lon":"-6.33810000"},{"id":38072,"name":"Villagarcía de la Torre","native":null,"lat":"38.30000000","lon":"-6.08333000"},{"id":38076,"name":"Villagonzalo","native":null,"lat":"38.86329000","lon":"-6.19665000"},{"id":38100,"name":"Villalba de los Barros","native":null,"lat":"38.61294000","lon":"-6.50914000"},{"id":38201,"name":"Villanueva de la Serena","native":null,"lat":"38.97655000","lon":"-5.79740000"},{"id":38218,"name":"Villanueva del Fresno","native":null,"lat":"38.37600000","lon":"-7.16753000"},{"id":38244,"name":"Villar de Rena","native":null,"lat":"39.07651000","lon":"-5.81074000"},{"id":38260,"name":"Villar del Rey","native":null,"lat":"39.13310000","lon":"-6.84762000"},{"id":38308,"name":"Villarta de los Montes","native":null,"lat":"39.21386000","lon":"-4.79227000"},{"id":38450,"name":"Zafra","native":null,"lat":"38.42539000","lon":"-6.41734000"},{"id":38456,"name":"Zahinos","native":null,"lat":"38.33135000","lon":"-6.95533000"},{"id":38458,"name":"Zalamea de la Serena","native":null,"lat":"38.65131000","lon":"-5.66063000"},{"id":151191,"name":"Zarza La","native":null,"lat":"0.00000000","lon":"0.00000000"},{"id":151190,"name":"Zarza-Capilla","native":null,"lat":"0.00000000","lon":"0.00000000"}]},{"id":5102,"name":"Barcelona","native":null,"cities":[{"id":31917,"name":"Abrera","native":null,"lat":"41.51682000","lon":"1.90100000"},{"id":31963,"name":"Aguilar de Segarra","native":null,"lat":"41.74822000","lon":"1.62919000"},{"id":31980,"name":"Aiguafreda","native":null,"lat":"41.76807000","lon":"2.25051000"},{"id":32183,"name":"Alella","native":null,"lat":"41.49379000","lon":"2.29451000"},{"id":32328,"name":"Alpens","native":null,"lat":"42.11930000","lon":"2.10135000"},{"id":151479,"name":"Ametlla del Vallès L","native":null,"lat":"0.00000000","lon":"0.00000000"},{"id":32451,"name":"Arenys de Mar","native":null,"lat":"41.58190000","lon":"2.54936000"},{"id":32452,"name":"Arenys de Munt","native":null,"lat":"41.61424000","lon":"2.53972000"},{"id":151480,"name":"Argençola","native":null,"lat":"0.00000000","lon":"0.00000000"},{"id":32471,"name":"Argentona","native":null,"lat":"41.55336000","lon":"2.40114000"},{"id":32527,"name":"Artés","native":null,"lat":"41.79800000","lon":"1.95428000"},{"id":151481,"name":"Avià","native":null,"lat":"0.00000000","lon":"0.00000000"},{"id":32568,"name":"Avinyó","native":null,"lat":"41.86367000","lon":"1.97095000"},{"id":151482,"name":"Avinyonet del Penedès","native":null,"lat":"0.00000000","lon":"0.00000000"},{"id":32602,"name":"Badalona","native":null,"lat":"41.45004000","lon":"2.24741000"},{"id":151629,"name":"Badia del Vallès","native":null,"lat":"0.00000000","lon":"0.00000000"},{"id":32609,"name":"Bagà","native":null,"lat":"42.25289000","lon":"1.86098000"},{"id":151483,"name":"Balenyà","native":null,"lat":"0.00000000","lon":"0.00000000"},{"id":32628,"name":"Balsareny","native":null,"lat":"41.86311000","lon":"1.87356000"},{"id":32647,"name":"Barberà del Vallès","native":null,"lat":"41.51590000","lon":"2.12457000"},{"id":32653,"name":"Barcelona","native":null,"lat":"41.38879000","lon":"2.15899000"},{"id":32728,"name":"Begues","native":null,"lat":"41.33333000","lon":"1.93333000"},{"id":32742,"name":"Bellprat","native":null,"lat":"41.51695000","lon":"1.43333000"},{"id":32846,"name":"Berga","native":null,"lat":"42.10429000","lon":"1.84628000"},{"id":32893,"name":"Bigues i Riells","native":null,"lat":"41.68333000","lon":"2.23333000"},{"id":151484,"name":"Borredà","native":null,"lat":"0.00000000","lon":"0.00000000"},{"id":151485,"name":"Bruc El","native":null,"lat":"0.00000000","lon":"0.00000000"},{"id":151486,"name":"Brull El","native":null,"lat":"0.00000000","lon":"0.00000000"},{"id":151487,"name":"Cabanyes Les","native":null,"lat":"0.00000000","lon":"0.00000000"},{"id":151488,"name":"Cabrera dAnoia","native":null,"lat":"0.00000000","lon":"0.00000000"},{"id":33104,"name":"Cabrera de Mar","native":null,"lat":"41.51667000","lon":"2.40000000"},{"id":33111,"name":"Cabrils","native":null,"lat":"41.52760000","lon":"2.36996000"},{"id":33124,"name":"Calaf","native":null,"lat":"41.73289000","lon":"1.51375000"},{"id":151490,"name":"Calders","native":null,"lat":"0.00000000","lon":"0.00000000"},{"id":33138,"name":"Caldes de Montbui","native":null,"lat":"41.63333000","lon":"2.16667000"},{"id":151489,"name":"Caldes dEstrac","native":null,"lat":"0.00000000","lon":"0.00000000"},{"id":33139,"name":"Calella","native":null,"lat":"41.61381000","lon":"2.65423000"},{"id":151492,"name":"Calldetenes","native":null,"lat":"0.00000000","lon":"0.00000000"},{"id":151493,"name":"Callús","native":null,"lat":"0.00000000","lon":"0.00000000"},{"id":151491,"name":"Calonge de Segarra","native":null,"lat":"0.00000000","lon":"0.00000000"},{"id":33198,"name":"Campins","native":null,"lat":"41.71667000","lon":"2.46667000"},{"id":33234,"name":"Canet de Mar","native":null,"lat":"41.59054000","lon":"2.58116000"},{"id":33246,"name":"Canovelles","native":null,"lat":"41.61667000","lon":"2.28333000"},{"id":33890,"name":"Cànoves i Samalús","native":null,"lat":"41.68333000","lon":"2.35000000"},{"id":33261,"name":"Canyelles","native":null,"lat":"41.44509000","lon":"2.16346000"},{"id":33267,"name":"Capellades","native":null,"lat":"41.53005000","lon":"1.68651000"},{"id":151494,"name":"Capolat","native":null,"lat":"0.00000000","lon":"0.00000000"},{"id":33296,"name":"Cardedeu","native":null,"lat":"41.63976000","lon":"2.35739000"},{"id":33304,"name":"Cardona","native":null,"lat":"41.91371000","lon":"1.67855000"},{"id":151495,"name":"Carme","native":null,"lat":"0.00000000","lon":"0.00000000"},{"id":151496,"name":"Casserres","native":null,"lat":"0.00000000","lon":"0.00000000"},{"id":151500,"name":"Castell de lAreny","native":null,"lat":"0.00000000","lon":"0.00000000"},{"id":151498,"name":"Castellar de nHug","native":null,"lat":"0.00000000","lon":"0.00000000"},{"id":151497,"name":"Castellar del Riu","native":null,"lat":"0.00000000","lon":"0.00000000"},{"id":33422,"name":"Castellar del Vallès","native":null,"lat":"41.61667000","lon":"2.08333000"},{"id":151499,"name":"Castellbell i el Vilar","native":null,"lat":"0.00000000","lon":"0.00000000"},{"id":33423,"name":"Castellbisbal","native":null,"lat":"41.47534000","lon":"1.98174000"},{"id":33424,"name":"Castellcir","native":null,"lat":"41.76074000","lon":"2.16128000"},{"id":33425,"name":"Castelldefels","native":null,"lat":"41.27794000","lon":"1.97033000"},{"id":151501,"name":"Castellet i la Gornal","native":null,"lat":"0.00000000","lon":"0.00000000"},{"id":33427,"name":"Castellfollit de Riubregós","native":null,"lat":"41.76667000","lon":"1.43333000"},{"id":151502,"name":"Castellfollit del Boix","native":null,"lat":"0.00000000","lon":"0.00000000"},{"id":151503,"name":"Castellgalí","native":null,"lat":"0.00000000","lon":"0.00000000"},{"id":151504,"name":"Castellnou de Bages","native":null,"lat":"0.00000000","lon":"0.00000000"},{"id":33431,"name":"Castellolí","native":null,"lat":"41.59829000","lon":"1.70057000"},{"id":151505,"name":"Castellterçol","native":null,"lat":"0.00000000","lon":"0.00000000"},{"id":151506,"name":"Castellví de la Marca","native":null,"lat":"0.00000000","lon":"0.00000000"},{"id":33435,"name":"Castellví de Rosanes","native":null,"lat":"41.45000000","lon":"1.90000000"},{"id":33573,"name":"Centelles","native":null,"lat":"41.79746000","lon":"2.21902000"},{"id":151610,"name":"Cercs","native":null,"lat":"0.00000000","lon":"0.00000000"},{"id":33580,"name":"Cerdanyola del Vallès","native":null,"lat":"41.49109000","lon":"2.14079000"},{"id":33594,"name":"Cervelló","native":null,"lat":"41.39587000","lon":"1.95917000"},{"id":33738,"name":"Collbató","native":null,"lat":"41.57009000","lon":"1.82712000"},{"id":33740,"name":"Collsuspina","native":null,"lat":"41.82580000","lon":"2.17546000"},{"id":151507,"name":"Copons","native":null,"lat":"0.00000000","lon":"0.00000000"},{"id":33775,"name":"Corbera de Llobregat","native":null,"lat":"41.41702000","lon":"1.91970000"},{"id":33794,"name":"Cornellà de Llobregat","native":null,"lat":"41.35000000","lon":"2.08333000"},{"id":33847,"name":"Cubelles","native":null,"lat":"41.20772000","lon":"1.67267000"},{"id":33952,"name":"Dosrius","native":null,"lat":"41.58333000","lon":"2.41667000"},{"id":34108,"name":"Esparreguera","native":null,"lat":"41.53809000","lon":"1.87025000"},{"id":34127,"name":"Esplugues de Llobregat","native":null,"lat":"41.37732000","lon":"2.08809000"},{"id":151508,"name":"Espunyola L","native":null,"lat":"0.00000000","lon":"0.00000000"},{"id":151509,"name":"Estany L","native":null,"lat":"0.00000000","lon":"0.00000000"},{"id":151539,"name":"Figaró-Montmany","native":null,"lat":"0.00000000","lon":"0.00000000"},{"id":151510,"name":"Fígols","native":null,"lat":"0.00000000","lon":"0.00000000"},{"id":151512,"name":"Fogars de la Selva","native":null,"lat":"0.00000000","lon":"0.00000000"},{"id":151511,"name":"Fogars de Montclús","native":null,"lat":"0.00000000","lon":"0.00000000"},{"id":151513,"name":"Folgueroles","native":null,"lat":"0.00000000","lon":"0.00000000"},{"id":34209,"name":"Fonollosa","native":null,"lat":"41.76303000","lon":"1.66867000"},{"id":151514,"name":"Font-rubí","native":null,"lat":"0.00000000","lon":"0.00000000"},{"id":151515,"name":"Franqueses del Vallès Les","native":null,"lat":"0.00000000","lon":"0.00000000"},{"id":151517,"name":"Gaià","native":null,"lat":"0.00000000","lon":"0.00000000"},{"id":34392,"name":"Gallifa","native":null,"lat":"41.69243000","lon":"2.11346000"},{"id":151516,"name":"Garriga La","native":null,"lat":"0.00000000","lon":"0.00000000"},{"id":34441,"name":"Gavà","native":null,"lat":"41.30605000","lon":"2.00123000"},{"id":34446,"name":"Gelida","native":null,"lat":"41.43333000","lon":"1.86667000"},{"id":34471,"name":"Gironella","native":null,"lat":"42.03433000","lon":"1.88019000"},{"id":151518,"name":"Gisclareny","native":null,"lat":"0.00000000","lon":"0.00000000"},{"id":151519,"name":"Granada La","native":null,"lat":"0.00000000","lon":"0.00000000"},{"id":34499,"name":"Granera","native":null,"lat":"41.72741000","lon":"2.05924000"},{"id":34503,"name":"Granollers","native":null,"lat":"41.60797000","lon":"2.28773000"},{"id":151520,"name":"Gualba","native":null,"lat":"0.00000000","lon":"0.00000000"},{"id":151521,"name":"Guardiola de Berguedà","native":null,"lat":"0.00000000","lon":"0.00000000"},{"id":34553,"name":"Gurb","native":null,"lat":"41.95419000","lon":"2.23537000"},{"id":151522,"name":"Hospitalet de Llobregat L","native":null,"lat":"0.00000000","lon":"0.00000000"},{"id":151549,"name":"Hostalets de Pierola Els","native":null,"lat":"0.00000000","lon":"0.00000000"},{"id":34739,"name":"Igualada","native":null,"lat":"41.58098000","lon":"1.61720000"},{"id":34821,"name":"Jorba","native":null,"lat":"41.60193000","lon":"1.54750000"},{"id":151523,"name":"Llacuna La","native":null,"lat":"0.00000000","lon":"0.00000000"},{"id":151524,"name":"Llagosta La","native":null,"lat":"0.00000000","lon":"0.00000000"},{"id":151525,"name":"Lliçà dAmunt","native":null,"lat":"0.00000000","lon":"0.00000000"},{"id":151526,"name":"Lliçà de Vall","native":null,"lat":"0.00000000","lon":"0.00000000"},{"id":35080,"name":"Llinars del Vallès","native":null,"lat":"41.63333000","lon":"2.40000000"},{"id":151527,"name":"Lluçà","native":null,"lat":"0.00000000","lon":"0.00000000"},{"id":35223,"name":"Malgrat de Mar","native":null,"lat":"41.64662000","lon":"2.74135000"},{"id":151528,"name":"Malla","native":null,"lat":"0.00000000","lon":"0.00000000"},{"id":35254,"name":"Manlleu","native":null,"lat":"42.00228000","lon":"2.28476000"},{"id":35256,"name":"Manresa","native":null,"lat":"41.72815000","lon":"1.82399000"},{"id":151599,"name":"Marganell","native":null,"lat":"0.00000000","lon":"0.00000000"},{"id":35301,"name":"Martorell","native":null,"lat":"41.47402000","lon":"1.93062000"},{"id":151529,"name":"Martorelles","native":null,"lat":"0.00000000","lon":"0.00000000"},{"id":151530,"name":"Masies de Roda Les","native":null,"lat":"0.00000000","lon":"0.00000000"},{"id":151531,"name":"Masies de Voltregà Les","native":null,"lat":"0.00000000","lon":"0.00000000"},{"id":151532,"name":"Masnou El","native":null,"lat":"0.00000000","lon":"0.00000000"},{"id":35325,"name":"Masquefa","native":null,"lat":"41.50353000","lon":"1.81136000"},{"id":35332,"name":"Matadepera","native":null,"lat":"41.59886000","lon":"2.02648000"},{"id":35340,"name":"Mataró","native":null,"lat":"41.54211000","lon":"2.44450000"},{"id":35376,"name":"Mediona","native":null,"lat":"41.47798000","lon":"1.61222000"},{"id":35472,"name":"Moià","native":null,"lat":"41.81112000","lon":"2.09839000"},{"id":35484,"name":"Molins de Rei","native":null,"lat":"41.41667000","lon":"2.01667000"},{"id":35488,"name":"Mollet del Vallès","native":null,"lat":"41.54026000","lon":"2.21306000"},{"id":151533,"name":"Monistrol de Calders","native":null,"lat":"0.00000000","lon":"0.00000000"},{"id":35517,"name":"Monistrol de Montserrat","native":null,"lat":"41.61667000","lon":"1.85000000"},{"id":35540,"name":"Montcada i Reixac","native":null,"lat":"41.48333000","lon":"2.18333000"},{"id":151535,"name":"Montclar","native":null,"lat":"0.00000000","lon":"0.00000000"},{"id":151536,"name":"Montesquiu","native":null,"lat":"0.00000000","lon":"0.00000000"},{"id":35573,"name":"Montgat","native":null,"lat":"41.46859000","lon":"2.28001000"},{"id":151537,"name":"Montmajor","native":null,"lat":"0.00000000","lon":"0.00000000"},{"id":151538,"name":"Montmaneu","native":null,"lat":"0.00000000","lon":"0.00000000"},{"id":35580,"name":"Montmeló","native":null,"lat":"41.55002000","lon":"2.24190000"},{"id":35582,"name":"Montornès del Vallès","native":null,"lat":"41.54206000","lon":"2.26748000"},{"id":151540,"name":"Montseny","native":null,"lat":"0.00000000","lon":"0.00000000"},{"id":151534,"name":"Muntanyola","native":null,"lat":"0.00000000","lon":"0.00000000"},{"id":35668,"name":"Mura","native":null,"lat":"41.69943000","lon":"1.97612000"},{"id":35765,"name":"Navarcles","native":null,"lat":"41.75171000","lon":"1.90357000"},{"id":35776,"name":"Navas","native":null,"lat":"41.41803000","lon":"2.18596000"},{"id":151541,"name":"Nou de Berguedà La","native":null,"lat":"0.00000000","lon":"0.00000000"},{"id":38581,"name":"Òdena","native":null,"lat":"41.60000000","lon":"1.65000000"},{"id":151543,"name":"Olèrdola","native":null,"lat":"0.00000000","lon":"0.00000000"},{"id":35878,"name":"Olesa de Bonesvalls","native":null,"lat":"41.35435000","lon":"1.84907000"},{"id":35879,"name":"Olesa de Montserrat","native":null,"lat":"41.54372000","lon":"1.89407000"},{"id":35891,"name":"Olivella","native":null,"lat":"41.31667000","lon":"1.81667000"},{"id":35911,"name":"Olost","native":null,"lat":"41.98540000","lon":"2.09457000"},{"id":151542,"name":"Olvan","native":null,"lat":"0.00000000","lon":"0.00000000"},{"id":35966,"name":"Orís","native":null,"lat":"42.05967000","lon":"2.22066000"},{"id":35953,"name":"Oristà","native":null,"lat":"41.93333000","lon":"2.06667000"},{"id":35960,"name":"Orpí","native":null,"lat":"41.51870000","lon":"1.57536000"},{"id":38582,"name":"Òrrius","native":null,"lat":"41.55000000","lon":"2.35000000"},{"id":151544,"name":"Pacs del Penedès","native":null,"lat":"0.00000000","lon":"0.00000000"},{"id":151545,"name":"Palafolls","native":null,"lat":"0.00000000","lon":"0.00000000"},{"id":151546,"name":"Palau-solità i Plegamans","native":null,"lat":"0.00000000","lon":"0.00000000"},{"id":36026,"name":"Pallejà","native":null,"lat":"41.42394000","lon":"1.99505000"},{"id":151630,"name":"Palma de Cervelló La","native":null,"lat":"0.00000000","lon":"0.00000000"},{"id":151547,"name":"Papiol El","native":null,"lat":"0.00000000","lon":"0.00000000"},