[{"name":"A Coruña","native":null,"cities":[{"name":"Abegondo","native":null,"lat":"43.21667000","lon":"-8.28333000"},{"name":"Amés","native":null,"lat":"42.90426000","lon":"-8.65551000"},{"name":"Aranga","native":null,"lat":"43.23469000","lon":"-8.01705000"},{"name":"Ares","native":null,"lat":"43.42995000","lon":"-8.24254000"},{"name":"Arteixo","native":null,"lat":"43.30482000","lon":"-8.50749000"},{"name":"Arzúa","native":null,"lat":"42.93333000","lon":"-8.15000000"},{"name":"As Pontes de García Rodríguez","native":null,"lat":"43.45266000","lon":"-7.85178000"},{"name":"Baña A","native":null,"lat":"0.00000000","lon":"0.00000000"},{"name":"Bergondo","native":null,"lat":"43.31667000","lon":"-8.23333000"},{"name":"Betanzos","native":null,"lat":"43.28042000","lon":"-8.21467000"},{"name":"Boimorto","native":null,"lat":"43.00000000","lon":"-8.13333000"},{"name":"Boiro","native":null,"lat":"42.64725000","lon":"-8.88459000"},{"name":"Boqueixón","native":null,"lat":"0.00000000","lon":"0.00000000"},{"name":"Brión","native":null,"lat":"0.00000000","lon":"0.00000000"},{"name":"Cabana de Bergantiños","native":null,"lat":"0.00000000","lon":"0.00000000"},{"name":"Cabanas","native":null,"lat":"0.00000000","lon":"0.00000000"},{"name":"Camariñas","native":null,"lat":"43.13115000","lon":"-9.18172000"},{"name":"Cambre","native":null,"lat":"43.29438000","lon":"-8.34736000"},{"name":"Capela A","native":null,"lat":"0.00000000","lon":"0.00000000"},{"name":"Carballo","native":null,"lat":"43.21300000","lon":"-8.69104000"},{"name":"Cariño","native":null,"lat":"43.74134000","lon":"-7.86715000"},{"name":"Carnota","native":null,"lat":"42.82330000","lon":"-9.08913000"},{"name":"Carral","native":null,"lat":"43.22860000","lon":"-8.35545000"},{"name":"Cedeira","native":null,"lat":"43.66044000","lon":"-8.05719000"},{"name":"Cee","native":null,"lat":"42.95466000","lon":"-9.18800000"},{"name":"Cerceda","native":null,"lat":"0.00000000","lon":"0.00000000"},{"name":"Cerdido","native":null,"lat":"43.62063000","lon":"-7.99959000"},{"name":"Cesuras","native":null,"lat":"43.17282000","lon":"-8.20061000"},{"name":"Coirós","native":null,"lat":"43.25000000","lon":"-8.16667000"},{"name":"Corcubión","native":null,"lat":"42.94414000","lon":"-9.19260000"},{"name":"Coristanco","native":null,"lat":"43.20000000","lon":"-8.75000000"},{"name":"Coruña A","native":null,"lat":"0.00000000","lon":"0.00000000"},{"name":"Culleredo","native":null,"lat":"43.28788000","lon":"-8.38858000"},{"name":"Curtis","native":null,"lat":"43.12374000","lon":"-8.14818000"},{"name":"Dodro","native":null,"lat":"0.00000000","lon":"0.00000000"},{"name":"Dumbría","native":null,"lat":"43.00836000","lon":"-9.11328000"},{"name":"Fene","native":null,"lat":"43.45000000","lon":"-8.15000000"},{"name":"Ferrol","native":null,"lat":"43.48961000","lon":"-8.21940000"},{"name":"Fisterra","native":null,"lat":"42.90492000","lon":"-9.26289000"},{"name":"Frades","native":null,"lat":"0.00000000","lon":"0.00000000"},{"name":"Irixoa","native":null,"lat":"43.28470000","lon":"-8.05916000"},{"name":"Laracha A","native":null,"lat":"0.00000000","lon":"0.00000000"},{"name":"Laxe","native":null,"lat":"0.00000000","lon":"0.00000000"},{"name":"Lousame","native":null,"lat":"42.76477000","lon":"-8.84926000"},{"name":"Malpica de Bergantiños","native":null,"lat":"0.00000000","lon":"0.00000000"},{"name":"Mañón","native":null,"lat":"0.00000000","lon":"0.00000000"},{"name":"Mazaricos","native":null,"lat":"42.94033000","lon":"-8.97187000"},{"name":"Melide","native":null,"lat":"0.00000000","lon":"0.00000000"},{"name":"Mesia","native":null,"lat":"43.10000000","lon":"-8.26667000"},{"name":"Miño","native":null,"lat":"43.35000000","lon":"-8.20000000"},{"name":"Moeche","native":null,"lat":"43.55000000","lon":"-8.01667000"},{"name":"Monfero","native":null,"lat":"43.33333000","lon":"-8.01667000"},{"name":"Mugardos","native":null,"lat":"43.46040000","lon":"-8.25507000"},{"name":"Mugia","native":null,"lat":"43.10414000","lon":"-9.21791000"},{"name":"Muros","native":null,"lat":"42.77617000","lon":"-9.06032000"},{"name":"Muxía","native":null,"lat":"0.00000000","lon":"0.00000000"},{"name":"Narón","native":null,"lat":"43.50175000","lon":"-8.19082000"},{"name":"Neda","native":null,"lat":"0.00000000","lon":"0.00000000"},{"name":"Negreira","native":null,"lat":"42.90402000","lon":"-8.74273000"},{"name":"Noia","native":null,"lat":"0.00000000","lon":"0.00000000"},{"name":"Oleiros","native":null,"lat":"43.33333000","lon":"-8.31667000"},{"name":"Ordes","native":null,"lat":"43.07654000","lon":"-8.40900000"},{"name":"Oroso","native":null,"lat":"42.98333000","lon":"-8.43333000"},{"name":"Ortigueira","native":null,"lat":"0.00000000","lon":"0.00000000"},{"name":"Outes","native":null,"lat":"42.86189000","lon":"-8.90181000"},{"name":"Oza dos Ríos","native":null,"lat":"0.00000000","lon":"0.00000000"},{"name":"Paderne","native":null,"lat":"0.00000000","lon":"0.00000000"},{"name":"Padrón","native":null,"lat":"42.73875000","lon":"-8.66057000"},{"name":"Pino O","native":null,"lat":"0.00000000","lon":"0.00000000"},{"name":"Pobra do Caramiñal A","native":null,"lat":"0.00000000","lon":"0.00000000"},{"name":"Ponteceso","native":null,"lat":"0.00000000","lon":"0.00000000"},{"name":"Pontedeume","native":null,"lat":"0.00000000","lon":"0.00000000"},{"name":"Pontes de García Rodríguez As","native":null,"lat":"0.00000000","lon":"0.00000000"},{"name":"Porto do Son","native":null,"lat":"42.72482000","lon":"-9.00527000"},{"name":"Rianxo","native":null,"lat":"42.64977000","lon":"-8.81763000"},{"name":"Ribeira","native":null,"lat":"42.74611000","lon":"-8.44392000"},{"name":"Rois","native":null,"lat":"0.00000000","lon":"0.00000000"},{"name":"Sada","native":null,"lat":"43.35619000","lon":"-8.25796000"},{"name":"San Sadurniño","native":null,"lat":"0.00000000","lon":"0.00000000"},{"name":"Santa Comba","native":null,"lat":"43.03306000","lon":"-8.80925000"},{"name":"Santiago de Compostela","native":null,"lat":"42.88052000","lon":"-8.54569000"},{"name":"Santiso","native":null,"lat":"42.87388000","lon":"-8.05497000"},{"name":"Sobrado","native":null,"lat":"43.03882000","lon":"-8.02784000"},{"name":"Somozas As","native":null,"lat":"0.00000000","lon":"0.00000000"},{"name":"Teo","native":null,"lat":"42.75000000","lon":"-8.50000000"},{"name":"Toques","native":null,"lat":"0.00000000","lon":"0.00000000"},{"name":"Tordoia","native":null,"lat":"0.00000000","lon":"0.00000000"},{"name":"Touro","native":null,"lat":"42.86812000","lon":"-8.30764000"},{"name":"Trazo","native":null,"lat":"43.01667000","lon":"-8.53333000"},{"name":"Val do Dubra","native":null,"lat":"0.00000000","lon":"0.00000000"},{"name":"Valdoviño","native":null,"lat":"43.60000000","lon":"-8.13333000"},{"name":"Vedra","native":null,"lat":"42.77817000","lon":"-8.47636000"},{"name":"Vilarmaior","native":null,"lat":"0.00000000","lon":"0.00000000"},{"name":"Vilasantar","native":null,"lat":"43.07106000","lon":"-8.12163000"},{"name":"Vimianzo","native":null,"lat":"43.10988000","lon":"-9.03351000"},{"name":"Zas","native":null,"lat":"43.09885000","lon":"-8.91558000"}]},{"name":"Albacete","native":null,"cities":[{"name":"Abengibre","native":null,"lat":"0.00000000","lon":"0.00000000"},{"name":"Alatoz","native":null,"lat":"0.00000000","lon":"0.00000000"},{"name":"Albacete","native":null,"lat":"0.00000000","lon":"0.00000000"},{"name":"Albatana","native":null,"lat":"0.00000000","lon":"0.00000000"},{"name":"Alborea","native":null,"lat":"0.00000000","lon":"0.00000000"},{"name":"Alcadozo","native":null,"lat":"0.00000000","lon":"0.00000000"},{"name":"Alcalá del Júcar","native":null,"lat":"0.00000000","lon":"0.00000000"},{"name":"Alcaraz","native":null,"lat":"0.00000000","lon":"0.00000000"},{"name":"Almansa","native":null,"lat":"0.00000000","lon":"0.00000000"},{"name":"Alpera","native":null,"lat":"0.00000000","lon":"0.00000000"},{"name":"Ayna","native":null,"lat":"0.00000000","lon":"0.00000000"},{"name":"Balazote","native":null,"lat":"0.00000000","lon":"0.00000000"},{"name":"Ballestero El","native":null,"lat":"0.00000000","lon":"0.00000000"},{"name":"Balsa de Ves","native":null,"lat":"0.00000000","lon":"0.00000000"},{"name":"Barrax","native":null,"lat":"0.00000000","lon":"0.00000000"},{"name":"Bienservida","native":null,"lat":"0.00000000","lon":"0.00000000"},{"name":"Bogarra","native":null,"lat":"0.00000000","lon":"0.00000000"},{"name":"Bonete","native":null,"lat":"0.00000000","lon":"0.00000000"},{"name":"Bonillo El","native":null,"lat":"0.00000000","lon":"0.00000000"},{"name":"Carcelén","native":null,"lat":"0.00000000","lon":"0.00000000"},{"name":"Casas de Juan Núñez","native":null,"lat":"0.00000000","lon":"0.00000000"},{"name":"Casas de Lázaro","native":null,"lat":"0.00000000","lon":"0.00000000"},{"name":"Casas de Ves","native":null,"lat":"0.00000000","lon":"0.00000000"},{"name":"Casas-Ibáñez","native":null,"lat":"0.00000000","lon":"0.00000000"},{"name":"Caudete","native":null,"lat":"0.00000000","lon":"0.00000000"},{"name":"Cenizate","native":null,"lat":"0.00000000","lon":"0.00000000"},{"name":"Chinchilla de Monte-Aragón","native":null,"lat":"0.00000000","lon":"0.00000000"},{"name":"Corral-Rubio","native":null,"lat":"0.00000000","lon":"0.00000000"},{"name":"Cotillas","native":null,"lat":"0.00000000","lon":"0.00000000"},{"name":"Elche de la Sierra","native":null,"lat":"0.00000000","lon":"0.00000000"},{"name":"Férez","native":null,"lat":"0.00000000","lon":"0.00000000"},{"name":"Fuensanta","native":null,"lat":"0.00000000","lon":"0.00000000"},{"name":"Fuente-Álamo","native":null,"lat":"0.00000000","lon":"0.00000000"},{"name":"Fuentealbilla","native":null,"lat":"0.00000000","lon":"0.00000000"},{"name":"Gineta La","native":null,"lat":"0.00000000","lon":"0.00000000"},{"name":"Golosalvo","native":null,"lat":"0.00000000","lon":"0.00000000"},{"name":"Hellín","native":null,"lat":"0.00000000","lon":"0.00000000"},{"name":"Herrera La","native":null,"lat":"0.00000000","lon":"0.00000000"},{"name":"Higueruela","native":null,"lat":"0.00000000","lon":"0.00000000"},{"name":"Hoya-Gonzalo","native":null,"lat":"0.00000000","lon":"0.00000000"},{"name":"Jorquera","native":null,"lat":"0.00000000","lon":"0.00000000"},{"name":"Letur","native":null,"lat":"0.00000000","lon":"0.00000000"},{"name":"Lezuza","native":null,"lat":"0.00000000","lon":"0.00000000"},{"name":"Liétor","native":null,"lat":"0.00000000","lon":"0.00000000"},{"name":"Madrigueras","native":null,"lat":"0.00000000","lon":"0.00000000"},{"name":"Mahora","native":null,"lat":"0.00000000","lon":"0.00000000"},{"name":"Masegoso","native":null,"lat":"0.00000000","lon":"0.00000000"},{"name":"Minaya","native":null,"lat":"0.00000000","lon":"0.00000000"},{"name":"Molinicos","native":null,"lat":"0.00000000","lon":"0.00000000"},{"name":"Montalvos","native":null,"lat":"0.00000000","lon":"0.00000000"},{"name":"Montealegre del Castillo","native":null,"lat":"0.00000000","lon":"0.00000000"},{"name":"Motilleja","native":null,"lat":"0.00000000","lon":"0.00000000"},{"name":"Munera","native":null,"lat":"0.00000000","lon":"0.00000000"},{"name":"Navas de Jorquera","native":null,"lat":"0.00000000","lon":"0.00000000"},{"name":"Nerpio","native":null,"lat":"0.00000000","lon":"0.00000000"},{"name":"Ontur","native":null,"lat":"0.00000000","lon":"0.00000000"},{"name":"Ossa de Montiel","native":null,"lat":"0.00000000","lon":"0.00000000"},{"name":"Paterna del Madera","native":null,"lat":"0.00000000","lon":"0.00000000"},{"name":"Peñas de San Pedro","native":null,"lat":"0.00000000","lon":"0.00000000"},{"name":"Peñascosa","native":null,"lat":"0.00000000","lon":"0.00000000"},{"name":"Pétrola","native":null,"lat":"0.00000000","lon":"0.00000000"},{"name":"Povedilla","native":null,"lat":"0.00000000","lon":"0.00000000"},{"name":"Pozo Cañada","native":null,"lat":"0.00000000","lon":"0.00000000"},{"name":"Pozo-Lorente","native":null,"lat":"0.00000000","lon":"0.00000000"},{"name":"Pozohondo","native":null,"lat":"0.00000000","lon":"0.00000000"},{"name":"Pozuelo","native":null,"lat":"0.00000000","lon":"0.00000000"},{"name":"Recueja La","native":null,"lat":"0.00000000","lon":"0.00000000"},{"name":"Riópar","native":null,"lat":"0.00000000","lon":"0.00000000"},{"name":"Robledo","native":null,"lat":"0.00000000","lon":"0.00000000"},{"name":"Roda La","native":null,"lat":"0.00000000","lon":"0.00000000"},{"name":"Salobre","native":null,"lat":"0.00000000","lon":"0.00000000"},{"name":"San Pedro","native":null,"lat":"0.00000000","lon":"0.00000000"},{"name":"Socovos","native":null,"lat":"0.00000000","lon":"0.00000000"},{"name":"Tarazona de la Mancha","native":null,"lat":"0.00000000","lon":"0.00000000"},{"name":"Tobarra","native":null,"lat":"0.00000000","lon":"0.00000000"},{"name":"Valdeganga","native":null,"lat":"0.00000000","lon":"0.00000000"},{"name":"Vianos","native":null,"lat":"0.00000000","lon":"0.00000000"},{"name":"Villa de Ves","native":null,"lat":"0.00000000","lon":"0.00000000"},{"name":"Villalgordo del Júcar","native":null,"lat":"0.00000000","lon":"0.00000000"},{"name":"Villamalea","native":null,"lat":"0.00000000","lon":"0.00000000"},{"name":"Villapalacios","native":null,"lat":"0.00000000","lon":"0.00000000"},{"name":"Villarrobledo","native":null,"lat":"0.00000000","lon":"0.00000000"},{"name":"Villatoya","native":null,"lat":"0.00000000","lon":"0.00000000"},{"name":"Villavaliente","native":null,"lat":"0.00000000","lon":"0.00000000"},{"name":"Villaverde de Guadalimar","native":null,"lat":"0.00000000","lon":"0.00000000"},{"name":"Viveros","native":null,"lat":"0.00000000","lon":"0.00000000"},{"name":"Yeste","native":null,"lat":"0.00000000","lon":"0.00000000"}]},{"name":"Alicante","native":null,"cities":[{"name":"Adsubia","native":null,"lat":"38.84819000","lon":"-0.15324000"},{"name":"Agost","native":null,"lat":"38.44003000","lon":"-0.63836000"},{"name":"Agres","native":null,"lat":"38.78333000","lon":"-0.51667000"},{"name":"Aigües","native":null,"lat":"0.00000000","lon":"0.00000000"},{"name":"Albatera","native":null,"lat":"38.17902000","lon":"-0.87059000"},{"name":"Alcalalí","native":null,"lat":"38.75038000","lon":"-0.04013000"},{"name":"Alcocer de Planes","native":null,"lat":"38.79501000","lon":"-0.40244000"},{"name":"Alcoleja","native":null,"lat":"0.00000000","lon":"0.00000000"},{"name":"Alcoy/Alcoi","native":null,"lat":"0.00000000","lon":"0.00000000"},{"name":"Alfafara","native":null,"lat":"38.77339000","lon":"-0.55551000"},{"name":"Alfàs del Pi l","native":null,"lat":"0.00000000","lon":"0.00000000"},{"name":"Algorfa","native":null,"lat":"38.08636000","lon":"-0.79646000"},{"name":"Algueña","native":null,"lat":"38.33905000","lon":"-1.00433000"},{"name":"Alicante/Alacant","native":null,"lat":"0.00000000","lon":"0.00000000"},{"name":"Almoradí","native":null,"lat":"38.10879000","lon":"-0.79197000"},{"name":"Almudaina","native":null,"lat":"38.75999000","lon":"-0.35149000"},{"name":"Alqueria dAsnar l","native":null,"lat":"0.00000000","lon":"0.00000000"},{"name":"Altea","native":null,"lat":"38.59885000","lon":"-0.05139000"},{"name":"Aspe","native":null,"lat":"38.34511000","lon":"-0.76721000"},{"name":"Balones","native":null,"lat":"38.73726000","lon":"-0.34324000"},{"name":"Banyeres de Mariola","native":null,"lat":"0.00000000","lon":"0.00000000"},{"name":"Benasau","native":null,"lat":"38.69047000","lon":"-0.34278000"},{"name":"Beneixama","native":null,"lat":"38.70000000","lon":"-0.76667000"},{"name":"Benejúzar","native":null,"lat":"38.07728000","lon":"-0.83942000"},{"name":"Benferri","native":null,"lat":"38.14129000","lon":"-0.96212000"},{"name":"Beniarbeig","native":null,"lat":"38.82232000","lon":"-0.00210000"},{"name":"Beniardá","native":null,"lat":"38.68433000","lon":"-0.21629000"},{"name":"Beniarrés","native":null,"lat":"38.82019000","lon":"-0.37741000"},{"name":"Benidoleig","native":null,"lat":"38.79278000","lon":"-0.02992000"},{"name":"Benidorm","native":null,"lat":"38.53816000","lon":"-0.13098000"},{"name":"Benifallim","native":null,"lat":"38.66259000","lon":"-0.39994000"},{"name":"Benifato","native":null,"lat":"0.00000000","lon":"0.00000000"},{"name":"Benigembla","native":null,"lat":"0.00000000","lon":"0.00000000"},{"name":"Benijofar","native":null,"lat":"38.07785000","lon":"-0.73680000"},{"name":"Benilloba","native":null,"lat":"38.70012000","lon":"-0.38998000"},{"name":"Benillup","native":null,"lat":"38.75397000","lon":"-0.37991000"},{"name":"Benimantell","native":null,"lat":"38.67709000","lon":"-0.21057000"},{"name":"Benimarfull","native":null,"lat":"38.77590000","lon":"-0.39079000"},{"name":"Benimassot","native":null,"lat":"38.75000000","lon":"-0.28333000"},{"name":"Benimeli","native":null,"lat":"38.82362000","lon":"-0.04221000"},{"name":"Benissa","native":null,"lat":"38.71492000","lon":"0.04849000"},{"name":"Benitachell/Poble Nou de Benitatxell el","native":null,"lat":"0.00000000","lon":"0.00000000"},{"name":"Biar","native":null,"lat":"38.63117000","lon":"-0.76458000"},{"name":"Bigastro","native":null,"lat":"38.06237000","lon":"-0.89841000"},{"name":"Bolulla","native":null,"lat":"38.67529000","lon":"-0.11184000"},{"name":"Busot","native":null,"lat":"38.48206000","lon":"-0.41918000"},{"name":"Callosa de Segura","native":null,"lat":"38.12497000","lon":"-0.87822000"},{"name":"Callosa dEn Sarrià","native":null,"lat":"0.00000000","lon":"0.00000000"},{"name":"Calp","native":null,"lat":"38.64470000","lon":"0.04450000"},{"name":"Campello el","native":null,"lat":"0.00000000","lon":"0.00000000"},{"name":"Campo de Mirra/Camp de Mirra el","native":null,"lat":"0.00000000","lon":"0.00000000"},{"name":"Cañada","native":null,"lat":"0.00000000","lon":"0.00000000"},{"name":"Castalla","native":null,"lat":"38.59694000","lon":"-0.67207000"},{"name":"Castell de Castells","native":null,"lat":"38.72555000","lon":"-0.19242000"},{"name":"Castell de Guadalest el","native":null,"lat":"0.00000000","lon":"0.00000000"},{"name":"Catral","native":null,"lat":"38.16061000","lon":"-0.80209000"},{"name":"Cocentaina","native":null,"lat":"38.73975000","lon":"-0.43976000"},{"name":"Confrides","native":null,"lat":"38.68451000","lon":"-0.26890000"},{"name":"Cox","native":null,"lat":"38.14164000","lon":"-0.88736000"},{"name":"Crevillent","native":null,"lat":"0.00000000","lon":"0.00000000"},{"name":"Daya Nueva","native":null,"lat":"38.11313000","lon":"-0.76028000"},{"name":"Daya Vieja","native":null,"lat":"38.10480000","lon":"-0.73804000"},{"name":"Denia","native":null,"lat":"38.84078000","lon":"0.10574000"},{"name":"Dolores","native":null,"lat":"38.14002000","lon":"-0.77088000"},{"name":"Elche/Elx","native":null,"lat":"0.00000000","lon":"0.00000000"},{"name":"Elda","native":null,"lat":"38.47783000","lon":"-0.79157000"},{"name":"Facheca","native":null,"lat":"38.73501000","lon":"-0.26766000"},{"name":"Famorca","native":null,"lat":"38.73101000","lon":"-0.24726000"},{"name":"Finestrat","native":null,"lat":"38.56737000","lon":"-0.21235000"},{"name":"Fondó de les Neus el/Hondón de las Nieves","native":null,"lat":"0.00000000","lon":"0.00000000"},{"name":"Formentera del Segura","native":null,"lat":"0.00000000","lon":"0.00000000"},{"name":"Gaianes","native":null,"lat":"0.00000000","lon":"0.00000000"},{"name":"Gata de Gorgos","native":null,"lat":"38.77443000","lon":"0.08538000"},{"name":"Gorga","native":null,"lat":"38.71896000","lon":"-0.35589000"},{"name":"Granja de Rocamora","native":null,"lat":"38.15157000","lon":"-0.89170000"},{"name":"Guardamar del Segura","native":null,"lat":"38.09031000","lon":"-0.65556000"},{"name":"Hondón de los Frailes","native":null,"lat":"38.27390000","lon":"-0.92938000"},{"name":"Ibi","native":null,"lat":"38.62533000","lon":"-0.57225000"},{"name":"Jacarilla","native":null,"lat":"38.06247000","lon":"-0.86822000"},{"name":"Jávea/Xàbia","native":null,"lat":"0.00000000","lon":"0.00000000"},{"name":"Jijona/Xixona","native":null,"lat":"0.00000000","lon":"0.00000000"},{"name":"Llíber","native":null,"lat":"0.00000000","lon":"0.00000000"},{"name":"Lorcha/Orxa l","native":null,"lat":"0.00000000","lon":"0.00000000"},{"name":"Millena","native":null,"lat":"38.73082000","lon":"-0.36274000"},{"name":"Monforte del Cid","native":null,"lat":"38.38027000","lon":"-0.72850000"},{"name":"Monóvar/Monòver","native":null,"lat":"0.00000000","lon":"0.00000000"},{"name":"Montesinos Los","native":null,"lat":"0.00000000","lon":"0.00000000"},{"name":"Murla","native":null,"lat":"38.76037000","lon":"-0.08208000"},{"name":"Muro de Alcoy","native":null,"lat":"0.00000000","lon":"0.00000000"},{"name":"Mutxamel","native":null,"lat":"38.41580000","lon":"-0.44529000"},{"name":"Novelda","native":null,"lat":"38.38479000","lon":"-0.76773000"},{"name":"Nucia la","native":null,"lat":"0.00000000","lon":"0.00000000"},{"name":"Ondara","native":null,"lat":"38.82817000","lon":"0.01720000"},{"name":"Onil","native":null,"lat":"38.62606000","lon":"-0.67313000"},{"name":"Orba","native":null,"lat":"38.78041000","lon":"-0.06278000"},{"name":"Orihuela","native":null,"lat":"38.08483000","lon":"-0.94401000"},{"name":"Orxeta","native":null,"lat":"0.00000000","lon":"0.00000000"},{"name":"Parcent","native":null,"lat":"38.74502000","lon":"-0.06446000"},{"name":"Pedreguer","native":null,"lat":"38.79312000","lon":"0.03411000"},{"name":"Pego","native":null,"lat":"38.84305000","lon":"-0.11707000"},{"name":"Penàguila","native":null,"lat":"0.00000000","lon":"0.00000000"},{"name":"Petrer","native":null,"lat":"0.00000000","lon":"0.00000000"},{"name":"Pilar de la Horadada","native":null,"lat":"37.86591000","lon":"-0.79256000"},{"name":"Pinós el/Pinoso","native":null,"lat":"0.00000000","lon":"0.00000000"},{"name":"Planes","native":null,"lat":"38.78524000","lon":"-0.34271000"},{"name":"Poblets els","native":null,"lat":"0.00000000","lon":"0.00000000"},{"name":"Polop","native":null,"lat":"38.62258000","lon":"-0.13090000"},{"name":"Quatretondeta","native":null,"lat":"0.00000000","lon":"0.00000000"},{"name":"Rafal","native":null,"lat":"38.10458000","lon":"-0.84904000"},{"name":"Ràfol dAlmúnia El","native":null,"lat":"0.00000000","lon":"0.00000000"},{"name":"Redován","native":null,"lat":"38.11619000","lon":"-0.90981000"},{"name":"Relleu","native":null,"lat":"38.58725000","lon":"-0.31157000"},{"name":"Rojales","native":null,"lat":"38.08799000","lon":"-0.72544000"},{"name":"Romana la","native":null,"lat":"0.00000000","lon":"0.00000000"},{"name":"Sagra","native":null,"lat":"38.81102000","lon":"-0.06559000"},{"name":"Salinas","native":null,"lat":"38.52025000","lon":"-0.91202000"},{"name":"San Fulgencio","native":null,"lat":"0.00000000","lon":"0.00000000"},{"name":"San Isidro","native":null,"lat":"28.07617000","lon":"-16.55800000"},{"name":"San Miguel de Salinas","native":null,"lat":"37.97972000","lon":"-0.78904000"},{"name":"San Vicente del Raspeig/Sant Vicent del Raspeig","native":null,"lat":"0.00000000","lon":"0.00000000"},{"name":"Sanet y Negrals","native":null,"lat":"38.81967000","lon":"-0.03406000"},{"name":"Sant Joan dAlacant","native":null,"lat":"0.00000000","lon":"0.00000000"},{"name":"Santa Pola","native":null,"lat":"38.19165000","lon":"-0.56580000"},{"name":"Sax","native":null,"lat":"38.53729000","lon":"-0.81779000"},{"name":"Sella","native":null,"lat":"38.60926000","lon":"-0.27305000"},{"name":"Senija","native":null,"lat":"38.72804000","lon":"0.04176000"},{"name":"Tàrbena","native":null,"lat":"0.00000000","lon":"0.00000000"},{"name":"Teulada","native":null,"lat":"38.72940000","lon":"0.10383000"},{"name":"Tibi","native":null,"lat":"38.53072000","lon":"-0.57776000"},{"name":"Tollos","native":null,"lat":"38.75629000","lon":"-0.27466000"},{"name":"Tormos","native":null,"lat":"38.80143000","lon":"-0.07160000"},{"name":"Torremanzanas/Torre de les Maçanes la","native":null,"lat":"0.00000000","lon":"0.00000000"},{"name":"Torrevieja","native":null,"lat":"37.97872000","lon":"-0.68222000"},{"name":"Vall dAlcalà la","native":null,"lat":"0.00000000","lon":"0.00000000"},{"name":"Vall de Gallinera","native":null,"lat":"0.00000000","lon":"0.00000000"},{"name":"Vall de Laguar la","native":null,"lat":"0.00000000","lon":"0.00000000"},{"name":"Vall dEbo la","native":null,"lat":"0.00000000","lon":"0.00000000"},{"name":"Verger el","native":null,"lat":"0.00000000","lon":"0.00000000"},{"name":"Villajoyosa/Vila Joiosa la","native":null,"lat":"0.00000000","lon":"0.00000000"},{"name":"Villena","native":null,"lat":"38.63730000","lon":"-0.86568000"},{"name":"Xaló","native":null,"lat":"0.00000000","lon":"0.00000000"}]},{"name":"Almeria","native":null,"cities":[{"name":"Abla","native":null,"lat":"37.14245000","lon":"-2.77808000"},{"name":"Abrucena","native":null,"lat":"37.13226000","lon":"-2.79711000"},{"name":"Adra","native":null,"lat":"36.74961000","lon":"-3.02055000"},{"name":"Albánchez","native":null,"lat":"37.28361000","lon":"-2.18229000"},{"name":"Alboloduy","native":null,"lat":"0.00000000","lon":"0.00000000"},{"name":"Albox","native":null,"lat":"37.38856000","lon":"-2.14949000"},{"name":"Alcolea","native":null,"lat":"36.97458000","lon":"-2.96150000"},{"name":"Alcóntar","native":null,"lat":"37.33647000","lon":"-2.59725000"},{"name":"Alcudia de Monteagud","native":null,"lat":"37.23529000","lon":"-2.26650000"},{"name":"Alhabia","native":null,"lat":"36.99003000","lon":"-2.58655000"},{"name":"Alhama de Almería","native":null,"lat":"36.95692000","lon":"-2.56861000"},{"name":"Alicún","native":null,"lat":"36.96580000","lon":"-2.60212000"},{"name":"Almería","native":null,"lat":"37.16667000","lon":"-2.33333000"},{"name":"Almócita","native":null,"lat":"37.00262000","lon":"-2.79051000"},{"name":"Alsodux","native":null,"lat":"37.00247000","lon":"-2.59476000"},{"name":"Antas","native":null,"lat":"37.24536000","lon":"-1.91760000"},{"name":"Arboleas","native":null,"lat":"37.35024000","lon":"-2.07384000"},{"name":"Armuña de Almanzora","native":null,"lat":"37.35030000","lon":"-2.41150000"},{"name":"Bacares","native":null,"lat":"0.00000000","lon":"0.00000000"},{"name":"Bayárcal","native":null,"lat":"37.03073000","lon":"-2.99606000"},{"name":"Bayarque","native":null,"lat":"37.33062000","lon":"-2.43610000"},{"name":"Bédar","native":null,"lat":"37.19389000","lon":"-1.98166000"},{"name":"Beires","native":null,"lat":"37.01237000","lon":"-2.79134000"},{"name":"Benahadux","native":null,"lat":"36.92493000","lon":"-2.45941000"},{"name":"Benitagla","native":null,"lat":"37.23138000","lon":"-2.23935000"},{"name":"Benizalón","native":null,"lat":"37.21213000","lon":"-2.24180000"},{"name":"Bentarique","native":null,"lat":"36.98823000","lon":"-2.61991000"},{"name":"Berja","native":null,"lat":"36.84693000","lon":"-2.94966000"},{"name":"Canjáyar","native":null,"lat":"37.00959000","lon":"-2.73943000"},{"name":"Cantoria","native":null,"lat":"37.35146000","lon":"-2.19209000"},{"name":"Carboneras","native":null,"lat":"36.99666000","lon":"-1.89651000"},{"name":"Castro de Filabres","native":null,"lat":"37.18484000","lon":"-2.44024000"},{"name":"Chercos","native":null,"lat":"37.25450000","lon":"-2.26657000"},{"name":"Chirivel","native":null,"lat":"37.59527000","lon":"-2.26844000"},{"name":"Cóbdar","native":null,"lat":"37.26166000","lon":"-2.21098000"},{"name":"Cuevas del Almanzora","native":null,"lat":"37.29678000","lon":"-1.88218000"},{"name":"Dalías","native":null,"lat":"36.82179000","lon":"-2.87138000"},{"name":"Ejido El","native":null,"lat":"0.00000000","lon":"0.00000000"},{"name":"Enix","native":null,"lat":"36.87732000","lon":"-2.60180000"},{"name":"Felix","native":null,"lat":"0.00000000","lon":"0.00000000"},{"name":"Fiñana","native":null,"lat":"37.17150000","lon":"-2.84011000"},{"name":"Fines","native":null,"lat":"37.36074000","lon":"-2.25810000"},{"name":"Fondón","native":null,"lat":"36.98020000","lon":"-2.85957000"},{"name":"Gádor","native":null,"lat":"36.95322000","lon":"-2.49254000"},{"name":"Gallardos Los","native":null,"lat":"0.00000000","lon":"0.00000000"},{"name":"Garrucha","native":null,"lat":"37.18141000","lon":"-1.82252000"},{"name":"Gérgal","native":null,"lat":"37.11886000","lon":"-2.54012000"},{"name":"Huécija","native":null,"lat":"36.96804000","lon":"-2.60941000"},{"name":"Huércal de Almería","native":null,"lat":"36.88507000","lon":"-2.43760000"},{"name":"Huércal-Overa","native":null,"lat":"37.38918000","lon":"-1.94300000"},{"name":"Illar","native":null,"lat":"36.98562000","lon":"-2.63871000"},{"name":"Instinción","native":null,"lat":"36.99344000","lon":"-2.66046000"},{"name":"Laroya","native":null,"lat":"37.29771000","lon":"-2.33419000"},{"name":"Laujar de Andarax","native":null,"lat":"36.99516000","lon":"-2.89033000"},{"name":"Líjar","native":null,"lat":"0.00000000","lon":"0.00000000"},{"name":"Lubrín","native":null,"lat":"37.21538000","lon":"-2.06677000"},{"name":"Lucainena de las Torres","native":null,"lat":"37.04037000","lon":"-2.20095000"},{"name":"Lúcar","native":null,"lat":"37.40035000","lon":"-2.42496000"},{"name":"Macael","native":null,"lat":"37.33318000","lon":"-2.30087000"},{"name":"María","native":null,"lat":"37.71023000","lon":"-2.16454000"},{"name":"Mojacar","native":null,"lat":"37.14020000","lon":"-1.85102000"},{"name":"Mojonera La","native":null,"lat":"0.00000000","lon":"0.00000000"},{"name":"Nacimiento","native":null,"lat":"0.00000000","lon":"0.00000000"},{"name":"Níjar","native":null,"lat":"36.96655000","lon":"-2.20595000"},{"name":"Ohanes","native":null,"lat":"37.03861000","lon":"-2.74524000"},{"name":"Olula de Castro","native":null,"lat":"37.17475000","lon":"-2.47430000"},{"name":"Olula del Río","native":null,"lat":"37.35445000","lon":"-2.29754000"},{"name":"Oria","native":null,"lat":"37.48530000","lon":"-2.29292000"},{"name":"Padules","native":null,"lat":"36.99813000","lon":"-2.77367000"},{"name":"Partaloa","native":null,"lat":"37.40764000","lon":"-2.22526000"},{"name":"Paterna del Río","native":null,"lat":"37.02222000","lon":"-2.95343000"},{"name":"Pechina","native":null,"lat":"0.00000000","lon":"0.00000000"},{"name":"Pulpí","native":null,"lat":"37.41154000","lon":"-1.74496000"},{"name":"Purchena","native":null,"lat":"37.34744000","lon":"-2.36080000"},{"name":"Rágol","native":null,"lat":"36.99523000","lon":"-2.68178000"},{"name":"Rioja","native":null,"lat":"36.94508000","lon":"-2.46302000"},{"name":"Roquetas de Mar","native":null,"lat":"36.76419000","lon":"-2.61475000"},{"name":"Santa Cruz de Marchena","native":null,"lat":"0.00000000","lon":"0.00000000"},{"name":"Santa Fe de Mondújar","native":null,"lat":"36.97479000","lon":"-2.53126000"},{"name":"Senés","native":null,"lat":"0.00000000","lon":"0.00000000"},{"name":"Serón","native":null,"lat":"37.34485000","lon":"-2.50913000"},{"name":"Sierro","native":null,"lat":"37.32237000","lon":"-2.39844000"},{"name":"Somontín","native":null,"lat":"37.39176000","lon":"-2.38828000"},{"name":"Sorbas","native":null,"lat":"37.09761000","lon":"-2.12349000"},{"name":"Suflí","native":null,"lat":"37.33866000","lon":"-2.38817000"},{"name":"Tabernas","native":null,"lat":"37.04992000","lon":"-2.39084000"},{"name":"Taberno","native":null,"lat":"0.00000000","lon":"0.00000000"},{"name":"Tahal","native":null,"lat":"37.22797000","lon":"-2.28470000"},{"name":"Terque","native":null,"lat":"36.98393000","lon":"-2.59679000"},{"name":"Tíjola","native":null,"lat":"37.34606000","lon":"-2.43326000"},{"name":"Tres Villas Las","native":null,"lat":"0.00000000","lon":"0.00000000"},{"name":"Turre","native":null,"lat":"37.15224000","lon":"-1.89497000"},{"name":"Turrillas","native":null,"lat":"37.02948000","lon":"-2.26607000"},{"name":"Uleila del Campo","native":null,"lat":"37.18460000","lon":"-2.20491000"},{"name":"Urrácal","native":null,"lat":"37.39740000","lon":"-2.36485000"},{"name":"Velefique","native":null,"lat":"37.19407000","lon":"-2.40155000"},{"name":"Vélez-Blanco","native":null,"lat":"37.69178000","lon":"-2.09587000"},{"name":"Vélez-Rubio","native":null,"lat":"0.00000000","lon":"0.00000000"},{"name":"Vera","native":null,"lat":"37.24345000","lon":"-1.85905000"},{"name":"Viator","native":null,"lat":"36.89006000","lon":"-2.42695000"},{"name":"Vícar","native":null,"lat":"36.83155000","lon":"-2.64273000"},{"name":"Zurgena","native":null,"lat":"37.34218000","lon":"-2.03985000"}]},{"name":"Araba","native":null,"cities":[{"name":"Alegría-Dulantzi","native":null,"lat":"0.00000000","lon":"0.00000000"},{"name":"Amurrio","native":null,"lat":"43.05000000","lon":"-3.00000000"},{"name":"Añana","native":null,"lat":"0.00000000","lon":"0.00000000"},{"name":"Aramaio","native":null,"lat":"0.00000000","lon":"0.00000000"},{"name":"Armiñón","native":null,"lat":"42.72313000","lon":"-2.87172000"},{"name":"Arraia-Maeztu","native":null,"lat":"0.00000000","lon":"0.00000000"},{"name":"Arrazua-Ubarrundia","native":null,"lat":"0.00000000","lon":"0.00000000"},{"name":"Artziniega","native":null,"lat":"0.00000000","lon":"0.00000000"},{"name":"Asparrena","native":null,"lat":"0.00000000","lon":"0.00000000"},{"name":"Ayala/Aiara","native":null,"lat":"0.00000000","lon":"0.00000000"},{"name":"Baños de Ebro/Mañueta","native":null,"lat":"0.00000000","lon":"0.00000000"},{"name":"Barrundia","native":null,"lat":"0.00000000","lon":"0.00000000"},{"name":"Berantevilla","native":null,"lat":"42.68254000","lon":"-2.85832000"},{"name":"Bernedo","native":null,"lat":"0.00000000","lon":"0.00000000"},{"name":"Campezo/Kanpezu","native":null,"lat":"0.00000000","lon":"0.00000000"},{"name":"Elburgo/Burgelu","native":null,"lat":"0.00000000","lon":"0.00000000"},{"name":"Elciego","native":null,"lat":"42.51569000","lon":"-2.61897000"},{"name":"Elvillar/Bilar","native":null,"lat":"0.00000000","lon":"0.00000000"},{"name":"Erriberagoitia/Ribera Alta","native":null,"lat":"0.00000000","lon":"0.00000000"},{"name":"Harana/Valle de Arana","native":null,"lat":"0.00000000","lon":"0.00000000"},{"name":"Iruña Oka/Iruña de Oca","native":null,"lat":"0.00000000","lon":"0.00000000"},{"name":"Iruraiz-Gauna","native":null,"lat":"0.00000000","lon":"0.00000000"},{"name":"Kripan","native":null,"lat":"0.00000000","lon":"0.00000000"},{"name":"Kuartango","native":null,"lat":"0.00000000","lon":"0.00000000"},{"name":"Labastida/Bastida","native":null,"lat":"0.00000000","lon":"0.00000000"},{"name":"Lagrán","native":null,"lat":"42.62625000","lon":"-2.58385000"},{"name":"Laguardia","native":null,"lat":"42.55461000","lon":"-2.58528000"},{"name":"Lanciego/Lantziego","native":null,"lat":"0.00000000","lon":"0.00000000"},{"name":"Lantarón","native":null,"lat":"0.00000000","lon":"0.00000000"},{"name":"Lapuebla de Labarca","native":null,"lat":"42.49455000","lon":"-2.57341000"},{"name":"Laudio/Llodio","native":null,"lat":"0.00000000","lon":"0.00000000"},{"name":"Legutio","native":null,"lat":"0.00000000","lon":"0.00000000"},{"name":"Leza","native":null,"lat":"42.56552000","lon":"-2.63324000"},{"name":"Moreda de Álava/Moreda Araba","native":null,"lat":"0.00000000","lon":"0.00000000"},{"name":"Navaridas","native":null,"lat":"42.54566000","lon":"-2.62650000"},{"name":"Okondo","native":null,"lat":"0.00000000","lon":"0.00000000"},{"name":"Oyón-Oion","native":null,"lat":"0.00000000","lon":"0.00000000"},{"name":"Peñacerrada-Urizaharra","native":null,"lat":"0.00000000","lon":"0.00000000"},{"name":"Ribera Baja/Erribera Beitia","native":null,"lat":"0.00000000","lon":"0.00000000"},{"name":"Salvatierra/Agurain","native":null,"lat":"0.00000000","lon":"0.00000000"},{"name":"Samaniego","native":null,"lat":"42.56854000","lon":"-2.67974000"},{"name":"San Millán/Donemiliaga","native":null,"lat":"0.00000000","lon":"0.00000000"},{"name":"Urkabustaiz","native":null,"lat":"0.00000000","lon":"0.00000000"},{"name":"Valdegovía/Gaubea","native":null,"lat":"0.00000000","lon":"0.00000000"},{"name":"Villabuena de Álava/Eskuernaga","native":null,"lat":"0.00000000","lon":"0.00000000"},{"name":"Vitoria-Gasteiz","native":null,"lat":"0.00000000","lon":"0.00000000"},{"name":"Yécora/Iekora","native":null,"lat":"0.00000000","lon":"0.00000000"},{"name":"Zalduondo","native":null,"lat":"0.00000000","lon":"0.00000000"},{"name":"Zambrana","native":null,"lat":"42.66102000","lon":"-2.87909000"},{"name":"Zigoitia","native":null,"lat":"0.00000000","lon":"0.00000000"},{"name":"Zuia","native":null,"lat":"0.00000000","lon":"0.00000000"}]},{"name":"Asturias","native":null,"cities":[{"name":"Allande","native":null,"lat":"0.00000000","lon":"0.00000000"},{"name":"Aller","native":null,"lat":"0.00000000","lon":"0.00000000"},{"name":"Amieva","native":null,"lat":"0.00000000","lon":"0.00000000"},{"name":"Avilés","native":null,"lat":"0.00000000","lon":"0.00000000"},{"name":"Belmonte de Miranda","native":null,"lat":"0.00000000","lon":"0.00000000"},{"name":"Bimenes","native":null,"lat":"0.00000000","lon":"0.00000000"},{"name":"Boal","native":null,"lat":"0.00000000","lon":"0.00000000"},{"name":"Cabrales","native":null,"lat":"0.00000000","lon":"0.00000000"},{"name":"Cabranes","native":null,"lat":"0.00000000","lon":"0.00000000"},{"name":"Candamo","native":null,"lat":"0.00000000","lon":"0.00000000"},{"name":"Cangas de Onís","native":null,"lat":"0.00000000","lon":"0.00000000"},{"name":"Cangas del Narcea","native":null,"lat":"0.00000000","lon":"0.00000000"},{"name":"Caravia","native":null,"lat":"0.00000000","lon":"0.00000000"},{"name":"Carreño","native":null,"lat":"0.00000000","lon":"0.00000000"},{"name":"Caso","native":null,"lat":"0.00000000","lon":"0.00000000"},{"name":"Castrillón","native":null,"lat":"0.00000000","lon":"0.00000000"},{"name":"Castropol","native":null,"lat":"0.00000000","lon":"0.00000000"},{"name":"Coaña","native":null,"lat":"0.00000000","lon":"0.00000000"},{"name":"Colunga","native":null,"lat":"0.00000000","lon":"0.00000000"},{"name":"Corvera de Asturias","native":null,"lat":"0.00000000","lon":"0.00000000"},{"name":"Cudillero","native":null,"lat":"0.00000000","lon":"0.00000000"},{"name":"Degaña","native":null,"lat":"0.00000000","lon":"0.00000000"},{"name":"Franco El","native":null,"lat":"0.00000000","lon":"0.00000000"},{"name":"Gijón","native":null,"lat":"0.00000000","lon":"0.00000000"},{"name":"Gozón","native":null,"lat":"0.00000000","lon":"0.00000000"},{"name":"Grado","native":null,"lat":"0.00000000","lon":"0.00000000"},{"name":"Grandas de Salime","native":null,"lat":"0.00000000","lon":"0.00000000"},{"name":"Ibias","native":null,"lat":"0.00000000","lon":"0.00000000"},{"name":"Illano","native":null,"lat":"0.00000000","lon":"0.00000000"},{"name":"Illas","native":null,"lat":"0.00000000","lon":"0.00000000"},{"name":"Langreo","native":null,"lat":"0.00000000","lon":"0.00000000"},{"name":"Laviana","native":null,"lat":"0.00000000","lon":"0.00000000"},{"name":"Lena","native":null,"lat":"0.00000000","lon":"0.00000000"},{"name":"Llanera","native":null,"lat":"0.00000000","lon":"0.00000000"},{"name":"Llanes","native":null,"lat":"0.00000000","lon":"0.00000000"},{"name":"Morcín","native":null,"lat":"0.00000000","lon":"0.00000000"},{"name":"Muros de Nalón","native":null,"lat":"0.00000000","lon":"0.00000000"},{"name":"Nava","native":null,"lat":"0.00000000","lon":"0.00000000"},{"name":"Navia","native":null,"lat":"0.00000000","lon":"0.00000000"},{"name":"Noreña","native":null,"lat":"0.00000000","lon":"0.00000000"},{"name":"Onís","native":null,"lat":"0.00000000","lon":"0.00000000"},{"name":"Oviedo","native":null,"lat":"0.00000000","lon":"0.00000000"},{"name":"Parres","native":null,"lat":"0.00000000","lon":"0.00000000"},{"name":"Peñamellera Alta","native":null,"lat":"0.00000000","lon":"0.00000000"},{"name":"Peñamellera Baja","native":null,"lat":"0.00000000","lon":"0.00000000"},{"name":"Pesoz","native":null,"lat":"0.00000000","lon":"0.00000000"},{"name":"Piloña","native":null,"lat":"0.00000000","lon":"0.00000000"},{"name":"Ponga","native":null,"lat":"0.00000000","lon":"0.00000000"},{"name":"Pravia","native":null,"lat":"0.00000000","lon":"0.00000000"},{"name":"Proaza","native":null,"lat":"0.00000000","lon":"0.00000000"},{"name":"Quirós","native":null,"lat":"0.00000000","lon":"0.00000000"},{"name":"Regueras Las","native":null,"lat":"0.00000000","lon":"0.00000000"},{"name":"Ribadedeva","native":null,"lat":"0.00000000","lon":"0.00000000"},{"name":"Ribadesella","native":null,"lat":"0.00000000","lon":"0.00000000"},{"name":"Ribera de Arriba","native":null,"lat":"0.00000000","lon":"0.00000000"},{"name":"Riosa","native":null,"lat":"0.00000000","lon":"0.00000000"},{"name":"Salas","native":null,"lat":"0.00000000","lon":"0.00000000"},{"name":"San Martín de Oscos","native":null,"lat":"0.00000000","lon":"0.00000000"},{"name":"San Martín del Rey Aurelio","native":null,"lat":"0.00000000","lon":"0.00000000"},{"name":"San Tirso de Abres","native":null,"lat":"0.00000000","lon":"0.00000000"},{"name":"Santa Eulalia de Oscos","native":null,"lat":"0.00000000","lon":"0.00000000"},{"name":"Santo Adriano","native":null,"lat":"0.00000000","lon":"0.00000000"},{"name":"Sariego","native":null,"lat":"0.00000000","lon":"0.00000000"},{"name":"Siero","native":null,"lat":"0.00000000","lon":"0.00000000"},{"name":"Sobrescobio","native":null,"lat":"0.00000000","lon":"0.00000000"},{"name":"Somiedo","native":null,"lat":"0.00000000","lon":"0.00000000"},{"name":"Soto del Barco","native":null,"lat":"0.00000000","lon":"0.00000000"},{"name":"Tapia de Casariego","native":null,"lat":"0.00000000","lon":"0.00000000"},{"name":"Taramundi","native":null,"lat":"0.00000000","lon":"0.00000000"},{"name":"Teverga","native":null,"lat":"0.00000000","lon":"0.00000000"},{"name":"Tineo","native":null,"lat":"0.00000000","lon":"0.00000000"},{"name":"Valdés","native":null,"lat":"0.00000000","lon":"0.00000000"},{"name":"Vegadeo","native":null,"lat":"0.00000000","lon":"0.00000000"},{"name":"Villanueva de Oscos","native":null,"lat":"0.00000000","lon":"0.00000000"},{"name":"Villaviciosa","native":null,"lat":"0.00000000","lon":"0.00000000"},{"name":"Villayón","native":null,"lat":"0.00000000","lon":"0.00000000"},{"name":"Yernes y Tameza","native":null,"lat":"0.00000000","lon":"0.00000000"}]},{"name":"Ávila","native":null,"cities":[{"name":"Adanero","native":null,"lat":"40.94487000","lon":"-4.60561000"},{"name":"Adrada La","native":null,"lat":"0.00000000","lon":"0.00000000"},{"name":"Albornos","native":null,"lat":"40.83795000","lon":"-4.88129000"},{"name":"Aldeanueva de Santa Cruz","native":null,"lat":"40.38189000","lon":"-5.42142000"},{"name":"Aldeaseca","native":null,"lat":"41.04912000","lon":"-4.81707000"},{"name":"Aldehuela La","native":null,"lat":"0.00000000","lon":"0.00000000"},{"name":"Amavida","native":null,"lat":"40.57371000","lon":"-5.06541000"},{"name":"Arenal El","native":null,"lat":"0.00000000","lon":"0.00000000"},{"name":"Arenas de San Pedro","native":null,"lat":"40.21041000","lon":"-5.08694000"},{"name":"Arevalillo","native":null,"lat":"0.00000000","lon":"0.00000000"},{"name":"Arévalo","native":null,"lat":"41.06255000","lon":"-4.72042000"},{"name":"Aveinte","native":null,"lat":"40.78227000","lon":"-4.83649000"},{"name":"Avellaneda","native":null,"lat":"40.38909000","lon":"-5.38811000"},{"name":"Ávila","native":null,"lat":"40.65724000","lon":"-4.69951000"},{"name":"Barco de Ávila El","native":null,"lat":"0.00000000","lon":"0.00000000"},{"name":"Barraco El","native":null,"lat":"0.00000000","lon":"0.00000000"},{"name":"Barromán","native":null,"lat":"41.06536000","lon":"-4.93066000"},{"name":"Becedas","native":null,"lat":"40.40369000","lon":"-5.63577000"},{"name":"Becedillas","native":null,"lat":"40.53821000","lon":"-5.32561000"},{"name":"Bercial de Zapardiel","native":null,"lat":"41.04675000","lon":"-4.96910000"},{"name":"Berlanas Las","native":null,"lat":"0.00000000","lon":"0.00000000"},{"name":"Bernuy-Zapardiel","native":null,"lat":"0.00000000","lon":"0.00000000"},{"name":"Berrocalejo de Aragona","native":null,"lat":"40.69436000","lon":"-4.59474000"},{"name":"Blascomillán","native":null,"lat":"40.80146000","lon":"-5.08703000"},{"name":"Blasconuño de Matacabras","native":null,"lat":"0.00000000","lon":"0.00000000"},{"name":"Blascosancho","native":null,"lat":"40.87744000","lon":"-4.63743000"},{"name":"Bohodón El","native":null,"lat":"0.00000000","lon":"0.00000000"},{"name":"Bohoyo","native":null,"lat":"40.31584000","lon":"-5.44294000"},{"name":"Bonilla de la Sierra","native":null,"lat":"40.53063000","lon":"-5.26452000"},{"name":"Brabos","native":null,"lat":"40.77846000","lon":"-4.93934000"},{"name":"Bularros","native":null,"lat":"0.00000000","lon":"0.00000000"},{"name":"Burgohondo","native":null,"lat":"40.41416000","lon":"-4.78509000"},{"name":"Cabezas de Alambre","native":null,"lat":"40.94218000","lon":"-4.84184000"},{"name":"Cabezas del Pozo","native":null,"lat":"41.00139000","lon":"-4.95453000"},{"name":"Cabezas del Villar","native":null,"lat":"40.71557000","lon":"-5.20956000"},{"name":"Cabizuela","native":null,"lat":"40.90090000","lon":"-4.80212000"},{"name":"Canales","native":null,"lat":"41.00331000","lon":"-4.90163000"},{"name":"Candeleda","native":null,"lat":"40.15521000","lon":"-5.24045000"},{"name":"Cantiveros","native":null,"lat":"40.95215000","lon":"-4.95455000"},{"name":"Cardeñosa","native":null,"lat":"40.74240000","lon":"-4.74579000"},{"name":"Carrera La","native":null,"lat":"0.00000000","lon":"0.00000000"},{"name":"Casas del Puerto","native":null,"lat":"0.00000000","lon":"0.00000000"},{"name":"Casasola","native":null,"lat":"0.00000000","lon":"0.00000000"},{"name":"Casavieja","native":null,"lat":"40.28325000","lon":"-4.76670000"},{"name":"Casillas","native":null,"lat":"40.32610000","lon":"-4.57182000"},{"name":"Castellanos de Zapardiel","native":null,"lat":"41.08450000","lon":"-4.90984000"},{"name":"Cebreros","native":null,"lat":"40.45835000","lon":"-4.46433000"},{"name":"Cepeda la Mora","native":null,"lat":"40.45780000","lon":"-5.04833000"},{"name":"Chamartín","native":null,"lat":"40.70267000","lon":"-4.95769000"},{"name":"Chamartín","native":null,"lat":"40.46206000","lon":"-3.67660000"},{"name":"Cillán","native":null,"lat":"40.70675000","lon":"-4.98135000"},{"name":"Cisla","native":null,"lat":"40.96662000","lon":"-5.01405000"},{"name":"Colilla La","native":null,"lat":"0.00000000","lon":"0.00000000"},{"name":"Collado de Contreras","native":null,"lat":"40.88743000","lon":"-4.93140000"},{"name":"Collado del Mirón","native":null,"lat":"40.55307000","lon":"-5.35398000"},{"name":"Constanzana","native":null,"lat":"40.93821000","lon":"-4.87515000"},{"name":"Crespos","native":null,"lat":"40.87128000","lon":"-4.97094000"},{"name":"Cuevas del Valle","native":null,"lat":"40.29418000","lon":"-5.00938000"},{"name":"Diego del Carpio","native":null,"lat":"0.00000000","lon":"0.00000000"},{"name":"Donjimeno","native":null,"lat":"40.95978000","lon":"-4.84627000"},{"name":"Donvidas","native":null,"lat":"41.08954000","lon":"-4.80634000"},{"name":"Espinosa de los Caballeros","native":null,"lat":"0.00000000","lon":"0.00000000"},{"name":"Flores de Ávila","native":null,"lat":"40.93358000","lon":"-5.07914000"},{"name":"Fontiveros","native":null,"lat":"40.92997000","lon":"-4.96445000"},{"name":"Fresnedilla","native":null,"lat":"40.23233000","lon":"-4.62201000"},{"name":"Fresno El","native":null,"lat":"0.00000000","lon":"0.00000000"},{"name":"Fuente el Saúz","native":null,"lat":"0.00000000","lon":"0.00000000"},{"name":"Fuentes de Año","native":null,"lat":"41.01769000","lon":"-4.89907000"},{"name":"Gallegos de Altamiros","native":null,"lat":"0.00000000","lon":"0.00000000"},{"name":"Gallegos de Sobrinos","native":null,"lat":"40.71693000","lon":"-5.11224000"},{"name":"Garganta del Villar","native":null,"lat":"40.44965000","lon":"-5.10420000"},{"name":"Gavilanes","native":null,"lat":"40.27791000","lon":"-4.85321000"},{"name":"Gemuño","native":null,"lat":"40.59159000","lon":"-4.78178000"},{"name":"Gil García","native":null,"lat":"0.00000000","lon":"0.00000000"},{"name":"Gilbuena","native":null,"lat":"0.00000000","lon":"0.00000000"},{"name":"Gimialcón","native":null,"lat":"40.87705000","lon":"-5.12308000"},{"name":"Gotarrendura","native":null,"lat":"40.82652000","lon":"-4.74090000"},{"name":"Grandes y San Martín","native":null,"lat":"0.00000000","lon":"0.00000000"},{"name":"Guisando","native":null,"lat":"40.22225000","lon":"-5.13950000"},{"name":"Gutierre-Muñoz","native":null,"lat":"40.98295000","lon":"-4.63839000"},{"name":"Hernansancho","native":null,"lat":"40.85753000","lon":"-4.73045000"},{"name":"Herradón de Pinares","native":null,"lat":"0.00000000","lon":"0.00000000"},{"name":"Herreros de Suso","native":null,"lat":"40.80361000","lon":"-5.03892000"},{"name":"Higuera de las Dueñas","native":null,"lat":"40.23903000","lon":"-4.60361000"},{"name":"Hija de Dios La","native":null,"lat":"0.00000000","lon":"0.00000000"},{"name":"Horcajada La","native":null,"lat":"0.00000000","lon":"0.00000000"},{"name":"Horcajo de las Torres","native":null,"lat":"41.06497000","lon":"-5.09092000"},{"name":"Hornillo El","native":null,"lat":"0.00000000","lon":"0.00000000"},{"name":"Hoyo de Pinares El","native":null,"lat":"0.00000000","lon":"0.00000000"},{"name":"Hoyocasero","native":null,"lat":"40.39890000","lon":"-4.97455000"},{"name":"Hoyorredondo","native":null,"lat":"40.46270000","lon":"-5.41097000"},{"name":"Hoyos de Miguel Muñoz","native":null,"lat":"40.39237000","lon":"-5.06713000"},{"name":"Hoyos del Collado","native":null,"lat":"40.35945000","lon":"-5.20027000"},{"name":"Hoyos del Espino","native":null,"lat":"40.35623000","lon":"-5.17505000"},{"name":"Hurtumpascual","native":null,"lat":"40.69200000","lon":"-5.11379000"},{"name":"Junciana","native":null,"lat":"40.41076000","lon":"-5.55698000"},{"name":"Langa","native":null,"lat":"41.00550000","lon":"-4.85946000"},{"name":"Lanzahíta","native":null,"lat":"0.00000000","lon":"0.00000000"},{"name":"Llanos de Tormes Los","native":null,"lat":"0.00000000","lon":"0.00000000"},{"name":"Losar del Barco El","native":null,"lat":"0.00000000","lon":"0.00000000"},{"name":"Madrigal de las Altas Torres","native":null,"lat":"41.08968000","lon":"-4.99863000"},{"name":"Maello","native":null,"lat":"40.80929000","lon":"-4.51186000"},{"name":"Malpartida de Corneja","native":null,"lat":"40.52208000","lon":"-5.35026000"},{"name":"Mamblas","native":null,"lat":"41.01925000","lon":"-5.00873000"},{"name":"Mancera de Arriba","native":null,"lat":"40.79139000","lon":"-5.14772000"},{"name":"Manjabálago","native":null,"lat":"40.66441000","lon":"-5.07719000"},{"name":"Marlín","native":null,"lat":"0.00000000","lon":"0.00000000"},{"name":"Martiherrero","native":null,"lat":"40.67392000","lon":"-4.78156000"},{"name":"Martínez","native":null,"lat":"40.63046000","lon":"-5.34801000"},{"name":"Mediana de Voltoya","native":null,"lat":"40.70104000","lon":"-4.56341000"},{"name":"Medinilla","native":null,"lat":"40.43967000","lon":"-5.61772000"},{"name":"Mengamuñoz","native":null,"lat":"40.50006000","lon":"-4.99983000"},{"name":"Mesegar de Corneja","native":null,"lat":"40.50209000","lon":"-5.30131000"},{"name":"Mijares","native":null,"lat":"40.29655000","lon":"-4.83651000"},{"name":"Mingorría","native":null,"lat":"40.75192000","lon":"-4.66583000"},{"name":"Mirón El","native":null,"lat":"0.00000000","lon":"0.00000000"},{"name":"Mironcillo","native":null,"lat":"40.55435000","lon":"-4.82449000"},{"name":"Mirueña de los Infanzones","native":null,"lat":"0.00000000","lon":"0.00000000"},{"name":"Mombeltrán","native":null,"lat":"40.25987000","lon":"-5.01749000"},{"name":"Monsalupe","native":null,"lat":"40.76953000","lon":"-4.78131000"},{"name":"Moraleja de Matacabras","native":null,"lat":"41.10732000","lon":"-4.95717000"},{"name":"Muñana","native":null,"lat":"40.59042000","lon":"-5.01447000"},{"name":"Muñico","native":null,"lat":"40.70678000","lon":"-5.02717000"},{"name":"Muñogalindo","native":null,"lat":"40.60324000","lon":"-4.89895000"},{"name":"Muñogrande","native":null,"lat":"40.82181000","lon":"-4.92223000"},{"name":"Muñomer del Peco","native":null,"lat":"40.85878000","lon":"-4.87992000"},{"name":"Muñopepe","native":null,"lat":"40.63408000","lon":"-4.81876000"},{"name":"Muñosancho","native":null,"lat":"40.92097000","lon":"-5.03559000"},{"name":"Muñotello","native":null,"lat":"40.54236000","lon":"-5.04187000"},{"name":"Narrillos del Álamo","native":null,"lat":"40.56673000","lon":"-5.46584000"},{"name":"Narrillos del Rebollar","native":null,"lat":"40.66488000","lon":"-4.96577000"},{"name":"Narros de Saldueña","native":null,"lat":"40.87268000","lon":"-4.86909000"},{"name":"Narros del Castillo","native":null,"lat":"40.85869000","lon":"-5.06010000"},{"name":"Narros del Puerto","native":null,"lat":"40.54131000","lon":"-4.99291000"},{"name":"Nava de Arévalo","native":null,"lat":"40.97803000","lon":"-4.77573000"},{"name":"Nava del Barco","native":null,"lat":"40.29321000","lon":"-5.54022000"},{"name":"Navacepedilla de Corneja","native":null,"lat":"40.48602000","lon":"-5.18380000"},{"name":"Navadijos","native":null,"lat":"40.42524000","lon":"-5.08285000"},{"name":"Navaescurial","native":null,"lat":"40.47163000","lon":"-5.27756000"},{"name":"Navahondilla","native":null,"lat":"40.32510000","lon":"-4.49661000"},{"name":"Navalacruz","native":null,"lat":"40.43993000","lon":"-4.93122000"},{"name":"Navalmoral","native":null,"lat":"40.46028000","lon":"-4.76859000"},{"name":"Navalonguilla","native":null,"lat":"0.00000000","lon":"0.00000000"},{"name":"Navalosa","native":null,"lat":"40.40212000","lon":"-4.92999000"},{"name":"Navalperal de Pinares","native":null,"lat":"40.59398000","lon":"-4.41149000"},{"name":"Navalperal de Tormes","native":null,"lat":"40.35280000","lon":"-5.30084000"},{"name":"Navaluenga","native":null,"lat":"40.41123000","lon":"-4.70897000"},{"name":"Navaquesera","native":null,"lat":"40.42558000","lon":"-4.91108000"},{"name":"Navarredonda de Gredos","native":null,"lat":"40.36136000","lon":"-5.13268000"},{"name":"Navarredondilla","native":null,"lat":"40.45416000","lon":"-4.82199000"},{"name":"Navarrevisca","native":null,"lat":"40.36417000","lon":"-4.89352000"},{"name":"Navas del Marqués Las","native":null,"lat":"0.00000000","lon":"0.00000000"},{"name":"Navatalgordo","native":null,"lat":"40.41520000","lon":"-4.87155000"},{"name":"Navatejares","native":null,"lat":"40.33602000","lon":"-5.53220000"},{"name":"Neila de San Miguel","native":null,"lat":"40.42372000","lon":"-5.65090000"},{"name":"Niharra","native":null,"lat":"40.58945000","lon":"-4.83895000"},{"name":"Ojos-Albos","native":null,"lat":"40.70596000","lon":"-4.51633000"},{"name":"Orbita","native":null,"lat":"40.99846000","lon":"-4.64833000"},{"name":"Oso El","native":null,"lat":"0.00000000","lon":"0.00000000"},{"name":"Padiernos","native":null,"lat":"40.62168000","lon":"-4.84523000"},{"name":"Pajares de Adaja","native":null,"lat":"40.92398000","lon":"-4.64048000"},{"name":"Palacios de Goda","native":null,"lat":"41.11798000","lon":"-4.78496000"},{"name":"Papatrigo","native":null,"lat":"40.86790000","lon":"-4.83399000"},{"name":"Parral El","native":null,"lat":"0.00000000","lon":"0.00000000"},{"name":"Pascualcobo","native":null,"lat":"0.00000000","lon":"0.00000000"},{"name":"Pedro Bernardo","native":null,"lat":"40.24214000","lon":"-4.90963000"},{"name":"Pedro-Rodríguez","native":null,"lat":"0.00000000","lon":"0.00000000"},{"name":"Peguerinos","native":null,"lat":"40.62620000","lon":"-4.23154000"},{"name":"Peñalba de Ávila","native":null,"lat":"40.77266000","lon":"-4.74595000"},{"name":"Piedrahíta","native":null,"lat":"0.00000000","lon":"0.00000000"},{"name":"Piedralaves","native":null,"lat":"40.31721000","lon":"-4.70025000"},{"name":"Poveda","native":null,"lat":"40.56799000","lon":"-5.07909000"},{"name":"Poyales del Hoyo","native":null,"lat":"40.17254000","lon":"-5.16597000"},{"name":"Pozanco","native":null,"lat":"40.80095000","lon":"-4.66772000"},{"name":"Pradosegar","native":null,"lat":"40.55020000","lon":"-5.07015000"},{"name":"Puerto Castilla","native":null,"lat":"40.28800000","lon":"-5.62366000"},{"name":"Rasueros","native":null,"lat":"41.02344000","lon":"-5.07377000"},{"name":"Riocabado","native":null,"lat":"0.00000000","lon":"0.00000000"},{"name":"Riofrío","native":null,"lat":"0.00000000","lon":"0.00000000"},{"name":"Rivilla de Barajas","native":null,"lat":"40.90210000","lon":"-4.98836000"},{"name":"Salobral","native":null,"lat":"40.61179000","lon":"-4.81013000"},{"name":"Salvadiós","native":null,"lat":"40.87836000","lon":"-5.09629000"},{"name":"San Bartolomé de Béjar","native":null,"lat":"40.40783000","lon":"-5.66261000"},{"name":"San Bartolomé de Corneja","native":null,"lat":"40.49257000","lon":"-5.38519000"},{"name":"San Bartolomé de Pinares","native":null,"lat":"0.00000000","lon":"0.00000000"},{"name":"San Esteban de los Patos","native":null,"lat":"40.74705000","lon":"-4.62413000"},{"name":"San Esteban de Zapardiel","native":null,"lat":"0.00000000","lon":"0.00000000"},{"name":"San Esteban del Valle","native":null,"lat":"40.27510000","lon":"-4.98215000"},{"name":"San García de Ingelmos","native":null,"lat":"40.76912000","lon":"-5.11523000"},{"name":"San Juan de Gredos","native":null,"lat":"0.00000000","lon":"0.00000000"},{"name":"San Juan de la Encinilla","native":null,"lat":"40.83020000","lon":"-4.83957000"},{"name":"San Juan de la Nava","native":null,"lat":"40.47880000","lon":"-4.68238000"},{"name":"San Juan del Molinillo","native":null,"lat":"40.45909000","lon":"-4.81711000"},{"name":"San Juan del Olmo","native":null,"lat":"0.00000000","lon":"0.00000000"},{"name":"San Lorenzo de Tormes","native":null,"lat":"40.36984000","lon":"-5.48848000"},{"name":"San Martín de la Vega del Alberche","native":null,"lat":"40.43053000","lon":"-5.15500000"},{"name":"San Martín del Pimpollar","native":null,"lat":"40.36830000","lon":"-5.05443000"},{"name":"San Miguel de Corneja","native":null,"lat":"40.48722000","lon":"-5.28654000"},{"name":"San Miguel de Serrezuela","native":null,"lat":"40.67064000","lon":"-5.28857000"},{"name":"San Pascual","native":null,"lat":"40.88141000","lon":"-4.75612000"},{"name":"San Pedro del Arroyo","native":null,"lat":"40.80213000","lon":"-4.87075000"},{"name":"San Vicente de Arévalo","native":null,"lat":"40.96773000","lon":"-4.80194000"},{"name":"Sanchidrián","native":null,"lat":"40.89347000","lon":"-4.58132000"},{"name":"Sanchorreja","native":null,"lat":"40.66475000","lon":"-4.91494000"},{"name":"Santa Cruz de Pinares","native":null,"lat":"40.54265000","lon":"-4.58036000"},{"name":"Santa Cruz del Valle","native":null,"lat":"40.25160000","lon":"-5.00133000"},{"name":"Santa María de los Caballeros","native":null,"lat":"40.38925000","lon":"-5.45112000"},{"name":"Santa María del Arroyo","native":null,"lat":"0.00000000","lon":"0.00000000"},{"name":"Santa María del Berrocal","native":null,"lat":"40.50845000","lon":"-5.40483000"},{"name":"Santa María del Cubillo","native":null,"lat":"0.00000000","lon":"0.00000000"},{"name":"Santa María del Tiétar","native":null,"lat":"0.00000000","lon":"0.00000000"},{"name":"Santiago del Collado","native":null,"lat":"40.43326000","lon":"-5.35631000"},{"name":"Santiago del Tormes","native":null,"lat":"0.00000000","lon":"0.00000000"},{"name":"Santo Domingo de las Posadas","native":null,"lat":"40.81200000","lon":"-4.63383000"},{"name":"Santo Tomé de Zabarcos","native":null,"lat":"40.78726000","lon":"-4.91048000"},{"name":"Serrada La","native":null,"lat":"0.00000000","lon":"0.00000000"},{"name":"Serranillos","native":null,"lat":"40.33625000","lon":"-4.91165000"},{"name":"Sigeres","native":null,"lat":"40.79939000","lon":"-4.93361000"},{"name":"Sinlabajos","native":null,"lat":"41.07650000","lon":"-4.83242000"},{"name":"Solana de Ávila","native":null,"lat":"0.00000000","lon":"0.00000000"},{"name":"Solana de Rioalmar","native":null,"lat":"0.00000000","lon":"0.00000000"},{"name":"Solosancho","native":null,"lat":"40.55294000","lon":"-4.90479000"},{"name":"Sotalbo","native":null,"lat":"40.54170000","lon":"-4.84548000"},{"name":"Sotillo de la Adrada","native":null,"lat":"40.29120000","lon":"-4.58385000"},{"name":"Tiemblo El","native":null,"lat":"0.00000000","lon":"0.00000000"},{"name":"Tiñosillos","native":null,"lat":"40.93400000","lon":"-4.72767000"},{"name":"Tolbaños","native":null,"lat":"40.75168000","lon":"-4.58191000"},{"name":"Tormellas","native":null,"lat":"40.30404000","lon":"-5.51185000"},{"name":"Tornadizos de Ávila","native":null,"lat":"40.62757000","lon":"-4.61426000"},{"name":"Torre La","native":null,"lat":"0.00000000","lon":"0.00000000"},{"name":"Tórtoles","native":null,"lat":"40.56120000","lon":"-5.26120000"},{"name":"Umbrías","native":null,"lat":"40.31530000","lon":"-5.58037000"},{"name":"Vadillo de la Sierra","native":null,"lat":"40.60634000","lon":"-5.12506000"},{"name":"Valdecasa","native":null,"lat":"40.65931000","lon":"-5.01183000"},{"name":"Vega de Santa María","native":null,"lat":"40.83618000","lon":"-4.64287000"},{"name":"Velayos","native":null,"lat":"40.84157000","lon":"-4.62324000"},{"name":"Villaflor","native":null,"lat":"40.75865000","lon":"-4.87379000"},{"name":"Villafranca de la Sierra","native":null,"lat":"40.49806000","lon":"-5.23005000"},{"name":"Villanueva de Ávila","native":null,"lat":"0.00000000","lon":"0.00000000"},{"name":"Villanueva de Gómez","native":null,"lat":"40.88269000","lon":"-4.71650000"},{"name":"Villanueva del Aceral","native":null,"lat":"41.04095000","lon":"-4.85419000"},{"name":"Villanueva del Campillo","native":null,"lat":"40.57646000","lon":"-5.18002000"},{"name":"Villar de Corneja","native":null,"lat":"40.47462000","lon":"-5.43307000"},{"name":"Villarejo del Valle","native":null,"lat":"40.28638000","lon":"-4.99674000"},{"name":"Villatoro","native":null,"lat":"40.55609000","lon":"-5.11262000"},{"name":"Viñegra de Moraña","native":null,"lat":"40.85074000","lon":"-4.92115000"},{"name":"Vita","native":null,"lat":"40.81178000","lon":"-5.00583000"},{"name":"Zapardiel de la Cañada","native":null,"lat":"40.60648000","lon":"-5.33791000"},{"name":"Zapardiel de la Ribera","native":null,"lat":"40.35554000","lon":"-5.32826000"}]},{"name":"Badajoz","native":null,"cities":[{"name":"Acedera","native":null,"lat":"39.07678000","lon":"-5.57384000"},{"name":"Aceuchal","native":null,"lat":"38.64627000","lon":"-6.48636000"},{"name":"Ahillones","native":null,"lat":"38.26667000","lon":"-5.85000000"},{"name":"Alange","native":null,"lat":"38.78495000","lon":"-6.24574000"},{"name":"Albuera La","native":null,"lat":"0.00000000","lon":"0.00000000"},{"name":"Alburquerque","native":null,"lat":"39.22076000","lon":"-7.00234000"},{"name":"Alconchel","native":null,"lat":"38.51648000","lon":"-7.07161000"},{"name":"Alconera","native":null,"lat":"38.40000000","lon":"-6.46667000"},{"name":"Aljucén","native":null,"lat":"39.04425000","lon":"-6.33109000"},{"name":"Almendral","native":null,"lat":"38.61418000","lon":"-6.82097000"},{"name":"Almendralejo","native":null,"lat":"38.68316000","lon":"-6.40747000"},{"name":"Arroyo de San Serván","native":null,"lat":"38.85443000","lon":"-6.45402000"},{"name":"Atalaya","native":null,"lat":"38.33333000","lon":"-6.46667000"},{"name":"Azuaga","native":null,"lat":"38.26667000","lon":"-5.68333000"},{"name":"Badajoz","native":null,"lat":"38.87789000","lon":"-6.97061000"},{"name":"Barcarrota","native":null,"lat":"38.51473000","lon":"-6.84923000"},{"name":"Baterno","native":null,"lat":"38.95578000","lon":"-4.91039000"},{"name":"Benquerencia de la Serena","native":null,"lat":"0.00000000","lon":"0.00000000"},{"name":"Berlanga","native":null,"lat":"38.28333000","lon":"-5.81667000"},{"name":"Bienvenida","native":null,"lat":"38.30000000","lon":"-6.20000000"},{"name":"Bodonal de la Sierra","native":null,"lat":"38.14751000","lon":"-6.55950000"},{"name":"Burguillos del Cerro","native":null,"lat":"38.38008000","lon":"-6.59037000"},{"name":"Cabeza del Buey","native":null,"lat":"38.72227000","lon":"-5.21946000"},{"name":"Cabeza la Vaca","native":null,"lat":"38.08333000","lon":"-6.41667000"},{"name":"Calamonte","native":null,"lat":"38.88861000","lon":"-6.38791000"},{"name":"Calera de León","native":null,"lat":"38.10000000","lon":"-6.33333000"},{"name":"Calzadilla de los Barros","native":null,"lat":"0.00000000","lon":"0.00000000"},{"name":"Campanario","native":null,"lat":"38.86440000","lon":"-5.61744000"},{"name":"Campillo de Llerena","native":null,"lat":"38.50196000","lon":"-5.83139000"},{"name":"Capilla","native":null,"lat":"38.82037000","lon":"-5.08417000"},{"name":"Carmonita","native":null,"lat":"39.15455000","lon":"-6.33864000"},{"name":"Carrascalejo El","native":null,"lat":"0.00000000","lon":"0.00000000"},{"name":"Casas de Don Pedro","native":null,"lat":"39.10822000","lon":"-5.33077000"},{"name":"Casas de Reina","native":null,"lat":"38.20000000","lon":"-5.96667000"},{"name":"Castilblanco","native":null,"lat":"39.28487000","lon":"-5.09098000"},{"name":"Castuera","native":null,"lat":"38.73204000","lon":"-5.54390000"},{"name":"Cheles","native":null,"lat":"38.51225000","lon":"-7.28177000"},{"name":"Codosera La","native":null,"lat":"0.00000000","lon":"0.00000000"},{"name":"Cordobilla de Lácara","native":null,"lat":"39.14763000","lon":"-6.43619000"},{"name":"Coronada La","native":null,"lat":"0.00000000","lon":"0.00000000"},{"name":"Corte de Peleas","native":null,"lat":"38.72631000","lon":"-6.67035000"},{"name":"Cristina","native":null,"lat":"38.83745000","lon":"-6.09867000"},{"name":"Don Álvaro","native":null,"lat":"38.84837000","lon":"-6.27475000"},{"name":"Don Benito","native":null,"lat":"38.95627000","lon":"-5.86162000"},{"name":"Entrín Bajo","native":null,"lat":"38.71855000","lon":"-6.71349000"},{"name":"Esparragalejo","native":null,"lat":"38.94330000","lon":"-6.43549000"},{"name":"Esparragosa de la Serena","native":null,"lat":"38.65100000","lon":"-5.60657000"},{"name":"Esparragosa de Lares","native":null,"lat":"38.97517000","lon":"-5.26968000"},{"name":"Feria","native":null,"lat":"38.51151000","lon":"-6.56416000"},{"name":"Fregenal de la Sierra","native":null,"lat":"38.16922000","lon":"-6.65370000"},{"name":"Fuenlabrada de los Montes","native":null,"lat":"39.13288000","lon":"-4.93513000"},{"name":"Fuente de Cantos","native":null,"lat":"38.25000000","lon":"-6.30000000"},{"name":"Fuente del Arco","native":null,"lat":"0.00000000","lon":"0.00000000"},{"name":"Fuente del Maestre","native":null,"lat":"38.52656000","lon":"-6.44782000"},{"name":"Fuentes de León","native":null,"lat":"38.06866000","lon":"-6.53884000"},{"name":"Garbayuela","native":null,"lat":"39.04956000","lon":"-4.99856000"},{"name":"Garlitos","native":null,"lat":"38.88022000","lon":"-5.04759000"},{"name":"Garrovilla La","native":null,"lat":"0.00000000","lon":"0.00000000"},{"name":"Granja de Torrehermosa","native":null,"lat":"38.31667000","lon":"-5.58333000"},{"name":"Guareña","native":null,"lat":"38.85952000","lon":"-6.09987000"},{"name":"Haba La","native":null,"lat":"0.00000000","lon":"0.00000000"},{"name":"Helechosa de los Montes","native":null,"lat":"0.00000000","lon":"0.00000000"},{"name":"Herrera del Duque","native":null,"lat":"39.16840000","lon":"-5.05049000"},{"name":"Higuera de la Serena","native":null,"lat":"38.64616000","lon":"-5.74129000"},{"name":"Higuera de Llerena","native":null,"lat":"0.00000000","lon":"0.00000000"},{"name":"Higuera de Vargas","native":null,"lat":"38.44700000","lon":"-6.97517000"},{"name":"Higuera la Real","native":null,"lat":"38.14088000","lon":"-6.68922000"},{"name":"Hinojosa del Valle","native":null,"lat":"38.48333000","lon":"-6.18333000"},{"name":"Hornachos","native":null,"lat":"38.55428000","lon":"-6.06829000"},{"name":"Jerez de los Caballeros","native":null,"lat":"38.32063000","lon":"-6.77260000"},{"name":"Lapa La","native":null,"lat":"0.00000000","lon":"0.00000000"},{"name":"Llera","native":null,"lat":"38.45000000","lon":"-6.05000000"},{"name":"Llerena","native":null,"lat":"38.23333000","lon":"-6.01667000"},{"name":"Lobón","native":null,"lat":"38.84876000","lon":"-6.62365000"},{"name":"Magacela","native":null,"lat":"38.89648000","lon":"-5.73437000"},{"name":"Maguilla","native":null,"lat":"38.36667000","lon":"-5.83333000"},{"name":"Malcocinado","native":null,"lat":"38.11667000","lon":"-5.68333000"},{"name":"Malpartida de la Serena","native":null,"lat":"38.67470000","lon":"-5.64054000"},{"name":"Manchita","native":null,"lat":"38.81404000","lon":"-6.02041000"},{"name":"Medellín","native":null,"lat":"38.96265000","lon":"-5.95785000"},{"name":"Medina de las Torres","native":null,"lat":"38.33333000","lon":"-6.40000000"},{"name":"Mengabril","native":null,"lat":"38.93554000","lon":"-5.93335000"},{"name":"Mérida","native":null,"lat":"38.91611000","lon":"-6.34366000"},{"name":"Mirandilla","native":null,"lat":"39.00200000","lon":"-6.28893000"},{"name":"Monesterio","native":null,"lat":"38.08333000","lon":"-6.26667000"},{"name":"Montemolín","native":null,"lat":"38.15000000","lon":"-6.20000000"},{"name":"Monterrubio de la Serena","native":null,"lat":"38.58876000","lon":"-5.44569000"},{"name":"Montijo","native":null,"lat":"38.90839000","lon":"-6.61785000"},{"name":"Morera La","native":null,"lat":"0.00000000","lon":"0.00000000"},{"name":"Nava de Santiago La","native":null,"lat":"0.00000000","lon":"0.00000000"},{"name":"Navalvillar de Pela","native":null,"lat":"39.09436000","lon":"-5.46810000"},{"name":"Nogales","native":null,"lat":"38.58629000","lon":"-6.74901000"},{"name":"Oliva de la Frontera","native":null,"lat":"38.27595000","lon":"-6.91873000"},{"name":"Oliva de Mérida","native":null,"lat":"38.79051000","lon":"-6.12402000"},{"name":"Olivenza","native":null,"lat":"38.68269000","lon":"-7.10046000"},{"name":"Orellana de la Sierra","native":null,"lat":"0.00000000","lon":"0.00000000"},{"name":"Orellana la Vieja","native":null,"lat":"39.00617000","lon":"-5.53441000"},{"name":"Palomas","native":null,"lat":"38.69277000","lon":"-6.13490000"},{"name":"Parra La","native":null,"lat":"0.00000000","lon":"0.00000000"},{"name":"Peñalsordo","native":null,"lat":"38.82019000","lon":"-5.11405000"},{"name":"Peraleda del Zaucejo","native":null,"lat":"0.00000000","lon":"0.00000000"},{"name":"Puebla de Alcocer","native":null,"lat":"38.98648000","lon":"-5.25633000"},{"name":"Puebla de la Calzada","native":null,"lat":"38.89441000","lon":"-6.62592000"},{"name":"Puebla de la Reina","native":null,"lat":"38.66455000","lon":"-6.10216000"},{"name":"Puebla de Obando","native":null,"lat":"39.17630000","lon":"-6.62764000"},{"name":"Puebla de Sancho Pérez","native":null,"lat":"38.40000000","lon":"-6.40000000"},{"name":"Puebla del Maestre","native":null,"lat":"38.08333000","lon":"-6.08333000"},{"name":"Puebla del Prior","native":null,"lat":"38.57032000","lon":"-6.19584000"},{"name":"Pueblonuevo del Guadiana","native":null,"lat":"0.00000000","lon":"0.00000000"},{"name":"Quintana de la Serena","native":null,"lat":"38.74595000","lon":"-5.67233000"},{"name":"Reina","native":null,"lat":"38.18333000","lon":"-5.95000000"},{"name":"Rena","native":null,"lat":"39.05252000","lon":"-5.80868000"},{"name":"Retamal de Llerena","native":null,"lat":"0.00000000","lon":"0.00000000"},{"name":"Ribera del Fresno","native":null,"lat":"38.55177000","lon":"-6.23768000"},{"name":"Risco","native":null,"lat":"0.00000000","lon":"0.00000000"},{"name":"Roca de la Sierra La","native":null,"lat":"0.00000000","lon":"0.00000000"},{"name":"Salvaleón","native":null,"lat":"38.51020000","lon":"-6.78627000"},{"name":"Salvatierra de los Barros","native":null,"lat":"38.49091000","lon":"-6.68423000"},{"name":"San Pedro de Mérida","native":null,"lat":"38.95007000","lon":"-6.18645000"},{"name":"San Vicente de Alcántara","native":null,"lat":"39.36132000","lon":"-7.13766000"},{"name":"Santa Amalia","native":null,"lat":"39.01118000","lon":"-6.01158000"},{"name":"Santa Marta","native":null,"lat":"38.61421000","lon":"-6.62799000"},{"name":"Santos de Maimona Los","native":null,"lat":"0.00000000","lon":"0.00000000"},{"name":"Segura de León","native":null,"lat":"38.11667000","lon":"-6.51667000"},{"name":"Siruela","native":null,"lat":"38.97718000","lon":"-5.04969000"},{"name":"Solana de los Barros","native":null,"lat":"38.72527000","lon":"-6.53899000"},{"name":"Talarrubias","native":null,"lat":"39.03697000","lon":"-5.23423000"},{"name":"Talavera La Real","native":null,"lat":"38.87794000","lon":"-6.76856000"},{"name":"Táliga","native":null,"lat":"38.52861000","lon":"-7.01713000"},{"name":"Tamurejo","native":null,"lat":"38.98333000","lon":"-4.93333000"},{"name":"Torre de Miguel Sesmero","native":null,"lat":"38.61913000","lon":"-6.79580000"},{"name":"Torremayor","native":null,"lat":"38.90140000","lon":"-6.53858000"},{"name":"Torremejía","native":null,"lat":"0.00000000","lon":"0.00000000"},{"name":"Trasierra","native":null,"lat":"38.18333000","lon":"-6.00000000"},{"name":"Trujillanos","native":null,"lat":"38.95233000","lon":"-6.25759000"},{"name":"Usagre","native":null,"lat":"38.35000000","lon":"-6.16667000"},{"name":"Valdecaballeros","native":null,"lat":"39.24289000","lon":"-5.19000000"},{"name":"Valdelacalzada","native":null,"lat":"38.88943000","lon":"-6.70029000"},{"name":"Valdetorres","native":null,"lat":"38.91542000","lon":"-6.06765000"},{"name":"Valencia de las Torres","native":null,"lat":"38.40518000","lon":"-6.00403000"},{"name":"Valencia del Mombuey","native":null,"lat":"38.24243000","lon":"-7.11965000"},{"name":"Valencia del Ventoso","native":null,"lat":"38.26667000","lon":"-6.46667000"},{"name":"Valle de la Serena","native":null,"lat":"38.71010000","lon":"-5.79847000"},{"name":"Valle de Matamoros","native":null,"lat":"38.37889000","lon":"-6.80371000"},{"name":"Valle de Santa Ana","native":null,"lat":"38.36637000","lon":"-6.78860000"},{"name":"Valverde de Burguillos","native":null,"lat":"38.32710000","lon":"-6.53648000"},{"name":"Valverde de Leganés","native":null,"lat":"38.67059000","lon":"-6.98036000"},{"name":"Valverde de Llerena","native":null,"lat":"38.21667000","lon":"-5.81667000"},{"name":"Valverde de Mérida","native":null,"lat":"38.91122000","lon":"-6.21999000"},{"name":"Villafranca de los Barros","native":null,"lat":"38.56144000","lon":"-6.33810000"},{"name":"Villagarcía de la Torre","native":null,"lat":"38.30000000","lon":"-6.08333000"},{"name":"Villagonzalo","native":null,"lat":"38.86329000","lon":"-6.19665000"},{"name":"Villalba de los Barros","native":null,"lat":"38.61294000","lon":"-6.50914000"},{"name":"Villanueva de la Serena","native":null,"lat":"38.97655000","lon":"-5.79740000"},{"name":"Villanueva del Fresno","native":null,"lat":"38.37600000","lon":"-7.16753000"},{"name":"Villar de Rena","native":null,"lat":"39.07651000","lon":"-5.81074000"},{"name":"Villar del Rey","native":null,"lat":"39.13310000","lon":"-6.84762000"},{"name":"Villarta de los Montes","native":null,"lat":"39.21386000","lon":"-4.79227000"},{"name":"Zafra","native":null,"lat":"38.42539000","lon":"-6.41734000"},{"name":"Zahinos","native":null,"lat":"38.33135000","lon":"-6.95533000"},{"name":"Zalamea de la Serena","native":null,"lat":"38.65131000","lon":"-5.66063000"},{"name":"Zarza La","native":null,"lat":"0.00000000","lon":"0.00000000"},{"name":"Zarza-Capilla","native":null,"lat":"0.00000000","lon":"0.00000000"}]},{"name":"Barcelona","native":null,"cities":[{"name":"Abrera","native":null,"lat":"41.51682000","lon":"1.90100000"},{"name":"Aguilar de Segarra","native":null,"lat":"41.74822000","lon":"1.62919000"},{"name":"Aiguafreda","native":null,"lat":"41.76807000","lon":"2.25051000"},{"name":"Alella","native":null,"lat":"41.49379000","lon":"2.29451000"},{"name":"Alpens","native":null,"lat":"42.11930000","lon":"2.10135000"},{"name":"Ametlla del Vallès L","native":null,"lat":"0.00000000","lon":"0.00000000"},{"name":"Arenys de Mar","native":null,"lat":"41.58190000","lon":"2.54936000"},{"name":"Arenys de Munt","native":null,"lat":"41.61424000","lon":"2.53972000"},{"name":"Argençola","native":null,"lat":"0.00000000","lon":"0.00000000"},{"name":"Argentona","native":null,"lat":"41.55336000","lon":"2.40114000"},{"name":"Artés","native":null,"lat":"41.79800000","lon":"1.95428000"},{"name":"Avià","native":null,"lat":"0.00000000","lon":"0.00000000"},{"name":"Avinyó","native":null,"lat":"41.86367000","lon":"1.97095000"},{"name":"Avinyonet del Penedès","native":null,"lat":"0.00000000","lon":"0.00000000"},{"name":"Badalona","native":null,"lat":"41.45004000","lon":"2.24741000"},{"name":"Badia del Vallès","native":null,"lat":"0.00000000","lon":"0.00000000"},{"name":"Bagà","native":null,"lat":"42.25289000","lon":"1.86098000"},{"name":"Balenyà","native":null,"lat":"0.00000000","lon":"0.00000000"},{"name":"Balsareny","native":null,"lat":"41.86311000","lon":"1.87356000"},{"name":"Barberà del Vallès","native":null,"lat":"41.51590000","lon":"2.12457000"},{"name":"Barcelona","native":null,"lat":"41.38879000","lon":"2.15899000"},{"name":"Begues","native":null,"lat":"41.33333000","lon":"1.93333000"},{"name":"Bellprat","native":null,"lat":"41.51695000","lon":"1.43333000"},{"name":"Berga","native":null,"lat":"42.10429000","lon":"1.84628000"},{"name":"Bigues i Riells","native":null,"lat":"41.68333000","lon":"2.23333000"},{"name":"Borredà","native":null,"lat":"0.00000000","lon":"0.00000000"},{"name":"Bruc El","native":null,"lat":"0.00000000","lon":"0.00000000"},{"name":"Brull El","native":null,"lat":"0.00000000","lon":"0.00000000"},{"name":"Cabanyes Les","native":null,"lat":"0.00000000","lon":"0.00000000"},{"name":"Cabrera dAnoia","native":null,"lat":"0.00000000","lon":"0.00000000"},{"name":"Cabrera de Mar","native":null,"lat":"41.51667000","lon":"2.40000000"},{"name":"Cabrils","native":null,"lat":"41.52760000","lon":"2.36996000"},{"name":"Calaf","native":null,"lat":"41.73289000","lon":"1.51375000"},{"name":"Calders","native":null,"lat":"0.00000000","lon":"0.00000000"},{"name":"Caldes de Montbui","native":null,"lat":"41.63333000","lon":"2.16667000"},{"name":"Caldes dEstrac","native":null,"lat":"0.00000000","lon":"0.00000000"},{"name":"Calella","native":null,"lat":"41.61381000","lon":"2.65423000"},{"name":"Calldetenes","native":null,"lat":"0.00000000","lon":"0.00000000"},{"name":"Callús","native":null,"lat":"0.00000000","lon":"0.00000000"},{"name":"Calonge de Segarra","native":null,"lat":"0.00000000","lon":"0.00000000"},{"name":"Campins","native":null,"lat":"41.71667000","lon":"2.46667000"},{"name":"Canet de Mar","native":null,"lat":"41.59054000","lon":"2.58116000"},{"name":"Canovelles","native":null,"lat":"41.61667000","lon":"2.28333000"},{"name":"Cànoves i Samalús","native":null,"lat":"41.68333000","lon":"2.35000000"},{"name":"Canyelles","native":null,"lat":"41.44509000","lon":"2.16346000"},{"name":"Capellades","native":null,"lat":"41.53005000","lon":"1.68651000"},{"name":"Capolat","native":null,"lat":"0.00000000","lon":"0.00000000"},{"name":"Cardedeu","native":null,"lat":"41.63976000","lon":"2.35739000"},{"name":"Cardona","native":null,"lat":"41.91371000","lon":"1.67855000"},{"name":"Carme","native":null,"lat":"0.00000000","lon":"0.00000000"},{"name":"Casserres","native":null,"lat":"0.00000000","lon":"0.00000000"},{"name":"Castell de lAreny","native":null,"lat":"0.00000000","lon":"0.00000000"},{"name":"Castellar de nHug","native":null,"lat":"0.00000000","lon":"0.00000000"},{"name":"Castellar del Riu","native":null,"lat":"0.00000000","lon":"0.00000000"},{"name":"Castellar del Vallès","native":null,"lat":"41.61667000","lon":"2.08333000"},{"name":"Castellbell i el Vilar","native":null,"lat":"0.00000000","lon":"0.00000000"},{"name":"Castellbisbal","native":null,"lat":"41.47534000","lon":"1.98174000"},{"name":"Castellcir","native":null,"lat":"41.76074000","lon":"2.16128000"},{"name":"Castelldefels","native":null,"lat":"41.27794000","lon":"1.97033000"},{"name":"Castellet i la Gornal","native":null,"lat":"0.00000000","lon":"0.00000000"},{"name":"Castellfollit de Riubregós","native":null,"lat":"41.76667000","lon":"1.43333000"},{"name":"Castellfollit del Boix","native":null,"lat":"0.00000000","lon":"0.00000000"},{"name":"Castellgalí","native":null,"lat":"0.00000000","lon":"0.00000000"},{"name":"Castellnou de Bages","native":null,"lat":"0.00000000","lon":"0.00000000"},{"name":"Castellolí","native":null,"lat":"41.59829000","lon":"1.70057000"},{"name":"Castellterçol","native":null,"lat":"0.00000000","lon":"0.00000000"},{"name":"Castellví de la Marca","native":null,"lat":"0.00000000","lon":"0.00000000"},{"name":"Castellví de Rosanes","native":null,"lat":"41.45000000","lon":"1.90000000"},{"name":"Centelles","native":null,"lat":"41.79746000","lon":"2.21902000"},{"name":"Cercs","native":null,"lat":"0.00000000","lon":"0.00000000"},{"name":"Cerdanyola del Vallès","native":null,"lat":"41.49109000","lon":"2.14079000"},{"name":"Cervelló","native":null,"lat":"41.39587000","lon":"1.95917000"},{"name":"Collbató","native":null,"lat":"41.57009000","lon":"1.82712000"},{"name":"Collsuspina","native":null,"lat":"41.82580000","lon":"2.17546000"},{"name":"Copons","native":null,"lat":"0.00000000","lon":"0.00000000"},{"name":"Corbera de Llobregat","native":null,"lat":"41.41702000","lon":"1.91970000"},{"name":"Cornellà de Llobregat","native":null,"lat":"41.35000000","lon":"2.08333000"},{"name":"Cubelles","native":null,"lat":"41.20772000","lon":"1.67267000"},{"name":"Dosrius","native":null,"lat":"41.58333000","lon":"2.41667000"},{"name":"Esparreguera","native":null,"lat":"41.53809000","lon":"1.87025000"},{"name":"Esplugues de Llobregat","native":null,"lat":"41.37732000","lon":"2.08809000"},{"name":"Espunyola L","native":null,"lat":"0.00000000","lon":"0.00000000"},{"name":"Estany L","native":null,"lat":"0.00000000","lon":"0.00000000"},{"name":"Figaró-Montmany","native":null,"lat":"0.00000000","lon":"0.00000000"},{"name":"Fígols","native":null,"lat":"0.00000000","lon":"0.00000000"},{"name":"Fogars de la Selva","native":null,"lat":"0.00000000","lon":"0.00000000"},{"name":"Fogars de Montclús","native":null,"lat":"0.00000000","lon":"0.00000000"},{"name":"Folgueroles","native":null,"lat":"0.00000000","lon":"0.00000000"},{"name":"Fonollosa","native":null,"lat":"41.76303000","lon":"1.66867000"},{"name":"Font-rubí","native":null,"lat":"0.00000000","lon":"0.00000000"},{"name":"Franqueses del Vallès Les","native":null,"lat":"0.00000000","lon":"0.00000000"},{"name":"Gaià","native":null,"lat":"0.00000000","lon":"0.00000000"},{"name":"Gallifa","native":null,"lat":"41.69243000","lon":"2.11346000"},{"name":"Garriga La","native":null,"lat":"0.00000000","lon":"0.00000000"},{"name":"Gavà","native":null,"lat":"41.30605000","lon":"2.00123000"},{"name":"Gelida","native":null,"lat":"41.43333000","lon":"1.86667000"},{"name":"Gironella","native":null,"lat":"42.03433000","lon":"1.88019000"},{"name":"Gisclareny","native":null,"lat":"0.00000000","lon":"0.00000000"},{"name":"Granada La","native":null,"lat":"0.00000000","lon":"0.00000000"},{"name":"Granera","native":null,"lat":"41.72741000","lon":"2.05924000"},{"name":"Granollers","native":null,"lat":"41.60797000","lon":"2.28773000"},{"name":"Gualba","native":null,"lat":"0.00000000","lon":"0.00000000"},{"name":"Guardiola de Berguedà","native":null,"lat":"0.00000000","lon":"0.00000000"},{"name":"Gurb","native":null,"lat":"41.95419000","lon":"2.23537000"},{"name":"Hospitalet de Llobregat L","native":null,"lat":"0.00000000","lon":"0.00000000"},{"name":"Hostalets de Pierola Els","native":null,"lat":"0.00000000","lon":"0.00000000"},{"name":"Igualada","native":null,"lat":"41.58098000","lon":"1.61720000"},{"name":"Jorba","native":null,"lat":"41.60193000","lon":"1.54750000"},{"name":"Llacuna La","native":null,"lat":"0.00000000","lon":"0.00000000"},{"name":"Llagosta La","native":null,"lat":"0.00000000","lon":"0.00000000"},{"name":"Lliçà dAmunt","native":null,"lat":"0.00000000","lon":"0.00000000"},{"name":"Lliçà de Vall","native":null,"lat":"0.00000000","lon":"0.00000000"},{"name":"Llinars del Vallès","native":null,"lat":"41.63333000","lon":"2.40000000"},{"name":"Lluçà","native":null,"lat":"0.00000000","lon":"0.00000000"},{"name":"Malgrat de Mar","native":null,"lat":"41.64662000","lon":"2.74135000"},{"name":"Malla","native":null,"lat":"0.00000000","lon":"0.00000000"},{"name":"Manlleu","native":null,"lat":"42.00228000","lon":"2.28476000"},{"name":"Manresa","native":null,"lat":"41.72815000","lon":"1.82399000"},{"name":"Marganell","native":null,"lat":"0.00000000","lon":"0.00000000"},{"name":"Martorell","native":null,"lat":"41.47402000","lon":"1.93062000"},{"name":"Martorelles","native":null,"lat":"0.00000000","lon":"0.00000000"},{"name":"Masies de Roda Les","native":null,"lat":"0.00000000","lon":"0.00000000"},{"name":"Masies de Voltregà Les","native":null,"lat":"0.00000000","lon":"0.00000000"},{"name":"Masnou El","native":null,"lat":"0.00000000","lon":"0.00000000"},{"name":"Masquefa","native":null,"lat":"41.50353000","lon":"1.81136000"},{"name":"Matadepera","native":null,"lat":"41.59886000","lon":"2.02648000"},{"name":"Mataró","native":null,"lat":"41.54211000","lon":"2.44450000"},{"name":"Mediona","native":null,"lat":"41.47798000","lon":"1.61222000"},{"name":"Moià","native":null,"lat":"41.81112000","lon":"2.09839000"},{"name":"Molins de Rei","native":null,"lat":"41.41667000","lon":"2.01667000"},{"name":"Mollet del Vallès","native":null,"lat":"41.54026000","lon":"2.21306000"},{"name":"Monistrol de Calders","native":null,"lat":"0.00000000","lon":"0.00000000"},{"name":"Monistrol de Montserrat","native":null,"lat":"41.61667000","lon":"1.85000000"},{"name":"Montcada i Reixac","native":null,"lat":"41.48333000","lon":"2.18333000"},{"name":"Montclar","native":null,"lat":"0.00000000","lon":"0.00000000"},{"name":"Montesquiu","native":null,"lat":"0.00000000","lon":"0.00000000"},{"name":"Montgat","native":null,"lat":"41.46859000","lon":"2.28001000"},{"name":"Montmajor","native":null,"lat":"0.00000000","lon":"0.00000000"},{"name":"Montmaneu","native":null,"lat":"0.00000000","lon":"0.00000000"},{"name":"Montmeló","native":null,"lat":"41.55002000","lon":"2.24190000"},{"name":"Montornès del Vallès","native":null,"lat":"41.54206000","lon":"2.26748000"},{"name":"Montseny","native":null,"lat":"0.00000000","lon":"0.00000000"},{"name":"Muntanyola","native":null,"lat":"0.00000000","lon":"0.00000000"},{"name":"Mura","native":null,"lat":"41.69943000","lon":"1.97612000"},{"name":"Navarcles","native":null,"lat":"41.75171000","lon":"1.90357000"},{"name":"Navas","native":null,"lat":"41.41803000","lon":"2.18596000"},{"name":"Nou de Berguedà La","native":null,"lat":"0.00000000","lon":"0.00000000"},{"name":"Òdena","native":null,"lat":"41.60000000","lon":"1.65000000"},{"name":"Olèrdola","native":null,"lat":"0.00000000","lon":"0.00000000"},{"name":"Olesa de Bonesvalls","native":null,"lat":"41.35435000","lon":"1.84907000"},{"name":"Olesa de Montserrat","native":null,"lat":"41.54372000","lon":"1.89407000"},{"name":"Olivella","native":null,"lat":"41.31667000","lon":"1.81667000"},{"name":"Olost","native":null,"lat":"41.98540000","lon":"2.09457000"},{"name":"Olvan","native":null,"lat":"0.00000000","lon":"0.00000000"},{"name":"Orís","native":null,"lat":"42.05967000","lon":"2.22066000"},{"name":"Oristà","native":null,"lat":"41.93333000","lon":"2.06667000"},{"name":"Orpí","native":null,"lat":"41.51870000","lon":"1.57536000"},{"name":"Òrrius","native":null,"lat":"41.55000000","lon":"2.35000000"},{"name":"Pacs del Penedès","native":null,"lat":"0.00000000","lon":"0.00000000"},{"name":"Palafolls","native":null,"lat":"0.00000000","lon":"0.00000000"},{"name":"Palau-solità i Plegamans","native":null,"lat":"0.00000000","lon":"0.00000000"},{"name":"Pallejà","native":null,"lat":"41.42394000","lon":"1.99505000"},{"name":"Palma de Cervelló La","native":null,"lat":"0.00000000","lon":"0.00000000"},{"name":"Papiol El","native":null,"lat":"0.00000000","lon":"0.00000000"},{"name":"Parets del Vallès","native":null,"lat":"41.57481000","lon":"2.23306000"},{"name":"Perafita","native":null,"lat":"0.00000000","lon":"0.00000000"},{"name":"Piera","native":null,"lat":"41.52232000","lon":"1.75076000"},{"name":"Pineda de Mar","native":null,"lat":"41.62763000","lon":"2.68890000"},{"name":"Pla del Penedès El","native":null,"lat":"0.00000000","lon":"0.00000000"},{"name":"Pobla de Claramunt La","native":null,"lat":"0.00000000","lon":"0.00000000"},{"name":"Pobla de Lillet La","native":null,"lat":"0.00000000","lon":"0.00000000"},{"name":"Polinyà","native":null,"lat":"41.55000000","lon":"2.15000000"},{"name":"Pont de Vilomara i Rocafort El","native":null,"lat":"0.00000000","lon":"0.00000000"},{"name":"Pontons","native":null,"lat":"0.00000000","lon":"0.00000000"},{"name":"Prat de Llobregat El","native":null,"lat":"0.00000000","lon":"0.00000000"},{"name":"Prats de Lluçanès","native":null,"lat":"0.00000000","lon":"0.00000000"},{"name":"Prats de Rei Els","native":null,"lat":"0.00000000","lon":"0.00000000"},{"name":"Premià de Dalt","native":null,"lat":"0.00000000","lon":"0.00000000"},{"name":"Premià de Mar","native":null,"lat":"41.49206000","lon":"2.36524000"},{"name":"Puig-reig","native":null,"lat":"0.00000000","lon":"0.00000000"},{"name":"Puigdàlber","native":null,"lat":"0.00000000","lon":"0.00000000"},{"name":"Pujalt","native":null,"lat":"41.71710000","lon":"1.42088000"},{"name":"Quar La","native":null,"lat":"0.00000000","lon":"0.00000000"},{"name":"Rajadell","native":null,"lat":"41.72802000","lon":"1.70621000"},{"name":"Rellinars","native":null,"lat":"0.00000000","lon":"0.00000000"},{"name":"Ripollet","native":null,"lat":"41.49686000","lon":"2.15739000"},{"name":"Roca del Vallès La","native":null,"lat":"0.00000000","lon":"0.00000000"},{"name":"Roda de Ter","native":null,"lat":"0.00000000","lon":"0.00000000"},{"name":"Rubí","native":null,"lat":"41.49226000","lon":"2.03305000"},{"name":"Rubió","native":null,"lat":"0.00000000","lon":"0.00000000"},{"name":"Rupit i Pruit","native":null,"lat":"0.00000000","lon":"0.00000000"},{"name":"Sabadell","native":null,"lat":"41.54329000","lon":"2.10942000"},{"name":"Sagàs","native":null,"lat":"42.05000000","lon":"1.96667000"},{"name":"Saldes","native":null,"lat":"0.00000000","lon":"0.00000000"},{"name":"Sallent","native":null,"lat":"41.82602000","lon":"1.89550000"},{"name":"Sant Adrià de Besòs","native":null,"lat":"41.43073000","lon":"2.21855000"},{"name":"Sant Agustí de Lluçanès","native":null,"lat":"0.00000000","lon":"0.00000000"},{"name":"Sant Andreu de la Barca","native":null,"lat":"41.44659000","lon":"1.97187000"},{"name":"Sant Andreu de Llavaneres","native":null,"lat":"41.56667000","lon":"2.48333000"},{"name":"Sant Antoni de Vilamajor","native":null,"lat":"0.00000000","lon":"0.00000000"},{"name":"Sant Bartomeu del Grau","native":null,"lat":"0.00000000","lon":"0.00000000"},{"name":"Sant Boi de Llobregat","native":null,"lat":"41.34357000","lon":"2.03659000"},{"name":"Sant Boi de Lluçanès","native":null,"lat":"0.00000000","lon":"0.00000000"},{"name":"Sant Cebrià de Vallalta","native":null,"lat":"0.00000000","lon":"0.00000000"},{"name":"Sant Celoni","native":null,"lat":"41.68921000","lon":"2.48965000"},{"name":"Sant Climent de Llobregat","native":null,"lat":"0.00000000","lon":"0.00000000"},{"name":"Sant Cugat del Vallès","native":null,"lat":"41.47063000","lon":"2.08611000"},{"name":"Sant Cugat Sesgarrigues","native":null,"lat":"0.00000000","lon":"0.00000000"},{"name":"Sant Esteve de Palautordera","native":null,"lat":"0.00000000","lon":"0.00000000"},{"name":"Sant Esteve Sesrovires","native":null,"lat":"0.00000000","lon":"0.00000000"},{"name":"Sant Feliu de Codines","native":null,"lat":"0.00000000","lon":"0.00000000"},{"name":"Sant Feliu de Llobregat","native":null,"lat":"41.38333000","lon":"2.05000000"},{"name":"Sant Feliu Sasserra","native":null,"lat":"0.00000000","lon":"0.00000000"},{"name":"Sant Fost de Campsentelles","native":null,"lat":"0.00000000","lon":"0.00000000"},{"name":"Sant Fruitós de Bages","native":null,"lat":"0.00000000","lon":"0.00000000"},{"name":"Sant Hipòlit de Voltregà","native":null,"lat":"0.00000000","lon":"0.00000000"},{"name":"Sant Iscle de Vallalta","native":null,"lat":"0.00000000","lon":"0.00000000"},{"name":"Sant Jaume de Frontanyà","native":null,"lat":"0.00000000","lon":"0.00000000"},{"name":"Sant Joan de Vilatorrada","native":null,"lat":"41.74549000","lon":"1.80476000"},{"name":"Sant Joan Despí","native":null,"lat":"41.36718000","lon":"2.05740000"},{"name":"Sant Julià de Cerdanyola","native":null,"lat":"42.22350000","lon":"1.89308000"},{"name":"Sant Julià de Vilatorta","native":null,"lat":"0.00000000","lon":"0.00000000"},{"name":"Sant Just Desvern","native":null,"lat":"41.38389000","lon":"2.06758000"},{"name":"Sant Llorenç dHortons","native":null,"lat":"0.00000000","lon":"0.00000000"},{"name":"Sant Llorenç Savall","native":null,"lat":"0.00000000","lon":"0.00000000"},{"name":"Sant Martí dAlbars","native":null,"lat":"0.00000000","lon":"0.00000000"},{"name":"Sant Martí de Centelles","native":null,"lat":"41.76617000","lon":"2.20566000"},{"name":"Sant Martí de Tous","native":null,"lat":"41.55000000","lon":"1.51667000"},{"name":"Sant Martí Sarroca","native":null,"lat":"41.38576000","lon":"1.61121000"},{"name":"Sant Martí Sesgueioles","native":null,"lat":"0.00000000","lon":"0.00000000"},{"name":"Sant Mateu de Bages","native":null,"lat":"0.00000000","lon":"0.00000000"},{"name":"Sant Pere de Ribes","native":null,"lat":"41.26045000","lon":"1.77391000"},{"name":"Sant Pere de Riudebitlles","native":null,"lat":"41.45000000","lon":"1.70000000"},{"name":"Sant Pere de Torelló","native":null,"lat":"0.00000000","lon":"0.00000000"},{"name":"Sant Pere de Vilamajor","native":null,"lat":"0.00000000","lon":"0.00000000"},{"name":"Sant Pere Sallavinera","native":null,"lat":"0.00000000","lon":"0.00000000"},{"name":"Sant Pol de Mar","native":null,"lat":"41.60177000","lon":"2.61741000"},{"name":"Sant Quintí de Mediona","native":null,"lat":"0.00000000","lon":"0.00000000"},{"name":"Sant Quirze de Besora","native":null,"lat":"0.00000000","lon":"0.00000000"},{"name":"Sant Quirze del Vallès","native":null,"lat":"41.53333000","lon":"2.08333000"},{"name":"Sant Quirze Safaja","native":null,"lat":"0.00000000","lon":"0.00000000"},{"name":"Sant Sadurní dAnoia","native":null,"lat":"0.00000000","lon":"0.00000000"},{"name":"Sant Sadurní dOsormort","native":null,"lat":"0.00000000","lon":"0.00000000"},{"name":"Sant Salvador de Guardiola","native":null,"lat":"41.68333000","lon":"1.76667000"},{"name":"Sant Vicenç de Castellet","native":null,"lat":"41.66667000","lon":"1.86667000"},{"name":"Sant Vicenç de Montalt","native":null,"lat":"41.57853000","lon":"2.50879000"},{"name":"Sant Vicenç de Torelló","native":null,"lat":"0.00000000","lon":"0.00000000"},{"name":"Sant Vicenç dels Horts","native":null,"lat":"41.39317000","lon":"2.00689000"},{"name":"Santa Cecília de Voltregà","native":null,"lat":"42.00000000","lon":"2.23333000"},{"name":"Santa Coloma de Cervelló","native":null,"lat":"41.36736000","lon":"2.01426000"},{"name":"Santa Coloma de Gramenet","native":null,"lat":"41.45152000","lon":"2.20810000"},{"name":"Santa Eugènia de Berga","native":null,"lat":"41.90000000","lon":"2.28333000"},{"name":"Santa Eulàlia de Riuprimer","native":null,"lat":"0.00000000","lon":"0.00000000"},{"name":"Santa Eulàlia de Ronçana","native":null,"lat":"41.65000000","lon":"2.23333000"},{"name":"Santa Fe del Penedès","native":null,"lat":"0.00000000","lon":"0.00000000"},{"name":"Santa Margarida de Montbui","native":null,"lat":"0.00000000","lon":"0.00000000"},{"name":"Santa Margarida i els Monjos","native":null,"lat":"0.00000000","lon":"0.00000000"},{"name":"Santa Maria de Besora","native":null,"lat":"0.00000000","lon":"0.00000000"},{"name":"Santa Maria de Corcó","native":null,"lat":"42.03333000","lon":"2.36667000"},{"name":"Santa Maria de Martorelles","native":null,"lat":"0.00000000","lon":"0.00000000"},{"name":"Santa Maria de Merlès","native":null,"lat":"0.00000000","lon":"0.00000000"},{"name":"Santa Maria de Miralles","native":null,"lat":"0.00000000","lon":"0.00000000"},{"name":"Santa Maria de Palautordera","native":null,"lat":"41.69417000","lon":"2.44566000"},{"name":"Santa Maria dOló","native":null,"lat":"0.00000000","lon":"0.00000000"},{"name":"Santa Perpètua de Mogoda","native":null,"lat":"41.53333000","lon":"2.18333000"},{"name":"Santa Susanna","native":null,"lat":"41.63333000","lon":"2.71667000"},{"name":"Santpedor","native":null,"lat":"0.00000000","lon":"0.00000000"},{"name":"Sentmenat","native":null,"lat":"41.60862000","lon":"2.13532000"},{"name":"Seva","native":null,"lat":"41.83831000","lon":"2.28007000"},{"name":"Sitges","native":null,"lat":"41.23506000","lon":"1.81193000"},{"name":"Sobremunt","native":null,"lat":"0.00000000","lon":"0.00000000"},{"name":"Sora","native":null,"lat":"0.00000000","lon":"0.00000000"},{"name":"Subirats","native":null,"lat":"41.40000000","lon":"1.83333000"},{"name":"Súria","native":null,"lat":"41.83333000","lon":"1.75000000"},{"name":"Tagamanent","native":null,"lat":"41.73747000","lon":"2.26720000"},{"name":"Talamanca","native":null,"lat":"41.73740000","lon":"1.97791000"},{"name":"Taradell","native":null,"lat":"41.87495000","lon":"2.28662000"},{"name":"Tavèrnoles","native":null,"lat":"0.00000000","lon":"0.00000000"},{"name":"Tavertet","native":null,"lat":"41.99572000","lon":"2.41859000"},{"name":"Teià","native":null,"lat":"41.49804000","lon":"2.32206000"},{"name":"Terrassa","native":null,"lat":"41.56667000","lon":"2.01667000"},{"name":"Tiana","native":null,"lat":"41.48201000","lon":"2.26702000"},{"name":"Tona","native":null,"lat":"41.84789000","lon":"2.22808000"},{"name":"Tordera","native":null,"lat":"41.69914000","lon":"2.71888000"},{"name":"Torelló","native":null,"lat":"42.04627000","lon":"2.26679000"},{"name":"Torre de Claramunt La","native":null,"lat":"0.00000000","lon":"0.00000000"},{"name":"Torrelavit","native":null,"lat":"0.00000000","lon":"0.00000000"},{"name":"Torrelles de Foix","native":null,"lat":"0.00000000","lon":"0.00000000"},{"name":"Torrelles de Llobregat","native":null,"lat":"41.35000000","lon":"1.98333000"},{"name":"Ullastrell","native":null,"lat":"41.52643000","lon":"1.95537000"},{"name":"Vacarisses","native":null,"lat":"0.00000000","lon":"0.00000000"},{"name":"Vallbona dAnoia","native":null,"lat":"0.00000000","lon":"0.00000000"},{"name":"Vallcebre","native":null,"lat":"0.00000000","lon":"0.00000000"},{"name":"Vallgorguina","native":null,"lat":"41.64822000","lon":"2.50996000"},{"name":"Vallirana","native":null,"lat":"41.38676000","lon":"1.93205000"},{"name":"Vallromanes","native":null,"lat":"0.00000000","lon":"0.00000000"},{"name":"Veciana","native":null,"lat":"0.00000000","lon":"0.00000000"},{"name":"Vic","native":null,"lat":"41.93012000","lon":"2.25486000"},{"name":"Vilada","native":null,"lat":"0.00000000","lon":"0.00000000"},{"name":"Viladecans","native":null,"lat":"41.31405000","lon":"2.01427000"},{"name":"Viladecavalls","native":null,"lat":"0.00000000","lon":"0.00000000"},{"name":"Vilafranca del Penedès","native":null,"lat":"41.34618000","lon":"1.69713000"},{"name":"Vilalba Sasserra","native":null,"lat":"0.00000000","lon":"0.00000000"},{"name":"Vilanova de Sau","native":null,"lat":"41.94700000","lon":"2.38440000"},{"name":"Vilanova del Camí","native":null,"lat":"41.57165000","lon":"1.63751000"},{"name":"Vilanova del Vallès","native":null,"lat":"0.00000000","lon":"0.00000000"},{"name":"Vilanova i la Geltrú","native":null,"lat":"41.22392000","lon":"1.72511000"},{"name":"Vilassar de Dalt","native":null,"lat":"0.00000000","lon":"0.00000000"},{"name":"Vilassar de Mar","native":null,"lat":"41.50507000","lon":"2.39227000"},{"name":"Vilobí del Penedès","native":null,"lat":"0.00000000","lon":"0.00000000"},{"name":"Viver i Serrateix","native":null,"lat":"0.00000000","lon":"0.00000000"}]},{"name":"Bizkaia","native":null,"cities":[{"name":"Abadiño","native":null,"lat":"0.00000000","lon":"0.00000000"},{"name":"Abanto y Ciérvana-Abanto Zierbena","native":null,"lat":"0.00000000","lon":"0.00000000"},{"name":"Ajangiz","native":null,"lat":"0.00000000","lon":"0.00000000"},{"name":"Alonsotegi","native":null,"lat":"43.24483000","lon":"-2.98759000"},{"name":"Amorebieta-Etxano","native":null,"lat":"0.00000000","lon":"0.00000000"},{"name":"Amoroto","native":null,"lat":"43.32634000","lon":"-2.51349000"},{"name":"Arakaldo","native":null,"lat":"0.00000000","lon":"0.00000000"},{"name":"Arantzazu","native":null,"lat":"0.00000000","lon":"0.00000000"},{"name":"Areatza","native":null,"lat":"0.00000000","lon":"0.00000000"},{"name":"Arrankudiaga","native":null,"lat":"0.00000000","lon":"0.00000000"},{"name":"Arratzu","native":null,"lat":"0.00000000","lon":"0.00000000"},{"name":"Arrieta","native":null,"lat":"0.00000000","lon":"0.00000000"},{"name":"Arrigorriaga","native":null,"lat":"43.21006000","lon":"-2.88562000"},{"name":"Artea","native":null,"lat":"0.00000000","lon":"0.00000000"},{"name":"Artzentales","native":null,"lat":"0.00000000","lon":"0.00000000"},