[{"id":1917,"name":"Ba","native":null,"cities":[]},{"id":1930,"name":"Bua","native":null,"cities":[]},{"id":1924,"name":"Cakaudrove","native":null,"cities":[]},{"id":1929,"name":"Central Division","native":null,"cities":[{"id":39145,"name":"Naitasiri Province","native":null,"lat":"-17.83333000","lon":"178.25000000"},{"id":39146,"name":"Namosi Province","native":null,"lat":"-18.05000000","lon":"178.13333000"},{"id":39149,"name":"Rewa Province","native":null,"lat":"-18.08333000","lon":"178.33333000"},{"id":39150,"name":"Serua Province","native":null,"lat":"-18.16667000","lon":"178.00000000"},{"id":39151,"name":"Suva","native":null,"lat":"-18.14161000","lon":"178.44149000"},{"id":39152,"name":"Tailevu Province","native":null,"lat":"-17.83333000","lon":"178.50000000"}]},{"id":1932,"name":"Eastern Division","native":null,"cities":[{"id":39137,"name":"Kadavu Province","native":null,"lat":"-18.99331000","lon":"178.22021000"},{"id":39139,"name":"Lau Province","native":null,"lat":"-18.20488000","lon":"-178.79251000"},{"id":39141,"name":"Levuka","native":null,"lat":"-18.06667000","lon":"179.31667000"},{"id":39142,"name":"Lomaiviti Province","native":null,"lat":"-17.66667000","lon":"178.80000000"}]},{"id":1934,"name":"Kadavu","native":null,"cities":[]},{"id":1933,"name":"Lau","native":null,"cities":[]},{"id":1916,"name":"Lomaiviti","native":null,"cities":[]},{"id":1922,"name":"Macuata","native":null,"cities":[]},{"id":1919,"name":"Nadroga-Navosa","native":null,"cities":[]},{"id":1927,"name":"Naitasiri","native":null,"cities":[]},{"id":1928,"name":"Namosi","native":null,"cities":[]},{"id":1921,"name":"Northern Division","native":null,"cities":[{"id":39135,"name":"Bua Province","native":null,"lat":"-16.83333000","lon":"178.75000000"},{"id":39136,"name":"Cakaudrove Province","native":null,"lat":"-16.66667000","lon":"179.41667000"},{"id":39138,"name":"Labasa","native":null,"lat":"-16.43320000","lon":"179.36451000"},{"id":39143,"name":"Macuata Province","native":null,"lat":"-16.50000000","lon":"179.25000000"}]},{"id":1926,"name":"Ra","native":null,"cities":[]},{"id":1920,"name":"Rewa","native":null,"cities":[]},{"id":1931,"name":"Rotuma","native":null,"cities":[]},{"id":1925,"name":"Serua","native":null,"cities":[]},{"id":1918,"name":"Tailevu","native":null,"cities":[]},{"id":1923,"name":"Western Division","native":null,"cities":[{"id":39133,"name":"Ba","native":null,"lat":"-17.53430000","lon":"177.67407000"},{"id":39134,"name":"Ba Province","native":null,"lat":"-17.66667000","lon":"177.66667000"},{"id":39140,"name":"Lautoka","native":null,"lat":"-17.61686000","lon":"177.45049000"},{"id":39144,"name":"Nadi","native":null,"lat":"-17.80309000","lon":"177.41617000"},{"id":39147,"name":"Nandronga and Navosa Province","native":null,"lat":"-18.00000000","lon":"177.66667000"},{"id":39148,"name":"Ra Province","native":null,"lat":"-17.50000000","lon":"178.16667000"}]}]