[{"id":2764,"name":"Barima-Waini","native":null,"cities":[{"id":53826,"name":"Mabaruma","native":null,"lat":"8.20000000","lon":"-59.78333000"}]},{"id":2760,"name":"Cuyuni-Mazaruni","native":null,"cities":[{"id":53822,"name":"Bartica","native":null,"lat":"6.40799000","lon":"-58.62192000"}]},{"id":2767,"name":"Demerara-Mahaica","native":null,"cities":[{"id":53823,"name":"Georgetown","native":null,"lat":"6.80448000","lon":"-58.15527000"},{"id":53827,"name":"Mahaica Village","native":null,"lat":"6.68405000","lon":"-57.92181000"}]},{"id":2766,"name":"East Berbice-Corentyne","native":null,"cities":[{"id":53830,"name":"New Amsterdam","native":null,"lat":"6.24793000","lon":"-57.51710000"},{"id":53833,"name":"Skeldon","native":null,"lat":"5.88333000","lon":"-57.13333000"}]},{"id":2768,"name":"Essequibo Islands-West Demerara","native":null,"cities":[{"id":53831,"name":"Parika","native":null,"lat":"6.83712000","lon":"-58.42941000"},{"id":53834,"name":"Vreed-en-Hoop","native":null,"lat":"6.80927000","lon":"-58.19798000"}]},{"id":2762,"name":"Mahaica-Berbice","native":null,"cities":[{"id":53828,"name":"Mahaicony Village","native":null,"lat":"6.57633000","lon":"-57.80486000"},{"id":53832,"name":"Rosignol","native":null,"lat":"6.27095000","lon":"-57.53697000"}]},{"id":2765,"name":"Pomeroon-Supenaam","native":null,"cities":[{"id":53821,"name":"Anna Regina","native":null,"lat":"7.26439000","lon":"-58.50769000"}]},{"id":2761,"name":"Potaro-Siparuni","native":null,"cities":[{"id":53829,"name":"Mahdia","native":null,"lat":"5.26667000","lon":"-59.15000000"}]},{"id":2763,"name":"Upper Demerara-Berbice","native":null,"cities":[{"id":53825,"name":"Linden","native":null,"lat":"6.00809000","lon":"-58.30714000"}]},{"id":2769,"name":"Upper Takutu-Upper Essequibo","native":null,"cities":[{"id":53824,"name":"Lethem","native":null,"lat":"3.38333000","lon":"-59.80000000"}]}]