[{"id":4047,"name":"Atlántida Department","native":null,"cities":[{"id":53857,"name":"Arizona","native":null,"lat":"15.63333000","lon":"-87.31667000"},{"id":53860,"name":"Atenas de San Cristóbal","native":null,"lat":"15.68333000","lon":"-87.31667000"},{"id":53921,"name":"Corozal","native":null,"lat":"15.80000000","lon":"-86.71667000"},{"id":53974,"name":"El Pino","native":null,"lat":"15.70000000","lon":"-86.93333000"},{"id":53976,"name":"El Porvenir","native":null,"lat":"15.75000000","lon":"-86.93333000"},{"id":53995,"name":"El Triunfo de la Cruz","native":null,"lat":"15.76667000","lon":"-87.43333000"},{"id":54001,"name":"Esparta","native":null,"lat":"15.66291000","lon":"-87.25622000"},{"id":54041,"name":"Jutiapa","native":null,"lat":"15.69586000","lon":"-86.50414000"},{"id":54048,"name":"La Ceiba","native":null,"lat":"15.75971000","lon":"-86.78221000"},{"id":54071,"name":"La Masica","native":null,"lat":"15.59865000","lon":"-87.13500000"},{"id":54080,"name":"La Unión","native":null,"lat":"15.71667000","lon":"-87.00000000"},{"id":54127,"name":"Mezapa","native":null,"lat":"15.58333000","lon":"-87.65000000"},{"id":54145,"name":"Nueva Armenia","native":null,"lat":"15.79556000","lon":"-86.49845000"},{"id":54208,"name":"Sambo Creek","native":null,"lat":"15.81667000","lon":"-86.68333000"},{"id":54212,"name":"San Antonio","native":null,"lat":"15.60000000","lon":"-87.15000000"},{"id":54226,"name":"San Francisco","native":null,"lat":"15.65246000","lon":"-87.01736000"},{"id":54259,"name":"San Juan Pueblo","native":null,"lat":"15.58333000","lon":"-87.23333000"},{"id":54290,"name":"Santa Ana","native":null,"lat":"15.65000000","lon":"-87.06667000"},{"id":54334,"name":"Tela","native":null,"lat":"15.77425000","lon":"-87.46731000"},{"id":54341,"name":"Tornabé","native":null,"lat":"15.75000000","lon":"-87.55000000"}]},{"id":4045,"name":"Bay Islands Department","native":null,"cities":[{"id":53925,"name":"Coxen Hole","native":null,"lat":"16.31759000","lon":"-86.53793000"},{"id":54008,"name":"French Harbor","native":null,"lat":"16.35000000","lon":"-86.43333000"},{"id":54019,"name":"Guanaja","native":null,"lat":"16.44795000","lon":"-85.89431000"},{"id":54038,"name":"José Santos Guardiola","native":null,"lat":"16.41765000","lon":"-86.30631000"},{"id":54197,"name":"Roatán","native":null,"lat":"16.34098000","lon":"-86.53763000"},{"id":54289,"name":"Sandy Bay","native":null,"lat":"16.32923000","lon":"-86.56446000"},{"id":54315,"name":"Savannah Bight","native":null,"lat":"16.45000000","lon":"-85.85000000"},{"id":54351,"name":"Utila","native":null,"lat":"16.10026000","lon":"-86.93070000"}]},{"id":4041,"name":"Choluteca Department","native":null,"cities":[{"id":53851,"name":"Apacilagua","native":null,"lat":"13.45821000","lon":"-87.01122000"},{"id":53901,"name":"Choluteca","native":null,"lat":"13.28261000","lon":"-87.20119000"},{"id":53903,"name":"Ciudad Choluteca","native":null,"lat":"13.30028000","lon":"-87.19083000"},{"id":53913,"name":"Concepción de María","native":null,"lat":"13.22363000","lon":"-86.96244000"},{"id":53922,"name":"Corpus","native":null,"lat":"13.28889000","lon":"-87.03472000"},{"id":53939,"name":"Duyure","native":null,"lat":"13.63333000","lon":"-86.81667000"},{"id":53949,"name":"El Corpus","native":null,"lat":"13.30464000","lon":"-87.00970000"},{"id":53965,"name":"El Obraje","native":null,"lat":"13.15417000","lon":"-87.13083000"},{"id":53981,"name":"El Puente","native":null,"lat":"13.28333000","lon":"-87.11667000"},{"id":53994,"name":"El Triunfo","native":null,"lat":"13.08024000","lon":"-87.01780000"},{"id":54108,"name":"Los Llanitos","native":null,"lat":"13.28694000","lon":"-87.33444000"},{"id":54121,"name":"Marcovia","native":null,"lat":"13.28806000","lon":"-87.30972000"},{"id":54131,"name":"Monjarás","native":null,"lat":"13.20056000","lon":"-87.37417000"},{"id":54135,"name":"Morolica","native":null,"lat":"13.56800000","lon":"-86.88821000"},{"id":54141,"name":"Namasigüe","native":null,"lat":"13.20472000","lon":"-87.13889000"},{"id":54162,"name":"Orocuina","native":null,"lat":"13.48167000","lon":"-87.10500000"},{"id":54168,"name":"Pespire","native":null,"lat":"13.59222000","lon":"-87.36167000"},{"id":54216,"name":"San Antonio de Flores","native":null,"lat":"13.64152000","lon":"-87.34075000"},{"id":54237,"name":"San Isidro","native":null,"lat":"13.64454000","lon":"-87.26093000"},{"id":54239,"name":"San Jerónimo","native":null,"lat":"13.17667000","lon":"-87.13639000"},{"id":54247,"name":"San José","native":null,"lat":"13.71415000","lon":"-87.42256000"},{"id":54251,"name":"San José de Las Conchas","native":null,"lat":"13.32528000","lon":"-87.39556000"},{"id":54273,"name":"San Marcos de Colón","native":null,"lat":"13.41512000","lon":"-86.82095000"},{"id":54293,"name":"Santa Ana de Yusguare","native":null,"lat":"13.30056000","lon":"-87.11389000"},{"id":54295,"name":"Santa Cruz","native":null,"lat":"13.25806000","lon":"-87.34833000"}]},{"id":4051,"name":"Colón Department","native":null,"cities":[{"id":53867,"name":"Balfate","native":null,"lat":"15.75709000","lon":"-86.29048000"},{"id":53874,"name":"Bonito Oriental","native":null,"lat":"15.74641000","lon":"-85.73610000"},{"id":53920,"name":"Corocito","native":null,"lat":"15.75000000","lon":"-85.78333000"},{"id":53929,"name":"Cusuna","native":null,"lat":"15.85000000","lon":"-85.23333000"},{"id":53999,"name":"Elíxir","native":null,"lat":"15.48333000","lon":"-86.30000000"},{"id":54006,"name":"Francia","native":null,"lat":"15.85000000","lon":"-85.58333000"},{"id":54029,"name":"Iriona","native":null,"lat":"15.59079000","lon":"-85.20549000"},{"id":54033,"name":"Jericó","native":null,"lat":"15.95000000","lon":"-85.96667000"},{"id":54046,"name":"La Brea","native":null,"lat":"15.80000000","lon":"-85.96667000"},{"id":54055,"name":"La Esperanza","native":null,"lat":"15.63333000","lon":"-85.76667000"},{"id":54103,"name":"Limón","native":null,"lat":"15.79664000","lon":"-85.50805000"},{"id":54136,"name":"Municipio de Sabá","native":null,"lat":"15.48654000","lon":"-86.16322000"},{"id":54178,"name":"Prieta","native":null,"lat":"15.58060000","lon":"-86.13664000"},{"id":54183,"name":"Puerto Castilla","native":null,"lat":"16.01667000","lon":"-85.96667000"},{"id":54188,"name":"Punta Piedra","native":null,"lat":"15.90000000","lon":"-85.28333000"},{"id":54192,"name":"Quebrada de Arena","native":null,"lat":"15.76667000","lon":"-85.91667000"},{"id":54202,"name":"Río Esteban","native":null,"lat":"15.83333000","lon":"-86.30000000"},{"id":54205,"name":"Sabá","native":null,"lat":"15.46667000","lon":"-86.25000000"},{"id":54206,"name":"Salamá","native":null,"lat":"15.75000000","lon":"-85.96667000"},{"id":54302,"name":"Santa Fe","native":null,"lat":"15.85424000","lon":"-86.11083000"},{"id":54312,"name":"Santa Rosa de Aguán","native":null,"lat":"15.95000000","lon":"-85.71667000"},{"id":54321,"name":"Sonaguera","native":null,"lat":"15.64000000","lon":"-86.26000000"},{"id":54330,"name":"Taujica","native":null,"lat":"15.70000000","lon":"-85.91667000"},{"id":54339,"name":"Tocoa","native":null,"lat":"15.68333000","lon":"-86.00000000"},{"id":54349,"name":"Trujillo","native":null,"lat":"15.91667000","lon":"-85.95417000"},{"id":54378,"name":"Zamora","native":null,"lat":"15.63333000","lon":"-86.06667000"}]},{"id":4042,"name":"Comayagua Department","native":null,"cities":[{"id":53843,"name":"Aguas del Padre","native":null,"lat":"14.56667000","lon":"-87.88333000"},{"id":53845,"name":"Ajuterique","native":null,"lat":"14.38333000","lon":"-87.70000000"},{"id":53894,"name":"Cerro Blanco","native":null,"lat":"14.66667000","lon":"-87.78333000"},{"id":53908,"name":"Comayagua","native":null,"lat":"14.48412000","lon":"-87.60060000"},{"id":53912,"name":"Concepción de Guasistagua","native":null,"lat":"14.60000000","lon":"-87.65000000"},{"id":53941,"name":"El Agua Dulcita","native":null,"lat":"14.70000000","lon":"-87.75000000"},{"id":53978,"name":"El Porvenir","native":null,"lat":"14.58333000","lon":"-87.88333000"},{"id":53983,"name":"El Rancho","native":null,"lat":"14.68333000","lon":"-87.50000000"},{"id":53984,"name":"El Rincón","native":null,"lat":"14.58333000","lon":"-87.93333000"},{"id":53985,"name":"El Rosario","native":null,"lat":"14.57500000","lon":"-87.74306000"},{"id":53988,"name":"El Sauce","native":null,"lat":"14.52850000","lon":"-87.66571000"},{"id":53989,"name":"El Socorro","native":null,"lat":"14.63333000","lon":"-87.91667000"},{"id":54003,"name":"Esquías","native":null,"lat":"14.73333000","lon":"-87.36667000"},{"id":54004,"name":"Flores","native":null,"lat":"14.28333000","lon":"-87.56667000"},{"id":54025,"name":"Humuya","native":null,"lat":"14.25000000","lon":"-87.66667000"},{"id":54031,"name":"Jamalteca","native":null,"lat":"14.70000000","lon":"-87.58333000"},{"id":54068,"name":"La Libertad","native":null,"lat":"14.88000000","lon":"-87.55000000"},{"id":54079,"name":"La Trinidad","native":null,"lat":"14.70000000","lon":"-87.66286000"},{"id":54089,"name":"Lamaní","native":null,"lat":"14.20000000","lon":"-87.61667000"},{"id":54092,"name":"Las Lajas","native":null,"lat":"14.90000000","lon":"-87.58333000"},{"id":54100,"name":"Lejamaní","native":null,"lat":"14.36667000","lon":"-87.70000000"},{"id":54128,"name":"Meámbar","native":null,"lat":"14.82047000","lon":"-87.78424000"},{"id":54129,"name":"Minas de Oro","native":null,"lat":"14.80000000","lon":"-87.35000000"},{"id":54157,"name":"Ojos de Agua","native":null,"lat":"14.79498000","lon":"-87.65010000"},{"id":54175,"name":"Potrerillos","native":null,"lat":"14.55000000","lon":"-87.86667000"},{"id":54200,"name":"Río Bonito","native":null,"lat":"14.76667000","lon":"-87.88333000"},{"id":54219,"name":"San Antonio de la Cuesta","native":null,"lat":"14.63333000","lon":"-87.60000000"},{"id":54240,"name":"San Jerónimo","native":null,"lat":"14.64043000","lon":"-87.56768000"},{"id":54249,"name":"San José de Comayagua","native":null,"lat":"14.73333000","lon":"-88.03333000"},{"id":54255,"name":"San José del Potrero","native":null,"lat":"14.86203000","lon":"-87.29049000"},{"id":54266,"name":"San Luis","native":null,"lat":"14.75000000","lon":"-87.41667000"},{"id":54286,"name":"San Sebastián","native":null,"lat":"14.23687000","lon":"-87.63215000"},{"id":54317,"name":"Siguatepeque","native":null,"lat":"14.60000000","lon":"-87.83333000"},{"id":54331,"name":"Taulabé","native":null,"lat":"14.67145000","lon":"-87.98693000"},{"id":54355,"name":"Valle de Ángeles","native":null,"lat":"14.50000000","lon":"-87.63333000"},{"id":54360,"name":"Villa de San Antonio","native":null,"lat":"14.31667000","lon":"-87.61667000"}]},{"id":4049,"name":"Copán Department","native":null,"cities":[{"id":53839,"name":"Agua Caliente","native":null,"lat":"14.88333000","lon":"-88.81667000"},{"id":53876,"name":"Buenos Aires","native":null,"lat":"15.03333000","lon":"-88.96667000"},{"id":53878,"name":"Cabañas","native":null,"lat":"14.76000000","lon":"-89.06000000"},{"id":53896,"name":"Chalmeca","native":null,"lat":"15.10000000","lon":"-88.68333000"},{"id":53911,"name":"Concepción","native":null,"lat":"14.88077000","lon":"-88.87919000"},{"id":53914,"name":"Concepción de la Barranca","native":null,"lat":"15.16667000","lon":"-88.71667000"},{"id":53918,"name":"Copán","native":null,"lat":"14.83333000","lon":"-89.15000000"},{"id":53919,"name":"Copán Ruinas","native":null,"lat":"14.92000000","lon":"-89.15000000"},{"id":53923,"name":"Corquín","native":null,"lat":"14.56667000","lon":"-88.86667000"},{"id":53927,"name":"Cucuyagua","native":null,"lat":"14.65000000","lon":"-88.86667000"},{"id":53934,"name":"Dolores","native":null,"lat":"14.86667000","lon":"-88.83333000"},{"id":53937,"name":"Dulce Nombre","native":null,"lat":"14.85552000","lon":"-88.83856000"},{"id":53948,"name":"El Corpus","native":null,"lat":"14.70000000","lon":"-88.91667000"},{"id":53968,"name":"El Ocotón","native":null,"lat":"15.03333000","lon":"-88.88333000"},{"id":53971,"name":"El Paraíso","native":null,"lat":"15.04217000","lon":"-88.98045000"},{"id":54005,"name":"Florida","native":null,"lat":"15.03333000","lon":"-88.83333000"},{"id":54052,"name":"La Entrada","native":null,"lat":"15.05000000","lon":"-88.73333000"},{"id":54064,"name":"La Jigua","native":null,"lat":"15.10000000","lon":"-88.76000000"},{"id":54074,"name":"La Playona","native":null,"lat":"15.11667000","lon":"-88.98333000"},{"id":54083,"name":"La Unión","native":null,"lat":"14.69350000","lon":"-88.94734000"},{"id":54086,"name":"La Zumbadora","native":null,"lat":"15.01667000","lon":"-88.90000000"},{"id":54111,"name":"Los Tangos","native":null,"lat":"15.15000000","lon":"-88.68333000"},{"id":54144,"name":"Nueva Arcadia","native":null,"lat":"15.08000000","lon":"-88.69000000"},{"id":54156,"name":"Ojos de Agua","native":null,"lat":"14.70000000","lon":"-88.81667000"},{"id":54181,"name":"Pueblo Nuevo","native":null,"lat":"15.00000000","lon":"-88.75000000"},{"id":54194,"name":"Quezailica","native":null,"lat":"14.88333000","lon":"-88.73333000"},{"id":54209,"name":"San Agustín","native":null,"lat":"14.81973000","lon":"-88.93027000"},{"id":54214,"name":"San Antonio","native":null,"lat":"15.04000000","lon":"-88.88000000"},{"id":54241,"name":"San Jerónimo","native":null,"lat":"14.96207000","lon":"-88.90270000"},{"id":54242,"name":"San Joaquín","native":null,"lat":"15.05000000","lon":"-88.90000000"},{"id":54245,"name":"San José","native":null,"lat":"14.91184000","lon":"-88.71667000"},{"id":54250,"name":"San José de Copán","native":null,"lat":"14.90000000","lon":"-88.71667000"},{"id":54261,"name":"San Juan de Opoa","native":null,"lat":"14.78333000","lon":"-88.70000000"},{"id":54262,"name":"San Juan de Planes","native":null,"lat":"14.93333000","lon":"-88.78333000"},{"id":54279,"name":"San Nicolás","native":null,"lat":"14.98000000","lon":"-88.73000000"},{"id":54283,"name":"San Pedro de Copán","native":null,"lat":"14.61667000","lon":"-88.80000000"},{"id":54310,"name":"Santa Rita","native":null,"lat":"14.88000000","lon":"-89.01000000"},{"id":54311,"name":"Santa Rita Copan","native":null,"lat":"14.86748000","lon":"-89.10000000"},{"id":54313,"name":"Santa Rosa de Copán","native":null,"lat":"14.76667000","lon":"-88.77917000"},{"id":54346,"name":"Trinidad de Copán","native":null,"lat":"14.95000000","lon":"-88.75000000"},{"id":54357,"name":"Veracruz","native":null,"lat":"14.88343000","lon":"-88.78570000"}]},{"id":4046,"name":"Cortés Department","native":null,"cities":[{"id":53836,"name":"Agua Azul","native":null,"lat":"14.91667000","lon":"-87.96667000"},{"id":53837,"name":"Agua Azul Rancho","native":null,"lat":"14.90000000","lon":"-87.95000000"},{"id":53859,"name":"Armenta","native":null,"lat":"15.50000000","lon":"-88.05000000"},{"id":53866,"name":"Baja Mar","native":null,"lat":"15.88851000","lon":"-87.85547000"},{"id":53868,"name":"Baracoa","native":null,"lat":"15.76667000","lon":"-87.85000000"},{"id":53870,"name":"Bejuco","native":null,"lat":"15.13333000","lon":"-87.93333000"},{"id":53891,"name":"Cañaveral","native":null,"lat":"14.98333000","lon":"-88.01667000"},{"id":53889,"name":"Casa Quemada","native":null,"lat":"15.11667000","lon":"-88.08333000"},{"id":53899,"name":"Chivana","native":null,"lat":"15.75000000","lon":"-87.98333000"},{"id":53900,"name":"Choloma","native":null,"lat":"15.64000000","lon":"-87.92000000"},{"id":53902,"name":"Chotepe","native":null,"lat":"15.41667000","lon":"-87.98333000"},{"id":53904,"name":"Cofradía","native":null,"lat":"15.40000000","lon":"-88.15000000"},{"id":53931,"name":"Cuyamel","native":null,"lat":"15.66667000","lon":"-88.20000000"},{"id":53958,"name":"El Llano","native":null,"lat":"15.15000000","lon":"-87.88333000"},{"id":53960,"name":"El Marañón","native":null,"lat":"15.40000000","lon":"-88.05000000"},{"id":53961,"name":"El Milagro","native":null,"lat":"15.40000000","lon":"-87.96667000"},{"id":53969,"name":"El Olivar","native":null,"lat":"15.08333000","lon":"-87.88333000"},{"id":53973,"name":"El Perico","native":null,"lat":"15.08333000","lon":"-88.10000000"},{"id":53975,"name":"El Plan","native":null,"lat":"15.28333000","lon":"-87.96667000"},{"id":53977,"name":"El Porvenir","native":null,"lat":"15.83333000","lon":"-87.93333000"},{"id":53982,"name":"El Rancho","native":null,"lat":"15.66667000","lon":"-87.95000000"},{"id":53993,"name":"El Tigre","native":null,"lat":"14.93333000","lon":"-87.98333000"},{"id":53998,"name":"El Zapotal del Norte","native":null,"lat":"15.51667000","lon":"-88.05000000"},{"id":54060,"name":"La Guama","native":null,"lat":"14.88333000","lon":"-87.93333000"},{"id":54062,"name":"La Huesa","native":null,"lat":"15.58333000","lon":"-87.88333000"},{"id":54065,"name":"La Jutosa","native":null,"lat":"15.63333000","lon":"-88.00000000"},{"id":54070,"name":"La Lima","native":null,"lat":"15.43333000","lon":"-87.91667000"},{"id":54076,"name":"La Sabana","native":null,"lat":"15.36667000","lon":"-87.93333000"},{"id":54107,"name":"Los Caminos","native":null,"lat":"14.95000000","lon":"-87.96667000"},{"id":54109,"name":"Los Naranjos","native":null,"lat":"14.90000000","lon":"-88.05000000"},{"id":54132,"name":"Monterrey","native":null,"lat":"15.58333000","lon":"-87.88333000"},{"id":54152,"name":"Nuevo Chamelecón","native":null,"lat":"15.38333000","lon":"-88.01667000"},{"id":54159,"name":"Omoa","native":null,"lat":"15.76667000","lon":"-88.03333000"},{"id":54164,"name":"Oropéndolas","native":null,"lat":"15.01667000","lon":"-87.93333000"},{"id":54170,"name":"Peña Blanca","native":null,"lat":"15.53333000","lon":"-88.05000000"},{"id":54171,"name":"Pimienta","native":null,"lat":"15.26500000","lon":"-87.96667000"},{"id":54172,"name":"Pimienta Vieja","native":null,"lat":"15.23333000","lon":"-87.96667000"},{"id":54176,"name":"Potrerillos","native":null,"lat":"15.21000000","lon":"-87.95000000"},{"id":54180,"name":"Pueblo Nuevo","native":null,"lat":"15.28333000","lon":"-88.01667000"},{"id":54182,"name":"Puerto Alto","native":null,"lat":"15.70000000","lon":"-87.86667000"},{"id":54185,"name":"Puerto Cortés","native":null,"lat":"15.79000000","lon":"-87.84900000"},{"id":54184,"name":"Puerto Cortez","native":null,"lat":"15.82562000","lon":"-87.92968000"},{"id":54191,"name":"Quebrada Seca","native":null,"lat":"15.66667000","lon":"-87.95000000"},{"id":54199,"name":"Río Blanquito","native":null,"lat":"15.73333000","lon":"-87.90000000"},{"id":54201,"name":"Río Chiquito","native":null,"lat":"15.63333000","lon":"-88.25000000"},{"id":54203,"name":"Río Lindo","native":null,"lat":"15.03333000","lon":"-87.98333000"},{"id":54215,"name":"San Antonio de Cortés","native":null,"lat":"15.11667000","lon":"-88.03333000"},{"id":54221,"name":"San Buenaventura","native":null,"lat":"15.01667000","lon":"-88.00000000"},{"id":54233,"name":"San Francisco de Yojoa","native":null,"lat":"15.01667000","lon":"-87.96667000"},{"id":54254,"name":"San José del Boquerón","native":null,"lat":"15.48333000","lon":"-87.86667000"},{"id":54268,"name":"San Manuel","native":null,"lat":"15.37279000","lon":"-87.90167000"},{"id":54281,"name":"San Pedro Sula","native":null,"lat":"15.50417000","lon":"-88.02500000"},{"id":54298,"name":"Santa Cruz de Yojoa","native":null,"lat":"14.98333000","lon":"-87.90000000"},{"id":54299,"name":"Santa Elena","native":null,"lat":"15.38333000","lon":"-88.13333000"},{"id":54344,"name":"Travesía","native":null,"lat":"15.86667000","lon":"-87.90000000"},{"id":54362,"name":"Villanueva","native":null,"lat":"15.31667000","lon":"-88.00000000"}]},{"id":4043,"name":"El Paraíso Department","native":null,"cities":[{"id":53846,"name":"Alauca","native":null,"lat":"13.84020000","lon":"-86.69526000"},{"id":53854,"name":"Araulí","native":null,"lat":"13.95000000","lon":"-86.55000000"},{"id":53930,"name":"Cuyalí","native":null,"lat":"13.88333000","lon":"-86.55000000"},{"id":53932,"name":"Danlí","native":null,"lat":"14.03333000","lon":"-86.58333000"},{"id":53942,"name":"El Benque","native":null,"lat":"14.03333000","lon":"-86.46667000"},{"id":53944,"name":"El Chichicaste","native":null,"lat":"14.06667000","lon":"-86.30000000"},{"id":53966,"name":"El Obraje","native":null,"lat":"14.00000000","lon":"-86.43333000"},{"id":53970,"name":"El Paraíso","native":null,"lat":"13.85381000","lon":"-86.53094000"},{"id":54024,"name":"Güinope","native":null,"lat":"13.88333000","lon":"-86.93333000"},{"id":54030,"name":"Jacaleapa","native":null,"lat":"14.01667000","lon":"-86.66667000"},{"id":54040,"name":"Jutiapa","native":null,"lat":"13.98333000","lon":"-86.40000000"},{"id":54098,"name":"Las Ánimas","native":null,"lat":"14.25000000","lon":"-86.56667000"},{"id":54094,"name":"Las Trojes","native":null,"lat":"14.06667000","lon":"-85.98333000"},{"id":54104,"name":"Liure","native":null,"lat":"13.53583000","lon":"-87.09194000"},{"id":54134,"name":"Morocelí","native":null,"lat":"14.11667000","lon":"-86.86667000"},{"id":54138,"name":"Municipio de Texiguat","native":null,"lat":"13.66372000","lon":"-87.03479000"},{"id":54154,"name":"Ojo de Agua","native":null,"lat":"14.01667000","lon":"-86.35000000"},{"id":54163,"name":"Oropolí","native":null,"lat":"13.81667000","lon":"-86.81667000"},{"id":54177,"name":"Potrerillos","native":null,"lat":"14.04478000","lon":"-86.76201000"},{"id":54190,"name":"Quebrada Larga","native":null,"lat":"14.10000000","lon":"-86.36667000"},{"id":54217,"name":"San Antonio de Flores","native":null,"lat":"13.71089000","lon":"-86.84226000"},{"id":54223,"name":"San Diego","native":null,"lat":"14.05000000","lon":"-86.46667000"},{"id":54264,"name":"San Lucas","native":null,"lat":"13.74586000","lon":"-86.95163000"},{"id":54275,"name":"San Matías","native":null,"lat":"13.95966000","lon":"-86.64032000"},{"id":54296,"name":"Santa Cruz","native":null,"lat":"13.86667000","lon":"-86.63333000"},{"id":54320,"name":"Soledad","native":null,"lat":"13.58333000","lon":"-87.11667000"},{"id":54337,"name":"Teupasenti","native":null,"lat":"14.21667000","lon":"-86.70000000"},{"id":54338,"name":"Texíguat","native":null,"lat":"13.64972000","lon":"-87.02250000"},{"id":54348,"name":"Trojes","native":null,"lat":"14.05966000","lon":"-86.00166000"},{"id":54352,"name":"Vado Ancho","native":null,"lat":"13.64355000","lon":"-86.95546000"},{"id":54372,"name":"Yauyupe","native":null,"lat":"13.74867000","lon":"-87.07610000"},{"id":54376,"name":"Yuscarán","native":null,"lat":"13.95708000","lon":"-86.83170000"}]},{"id":4052,"name":"Francisco Morazán Department","native":null,"cities":[{"id":53835,"name":"Agalteca","native":null,"lat":"14.45000000","lon":"-87.26667000"},{"id":53848,"name":"Alubarén","native":null,"lat":"13.78226000","lon":"-87.46990000"},{"id":53892,"name":"Cedros","native":null,"lat":"14.50464000","lon":"-87.21680000"},{"id":53895,"name":"Cerro Grande","native":null,"lat":"13.81667000","lon":"-87.25000000"},{"id":53905,"name":"Cofradía","native":null,"lat":"14.21667000","lon":"-87.18333000"},{"id":53928,"name":"Curarén","native":null,"lat":"13.83000000","lon":"-87.57000000"},{"id":53933,"name":"Distrito Central","native":null,"lat":"14.14975000","lon":"-87.24806000"},{"id":53945,"name":"El Chimbo","native":null,"lat":"14.13333000","lon":"-87.11667000"},{"id":53951,"name":"El Escanito","native":null,"lat":"14.66667000","lon":"-87.10000000"},{"id":53952,"name":"El Escaño de Tepale","native":null,"lat":"14.75000000","lon":"-87.06667000"},{"id":53953,"name":"El Guante","native":null,"lat":"14.55000000","lon":"-87.10000000"},{"id":53954,"name":"El Guantillo","native":null,"lat":"14.60000000","lon":"-87.30000000"},{"id":53955,"name":"El Guapinol","native":null,"lat":"13.76667000","lon":"-87.46667000"},{"id":53959,"name":"El Lolo","native":null,"lat":"14.11667000","lon":"-87.26667000"},{"id":53972,"name":"El Pedernal","native":null,"lat":"14.70000000","lon":"-87.11667000"},{"id":53979,"name":"El Porvenir","native":null,"lat":"14.72009000","lon":"-87.21039000"},{"id":53990,"name":"El Suyatal","native":null,"lat":"14.51667000","lon":"-87.21667000"},{"id":53991,"name":"El Tablón","native":null,"lat":"14.03333000","lon":"-87.16667000"},{"id":53992,"name":"El Terrero","native":null,"lat":"14.06667000","lon":"-87.06667000"},{"id":54012,"name":"Guaimaca","native":null,"lat":"14.53333000","lon":"-86.81667000"},{"id":54053,"name":"La Ermita","native":null,"lat":"14.46667000","lon":"-87.06667000"},{"id":54069,"name":"La Libertad","native":null,"lat":"13.70662000","lon":"-87.50421000"},{"id":54084,"name":"La Venta","native":null,"lat":"13.73113000","lon":"-87.32874000"},{"id":54102,"name":"Lepaterique","native":null,"lat":"14.05590000","lon":"-87.47908000"},{"id":54118,"name":"Maraita","native":null,"lat":"13.87197000","lon":"-87.05633000"},{"id":54119,"name":"Marale","native":null,"lat":"14.94113000","lon":"-87.09892000"},{"id":54123,"name":"Mata de Plátano","native":null,"lat":"14.60000000","lon":"-87.28333000"},{"id":54124,"name":"Mateo","native":null,"lat":"14.08333000","lon":"-87.31667000"},{"id":54146,"name":"Nueva Armenia","native":null,"lat":"13.75000000","lon":"-87.15307000"},{"id":54155,"name":"Ojojona","native":null,"lat":"13.93389000","lon":"-87.29583000"},{"id":54161,"name":"Orica","native":null,"lat":"14.80645000","lon":"-86.95760000"},{"id":54193,"name":"Quebradas","native":null,"lat":"14.50000000","lon":"-87.35000000"},{"id":54196,"name":"Reitoca","native":null,"lat":"13.82583000","lon":"-87.46528000"},{"id":54198,"name":"Río Abajo","native":null,"lat":"14.16667000","lon":"-87.21667000"},{"id":54204,"name":"Sabanagrande","native":null,"lat":"13.80778000","lon":"-87.25917000"},{"id":54218,"name":"San Antonio de Oriente","native":null,"lat":"14.03859000","lon":"-86.98951000"},{"id":54222,"name":"San Buenaventura","native":null,"lat":"13.89100000","lon":"-87.18554000"},{"id":54236,"name":"San Ignacio","native":null,"lat":"14.73795000","lon":"-87.04759000"},{"id":54260,"name":"San Juan de Flores","native":null,"lat":"14.26667000","lon":"-87.03333000"},{"id":54276,"name":"San Miguelito","native":null,"lat":"13.74572000","lon":"-87.49233000"},{"id":54291,"name":"Santa Ana","native":null,"lat":"13.94000000","lon":"-87.21000000"},{"id":54305,"name":"Santa Lucía","native":null,"lat":"14.12595000","lon":"-87.09175000"},{"id":54325,"name":"Talanga","native":null,"lat":"14.41393000","lon":"-87.06941000"},{"id":54350,"name":"Támara","native":null,"lat":"14.15000000","lon":"-87.33333000"},{"id":54329,"name":"Tatumbla","native":null,"lat":"13.98467000","lon":"-87.06977000"},{"id":54333,"name":"Tegucigalpa","native":null,"lat":"14.08180000","lon":"-87.20681000"},{"id":54354,"name":"Valle de Ángeles","native":null,"lat":"14.15000000","lon":"-87.03333000"},{"id":54356,"name":"Vallecillo","native":null,"lat":"14.51313000","lon":"-87.40242000"},{"id":54361,"name":"Villa de San Francisco","native":null,"lat":"14.16667000","lon":"-86.96667000"},{"id":54359,"name":"Villa Nueva","native":null,"lat":"14.03333000","lon":"-87.13333000"},{"id":54367,"name":"Yaguacire","native":null,"lat":"14.01667000","lon":"-87.21667000"},{"id":54377,"name":"Zambrano","native":null,"lat":"14.26667000","lon":"-87.40000000"}]},{"id":4048,"name":"Gracias a Dios Department","native":null,"cities":[{"id":53844,"name":"Ahuas","native":null,"lat":"15.46923000","lon":"-84.34479000"},{"id":53862,"name":"Auas","native":null,"lat":"15.48333000","lon":"-84.33333000"},{"id":53863,"name":"Auka","native":null,"lat":"14.94087000","lon":"-83.83229000"},{"id":53869,"name":"Barra Patuca","native":null,"lat":"15.80000000","lon":"-84.28333000"},{"id":53875,"name":"Brus Laguna","native":null,"lat":"15.75000000","lon":"-84.48333000"},{"id":54028,"name":"Iralaya","native":null,"lat":"15.00000000","lon":"-83.23333000"},{"id":54039,"name":"Juan Francisco Bulnes","native":null,"lat":"15.91676000","lon":"-84.90990000"},{"id":54165,"name":"Paptalaya","native":null,"lat":"15.50000000","lon":"-84.31667000"},{"id":54186,"name":"Puerto Lempira","native":null,"lat":"15.26667000","lon":"-83.77222000"},{"id":54363,"name":"Villeda Morales","native":null,"lat":"15.08472000","lon":"-83.35361000"},{"id":54365,"name":"Wampusirpi","native":null,"lat":"15.18333000","lon":"-84.61667000"},{"id":54366,"name":"Wawina","native":null,"lat":"15.41667000","lon":"-84.43333000"}]},{"id":4044,"name":"Intibucá Department","native":null,"cities":[{"id":53882,"name":"Camasca","native":null,"lat":"14.00000000","lon":"-88.38333000"},{"id":53907,"name":"Colomoncagua","native":null,"lat":"13.97245000","lon":"-88.27673000"},{"id":53910,"name":"Concepción","native":null,"lat":"14.04725000","lon":"-88.31942000"},{"id":53935,"name":"Dolores","native":null,"lat":"14.26188000","lon":"-88.35787000"},{"id":54027,"name":"Intibucá","native":null,"lat":"14.43000000","lon":"-88.17000000"},{"id":54034,"name":"Jesús de Otoro","native":null,"lat":"14.48333000","lon":"-87.98333000"},{"id":54035,"name":"Jiquinlaca","native":null,"lat":"14.00000000","lon":"-88.35000000"},{"id":54054,"name":"La Esperanza","native":null,"lat":"14.31111000","lon":"-88.18056000"},{"id":54114,"name":"Magdalena","native":null,"lat":"13.92452000","lon":"-88.36675000"},{"id":54122,"name":"Masaguara","native":null,"lat":"14.40428000","lon":"-87.98247000"},{"id":54213,"name":"San Antonio","native":null,"lat":"13.95043000","lon":"-88.46493000"},{"id":54232,"name":"San Francisco de Opalaca","native":null,"lat":"14.58441000","lon":"-88.30253000"},{"id":54238,"name":"San Isidro","native":null,"lat":"14.56763000","lon":"-88.11743000"},{"id":54256,"name":"San Juan","native":null,"lat":"14.42127000","lon":"-88.41953000"},{"id":54274,"name":"San Marcos de la Sierra","native":null,"lat":"14.13236000","lon":"-88.24690000"},{"id":54277,"name":"San Miguelito","native":null,"lat":"14.34875000","lon":"-88.33983000"},{"id":54304,"name":"Santa Lucía","native":null,"lat":"13.90812000","lon":"-88.41566000"},{"id":54368,"name":"Yamaranguila","native":null,"lat":"14.26826000","lon":"-88.24652000"}]},{"id":4058,"name":"La Paz Department","native":null,"cities":[{"id":53842,"name":"Aguanqueterique","native":null,"lat":"13.98606000","lon":"-87.64622000"},{"id":53879,"name":"Cabañas","native":null,"lat":"13.99419000","lon":"-88.02864000"},{"id":53885,"name":"Cane","native":null,"lat":"14.28333000","lon":"-87.66667000"},{"id":53897,"name":"Chinacla","native":null,"lat":"14.18289000","lon":"-87.95395000"},{"id":54014,"name":"Guajiquiro","native":null,"lat":"14.06982000","lon":"-87.77451000"},{"id":54073,"name":"La Paz","native":null,"lat":"14.31944000","lon":"-87.67917000"},{"id":54099,"name":"Lauterique","native":null,"lat":"13.86425000","lon":"-87.65792000"},{"id":54110,"name":"Los Planes","native":null,"lat":"14.05000000","lon":"-88.01667000"},{"id":54120,"name":"Marcala","native":null,"lat":"14.14845000","lon":"-88.02405000"},{"id":54126,"name":"Mercedes de Oriente","native":null,"lat":"13.90937000","lon":"-87.77795000"},{"id":54160,"name":"Opatoro","native":null,"lat":"14.02451000","lon":"-87.87982000"},{"id":54220,"name":"San Antonio del Norte","native":null,"lat":"13.88000000","lon":"-87.72000000"},{"id":54246,"name":"San José","native":null,"lat":"14.22642000","lon":"-87.96238000"},{"id":54257,"name":"San Juan","native":null,"lat":"13.95428000","lon":"-87.72948000"},{"id":54284,"name":"San Pedro de Tutule","native":null,"lat":"14.25000000","lon":"-87.85000000"},{"id":54292,"name":"Santa Ana","native":null,"lat":"14.00011000","lon":"-87.94107000"},{"id":54300,"name":"Santa Elena","native":null,"lat":"14.07149000","lon":"-88.15445000"},{"id":54306,"name":"Santa María","native":null,"lat":"14.26904000","lon":"-87.91164000"},{"id":54314,"name":"Santiago Puringla","native":null,"lat":"14.35000000","lon":"-87.90000000"},{"id":54335,"name":"Tepanguare","native":null,"lat":"14.33333000","lon":"-87.75000000"},{"id":54370,"name":"Yarula","native":null,"lat":"14.10000000","lon":"-88.08000000"},{"id":54371,"name":"Yarumela","native":null,"lat":"14.33333000","lon":"-87.63333000"}]},{"id":4054,"name":"Lempira Department","native":null,"cities":[{"id":53871,"name":"Belén","native":null,"lat":"14.50834000","lon":"-88.42819000"},{"id":53884,"name":"Candelaria","native":null,"lat":"14.06072000","lon":"-88.55913000"},{"id":53906,"name":"Cololaca","native":null,"lat":"14.31189000","lon":"-88.87720000"},{"id":53940,"name":"El Achiotal","native":null,"lat":"14.08333000","lon":"-88.75000000"},{"id":54000,"name":"Erandique","native":null,"lat":"14.23333000","lon":"-88.46667000"},{"id":54010,"name":"Gracias","native":null,"lat":"14.59028000","lon":"-88.58194000"},{"id":54017,"name":"Gualcince","native":null,"lat":"14.12869000","lon":"-88.56812000"},{"id":54020,"name":"Guarita","native":null,"lat":"14.20784000","lon":"-88.85161000"},{"id":54047,"name":"La Campa","native":null,"lat":"14.47280000","lon":"-88.56090000"},{"id":54063,"name":"La Iguala","native":null,"lat":"14.66441000","lon":"-88.46360000"},{"id":54067,"name":"La Libertad","native":null,"lat":"14.80000000","lon":"-88.58333000"},{"id":54081,"name":"La Unión","native":null,"lat":"14.81667000","lon":"-88.40000000"},{"id":54085,"name":"La Virtud","native":null,"lat":"14.07156000","lon":"-88.68584000"},{"id":54091,"name":"Las Flores","native":null,"lat":"14.67930000","lon":"-88.65040000"},{"id":54093,"name":"Las Tejeras","native":null,"lat":"14.80000000","lon":"-88.60000000"},{"id":54101,"name":"Lepaera","native":null,"lat":"14.78333000","lon":"-88.58333000"},{"id":54117,"name":"Mapulaca","native":null,"lat":"14.04293000","lon":"-88.62440000"},{"id":54174,"name":"Piraera","native":null,"lat":"14.06261000","lon":"-88.46319000"},{"id":54210,"name":"San Andrés","native":null,"lat":"14.21968000","lon":"-88.54981000"},{"id":54227,"name":"San Francisco","native":null,"lat":"14.12435000","lon":"-88.37189000"},{"id":54258,"name":"San Juan Guarita","native":null,"lat":"14.15492000","lon":"-88.77477000"},{"id":54269,"name":"San Manuel Colohete","native":null,"lat":"14.44435000","lon":"-88.67050000"},{"id":54272,"name":"San Marcos de Caiquin","native":null,"lat":"14.41614000","lon":"-88.60126000"},{"id":54285,"name":"San Rafael","native":null,"lat":"14.73333000","lon":"-88.41667000"},{"id":54287,"name":"San Sebastián","native":null,"lat":"14.34594000","lon":"-88.73487000"},{"id":54297,"name":"Santa Cruz","native":null,"lat":"14.34427000","lon":"-88.52684000"},{"id":54326,"name":"Talgua","native":null,"lat":"14.68110000","lon":"-88.72800000"},{"id":54327,"name":"Tambla","native":null,"lat":"14.21276000","lon":"-88.76768000"},{"id":54328,"name":"Taragual","native":null,"lat":"14.75000000","lon":"-88.48333000"},{"id":54340,"name":"Tomalá","native":null,"lat":"14.24330000","lon":"-88.73140000"},{"id":54353,"name":"Valladolid","native":null,"lat":"14.14710000","lon":"-88.70840000"},{"id":54364,"name":"Virginia","native":null,"lat":"14.00522000","lon":"-88.56193000"}]},{"id":4056,"name":"Ocotepeque Department","native":null,"cities":[{"id":53850,"name":"Antigua Ocotepeque","native":null,"lat":"14.40000000","lon":"-89.20000000"},{"id":53872,"name":"Belén Gualcho","native":null,"lat":"14.48333000","lon":"-88.80000000"},{"id":53909,"name":"Concepción","native":null,"lat":"14.52383000","lon":"-89.19371000"},{"id":53936,"name":"Dolores Merendón","native":null,"lat":"14.55095000","lon":"-89.12493000"},{"id":53996,"name":"El Tránsito","native":null,"lat":"14.38333000","lon":"-88.91667000"},{"id":54007,"name":"Fraternidad","native":null,"lat":"14.58087000","lon":"-89.07740000"},{"id":54051,"name":"La Encarnación","native":null,"lat":"14.66667000","lon":"-89.04742000"},{"id":54066,"name":"La Labor","native":null,"lat":"14.48333000","lon":"-89.00000000"},{"id":54112,"name":"Lucerna","native":null,"lat":"14.55000000","lon":"-88.93333000"},{"id":54125,"name":"Mercedes","native":null,"lat":"14.31667000","lon":"-88.98333000"},{"id":54150,"name":"Nueva Ocotepeque","native":null,"lat":"14.43333000","lon":"-89.18333000"},{"id":54225,"name":"San Fernando","native":null,"lat":"14.68793000","lon":"-89.10153000"},{"id":54229,"name":"San Francisco de Cones","native":null,"lat":"14.51667000","lon":"-88.90000000"},{"id":54235,"name":"San Francisco del Valle","native":null,"lat":"14.43333000","lon":"-88.95000000"},{"id":54243,"name":"San Jorge","native":null,"lat":"14.63697000","lon":"-89.11860000"},{"id":54271,"name":"San Marcos","native":null,"lat":"14.38000000","lon":"-88.92000000"},{"id":54301,"name":"Santa Fe","native":null,"lat":"14.50038000","lon":"-89.27320000"},{"id":54303,"name":"Santa Lucía","native":null,"lat":"14.41667000","lon":"-89.20000000"},{"id":54316,"name":"Sensenti","native":null,"lat":"14.48333000","lon":"-88.93333000"},{"id":54319,"name":"Sinuapa","native":null,"lat":"14.45000000","lon":"-89.18333000"},{"id":54369,"name":"Yaruchel","native":null,"lat":"14.53333000","lon":"-88.81667000"}]},{"id":4050,"name":"Olancho Department","native":null,"cities":[{"id":53856,"name":"Arimís","native":null,"lat":"14.78333000","lon":"-86.00000000"},{"id":53883,"name":"Campamento","native":null,"lat":"14.55000000","lon":"-86.65000000"},{"id":53890,"name":"Catacamas","native":null,"lat":"14.60384000","lon":"-85.54261000"},{"id":53917,"name":"Concordia","native":null,"lat":"14.61667000","lon":"-86.65000000"},{"id":53938,"name":"Dulce Nombre de Culmí","native":null,"lat":"15.10000000","lon":"-85.53333000"},{"id":53956,"name":"El Guayabito","native":null,"lat":"14.83333000","lon":"-86.03333000"},{"id":53986,"name":"El Rosario","native":null,"lat":"14.88720000","lon":"-86.68764000"},{"id":53987,"name":"El Rusio","native":null,"lat":"14.46667000","lon":"-86.36667000"},{"id":54002,"name":"Esquipulas del Norte","native":null,"lat":"15.27763000","lon":"-86.55760000"},{"id":54015,"name":"Gualaco","native":null,"lat":"15.02521000","lon":"-86.07076000"},{"id":54021,"name":"Guarizama","native":null,"lat":"14.91667000","lon":"-86.33333000"},{"id":54022,"name":"Guata","native":null,"lat":"15.15133000","lon":"-86.37624000"},{"id":54023,"name":"Guayape","native":null,"lat":"14.71667000","lon":"-86.83333000"},{"id":54032,"name":"Jano","native":null,"lat":"15.07902000","lon":"-86.51521000"},{"id":54042,"name":"Juticalpa","native":null,"lat":"14.66667000","lon":"-86.21944000"},{"id":54043,"name":"Jutiquile","native":null,"lat":"14.71667000","lon":"-86.08333000"},{"id":54049,"name":"La Concepción","native":null,"lat":"14.70000000","lon":"-86.23333000"},{"id":54057,"name":"La Estancia","native":null,"lat":"15.05000000","lon":"-86.35000000"},{"id":54061,"name":"La Guata","native":null,"lat":"15.08333000","lon":"-86.38333000"},{"id":54082,"name":"La Unión","native":null,"lat":"15.09759000","lon":"-86.68910000"},{"id":54087,"name":"Laguna Seca","native":null,"lat":"14.70000000","lon":"-86.10000000"},{"id":54115,"name":"Mangulile","native":null,"lat":"15.06667000","lon":"-86.80000000"},{"id":54116,"name":"Manto","native":null,"lat":"14.91667000","lon":"-86.38333000"},{"id":54137,"name":"Municipio de San Francisco de La Paz","native":null,"lat":"14.84183000","lon":"-86.11819000"},{"id":54166,"name":"Patuca","native":null,"lat":"14.36000000","lon":"-85.97000000"},{"id":54189,"name":"Punuare","native":null,"lat":"14.73333000","lon":"-85.96667000"},{"id":54207,"name":"Salamá","native":null,"lat":"14.81052000","lon":"-86.61996000"},{"id":54224,"name":"San Esteban","native":null,"lat":"15.29467000","lon":"-85.69487000"},{"id":54228,"name":"San Francisco de Becerra","native":null,"lat":"14.63333000","lon":"-86.10000000"},{"id":54234,"name":"San Francisco de la Paz","native":null,"lat":"14.90000000","lon":"-86.20000000"},{"id":54252,"name":"San José de Río Tinto","native":null,"lat":"14.93333000","lon":"-85.70000000"},{"id":54278,"name":"San Nicolás","native":null,"lat":"14.55000000","lon":"-86.25000000"},{"id":54307,"name":"Santa María del Real","native":null,"lat":"14.76667000","lon":"-85.95000000"},{"id":54318,"name":"Silca","native":null,"lat":"14.76205000","lon":"-86.51521000"},{"id":54373,"name":"Yocón","native":null,"lat":"14.95000000","lon":"-86.82000000"},{"id":54379,"name":"Zopilotepe","native":null,"lat":"14.60000000","lon":"-86.26667000"}]},{"id":4053,"name":"Santa Bárbara Department","native":null,"cities":[{"id":53841,"name":"Agualote","native":null,"lat":"15.33528000","lon":"-88.55306000"},{"id":53852,"name":"Arada","native":null,"lat":"14.85000000","lon":"-88.30000000"},{"id":53861,"name":"Atima","native":null,"lat":"14.93333000","lon":"-88.48333000"},{"id":53865,"name":"Azacualpa","native":null,"lat":"14.71667000","lon":"-88.10000000"},{"id":53873,"name":"Berlín","native":null,"lat":"14.83333000","lon":"-88.50000000"},{"id":53880,"name":"Callejones","native":null,"lat":"15.16667000","lon":"-88.65000000"},{"id":53881,"name":"Camalote","native":null,"lat":"15.33333000","lon":"-88.33333000"},{"id":53888,"name":"Casa Quemada","native":null,"lat":"15.26667000","lon":"-88.55000000"},{"id":53893,"name":"Ceguaca","native":null,"lat":"14.80000000","lon":"-88.20000000"},{"id":53898,"name":"Chinda","native":null,"lat":"15.11667000","lon":"-88.20000000"},{"id":53915,"name":"Concepción del Norte","native":null,"lat":"15.20227000","lon":"-88.13728000"},{"id":53916,"name":"Concepción del Sur","native":null,"lat":"14.81263000","lon":"-88.15316000"},{"id":53924,"name":"Correderos","native":null,"lat":"15.41667000","lon":"-88.45000000"},{"id":53946,"name":"El Ciruelo","native":null,"lat":"15.30000000","lon":"-88.50000000"},{"id":53947,"name":"El Corozal","native":null,"lat":"15.06667000","lon":"-88.61667000"},{"id":53962,"name":"El Mochito","native":null,"lat":"14.86667000","lon":"-88.08333000"},{"id":53964,"name":"El Níspero","native":null,"lat":"14.75957000","lon":"-88.34438000"},{"id":54011,"name":"Guacamaya","native":null,"lat":"15.01667000","lon":"-88.15000000"},{"id":54016,"name":"Gualala","native":null,"lat":"14.98000000","lon":"-88.17000000"},{"id":54018,"name":"Gualjoco","native":null,"lat":"14.95000000","lon":"-88.23333000"},{"id":54026,"name":"Ilama","native":null,"lat":"15.06667000","lon":"-88.21667000"},{"id":54036,"name":"Joconal","native":null,"lat":"15.35444000","lon":"-88.63556000"},{"id":54058,"name":"La Flecha","native":null,"lat":"15.28333000","lon":"-88.48333000"},{"id":54088,"name":"Laguna Verde","native":null,"lat":"15.20000000","lon":"-88.16667000"},{"id":54096,"name":"Las Vegas","native":null,"lat":"14.86636000","lon":"-88.07233000"},{"id":54097,"name":"Las Vegas Santa Barbara","native":null,"lat":"14.87649000","lon":"-88.07473000"},{"id":54105,"name":"Loma Alta","native":null,"lat":"15.39667000","lon":"-88.55972000"},{"id":54113,"name":"Macuelizo","native":null,"lat":"15.26000000","lon":"-88.66000000"},{"id":54140,"name":"Naco","native":null,"lat":"15.38333000","lon":"-88.18333000"},{"id":54142,"name":"Naranjito","native":null,"lat":"14.95000000","lon":"-88.68333000"},{"id":54148,"name":"Nueva Frontera","native":null,"lat":"15.21000000","lon":"-88.56000000"},{"id":54149,"name":"Nueva Jalapa","native":null,"lat":"14.91667000","lon":"-88.33333000"},{"id":54151,"name":"Nuevo Celilac","native":null,"lat":"14.97554000","lon":"-88.36726000"},{"id":54169,"name":"Petoa","native":null,"lat":"15.26667000","lon":"-88.28333000"},{"id":54173,"name":"Pinalejo","native":null,"lat":"15.38333000","lon":"-88.40000000"},{"id":54179,"name":"Protección","native":null,"lat":"15.03333000","lon":"-88.65000000"},{"id":54195,"name":"Quimistán","native":null,"lat":"15.35000000","lon":"-88.40000000"},{"id":54231,"name":"San Francisco de Ojuera","native":null,"lat":"14.67000000","lon":"-88.21000000"},{"id":54248,"name":"San José de Colinas","native":null,"lat":"15.03333000","lon":"-88.30000000"},{"id":54253,"name":"San José de Tarros","native":null,"lat":"15.30000000","lon":"-88.70000000"},{"id":54265,"name":"San Luis","native":null,"lat":"15.08333000","lon":"-88.38333000"},{"id":54267,"name":"San Luis de Planes","native":null,"lat":"14.98333000","lon":"-88.13333000"},{"id":54270,"name":"San Marcos","native":null,"lat":"15.30000000","lon":"-88.41667000"},{"id":54280,"name":"San Nicolás","native":null,"lat":"14.91913000","lon":"-88.37910000"},{"id":54282,"name":"San Pedro Zacapa","native":null,"lat":"14.75000000","lon":"-88.11667000"},{"id":54288,"name":"San Vicente Centenario","native":null,"lat":"14.88333000","lon":"-88.28333000"},{"id":54294,"name":"Santa Bárbara","native":null,"lat":"14.91944000","lon":"-88.23611000"},{"id":54309,"name":"Santa Rita","native":null,"lat":"14.76015000","lon":"-88.26782000"},{"id":54323,"name":"Sula","native":null,"lat":"15.25000000","lon":"-88.56667000"},{"id":54343,"name":"Tras Cerros","native":null,"lat":"15.30000000","lon":"-88.66667000"},{"id":54345,"name":"Trinidad","native":null,"lat":"15.13333000","lon":"-88.23333000"}]},{"id":4055,"name":"Valle Department","native":null,"cities":[{"id":53840,"name":"Agua Fría","native":null,"lat":"13.46889000","lon":"-87.55111000"},{"id":53847,"name":"Alianza","native":null,"lat":"13.44815000","lon":"-87.68643000"},{"id":53849,"name":"Amapala","native":null,"lat":"13.29222000","lon":"-87.65389000"},{"id":53853,"name":"Aramecina","native":null,"lat":"13.74222000","lon":"-87.71028000"},{"id":53887,"name":"Caridad","native":null,"lat":"13.81562000","lon":"-87.68121000"},{"id":53950,"name":"El Cubolero","native":null,"lat":"13.46667000","lon":"-87.66667000"},{"id":53997,"name":"El Tular","native":null,"lat":"13.46639000","lon":"-87.51528000"},{"id":54009,"name":"Goascorán","native":null,"lat":"13.58333000","lon":"-87.61667000"},{"id":54044,"name":"Jícaro Galán","native":null,"lat":"13.53167000","lon":"-87.43889000"},{"id":54045,"name":"La Alianza","native":null,"lat":"13.51222000","lon":"-87.72444000"},{"id":54050,"name":"La Criba","native":null,"lat":"13.45361000","lon":"-87.41333000"},{"id":54090,"name":"Langue","native":null,"lat":"13.62083000","lon":"-87.65250000"},{"id":54139,"name":"Nacaome","native":null,"lat":"13.52209000","lon":"-87.52477000"},{"id":54230,"name":"San Francisco de Coray","native":null,"lat":"13.66139000","lon":"-87.53278000"},{"id":54263,"name":"San Lorenzo","native":null,"lat":"13.45149000","lon":"-87.40743000"}]},{"id":4057,"name":"Yoro Department","native":null,"cities":[{"id":53838,"name":"Agua Blanca Sur","native":null,"lat":"15.25000000","lon":"-87.88333000"},{"id":53855,"name":"Arenal","native":null,"lat":"15.35000000","lon":"-86.83333000"},{"id":53858,"name":"Armenia","native":null,"lat":"15.46667000","lon":"-86.36667000"},{"id":53864,"name":"Ayapa","native":null,"lat":"15.11174000","lon":"-87.17557000"},{"id":53877,"name":"Bálsamo Oriental","native":null,"lat":"15.48333000","lon":"-86.33333000"},{"id":53886,"name":"Carbajales","native":null,"lat":"15.51667000","lon":"-86.35000000"},{"id":53926,"name":"Coyoles Central","native":null,"lat":"15.40000000","lon":"-86.66667000"},{"id":53943,"name":"El Bálsamo","native":null,"lat":"15.06667000","lon":"-87.46667000"},{"id":53957,"name":"El Juncal","native":null,"lat":"15.45000000","lon":"-86.43333000"},{"id":53963,"name":"El Negrito","native":null,"lat":"15.31667000","lon":"-87.70000000"},{"id":53967,"name":"El Ocote","native":null,"lat":"15.41667000","lon":"-86.56667000"},{"id":53980,"name":"El Progreso","native":null,"lat":"15.42762000","lon":"-87.77396000"},{"id":54013,"name":"Guaimitas","native":null,"lat":"15.50000000","lon":"-87.71667000"},{"id":54037,"name":"Jocón","native":null,"lat":"15.28333000","lon":"-86.96667000"},{"id":54056,"name":"La Estancia","native":null,"lat":"15.28333000","lon":"-87.55000000"},{"id":54059,"name":"La Guacamaya","native":null,"lat":"15.25000000","lon":"-87.80000000"},{"id":54072,"name":"La Mina","native":null,"lat":"15.31667000","lon":"-87.83333000"},{"id":54075,"name":"La Rosa","native":null,"lat":"15.35000000","lon":"-87.06667000"},{"id":54077,"name":"La Sarrosa","native":null,"lat":"15.23333000","lon":"-87.83333000"},{"id":54078,"name":"La Trinidad","native":null,"lat":"15.10000000","lon":"-87.20000000"},{"id":54095,"name":"Las Vegas","native":null,"lat":"15.01667000","lon":"-87.45000000"},{"id":54106,"name":"Lomitas","native":null,"lat":"15.10000000","lon":"-87.21667000"},{"id":54130,"name":"Mojimán","native":null,"lat":"15.26667000","lon":"-87.60000000"},{"id":54133,"name":"Morazán","native":null,"lat":"15.31667000","lon":"-87.60000000"},{"id":54143,"name":"Nombre de Jesús","native":null,"lat":"15.35000000","lon":"-86.68333000"},{"id":54147,"name":"Nueva Esperanza","native":null,"lat":"15.26667000","lon":"-87.60000000"},{"id":54153,"name":"Ocote Paulino","native":null,"lat":"15.41667000","lon":"-87.60000000"},{"id":54158,"name":"Olanchito","native":null,"lat":"15.48131000","lon":"-86.57415000"},{"id":54167,"name":"Paujiles","native":null,"lat":"15.10000000","lon":"-87.35000000"},{"id":54187,"name":"Punta Ocote","native":null,"lat":"15.20000000","lon":"-87.28333000"},{"id":54211,"name":"San Antonio","native":null,"lat":"15.33333000","lon":"-87.15000000"},{"id":54244,"name":"San José","native":null,"lat":"15.31667000","lon":"-87.16667000"},{"id":54308,"name":"Santa Rita","native":null,"lat":"15.18000000","lon":"-87.81000000"},{"id":54322,"name":"Subirana","native":null,"lat":"15.20000000","lon":"-87.45000000"},{"id":54324,"name":"Sulaco","native":null,"lat":"14.91667000","lon":"-87.26667000"},{"id":54332,"name":"Teguajinal","native":null,"lat":"15.36667000","lon":"-86.60000000"},{"id":54336,"name":"Tepusteca","native":null,"lat":"15.41667000","lon":"-86.31667000"},{"id":54342,"name":"Toyós","native":null,"lat":"15.55000000","lon":"-87.65000000"},{"id":54347,"name":"Trojas","native":null,"lat":"15.35000000","lon":"-86.70000000"},{"id":54358,"name":"Victoria","native":null,"lat":"15.10012000","lon":"-87.53020000"},{"id":54374,"name":"Yorito","native":null,"lat":"15.06667000","lon":"-87.28333000"},{"id":54375,"name":"Yoro","native":null,"lat":"15.13750000","lon":"-87.12778000"}]}]