[{"name":"Atlántida Department","native":null,"cities":[{"name":"Arizona","native":null,"lat":"15.63333000","lon":"-87.31667000"},{"name":"Atenas de San Cristóbal","native":null,"lat":"15.68333000","lon":"-87.31667000"},{"name":"Corozal","native":null,"lat":"15.80000000","lon":"-86.71667000"},{"name":"El Pino","native":null,"lat":"15.70000000","lon":"-86.93333000"},{"name":"El Porvenir","native":null,"lat":"15.75000000","lon":"-86.93333000"},{"name":"El Triunfo de la Cruz","native":null,"lat":"15.76667000","lon":"-87.43333000"},{"name":"Esparta","native":null,"lat":"15.66291000","lon":"-87.25622000"},{"name":"Jutiapa","native":null,"lat":"15.69586000","lon":"-86.50414000"},{"name":"La Ceiba","native":null,"lat":"15.75971000","lon":"-86.78221000"},{"name":"La Masica","native":null,"lat":"15.59865000","lon":"-87.13500000"},{"name":"La Unión","native":null,"lat":"15.71667000","lon":"-87.00000000"},{"name":"Mezapa","native":null,"lat":"15.58333000","lon":"-87.65000000"},{"name":"Nueva Armenia","native":null,"lat":"15.79556000","lon":"-86.49845000"},{"name":"Sambo Creek","native":null,"lat":"15.81667000","lon":"-86.68333000"},{"name":"San Antonio","native":null,"lat":"15.60000000","lon":"-87.15000000"},{"name":"San Francisco","native":null,"lat":"15.65246000","lon":"-87.01736000"},{"name":"San Juan Pueblo","native":null,"lat":"15.58333000","lon":"-87.23333000"},{"name":"Santa Ana","native":null,"lat":"15.65000000","lon":"-87.06667000"},{"name":"Tela","native":null,"lat":"15.77425000","lon":"-87.46731000"},{"name":"Tornabé","native":null,"lat":"15.75000000","lon":"-87.55000000"}]},{"name":"Bay Islands Department","native":null,"cities":[{"name":"Coxen Hole","native":null,"lat":"16.31759000","lon":"-86.53793000"},{"name":"French Harbor","native":null,"lat":"16.35000000","lon":"-86.43333000"},{"name":"Guanaja","native":null,"lat":"16.44795000","lon":"-85.89431000"},{"name":"José Santos Guardiola","native":null,"lat":"16.41765000","lon":"-86.30631000"},{"name":"Roatán","native":null,"lat":"16.34098000","lon":"-86.53763000"},{"name":"Sandy Bay","native":null,"lat":"16.32923000","lon":"-86.56446000"},{"name":"Savannah Bight","native":null,"lat":"16.45000000","lon":"-85.85000000"},{"name":"Utila","native":null,"lat":"16.10026000","lon":"-86.93070000"}]},{"name":"Choluteca Department","native":null,"cities":[{"name":"Apacilagua","native":null,"lat":"13.45821000","lon":"-87.01122000"},{"name":"Choluteca","native":null,"lat":"13.28261000","lon":"-87.20119000"},{"name":"Ciudad Choluteca","native":null,"lat":"13.30028000","lon":"-87.19083000"},{"name":"Concepción de María","native":null,"lat":"13.22363000","lon":"-86.96244000"},{"name":"Corpus","native":null,"lat":"13.28889000","lon":"-87.03472000"},{"name":"Duyure","native":null,"lat":"13.63333000","lon":"-86.81667000"},{"name":"El Corpus","native":null,"lat":"13.30464000","lon":"-87.00970000"},{"name":"El Obraje","native":null,"lat":"13.15417000","lon":"-87.13083000"},{"name":"El Puente","native":null,"lat":"13.28333000","lon":"-87.11667000"},{"name":"El Triunfo","native":null,"lat":"13.08024000","lon":"-87.01780000"},{"name":"Los Llanitos","native":null,"lat":"13.28694000","lon":"-87.33444000"},{"name":"Marcovia","native":null,"lat":"13.28806000","lon":"-87.30972000"},{"name":"Monjarás","native":null,"lat":"13.20056000","lon":"-87.37417000"},{"name":"Morolica","native":null,"lat":"13.56800000","lon":"-86.88821000"},{"name":"Namasigüe","native":null,"lat":"13.20472000","lon":"-87.13889000"},{"name":"Orocuina","native":null,"lat":"13.48167000","lon":"-87.10500000"},{"name":"Pespire","native":null,"lat":"13.59222000","lon":"-87.36167000"},{"name":"San Antonio de Flores","native":null,"lat":"13.64152000","lon":"-87.34075000"},{"name":"San Isidro","native":null,"lat":"13.64454000","lon":"-87.26093000"},{"name":"San Jerónimo","native":null,"lat":"13.17667000","lon":"-87.13639000"},{"name":"San José","native":null,"lat":"13.71415000","lon":"-87.42256000"},{"name":"San José de Las Conchas","native":null,"lat":"13.32528000","lon":"-87.39556000"},{"name":"San Marcos de Colón","native":null,"lat":"13.41512000","lon":"-86.82095000"},{"name":"Santa Ana de Yusguare","native":null,"lat":"13.30056000","lon":"-87.11389000"},{"name":"Santa Cruz","native":null,"lat":"13.25806000","lon":"-87.34833000"}]},{"name":"Colón Department","native":null,"cities":[{"name":"Balfate","native":null,"lat":"15.75709000","lon":"-86.29048000"},{"name":"Bonito Oriental","native":null,"lat":"15.74641000","lon":"-85.73610000"},{"name":"Corocito","native":null,"lat":"15.75000000","lon":"-85.78333000"},{"name":"Cusuna","native":null,"lat":"15.85000000","lon":"-85.23333000"},{"name":"Elíxir","native":null,"lat":"15.48333000","lon":"-86.30000000"},{"name":"Francia","native":null,"lat":"15.85000000","lon":"-85.58333000"},{"name":"Iriona","native":null,"lat":"15.59079000","lon":"-85.20549000"},{"name":"Jericó","native":null,"lat":"15.95000000","lon":"-85.96667000"},{"name":"La Brea","native":null,"lat":"15.80000000","lon":"-85.96667000"},{"name":"La Esperanza","native":null,"lat":"15.63333000","lon":"-85.76667000"},{"name":"Limón","native":null,"lat":"15.79664000","lon":"-85.50805000"},{"name":"Municipio de Sabá","native":null,"lat":"15.48654000","lon":"-86.16322000"},{"name":"Prieta","native":null,"lat":"15.58060000","lon":"-86.13664000"},{"name":"Puerto Castilla","native":null,"lat":"16.01667000","lon":"-85.96667000"},{"name":"Punta Piedra","native":null,"lat":"15.90000000","lon":"-85.28333000"},{"name":"Quebrada de Arena","native":null,"lat":"15.76667000","lon":"-85.91667000"},{"name":"Río Esteban","native":null,"lat":"15.83333000","lon":"-86.30000000"},{"name":"Sabá","native":null,"lat":"15.46667000","lon":"-86.25000000"},{"name":"Salamá","native":null,"lat":"15.75000000","lon":"-85.96667000"},{"name":"Santa Fe","native":null,"lat":"15.85424000","lon":"-86.11083000"},{"name":"Santa Rosa de Aguán","native":null,"lat":"15.95000000","lon":"-85.71667000"},{"name":"Sonaguera","native":null,"lat":"15.64000000","lon":"-86.26000000"},{"name":"Taujica","native":null,"lat":"15.70000000","lon":"-85.91667000"},{"name":"Tocoa","native":null,"lat":"15.68333000","lon":"-86.00000000"},{"name":"Trujillo","native":null,"lat":"15.91667000","lon":"-85.95417000"},{"name":"Zamora","native":null,"lat":"15.63333000","lon":"-86.06667000"}]},{"name":"Comayagua Department","native":null,"cities":[{"name":"Aguas del Padre","native":null,"lat":"14.56667000","lon":"-87.88333000"},{"name":"Ajuterique","native":null,"lat":"14.38333000","lon":"-87.70000000"},{"name":"Cerro Blanco","native":null,"lat":"14.66667000","lon":"-87.78333000"},{"name":"Comayagua","native":null,"lat":"14.48412000","lon":"-87.60060000"},{"name":"Concepción de Guasistagua","native":null,"lat":"14.60000000","lon":"-87.65000000"},{"name":"El Agua Dulcita","native":null,"lat":"14.70000000","lon":"-87.75000000"},{"name":"El Porvenir","native":null,"lat":"14.58333000","lon":"-87.88333000"},{"name":"El Rancho","native":null,"lat":"14.68333000","lon":"-87.50000000"},{"name":"El Rincón","native":null,"lat":"14.58333000","lon":"-87.93333000"},{"name":"El Rosario","native":null,"lat":"14.57500000","lon":"-87.74306000"},{"name":"El Sauce","native":null,"lat":"14.52850000","lon":"-87.66571000"},{"name":"El Socorro","native":null,"lat":"14.63333000","lon":"-87.91667000"},{"name":"Esquías","native":null,"lat":"14.73333000","lon":"-87.36667000"},{"name":"Flores","native":null,"lat":"14.28333000","lon":"-87.56667000"},{"name":"Humuya","native":null,"lat":"14.25000000","lon":"-87.66667000"},{"name":"Jamalteca","native":null,"lat":"14.70000000","lon":"-87.58333000"},{"name":"La Libertad","native":null,"lat":"14.88000000","lon":"-87.55000000"},{"name":"La Trinidad","native":null,"lat":"14.70000000","lon":"-87.66286000"},{"name":"Lamaní","native":null,"lat":"14.20000000","lon":"-87.61667000"},{"name":"Las Lajas","native":null,"lat":"14.90000000","lon":"-87.58333000"},{"name":"Lejamaní","native":null,"lat":"14.36667000","lon":"-87.70000000"},{"name":"Meámbar","native":null,"lat":"14.82047000","lon":"-87.78424000"},{"name":"Minas de Oro","native":null,"lat":"14.80000000","lon":"-87.35000000"},{"name":"Ojos de Agua","native":null,"lat":"14.79498000","lon":"-87.65010000"},{"name":"Potrerillos","native":null,"lat":"14.55000000","lon":"-87.86667000"},{"name":"Río Bonito","native":null,"lat":"14.76667000","lon":"-87.88333000"},{"name":"San Antonio de la Cuesta","native":null,"lat":"14.63333000","lon":"-87.60000000"},{"name":"San Jerónimo","native":null,"lat":"14.64043000","lon":"-87.56768000"},{"name":"San José de Comayagua","native":null,"lat":"14.73333000","lon":"-88.03333000"},{"name":"San José del Potrero","native":null,"lat":"14.86203000","lon":"-87.29049000"},{"name":"San Luis","native":null,"lat":"14.75000000","lon":"-87.41667000"},{"name":"San Sebastián","native":null,"lat":"14.23687000","lon":"-87.63215000"},{"name":"Siguatepeque","native":null,"lat":"14.60000000","lon":"-87.83333000"},{"name":"Taulabé","native":null,"lat":"14.67145000","lon":"-87.98693000"},{"name":"Valle de Ángeles","native":null,"lat":"14.50000000","lon":"-87.63333000"},{"name":"Villa de San Antonio","native":null,"lat":"14.31667000","lon":"-87.61667000"}]},{"name":"Copán Department","native":null,"cities":[{"name":"Agua Caliente","native":null,"lat":"14.88333000","lon":"-88.81667000"},{"name":"Buenos Aires","native":null,"lat":"15.03333000","lon":"-88.96667000"},{"name":"Cabañas","native":null,"lat":"14.76000000","lon":"-89.06000000"},{"name":"Chalmeca","native":null,"lat":"15.10000000","lon":"-88.68333000"},{"name":"Concepción","native":null,"lat":"14.88077000","lon":"-88.87919000"},{"name":"Concepción de la Barranca","native":null,"lat":"15.16667000","lon":"-88.71667000"},{"name":"Copán","native":null,"lat":"14.83333000","lon":"-89.15000000"},{"name":"Copán Ruinas","native":null,"lat":"14.92000000","lon":"-89.15000000"},{"name":"Corquín","native":null,"lat":"14.56667000","lon":"-88.86667000"},{"name":"Cucuyagua","native":null,"lat":"14.65000000","lon":"-88.86667000"},{"name":"Dolores","native":null,"lat":"14.86667000","lon":"-88.83333000"},{"name":"Dulce Nombre","native":null,"lat":"14.85552000","lon":"-88.83856000"},{"name":"El Corpus","native":null,"lat":"14.70000000","lon":"-88.91667000"},{"name":"El Ocotón","native":null,"lat":"15.03333000","lon":"-88.88333000"},{"name":"El Paraíso","native":null,"lat":"15.04217000","lon":"-88.98045000"},{"name":"Florida","native":null,"lat":"15.03333000","lon":"-88.83333000"},{"name":"La Entrada","native":null,"lat":"15.05000000","lon":"-88.73333000"},{"name":"La Jigua","native":null,"lat":"15.10000000","lon":"-88.76000000"},{"name":"La Playona","native":null,"lat":"15.11667000","lon":"-88.98333000"},{"name":"La Unión","native":null,"lat":"14.69350000","lon":"-88.94734000"},{"name":"La Zumbadora","native":null,"lat":"15.01667000","lon":"-88.90000000"},{"name":"Los Tangos","native":null,"lat":"15.15000000","lon":"-88.68333000"},{"name":"Nueva Arcadia","native":null,"lat":"15.08000000","lon":"-88.69000000"},{"name":"Ojos de Agua","native":null,"lat":"14.70000000","lon":"-88.81667000"},{"name":"Pueblo Nuevo","native":null,"lat":"15.00000000","lon":"-88.75000000"},{"name":"Quezailica","native":null,"lat":"14.88333000","lon":"-88.73333000"},{"name":"San Agustín","native":null,"lat":"14.81973000","lon":"-88.93027000"},{"name":"San Antonio","native":null,"lat":"15.04000000","lon":"-88.88000000"},{"name":"San Jerónimo","native":null,"lat":"14.96207000","lon":"-88.90270000"},{"name":"San Joaquín","native":null,"lat":"15.05000000","lon":"-88.90000000"},{"name":"San José","native":null,"lat":"14.91184000","lon":"-88.71667000"},{"name":"San José de Copán","native":null,"lat":"14.90000000","lon":"-88.71667000"},{"name":"San Juan de Opoa","native":null,"lat":"14.78333000","lon":"-88.70000000"},{"name":"San Juan de Planes","native":null,"lat":"14.93333000","lon":"-88.78333000"},{"name":"San Nicolás","native":null,"lat":"14.98000000","lon":"-88.73000000"},{"name":"San Pedro de Copán","native":null,"lat":"14.61667000","lon":"-88.80000000"},{"name":"Santa Rita","native":null,"lat":"14.88000000","lon":"-89.01000000"},{"name":"Santa Rita Copan","native":null,"lat":"14.86748000","lon":"-89.10000000"},{"name":"Santa Rosa de Copán","native":null,"lat":"14.76667000","lon":"-88.77917000"},{"name":"Trinidad de Copán","native":null,"lat":"14.95000000","lon":"-88.75000000"},{"name":"Veracruz","native":null,"lat":"14.88343000","lon":"-88.78570000"}]},{"name":"Cortés Department","native":null,"cities":[{"name":"Agua Azul","native":null,"lat":"14.91667000","lon":"-87.96667000"},{"name":"Agua Azul Rancho","native":null,"lat":"14.90000000","lon":"-87.95000000"},{"name":"Armenta","native":null,"lat":"15.50000000","lon":"-88.05000000"},{"name":"Baja Mar","native":null,"lat":"15.88851000","lon":"-87.85547000"},{"name":"Baracoa","native":null,"lat":"15.76667000","lon":"-87.85000000"},{"name":"Bejuco","native":null,"lat":"15.13333000","lon":"-87.93333000"},{"name":"Cañaveral","native":null,"lat":"14.98333000","lon":"-88.01667000"},{"name":"Casa Quemada","native":null,"lat":"15.11667000","lon":"-88.08333000"},{"name":"Chivana","native":null,"lat":"15.75000000","lon":"-87.98333000"},{"name":"Choloma","native":null,"lat":"15.64000000","lon":"-87.92000000"},{"name":"Chotepe","native":null,"lat":"15.41667000","lon":"-87.98333000"},{"name":"Cofradía","native":null,"lat":"15.40000000","lon":"-88.15000000"},{"name":"Cuyamel","native":null,"lat":"15.66667000","lon":"-88.20000000"},{"name":"El Llano","native":null,"lat":"15.15000000","lon":"-87.88333000"},{"name":"El Marañón","native":null,"lat":"15.40000000","lon":"-88.05000000"},{"name":"El Milagro","native":null,"lat":"15.40000000","lon":"-87.96667000"},{"name":"El Olivar","native":null,"lat":"15.08333000","lon":"-87.88333000"},{"name":"El Perico","native":null,"lat":"15.08333000","lon":"-88.10000000"},{"name":"El Plan","native":null,"lat":"15.28333000","lon":"-87.96667000"},{"name":"El Porvenir","native":null,"lat":"15.83333000","lon":"-87.93333000"},{"name":"El Rancho","native":null,"lat":"15.66667000","lon":"-87.95000000"},{"name":"El Tigre","native":null,"lat":"14.93333000","lon":"-87.98333000"},{"name":"El Zapotal del Norte","native":null,"lat":"15.51667000","lon":"-88.05000000"},{"name":"La Guama","native":null,"lat":"14.88333000","lon":"-87.93333000"},{"name":"La Huesa","native":null,"lat":"15.58333000","lon":"-87.88333000"},{"name":"La Jutosa","native":null,"lat":"15.63333000","lon":"-88.00000000"},{"name":"La Lima","native":null,"lat":"15.43333000","lon":"-87.91667000"},{"name":"La Sabana","native":null,"lat":"15.36667000","lon":"-87.93333000"},{"name":"Los Caminos","native":null,"lat":"14.95000000","lon":"-87.96667000"},{"name":"Los Naranjos","native":null,"lat":"14.90000000","lon":"-88.05000000"},{"name":"Monterrey","native":null,"lat":"15.58333000","lon":"-87.88333000"},{"name":"Nuevo Chamelecón","native":null,"lat":"15.38333000","lon":"-88.01667000"},{"name":"Omoa","native":null,"lat":"15.76667000","lon":"-88.03333000"},{"name":"Oropéndolas","native":null,"lat":"15.01667000","lon":"-87.93333000"},{"name":"Peña Blanca","native":null,"lat":"15.53333000","lon":"-88.05000000"},{"name":"Pimienta","native":null,"lat":"15.26500000","lon":"-87.96667000"},{"name":"Pimienta Vieja","native":null,"lat":"15.23333000","lon":"-87.96667000"},{"name":"Potrerillos","native":null,"lat":"15.21000000","lon":"-87.95000000"},{"name":"Pueblo Nuevo","native":null,"lat":"15.28333000","lon":"-88.01667000"},{"name":"Puerto Alto","native":null,"lat":"15.70000000","lon":"-87.86667000"},{"name":"Puerto Cortés","native":null,"lat":"15.79000000","lon":"-87.84900000"},{"name":"Puerto Cortez","native":null,"lat":"15.82562000","lon":"-87.92968000"},{"name":"Quebrada Seca","native":null,"lat":"15.66667000","lon":"-87.95000000"},{"name":"Río Blanquito","native":null,"lat":"15.73333000","lon":"-87.90000000"},{"name":"Río Chiquito","native":null,"lat":"15.63333000","lon":"-88.25000000"},{"name":"Río Lindo","native":null,"lat":"15.03333000","lon":"-87.98333000"},{"name":"San Antonio de Cortés","native":null,"lat":"15.11667000","lon":"-88.03333000"},{"name":"San Buenaventura","native":null,"lat":"15.01667000","lon":"-88.00000000"},{"name":"San Francisco de Yojoa","native":null,"lat":"15.01667000","lon":"-87.96667000"},{"name":"San José del Boquerón","native":null,"lat":"15.48333000","lon":"-87.86667000"},{"name":"San Manuel","native":null,"lat":"15.37279000","lon":"-87.90167000"},{"name":"San Pedro Sula","native":null,"lat":"15.50417000","lon":"-88.02500000"},{"name":"Santa Cruz de Yojoa","native":null,"lat":"14.98333000","lon":"-87.90000000"},{"name":"Santa Elena","native":null,"lat":"15.38333000","lon":"-88.13333000"},{"name":"Travesía","native":null,"lat":"15.86667000","lon":"-87.90000000"},{"name":"Villanueva","native":null,"lat":"15.31667000","lon":"-88.00000000"}]},{"name":"El Paraíso Department","native":null,"cities":[{"name":"Alauca","native":null,"lat":"13.84020000","lon":"-86.69526000"},{"name":"Araulí","native":null,"lat":"13.95000000","lon":"-86.55000000"},{"name":"Cuyalí","native":null,"lat":"13.88333000","lon":"-86.55000000"},{"name":"Danlí","native":null,"lat":"14.03333000","lon":"-86.58333000"},{"name":"El Benque","native":null,"lat":"14.03333000","lon":"-86.46667000"},{"name":"El Chichicaste","native":null,"lat":"14.06667000","lon":"-86.30000000"},{"name":"El Obraje","native":null,"lat":"14.00000000","lon":"-86.43333000"},{"name":"El Paraíso","native":null,"lat":"13.85381000","lon":"-86.53094000"},{"name":"Güinope","native":null,"lat":"13.88333000","lon":"-86.93333000"},{"name":"Jacaleapa","native":null,"lat":"14.01667000","lon":"-86.66667000"},{"name":"Jutiapa","native":null,"lat":"13.98333000","lon":"-86.40000000"},{"name":"Las Ánimas","native":null,"lat":"14.25000000","lon":"-86.56667000"},{"name":"Las Trojes","native":null,"lat":"14.06667000","lon":"-85.98333000"},{"name":"Liure","native":null,"lat":"13.53583000","lon":"-87.09194000"},{"name":"Morocelí","native":null,"lat":"14.11667000","lon":"-86.86667000"},{"name":"Municipio de Texiguat","native":null,"lat":"13.66372000","lon":"-87.03479000"},{"name":"Ojo de Agua","native":null,"lat":"14.01667000","lon":"-86.35000000"},{"name":"Oropolí","native":null,"lat":"13.81667000","lon":"-86.81667000"},{"name":"Potrerillos","native":null,"lat":"14.04478000","lon":"-86.76201000"},{"name":"Quebrada Larga","native":null,"lat":"14.10000000","lon":"-86.36667000"},{"name":"San Antonio de Flores","native":null,"lat":"13.71089000","lon":"-86.84226000"},{"name":"San Diego","native":null,"lat":"14.05000000","lon":"-86.46667000"},{"name":"San Lucas","native":null,"lat":"13.74586000","lon":"-86.95163000"},{"name":"San Matías","native":null,"lat":"13.95966000","lon":"-86.64032000"},{"name":"Santa Cruz","native":null,"lat":"13.86667000","lon":"-86.63333000"},{"name":"Soledad","native":null,"lat":"13.58333000","lon":"-87.11667000"},{"name":"Teupasenti","native":null,"lat":"14.21667000","lon":"-86.70000000"},{"name":"Texíguat","native":null,"lat":"13.64972000","lon":"-87.02250000"},{"name":"Trojes","native":null,"lat":"14.05966000","lon":"-86.00166000"},{"name":"Vado Ancho","native":null,"lat":"13.64355000","lon":"-86.95546000"},{"name":"Yauyupe","native":null,"lat":"13.74867000","lon":"-87.07610000"},{"name":"Yuscarán","native":null,"lat":"13.95708000","lon":"-86.83170000"}]},{"name":"Francisco Morazán Department","native":null,"cities":[{"name":"Agalteca","native":null,"lat":"14.45000000","lon":"-87.26667000"},{"name":"Alubarén","native":null,"lat":"13.78226000","lon":"-87.46990000"},{"name":"Cedros","native":null,"lat":"14.50464000","lon":"-87.21680000"},{"name":"Cerro Grande","native":null,"lat":"13.81667000","lon":"-87.25000000"},{"name":"Cofradía","native":null,"lat":"14.21667000","lon":"-87.18333000"},{"name":"Curarén","native":null,"lat":"13.83000000","lon":"-87.57000000"},{"name":"Distrito Central","native":null,"lat":"14.14975000","lon":"-87.24806000"},{"name":"El Chimbo","native":null,"lat":"14.13333000","lon":"-87.11667000"},{"name":"El Escanito","native":null,"lat":"14.66667000","lon":"-87.10000000"},{"name":"El Escaño de Tepale","native":null,"lat":"14.75000000","lon":"-87.06667000"},{"name":"El Guante","native":null,"lat":"14.55000000","lon":"-87.10000000"},{"name":"El Guantillo","native":null,"lat":"14.60000000","lon":"-87.30000000"},{"name":"El Guapinol","native":null,"lat":"13.76667000","lon":"-87.46667000"},{"name":"El Lolo","native":null,"lat":"14.11667000","lon":"-87.26667000"},{"name":"El Pedernal","native":null,"lat":"14.70000000","lon":"-87.11667000"},{"name":"El Porvenir","native":null,"lat":"14.72009000","lon":"-87.21039000"},{"name":"El Suyatal","native":null,"lat":"14.51667000","lon":"-87.21667000"},{"name":"El Tablón","native":null,"lat":"14.03333000","lon":"-87.16667000"},{"name":"El Terrero","native":null,"lat":"14.06667000","lon":"-87.06667000"},{"name":"Guaimaca","native":null,"lat":"14.53333000","lon":"-86.81667000"},{"name":"La Ermita","native":null,"lat":"14.46667000","lon":"-87.06667000"},{"name":"La Libertad","native":null,"lat":"13.70662000","lon":"-87.50421000"},{"name":"La Venta","native":null,"lat":"13.73113000","lon":"-87.32874000"},{"name":"Lepaterique","native":null,"lat":"14.05590000","lon":"-87.47908000"},{"name":"Maraita","native":null,"lat":"13.87197000","lon":"-87.05633000"},{"name":"Marale","native":null,"lat":"14.94113000","lon":"-87.09892000"},{"name":"Mata de Plátano","native":null,"lat":"14.60000000","lon":"-87.28333000"},{"name":"Mateo","native":null,"lat":"14.08333000","lon":"-87.31667000"},{"name":"Nueva Armenia","native":null,"lat":"13.75000000","lon":"-87.15307000"},{"name":"Ojojona","native":null,"lat":"13.93389000","lon":"-87.29583000"},{"name":"Orica","native":null,"lat":"14.80645000","lon":"-86.95760000"},{"name":"Quebradas","native":null,"lat":"14.50000000","lon":"-87.35000000"},{"name":"Reitoca","native":null,"lat":"13.82583000","lon":"-87.46528000"},{"name":"Río Abajo","native":null,"lat":"14.16667000","lon":"-87.21667000"},{"name":"Sabanagrande","native":null,"lat":"13.80778000","lon":"-87.25917000"},{"name":"San Antonio de Oriente","native":null,"lat":"14.03859000","lon":"-86.98951000"},{"name":"San Buenaventura","native":null,"lat":"13.89100000","lon":"-87.18554000"},{"name":"San Ignacio","native":null,"lat":"14.73795000","lon":"-87.04759000"},{"name":"San Juan de Flores","native":null,"lat":"14.26667000","lon":"-87.03333000"},{"name":"San Miguelito","native":null,"lat":"13.74572000","lon":"-87.49233000"},{"name":"Santa Ana","native":null,"lat":"13.94000000","lon":"-87.21000000"},{"name":"Santa Lucía","native":null,"lat":"14.12595000","lon":"-87.09175000"},{"name":"Talanga","native":null,"lat":"14.41393000","lon":"-87.06941000"},{"name":"Támara","native":null,"lat":"14.15000000","lon":"-87.33333000"},{"name":"Tatumbla","native":null,"lat":"13.98467000","lon":"-87.06977000"},{"name":"Tegucigalpa","native":null,"lat":"14.08180000","lon":"-87.20681000"},{"name":"Valle de Ángeles","native":null,"lat":"14.15000000","lon":"-87.03333000"},{"name":"Vallecillo","native":null,"lat":"14.51313000","lon":"-87.40242000"},{"name":"Villa de San Francisco","native":null,"lat":"14.16667000","lon":"-86.96667000"},{"name":"Villa Nueva","native":null,"lat":"14.03333000","lon":"-87.13333000"},{"name":"Yaguacire","native":null,"lat":"14.01667000","lon":"-87.21667000"},{"name":"Zambrano","native":null,"lat":"14.26667000","lon":"-87.40000000"}]},{"name":"Gracias a Dios Department","native":null,"cities":[{"name":"Ahuas","native":null,"lat":"15.46923000","lon":"-84.34479000"},{"name":"Auas","native":null,"lat":"15.48333000","lon":"-84.33333000"},{"name":"Auka","native":null,"lat":"14.94087000","lon":"-83.83229000"},{"name":"Barra Patuca","native":null,"lat":"15.80000000","lon":"-84.28333000"},{"name":"Brus Laguna","native":null,"lat":"15.75000000","lon":"-84.48333000"},{"name":"Iralaya","native":null,"lat":"15.00000000","lon":"-83.23333000"},{"name":"Juan Francisco Bulnes","native":null,"lat":"15.91676000","lon":"-84.90990000"},{"name":"Paptalaya","native":null,"lat":"15.50000000","lon":"-84.31667000"},{"name":"Puerto Lempira","native":null,"lat":"15.26667000","lon":"-83.77222000"},{"name":"Villeda Morales","native":null,"lat":"15.08472000","lon":"-83.35361000"},{"name":"Wampusirpi","native":null,"lat":"15.18333000","lon":"-84.61667000"},{"name":"Wawina","native":null,"lat":"15.41667000","lon":"-84.43333000"}]},{"name":"Intibucá Department","native":null,"cities":[{"name":"Camasca","native":null,"lat":"14.00000000","lon":"-88.38333000"},{"name":"Colomoncagua","native":null,"lat":"13.97245000","lon":"-88.27673000"},{"name":"Concepción","native":null,"lat":"14.04725000","lon":"-88.31942000"},{"name":"Dolores","native":null,"lat":"14.26188000","lon":"-88.35787000"},{"name":"Intibucá","native":null,"lat":"14.43000000","lon":"-88.17000000"},{"name":"Jesús de Otoro","native":null,"lat":"14.48333000","lon":"-87.98333000"},{"name":"Jiquinlaca","native":null,"lat":"14.00000000","lon":"-88.35000000"},{"name":"La Esperanza","native":null,"lat":"14.31111000","lon":"-88.18056000"},{"name":"Magdalena","native":null,"lat":"13.92452000","lon":"-88.36675000"},{"name":"Masaguara","native":null,"lat":"14.40428000","lon":"-87.98247000"},{"name":"San Antonio","native":null,"lat":"13.95043000","lon":"-88.46493000"},{"name":"San Francisco de Opalaca","native":null,"lat":"14.58441000","lon":"-88.30253000"},{"name":"San Isidro","native":null,"lat":"14.56763000","lon":"-88.11743000"},{"name":"San Juan","native":null,"lat":"14.42127000","lon":"-88.41953000"},{"name":"San Marcos de la Sierra","native":null,"lat":"14.13236000","lon":"-88.24690000"},{"name":"San Miguelito","native":null,"lat":"14.34875000","lon":"-88.33983000"},{"name":"Santa Lucía","native":null,"lat":"13.90812000","lon":"-88.41566000"},{"name":"Yamaranguila","native":null,"lat":"14.26826000","lon":"-88.24652000"}]},{"name":"La Paz Department","native":null,"cities":[{"name":"Aguanqueterique","native":null,"lat":"13.98606000","lon":"-87.64622000"},{"name":"Cabañas","native":null,"lat":"13.99419000","lon":"-88.02864000"},{"name":"Cane","native":null,"lat":"14.28333000","lon":"-87.66667000"},{"name":"Chinacla","native":null,"lat":"14.18289000","lon":"-87.95395000"},{"name":"Guajiquiro","native":null,"lat":"14.06982000","lon":"-87.77451000"},{"name":"La Paz","native":null,"lat":"14.31944000","lon":"-87.67917000"},{"name":"Lauterique","native":null,"lat":"13.86425000","lon":"-87.65792000"},{"name":"Los Planes","native":null,"lat":"14.05000000","lon":"-88.01667000"},{"name":"Marcala","native":null,"lat":"14.14845000","lon":"-88.02405000"},{"name":"Mercedes de Oriente","native":null,"lat":"13.90937000","lon":"-87.77795000"},{"name":"Opatoro","native":null,"lat":"14.02451000","lon":"-87.87982000"},{"name":"San Antonio del Norte","native":null,"lat":"13.88000000","lon":"-87.72000000"},{"name":"San José","native":null,"lat":"14.22642000","lon":"-87.96238000"},{"name":"San Juan","native":null,"lat":"13.95428000","lon":"-87.72948000"},{"name":"San Pedro de Tutule","native":null,"lat":"14.25000000","lon":"-87.85000000"},{"name":"Santa Ana","native":null,"lat":"14.00011000","lon":"-87.94107000"},{"name":"Santa Elena","native":null,"lat":"14.07149000","lon":"-88.15445000"},{"name":"Santa María","native":null,"lat":"14.26904000","lon":"-87.91164000"},{"name":"Santiago Puringla","native":null,"lat":"14.35000000","lon":"-87.90000000"},{"name":"Tepanguare","native":null,"lat":"14.33333000","lon":"-87.75000000"},{"name":"Yarula","native":null,"lat":"14.10000000","lon":"-88.08000000"},{"name":"Yarumela","native":null,"lat":"14.33333000","lon":"-87.63333000"}]},{"name":"Lempira Department","native":null,"cities":[{"name":"Belén","native":null,"lat":"14.50834000","lon":"-88.42819000"},{"name":"Candelaria","native":null,"lat":"14.06072000","lon":"-88.55913000"},{"name":"Cololaca","native":null,"lat":"14.31189000","lon":"-88.87720000"},{"name":"El Achiotal","native":null,"lat":"14.08333000","lon":"-88.75000000"},{"name":"Erandique","native":null,"lat":"14.23333000","lon":"-88.46667000"},{"name":"Gracias","native":null,"lat":"14.59028000","lon":"-88.58194000"},{"name":"Gualcince","native":null,"lat":"14.12869000","lon":"-88.56812000"},{"name":"Guarita","native":null,"lat":"14.20784000","lon":"-88.85161000"},{"name":"La Campa","native":null,"lat":"14.47280000","lon":"-88.56090000"},{"name":"La Iguala","native":null,"lat":"14.66441000","lon":"-88.46360000"},{"name":"La Libertad","native":null,"lat":"14.80000000","lon":"-88.58333000"},{"name":"La Unión","native":null,"lat":"14.81667000","lon":"-88.40000000"},{"name":"La Virtud","native":null,"lat":"14.07156000","lon":"-88.68584000"},{"name":"Las Flores","native":null,"lat":"14.67930000","lon":"-88.65040000"},{"name":"Las Tejeras","native":null,"lat":"14.80000000","lon":"-88.60000000"},{"name":"Lepaera","native":null,"lat":"14.78333000","lon":"-88.58333000"},{"name":"Mapulaca","native":null,"lat":"14.04293000","lon":"-88.62440000"},{"name":"Piraera","native":null,"lat":"14.06261000","lon":"-88.46319000"},{"name":"San Andrés","native":null,"lat":"14.21968000","lon":"-88.54981000"},{"name":"San Francisco","native":null,"lat":"14.12435000","lon":"-88.37189000"},{"name":"San Juan Guarita","native":null,"lat":"14.15492000","lon":"-88.77477000"},{"name":"San Manuel Colohete","native":null,"lat":"14.44435000","lon":"-88.67050000"},{"name":"San Marcos de Caiquin","native":null,"lat":"14.41614000","lon":"-88.60126000"},{"name":"San Rafael","native":null,"lat":"14.73333000","lon":"-88.41667000"},{"name":"San Sebastián","native":null,"lat":"14.34594000","lon":"-88.73487000"},{"name":"Santa Cruz","native":null,"lat":"14.34427000","lon":"-88.52684000"},{"name":"Talgua","native":null,"lat":"14.68110000","lon":"-88.72800000"},{"name":"Tambla","native":null,"lat":"14.21276000","lon":"-88.76768000"},{"name":"Taragual","native":null,"lat":"14.75000000","lon":"-88.48333000"},{"name":"Tomalá","native":null,"lat":"14.24330000","lon":"-88.73140000"},{"name":"Valladolid","native":null,"lat":"14.14710000","lon":"-88.70840000"},{"name":"Virginia","native":null,"lat":"14.00522000","lon":"-88.56193000"}]},{"name":"Ocotepeque Department","native":null,"cities":[{"name":"Antigua Ocotepeque","native":null,"lat":"14.40000000","lon":"-89.20000000"},{"name":"Belén Gualcho","native":null,"lat":"14.48333000","lon":"-88.80000000"},{"name":"Concepción","native":null,"lat":"14.52383000","lon":"-89.19371000"},{"name":"Dolores Merendón","native":null,"lat":"14.55095000","lon":"-89.12493000"},{"name":"El Tránsito","native":null,"lat":"14.38333000","lon":"-88.91667000"},{"name":"Fraternidad","native":null,"lat":"14.58087000","lon":"-89.07740000"},{"name":"La Encarnación","native":null,"lat":"14.66667000","lon":"-89.04742000"},{"name":"La Labor","native":null,"lat":"14.48333000","lon":"-89.00000000"},{"name":"Lucerna","native":null,"lat":"14.55000000","lon":"-88.93333000"},{"name":"Mercedes","native":null,"lat":"14.31667000","lon":"-88.98333000"},{"name":"Nueva Ocotepeque","native":null,"lat":"14.43333000","lon":"-89.18333000"},{"name":"San Fernando","native":null,"lat":"14.68793000","lon":"-89.10153000"},{"name":"San Francisco de Cones","native":null,"lat":"14.51667000","lon":"-88.90000000"},{"name":"San Francisco del Valle","native":null,"lat":"14.43333000","lon":"-88.95000000"},{"name":"San Jorge","native":null,"lat":"14.63697000","lon":"-89.11860000"},{"name":"San Marcos","native":null,"lat":"14.38000000","lon":"-88.92000000"},{"name":"Santa Fe","native":null,"lat":"14.50038000","lon":"-89.27320000"},{"name":"Santa Lucía","native":null,"lat":"14.41667000","lon":"-89.20000000"},{"name":"Sensenti","native":null,"lat":"14.48333000","lon":"-88.93333000"},{"name":"Sinuapa","native":null,"lat":"14.45000000","lon":"-89.18333000"},{"name":"Yaruchel","native":null,"lat":"14.53333000","lon":"-88.81667000"}]},{"name":"Olancho Department","native":null,"cities":[{"name":"Arimís","native":null,"lat":"14.78333000","lon":"-86.00000000"},{"name":"Campamento","native":null,"lat":"14.55000000","lon":"-86.65000000"},{"name":"Catacamas","native":null,"lat":"14.60384000","lon":"-85.54261000"},{"name":"Concordia","native":null,"lat":"14.61667000","lon":"-86.65000000"},{"name":"Dulce Nombre de Culmí","native":null,"lat":"15.10000000","lon":"-85.53333000"},{"name":"El Guayabito","native":null,"lat":"14.83333000","lon":"-86.03333000"},{"name":"El Rosario","native":null,"lat":"14.88720000","lon":"-86.68764000"},{"name":"El Rusio","native":null,"lat":"14.46667000","lon":"-86.36667000"},{"name":"Esquipulas del Norte","native":null,"lat":"15.27763000","lon":"-86.55760000"},{"name":"Gualaco","native":null,"lat":"15.02521000","lon":"-86.07076000"},{"name":"Guarizama","native":null,"lat":"14.91667000","lon":"-86.33333000"},{"name":"Guata","native":null,"lat":"15.15133000","lon":"-86.37624000"},{"name":"Guayape","native":null,"lat":"14.71667000","lon":"-86.83333000"},{"name":"Jano","native":null,"lat":"15.07902000","lon":"-86.51521000"},{"name":"Juticalpa","native":null,"lat":"14.66667000","lon":"-86.21944000"},{"name":"Jutiquile","native":null,"lat":"14.71667000","lon":"-86.08333000"},{"name":"La Concepción","native":null,"lat":"14.70000000","lon":"-86.23333000"},{"name":"La Estancia","native":null,"lat":"15.05000000","lon":"-86.35000000"},{"name":"La Guata","native":null,"lat":"15.08333000","lon":"-86.38333000"},{"name":"La Unión","native":null,"lat":"15.09759000","lon":"-86.68910000"},{"name":"Laguna Seca","native":null,"lat":"14.70000000","lon":"-86.10000000"},{"name":"Mangulile","native":null,"lat":"15.06667000","lon":"-86.80000000"},{"name":"Manto","native":null,"lat":"14.91667000","lon":"-86.38333000"},{"name":"Municipio de San Francisco de La Paz","native":null,"lat":"14.84183000","lon":"-86.11819000"},{"name":"Patuca","native":null,"lat":"14.36000000","lon":"-85.97000000"},{"name":"Punuare","native":null,"lat":"14.73333000","lon":"-85.96667000"},{"name":"Salamá","native":null,"lat":"14.81052000","lon":"-86.61996000"},{"name":"San Esteban","native":null,"lat":"15.29467000","lon":"-85.69487000"},{"name":"San Francisco de Becerra","native":null,"lat":"14.63333000","lon":"-86.10000000"},{"name":"San Francisco de la Paz","native":null,"lat":"14.90000000","lon":"-86.20000000"},{"name":"San José de Río Tinto","native":null,"lat":"14.93333000","lon":"-85.70000000"},{"name":"San Nicolás","native":null,"lat":"14.55000000","lon":"-86.25000000"},{"name":"Santa María del Real","native":null,"lat":"14.76667000","lon":"-85.95000000"},{"name":"Silca","native":null,"lat":"14.76205000","lon":"-86.51521000"},{"name":"Yocón","native":null,"lat":"14.95000000","lon":"-86.82000000"},{"name":"Zopilotepe","native":null,"lat":"14.60000000","lon":"-86.26667000"}]},{"name":"Santa Bárbara Department","native":null,"cities":[{"name":"Agualote","native":null,"lat":"15.33528000","lon":"-88.55306000"},{"name":"Arada","native":null,"lat":"14.85000000","lon":"-88.30000000"},{"name":"Atima","native":null,"lat":"14.93333000","lon":"-88.48333000"},{"name":"Azacualpa","native":null,"lat":"14.71667000","lon":"-88.10000000"},{"name":"Berlín","native":null,"lat":"14.83333000","lon":"-88.50000000"},{"name":"Callejones","native":null,"lat":"15.16667000","lon":"-88.65000000"},{"name":"Camalote","native":null,"lat":"15.33333000","lon":"-88.33333000"},{"name":"Casa Quemada","native":null,"lat":"15.26667000","lon":"-88.55000000"},{"name":"Ceguaca","native":null,"lat":"14.80000000","lon":"-88.20000000"},{"name":"Chinda","native":null,"lat":"15.11667000","lon":"-88.20000000"},{"name":"Concepción del Norte","native":null,"lat":"15.20227000","lon":"-88.13728000"},{"name":"Concepción del Sur","native":null,"lat":"14.81263000","lon":"-88.15316000"},{"name":"Correderos","native":null,"lat":"15.41667000","lon":"-88.45000000"},{"name":"El Ciruelo","native":null,"lat":"15.30000000","lon":"-88.50000000"},{"name":"El Corozal","native":null,"lat":"15.06667000","lon":"-88.61667000"},{"name":"El Mochito","native":null,"lat":"14.86667000","lon":"-88.08333000"},{"name":"El Níspero","native":null,"lat":"14.75957000","lon":"-88.34438000"},{"name":"Guacamaya","native":null,"lat":"15.01667000","lon":"-88.15000000"},{"name":"Gualala","native":null,"lat":"14.98000000","lon":"-88.17000000"},{"name":"Gualjoco","native":null,"lat":"14.95000000","lon":"-88.23333000"},{"name":"Ilama","native":null,"lat":"15.06667000","lon":"-88.21667000"},{"name":"Joconal","native":null,"lat":"15.35444000","lon":"-88.63556000"},{"name":"La Flecha","native":null,"lat":"15.28333000","lon":"-88.48333000"},{"name":"Laguna Verde","native":null,"lat":"15.20000000","lon":"-88.16667000"},{"name":"Las Vegas","native":null,"lat":"14.86636000","lon":"-88.07233000"},{"name":"Las Vegas Santa Barbara","native":null,"lat":"14.87649000","lon":"-88.07473000"},{"name":"Loma Alta","native":null,"lat":"15.39667000","lon":"-88.55972000"},{"name":"Macuelizo","native":null,"lat":"15.26000000","lon":"-88.66000000"},{"name":"Naco","native":null,"lat":"15.38333000","lon":"-88.18333000"},{"name":"Naranjito","native":null,"lat":"14.95000000","lon":"-88.68333000"},{"name":"Nueva Frontera","native":null,"lat":"15.21000000","lon":"-88.56000000"},{"name":"Nueva Jalapa","native":null,"lat":"14.91667000","lon":"-88.33333000"},{"name":"Nuevo Celilac","native":null,"lat":"14.97554000","lon":"-88.36726000"},{"name":"Petoa","native":null,"lat":"15.26667000","lon":"-88.28333000"},{"name":"Pinalejo","native":null,"lat":"15.38333000","lon":"-88.40000000"},{"name":"Protección","native":null,"lat":"15.03333000","lon":"-88.65000000"},{"name":"Quimistán","native":null,"lat":"15.35000000","lon":"-88.40000000"},{"name":"San Francisco de Ojuera","native":null,"lat":"14.67000000","lon":"-88.21000000"},{"name":"San José de Colinas","native":null,"lat":"15.03333000","lon":"-88.30000000"},{"name":"San José de Tarros","native":null,"lat":"15.30000000","lon":"-88.70000000"},{"name":"San Luis","native":null,"lat":"15.08333000","lon":"-88.38333000"},{"name":"San Luis de Planes","native":null,"lat":"14.98333000","lon":"-88.13333000"},{"name":"San Marcos","native":null,"lat":"15.30000000","lon":"-88.41667000"},{"name":"San Nicolás","native":null,"lat":"14.91913000","lon":"-88.37910000"},{"name":"San Pedro Zacapa","native":null,"lat":"14.75000000","lon":"-88.11667000"},{"name":"San Vicente Centenario","native":null,"lat":"14.88333000","lon":"-88.28333000"},{"name":"Santa Bárbara","native":null,"lat":"14.91944000","lon":"-88.23611000"},{"name":"Santa Rita","native":null,"lat":"14.76015000","lon":"-88.26782000"},{"name":"Sula","native":null,"lat":"15.25000000","lon":"-88.56667000"},{"name":"Tras Cerros","native":null,"lat":"15.30000000","lon":"-88.66667000"},{"name":"Trinidad","native":null,"lat":"15.13333000","lon":"-88.23333000"}]},{"name":"Valle Department","native":null,"cities":[{"name":"Agua Fría","native":null,"lat":"13.46889000","lon":"-87.55111000"},{"name":"Alianza","native":null,"lat":"13.44815000","lon":"-87.68643000"},{"name":"Amapala","native":null,"lat":"13.29222000","lon":"-87.65389000"},{"name":"Aramecina","native":null,"lat":"13.74222000","lon":"-87.71028000"},{"name":"Caridad","native":null,"lat":"13.81562000","lon":"-87.68121000"},{"name":"El Cubolero","native":null,"lat":"13.46667000","lon":"-87.66667000"},{"name":"El Tular","native":null,"lat":"13.46639000","lon":"-87.51528000"},{"name":"Goascorán","native":null,"lat":"13.58333000","lon":"-87.61667000"},{"name":"Jícaro Galán","native":null,"lat":"13.53167000","lon":"-87.43889000"},{"name":"La Alianza","native":null,"lat":"13.51222000","lon":"-87.72444000"},{"name":"La Criba","native":null,"lat":"13.45361000","lon":"-87.41333000"},{"name":"Langue","native":null,"lat":"13.62083000","lon":"-87.65250000"},{"name":"Nacaome","native":null,"lat":"13.52209000","lon":"-87.52477000"},{"name":"San Francisco de Coray","native":null,"lat":"13.66139000","lon":"-87.53278000"},{"name":"San Lorenzo","native":null,"lat":"13.45149000","lon":"-87.40743000"}]},{"name":"Yoro Department","native":null,"cities":[{"name":"Agua Blanca Sur","native":null,"lat":"15.25000000","lon":"-87.88333000"},{"name":"Arenal","native":null,"lat":"15.35000000","lon":"-86.83333000"},{"name":"Armenia","native":null,"lat":"15.46667000","lon":"-86.36667000"},{"name":"Ayapa","native":null,"lat":"15.11174000","lon":"-87.17557000"},{"name":"Bálsamo Oriental","native":null,"lat":"15.48333000","lon":"-86.33333000"},{"name":"Carbajales","native":null,"lat":"15.51667000","lon":"-86.35000000"},{"name":"Coyoles Central","native":null,"lat":"15.40000000","lon":"-86.66667000"},{"name":"El Bálsamo","native":null,"lat":"15.06667000","lon":"-87.46667000"},{"name":"El Juncal","native":null,"lat":"15.45000000","lon":"-86.43333000"},{"name":"El Negrito","native":null,"lat":"15.31667000","lon":"-87.70000000"},{"name":"El Ocote","native":null,"lat":"15.41667000","lon":"-86.56667000"},{"name":"El Progreso","native":null,"lat":"15.42762000","lon":"-87.77396000"},{"name":"Guaimitas","native":null,"lat":"15.50000000","lon":"-87.71667000"},{"name":"Jocón","native":null,"lat":"15.28333000","lon":"-86.96667000"},{"name":"La Estancia","native":null,"lat":"15.28333000","lon":"-87.55000000"},{"name":"La Guacamaya","native":null,"lat":"15.25000000","lon":"-87.80000000"},{"name":"La Mina","native":null,"lat":"15.31667000","lon":"-87.83333000"},{"name":"La Rosa","native":null,"lat":"15.35000000","lon":"-87.06667000"},{"name":"La Sarrosa","native":null,"lat":"15.23333000","lon":"-87.83333000"},{"name":"La Trinidad","native":null,"lat":"15.10000000","lon":"-87.20000000"},{"name":"Las Vegas","native":null,"lat":"15.01667000","lon":"-87.45000000"},{"name":"Lomitas","native":null,"lat":"15.10000000","lon":"-87.21667000"},{"name":"Mojimán","native":null,"lat":"15.26667000","lon":"-87.60000000"},{"name":"Morazán","native":null,"lat":"15.31667000","lon":"-87.60000000"},{"name":"Nombre de Jesús","native":null,"lat":"15.35000000","lon":"-86.68333000"},{"name":"Nueva Esperanza","native":null,"lat":"15.26667000","lon":"-87.60000000"},{"name":"Ocote Paulino","native":null,"lat":"15.41667000","lon":"-87.60000000"},{"name":"Olanchito","native":null,"lat":"15.48131000","lon":"-86.57415000"},{"name":"Paujiles","native":null,"lat":"15.10000000","lon":"-87.35000000"},{"name":"Punta Ocote","native":null,"lat":"15.20000000","lon":"-87.28333000"},{"name":"San Antonio","native":null,"lat":"15.33333000","lon":"-87.15000000"},{"name":"San José","native":null,"lat":"15.31667000","lon":"-87.16667000"},{"name":"Santa Rita","native":null,"lat":"15.18000000","lon":"-87.81000000"},{"name":"Subirana","native":null,"lat":"15.20000000","lon":"-87.45000000"},{"name":"Sulaco","native":null,"lat":"14.91667000","lon":"-87.26667000"},{"name":"Teguajinal","native":null,"lat":"15.36667000","lon":"-86.60000000"},{"name":"Tepusteca","native":null,"lat":"15.41667000","lon":"-86.31667000"},{"name":"Toyós","native":null,"lat":"15.55000000","lon":"-87.65000000"},{"name":"Trojas","native":null,"lat":"15.35000000","lon":"-86.70000000"},{"name":"Victoria","native":null,"lat":"15.10012000","lon":"-87.53020000"},{"name":"Yorito","native":null,"lat":"15.06667000","lon":"-87.28333000"},{"name":"Yoro","native":null,"lat":"15.13750000","lon":"-87.12778000"}]}]