[{"id":4123,"name":"Artibonite","native":null,"cities":[{"id":55046,"name":"Anse Rouge","native":null,"lat":"19.63382000","lon":"-73.05530000"},{"id":55064,"name":"Arrondissement de Saint-Marc","native":null,"lat":"19.00000000","lon":"-72.50000000"},{"id":55094,"name":"Désarmes","native":null,"lat":"18.99345000","lon":"-72.39058000"},{"id":55091,"name":"Dessalines","native":null,"lat":"19.26177000","lon":"-72.51611000"},{"id":55095,"name":"Ennery","native":null,"lat":"19.48342000","lon":"-72.48537000"},{"id":55102,"name":"Gonaïves","native":null,"lat":"19.44755000","lon":"-72.68928000"},{"id":55104,"name":"Grande Saline","native":null,"lat":"19.26513000","lon":"-72.76897000"},{"id":55107,"name":"Gros Morne","native":null,"lat":"19.67080000","lon":"-72.67808000"},{"id":55126,"name":"Marmelade","native":null,"lat":"19.51736000","lon":"-72.36133000"},{"id":55155,"name":"Saint-Marc","native":null,"lat":"19.10819000","lon":"-72.69379000"},{"id":55166,"name":"Verrettes","native":null,"lat":"19.05050000","lon":"-72.46585000"}]},{"id":4125,"name":"Centre","native":null,"cities":[{"id":55054,"name":"Arrondissement de Cerca La Source","native":null,"lat":"19.11667000","lon":"-71.75000000"},{"id":55082,"name":"Cerca la Source","native":null,"lat":"19.16696000","lon":"-71.79015000"},{"id":55108,"name":"Hinche","native":null,"lat":"19.15000000","lon":"-72.01667000"},{"id":55117,"name":"Lascahobas","native":null,"lat":"18.83047000","lon":"-71.93563000"},{"id":55127,"name":"Mayisad","native":null,"lat":"19.17607000","lon":"-72.13958000"},{"id":55130,"name":"Mirebalais","native":null,"lat":"18.83455000","lon":"-72.10480000"},{"id":55158,"name":"Thomassique","native":null,"lat":"19.08209000","lon":"-71.83855000"},{"id":55160,"name":"Thomonde","native":null,"lat":"19.01730000","lon":"-71.96235000"}]},{"id":4119,"name":"Grand'Anse","native":null,"cities":[{"id":55049,"name":"Anse-à-Veau","native":null,"lat":"18.50110000","lon":"-73.34490000"},{"id":55083,"name":"Chambellan","native":null,"lat":"18.55037000","lon":"-74.31317000"},{"id":55086,"name":"Corail","native":null,"lat":"18.56766000","lon":"-73.88942000"},{"id":55089,"name":"Dame-Marie","native":null,"lat":"18.56107000","lon":"-74.42167000"},{"id":55111,"name":"Jeremi","native":null,"lat":"18.58333000","lon":"-74.20000000"},{"id":55112,"name":"Jérémie","native":null,"lat":"18.65000000","lon":"-74.11667000"},{"id":55119,"name":"Les Abricots","native":null,"lat":"18.64901000","lon":"-74.30786000"},{"id":55122,"name":"Les Irois","native":null,"lat":"18.40490000","lon":"-74.45280000"},{"id":55132,"name":"Moron","native":null,"lat":"18.56039000","lon":"-74.25777000"},{"id":55139,"name":"Petite Rivière de Nippes","native":null,"lat":"18.47611000","lon":"-73.23495000"}]},{"id":4118,"name":"Nippes","native":null,"cities":[{"id":55045,"name":"Ansavo","native":null,"lat":"18.41667000","lon":"-73.50000000"},{"id":55072,"name":"Baradères","native":null,"lat":"18.48255000","lon":"-73.63884000"},{"id":55129,"name":"Miragoâne","native":null,"lat":"18.44599000","lon":"-73.08957000"},{"id":55137,"name":"Petit Trou de Nippes","native":null,"lat":"18.52535000","lon":"-73.50815000"}]},{"id":4117,"name":"Nord","native":null,"cities":[{"id":55044,"name":"Acul du Nord","native":null,"lat":"19.66667000","lon":"-72.28333000"},{"id":55065,"name":"Arrondissement de la Grande Rivière du Nord","native":null,"lat":"19.51667000","lon":"-72.16667000"},{"id":55059,"name":"Arrondissement de Plaisance","native":null,"lat":"19.66756000","lon":"-72.54908000"},{"id":55067,"name":"Arrondissement du Borgne","native":null,"lat":"19.75000000","lon":"-72.50000000"},{"id":55070,"name":"Bahon","native":null,"lat":"19.46959000","lon":"-72.11466000"},{"id":55075,"name":"Borgne","native":null,"lat":"19.84507000","lon":"-72.52349000"},{"id":55092,"name":"Dondon","native":null,"lat":"19.52734000","lon":"-72.24337000"},{"id":55103,"name":"Grande Rivière du Nord","native":null,"lat":"19.57744000","lon":"-72.16872000"},{"id":55118,"name":"Lenbe","native":null,"lat":"19.70603000","lon":"-72.40336000"},{"id":55123,"name":"Limonade","native":null,"lat":"19.67014000","lon":"-72.12430000"},{"id":55128,"name":"Milot","native":null,"lat":"19.60837000","lon":"-72.21319000"},{"id":55134,"name":"Okap","native":null,"lat":"19.75938000","lon":"-72.19815000"},{"id":55141,"name":"Pignon","native":null,"lat":"19.33594000","lon":"-72.11662000"},{"id":55142,"name":"Pilate","native":null,"lat":"19.66745000","lon":"-72.55229000"},{"id":55143,"name":"Plaine du Nord","native":null,"lat":"19.67707000","lon":"-72.26969000"},{"id":55144,"name":"Plaisance","native":null,"lat":"19.59795000","lon":"-72.46994000"},{"id":55145,"name":"Port-Margot","native":null,"lat":"19.75180000","lon":"-72.43006000"},{"id":55150,"name":"Quartier Morin","native":null,"lat":"19.69696000","lon":"-72.15712000"},{"id":55151,"name":"Ranquitte","native":null,"lat":"19.41327000","lon":"-72.08077000"},{"id":55156,"name":"Saint-Raphaël","native":null,"lat":"19.43877000","lon":"-72.19910000"}]},{"id":4121,"name":"Nord-Est","native":null,"cities":[{"id":55056,"name":"Arrondissement de Fort Liberté","native":null,"lat":"19.56667000","lon":"-71.83333000"},{"id":55069,"name":"Arrondissement du Trou du Nord","native":null,"lat":"19.55000000","lon":"-71.98333000"},{"id":55077,"name":"Caracol","native":null,"lat":"19.69274000","lon":"-72.01733000"},{"id":55078,"name":"Carice","native":null,"lat":"19.37795000","lon":"-71.83030000"},{"id":55093,"name":"Dérac","native":null,"lat":"19.65476000","lon":"-71.81451000"},{"id":55096,"name":"Ferrier","native":null,"lat":"19.61549000","lon":"-71.77792000"},{"id":55101,"name":"Fort Liberté","native":null,"lat":"19.66273000","lon":"-71.83798000"},{"id":55131,"name":"Montòrganize","native":null,"lat":"19.40815000","lon":"-71.78132000"},{"id":55135,"name":"Ouanaminthe","native":null,"lat":"19.54934000","lon":"-71.72475000"},{"id":55136,"name":"Perches","native":null,"lat":"19.52201000","lon":"-71.92323000"},{"id":55140,"name":"Phaëton","native":null,"lat":"19.67525000","lon":"-71.89691000"},{"id":55165,"name":"Trou du Nord","native":null,"lat":"19.61668000","lon":"-72.02442000"},{"id":55167,"name":"Wanament","native":null,"lat":"19.48333000","lon":"-71.76667000"}]},{"id":4126,"name":"Nord-Ouest","native":null,"cities":[{"id":55051,"name":"Arcahaie","native":null,"lat":"19.81667000","lon":"-72.91667000"},{"id":55062,"name":"Arrondissement de Port-de-Paix","native":null,"lat":"19.83333000","lon":"-72.88333000"},{"id":55063,"name":"Arrondissement de Saint-Louis du Nord","native":null,"lat":"19.85000000","lon":"-72.66667000"},{"id":55068,"name":"Arrondissement du Môle Saint-Nicolas","native":null,"lat":"19.75000000","lon":"-73.25000000"},{"id":55071,"name":"Baie de Henne","native":null,"lat":"19.66307000","lon":"-73.20943000"},{"id":55074,"name":"Bombardopolis","native":null,"lat":"19.69142000","lon":"-73.33769000"},{"id":55097,"name":"Fond Bassin Bleu","native":null,"lat":"19.79445000","lon":"-72.79949000"},{"id":55110,"name":"Jean-Rabel","native":null,"lat":"19.85379000","lon":"-73.19131000"},{"id":55133,"name":"Môle Saint-Nicolas","native":null,"lat":"19.80700000","lon":"-73.37605000"},{"id":55138,"name":"Petite Anse","native":null,"lat":"19.63011000","lon":"-73.15499000"},{"id":55147,"name":"Port-de-Paix","native":null,"lat":"19.93984000","lon":"-72.83037000"},{"id":55153,"name":"Saint-Louis du Nord","native":null,"lat":"19.93397000","lon":"-72.72138000"},{"id":55161,"name":"Ti Port-de-Paix","native":null,"lat":"19.93333000","lon":"-72.83333000"}]},{"id":4120,"name":"Ouest","native":null,"cities":[{"id":55047,"name":"Anse à Galets","native":null,"lat":"18.83449000","lon":"-72.86644000"},{"id":55052,"name":"Arcahaie","native":null,"lat":"18.83333000","lon":"-72.41667000"},{"id":55055,"name":"Arrondissement de Croix des Bouquets","native":null,"lat":"18.48333000","lon":"-72.01667000"},{"id":55058,"name":"Arrondissement de Léogâne","native":null,"lat":"18.41667000","lon":"-72.75000000"},{"id":55061,"name":"Arrondissement de Port-au-Prince","native":null,"lat":"18.50000000","lon":"-72.36667000"},{"id":55076,"name":"Cabaret","native":null,"lat":"18.73582000","lon":"-72.41929000"},{"id":55079,"name":"Carrefour","native":null,"lat":"18.54114000","lon":"-72.39922000"},{"id":55087,"name":"Cornillon","native":null,"lat":"18.67546000","lon":"-71.95271000"},{"id":55088,"name":"Croix-des-Bouquets","native":null,"lat":"18.57677000","lon":"-72.22625000"},{"id":55090,"name":"Delmas 73","native":null,"lat":"18.54472000","lon":"-72.30278000"},{"id":55098,"name":"Fond Parisien","native":null,"lat":"18.50547000","lon":"-71.98122000"},{"id":55100,"name":"Fonds Verrettes","native":null,"lat":"18.39566000","lon":"-71.85634000"},{"id":55105,"name":"Grangwav","native":null,"lat":"18.42590000","lon":"-72.76995000"},{"id":55106,"name":"Gressier","native":null,"lat":"18.54091000","lon":"-72.52679000"},{"id":55113,"name":"Kenscoff","native":null,"lat":"18.44773000","lon":"-72.28398000"},{"id":55116,"name":"Lagonav","native":null,"lat":"18.85000000","lon":"-73.05000000"},{"id":55124,"name":"Léogâne","native":null,"lat":"18.51110000","lon":"-72.63343000"},{"id":55149,"name":"Pétionville","native":null,"lat":"18.51250000","lon":"-72.28528000"},{"id":55146,"name":"Port-au-Prince","native":null,"lat":"18.54349000","lon":"-72.33881000"},{"id":55159,"name":"Thomazeau","native":null,"lat":"18.65297000","lon":"-72.09391000"},{"id":55163,"name":"Tigwav","native":null,"lat":"18.43117000","lon":"-72.86521000"}]},{"id":4122,"name":"Sud","native":null,"cities":[{"id":55050,"name":"Aquin","native":null,"lat":"18.27974000","lon":"-73.39433000"},{"id":55060,"name":"Arrondissement de Port-Salut","native":null,"lat":"18.13333000","lon":"-73.90000000"},{"id":55066,"name":"Arrondissement des Cayes","native":null,"lat":"18.30000000","lon":"-73.83333000"},{"id":55080,"name":"Cavaillon","native":null,"lat":"18.29987000","lon":"-73.65455000"},{"id":55084,"name":"Chantal","native":null,"lat":"18.20169000","lon":"-73.88957000"},{"id":55085,"name":"Chardonnière","native":null,"lat":"18.27484000","lon":"-74.16613000"},{"id":55099,"name":"Fond des Blancs","native":null,"lat":"18.27782000","lon":"-73.12733000"},{"id":55115,"name":"Koto","native":null,"lat":"18.20601000","lon":"-74.04013000"},{"id":55120,"name":"Les Anglais","native":null,"lat":"18.30540000","lon":"-74.21968000"},{"id":55121,"name":"Les Cayes","native":null,"lat":"18.19331000","lon":"-73.74601000"},{"id":55148,"name":"Port-à-Piment","native":null,"lat":"18.24963000","lon":"-74.09710000"},{"id":55152,"name":"Roche-à-Bateau","native":null,"lat":"18.18182000","lon":"-74.00345000"},{"id":55154,"name":"Saint-Louis du Sud","native":null,"lat":"18.26241000","lon":"-73.54603000"},{"id":55162,"name":"Tiburon","native":null,"lat":"18.32589000","lon":"-74.39598000"},{"id":55164,"name":"Torbeck","native":null,"lat":"18.16338000","lon":"-73.80949000"}]},{"id":4124,"name":"Sud-Est","native":null,"cities":[{"id":55048,"name":"Anse-à-Pitre","native":null,"lat":"18.05000000","lon":"-71.75000000"},{"id":55053,"name":"Arrondissement de Bainet","native":null,"lat":"18.25000000","lon":"-72.85000000"},{"id":55057,"name":"Arrondissement de Jacmel","native":null,"lat":"18.33333000","lon":"-72.50000000"},{"id":55073,"name":"Belle-Anse","native":null,"lat":"18.23768000","lon":"-72.06638000"},{"id":55081,"name":"Cayes-Jacmel","native":null,"lat":"18.23110000","lon":"-72.39545000"},{"id":55109,"name":"Jacmel","native":null,"lat":"18.23427000","lon":"-72.53539000"},{"id":55114,"name":"Kotdefè","native":null,"lat":"18.18872000","lon":"-73.00287000"},{"id":55125,"name":"Marigot","native":null,"lat":"18.23167000","lon":"-72.32289000"},{"id":55157,"name":"Thiotte","native":null,"lat":"18.24384000","lon":"-71.84157000"}]}]