[{"name":"Artibonite","native":null,"cities":[{"name":"Anse Rouge","native":null,"lat":"19.63382000","lon":"-73.05530000"},{"name":"Arrondissement de Saint-Marc","native":null,"lat":"19.00000000","lon":"-72.50000000"},{"name":"Désarmes","native":null,"lat":"18.99345000","lon":"-72.39058000"},{"name":"Dessalines","native":null,"lat":"19.26177000","lon":"-72.51611000"},{"name":"Ennery","native":null,"lat":"19.48342000","lon":"-72.48537000"},{"name":"Gonaïves","native":null,"lat":"19.44755000","lon":"-72.68928000"},{"name":"Grande Saline","native":null,"lat":"19.26513000","lon":"-72.76897000"},{"name":"Gros Morne","native":null,"lat":"19.67080000","lon":"-72.67808000"},{"name":"Marmelade","native":null,"lat":"19.51736000","lon":"-72.36133000"},{"name":"Saint-Marc","native":null,"lat":"19.10819000","lon":"-72.69379000"},{"name":"Verrettes","native":null,"lat":"19.05050000","lon":"-72.46585000"}]},{"name":"Centre","native":null,"cities":[{"name":"Arrondissement de Cerca La Source","native":null,"lat":"19.11667000","lon":"-71.75000000"},{"name":"Cerca la Source","native":null,"lat":"19.16696000","lon":"-71.79015000"},{"name":"Hinche","native":null,"lat":"19.15000000","lon":"-72.01667000"},{"name":"Lascahobas","native":null,"lat":"18.83047000","lon":"-71.93563000"},{"name":"Mayisad","native":null,"lat":"19.17607000","lon":"-72.13958000"},{"name":"Mirebalais","native":null,"lat":"18.83455000","lon":"-72.10480000"},{"name":"Thomassique","native":null,"lat":"19.08209000","lon":"-71.83855000"},{"name":"Thomonde","native":null,"lat":"19.01730000","lon":"-71.96235000"}]},{"name":"Grand'Anse","native":null,"cities":[{"name":"Anse-à-Veau","native":null,"lat":"18.50110000","lon":"-73.34490000"},{"name":"Chambellan","native":null,"lat":"18.55037000","lon":"-74.31317000"},{"name":"Corail","native":null,"lat":"18.56766000","lon":"-73.88942000"},{"name":"Dame-Marie","native":null,"lat":"18.56107000","lon":"-74.42167000"},{"name":"Jeremi","native":null,"lat":"18.58333000","lon":"-74.20000000"},{"name":"Jérémie","native":null,"lat":"18.65000000","lon":"-74.11667000"},{"name":"Les Abricots","native":null,"lat":"18.64901000","lon":"-74.30786000"},{"name":"Les Irois","native":null,"lat":"18.40490000","lon":"-74.45280000"},{"name":"Moron","native":null,"lat":"18.56039000","lon":"-74.25777000"},{"name":"Petite Rivière de Nippes","native":null,"lat":"18.47611000","lon":"-73.23495000"}]},{"name":"Nippes","native":null,"cities":[{"name":"Ansavo","native":null,"lat":"18.41667000","lon":"-73.50000000"},{"name":"Baradères","native":null,"lat":"18.48255000","lon":"-73.63884000"},{"name":"Miragoâne","native":null,"lat":"18.44599000","lon":"-73.08957000"},{"name":"Petit Trou de Nippes","native":null,"lat":"18.52535000","lon":"-73.50815000"}]},{"name":"Nord","native":null,"cities":[{"name":"Acul du Nord","native":null,"lat":"19.66667000","lon":"-72.28333000"},{"name":"Arrondissement de la Grande Rivière du Nord","native":null,"lat":"19.51667000","lon":"-72.16667000"},{"name":"Arrondissement de Plaisance","native":null,"lat":"19.66756000","lon":"-72.54908000"},{"name":"Arrondissement du Borgne","native":null,"lat":"19.75000000","lon":"-72.50000000"},{"name":"Bahon","native":null,"lat":"19.46959000","lon":"-72.11466000"},{"name":"Borgne","native":null,"lat":"19.84507000","lon":"-72.52349000"},{"name":"Dondon","native":null,"lat":"19.52734000","lon":"-72.24337000"},{"name":"Grande Rivière du Nord","native":null,"lat":"19.57744000","lon":"-72.16872000"},{"name":"Lenbe","native":null,"lat":"19.70603000","lon":"-72.40336000"},{"name":"Limonade","native":null,"lat":"19.67014000","lon":"-72.12430000"},{"name":"Milot","native":null,"lat":"19.60837000","lon":"-72.21319000"},{"name":"Okap","native":null,"lat":"19.75938000","lon":"-72.19815000"},{"name":"Pignon","native":null,"lat":"19.33594000","lon":"-72.11662000"},{"name":"Pilate","native":null,"lat":"19.66745000","lon":"-72.55229000"},{"name":"Plaine du Nord","native":null,"lat":"19.67707000","lon":"-72.26969000"},{"name":"Plaisance","native":null,"lat":"19.59795000","lon":"-72.46994000"},{"name":"Port-Margot","native":null,"lat":"19.75180000","lon":"-72.43006000"},{"name":"Quartier Morin","native":null,"lat":"19.69696000","lon":"-72.15712000"},{"name":"Ranquitte","native":null,"lat":"19.41327000","lon":"-72.08077000"},{"name":"Saint-Raphaël","native":null,"lat":"19.43877000","lon":"-72.19910000"}]},{"name":"Nord-Est","native":null,"cities":[{"name":"Arrondissement de Fort Liberté","native":null,"lat":"19.56667000","lon":"-71.83333000"},{"name":"Arrondissement du Trou du Nord","native":null,"lat":"19.55000000","lon":"-71.98333000"},{"name":"Caracol","native":null,"lat":"19.69274000","lon":"-72.01733000"},{"name":"Carice","native":null,"lat":"19.37795000","lon":"-71.83030000"},{"name":"Dérac","native":null,"lat":"19.65476000","lon":"-71.81451000"},{"name":"Ferrier","native":null,"lat":"19.61549000","lon":"-71.77792000"},{"name":"Fort Liberté","native":null,"lat":"19.66273000","lon":"-71.83798000"},{"name":"Montòrganize","native":null,"lat":"19.40815000","lon":"-71.78132000"},{"name":"Ouanaminthe","native":null,"lat":"19.54934000","lon":"-71.72475000"},{"name":"Perches","native":null,"lat":"19.52201000","lon":"-71.92323000"},{"name":"Phaëton","native":null,"lat":"19.67525000","lon":"-71.89691000"},{"name":"Trou du Nord","native":null,"lat":"19.61668000","lon":"-72.02442000"},{"name":"Wanament","native":null,"lat":"19.48333000","lon":"-71.76667000"}]},{"name":"Nord-Ouest","native":null,"cities":[{"name":"Arcahaie","native":null,"lat":"19.81667000","lon":"-72.91667000"},{"name":"Arrondissement de Port-de-Paix","native":null,"lat":"19.83333000","lon":"-72.88333000"},{"name":"Arrondissement de Saint-Louis du Nord","native":null,"lat":"19.85000000","lon":"-72.66667000"},{"name":"Arrondissement du Môle Saint-Nicolas","native":null,"lat":"19.75000000","lon":"-73.25000000"},{"name":"Baie de Henne","native":null,"lat":"19.66307000","lon":"-73.20943000"},{"name":"Bombardopolis","native":null,"lat":"19.69142000","lon":"-73.33769000"},{"name":"Fond Bassin Bleu","native":null,"lat":"19.79445000","lon":"-72.79949000"},{"name":"Jean-Rabel","native":null,"lat":"19.85379000","lon":"-73.19131000"},{"name":"Môle Saint-Nicolas","native":null,"lat":"19.80700000","lon":"-73.37605000"},{"name":"Petite Anse","native":null,"lat":"19.63011000","lon":"-73.15499000"},{"name":"Port-de-Paix","native":null,"lat":"19.93984000","lon":"-72.83037000"},{"name":"Saint-Louis du Nord","native":null,"lat":"19.93397000","lon":"-72.72138000"},{"name":"Ti Port-de-Paix","native":null,"lat":"19.93333000","lon":"-72.83333000"}]},{"name":"Ouest","native":null,"cities":[{"name":"Anse à Galets","native":null,"lat":"18.83449000","lon":"-72.86644000"},{"name":"Arcahaie","native":null,"lat":"18.83333000","lon":"-72.41667000"},{"name":"Arrondissement de Croix des Bouquets","native":null,"lat":"18.48333000","lon":"-72.01667000"},{"name":"Arrondissement de Léogâne","native":null,"lat":"18.41667000","lon":"-72.75000000"},{"name":"Arrondissement de Port-au-Prince","native":null,"lat":"18.50000000","lon":"-72.36667000"},{"name":"Cabaret","native":null,"lat":"18.73582000","lon":"-72.41929000"},{"name":"Carrefour","native":null,"lat":"18.54114000","lon":"-72.39922000"},{"name":"Cornillon","native":null,"lat":"18.67546000","lon":"-71.95271000"},{"name":"Croix-des-Bouquets","native":null,"lat":"18.57677000","lon":"-72.22625000"},{"name":"Delmas 73","native":null,"lat":"18.54472000","lon":"-72.30278000"},{"name":"Fond Parisien","native":null,"lat":"18.50547000","lon":"-71.98122000"},{"name":"Fonds Verrettes","native":null,"lat":"18.39566000","lon":"-71.85634000"},{"name":"Grangwav","native":null,"lat":"18.42590000","lon":"-72.76995000"},{"name":"Gressier","native":null,"lat":"18.54091000","lon":"-72.52679000"},{"name":"Kenscoff","native":null,"lat":"18.44773000","lon":"-72.28398000"},{"name":"Lagonav","native":null,"lat":"18.85000000","lon":"-73.05000000"},{"name":"Léogâne","native":null,"lat":"18.51110000","lon":"-72.63343000"},{"name":"Pétionville","native":null,"lat":"18.51250000","lon":"-72.28528000"},{"name":"Port-au-Prince","native":null,"lat":"18.54349000","lon":"-72.33881000"},{"name":"Thomazeau","native":null,"lat":"18.65297000","lon":"-72.09391000"},{"name":"Tigwav","native":null,"lat":"18.43117000","lon":"-72.86521000"}]},{"name":"Sud","native":null,"cities":[{"name":"Aquin","native":null,"lat":"18.27974000","lon":"-73.39433000"},{"name":"Arrondissement de Port-Salut","native":null,"lat":"18.13333000","lon":"-73.90000000"},{"name":"Arrondissement des Cayes","native":null,"lat":"18.30000000","lon":"-73.83333000"},{"name":"Cavaillon","native":null,"lat":"18.29987000","lon":"-73.65455000"},{"name":"Chantal","native":null,"lat":"18.20169000","lon":"-73.88957000"},{"name":"Chardonnière","native":null,"lat":"18.27484000","lon":"-74.16613000"},{"name":"Fond des Blancs","native":null,"lat":"18.27782000","lon":"-73.12733000"},{"name":"Koto","native":null,"lat":"18.20601000","lon":"-74.04013000"},{"name":"Les Anglais","native":null,"lat":"18.30540000","lon":"-74.21968000"},{"name":"Les Cayes","native":null,"lat":"18.19331000","lon":"-73.74601000"},{"name":"Port-à-Piment","native":null,"lat":"18.24963000","lon":"-74.09710000"},{"name":"Roche-à-Bateau","native":null,"lat":"18.18182000","lon":"-74.00345000"},{"name":"Saint-Louis du Sud","native":null,"lat":"18.26241000","lon":"-73.54603000"},{"name":"Tiburon","native":null,"lat":"18.32589000","lon":"-74.39598000"},{"name":"Torbeck","native":null,"lat":"18.16338000","lon":"-73.80949000"}]},{"name":"Sud-Est","native":null,"cities":[{"name":"Anse-à-Pitre","native":null,"lat":"18.05000000","lon":"-71.75000000"},{"name":"Arrondissement de Bainet","native":null,"lat":"18.25000000","lon":"-72.85000000"},{"name":"Arrondissement de Jacmel","native":null,"lat":"18.33333000","lon":"-72.50000000"},{"name":"Belle-Anse","native":null,"lat":"18.23768000","lon":"-72.06638000"},{"name":"Cayes-Jacmel","native":null,"lat":"18.23110000","lon":"-72.39545000"},{"name":"Jacmel","native":null,"lat":"18.23427000","lon":"-72.53539000"},{"name":"Kotdefè","native":null,"lat":"18.18872000","lon":"-73.00287000"},{"name":"Marigot","native":null,"lat":"18.23167000","lon":"-72.32289000"},{"name":"Thiotte","native":null,"lat":"18.24384000","lon":"-71.84157000"}]}]