[{"id":4023,"name":"Andaman and Nicobar Islands","native":null,"cities":[{"id":57837,"name":"Bamboo Flat","native":null,"lat":"11.70000000","lon":"92.71667000"},{"id":133213,"name":"Nicobar","native":null,"lat":"7.03002000","lon":"93.79028000"},{"id":133482,"name":"Port Blair","native":null,"lat":"11.66613000","lon":"92.74635000"},{"id":134006,"name":"South Andaman","native":null,"lat":"10.75776000","lon":"92.52136000"}]},{"id":4017,"name":"Andhra Pradesh","native":null,"cities":[{"id":57593,"name":"Addanki","native":null,"lat":"15.81061000","lon":"79.97338000"},{"id":134452,"name":"Adoni","native":null,"lat":"15.62788000","lon":"77.27495000"},{"id":57620,"name":"Akasahebpet","native":null,"lat":"17.50455000","lon":"82.56597000"},{"id":57623,"name":"Akividu","native":null,"lat":"16.58225000","lon":"81.38112000"},{"id":57624,"name":"Akkarampalle","native":null,"lat":"13.65000000","lon":"79.42000000"},{"id":57658,"name":"Amalapuram","native":null,"lat":"16.57868000","lon":"82.00609000"},{"id":57690,"name":"Amudalavalasa","native":null,"lat":"18.41025000","lon":"83.90295000"},{"id":57693,"name":"Anakapalle","native":null,"lat":"17.69134000","lon":"83.00395000"},{"id":57698,"name":"Anantapur","native":null,"lat":"14.55000000","lon":"77.41667000"},{"id":57758,"name":"Atmakur","native":null,"lat":"15.88109000","lon":"78.58704000"},{"id":57761,"name":"Attili","native":null,"lat":"16.70000000","lon":"81.60000000"},{"id":57771,"name":"Avanigadda","native":null,"lat":"16.02148000","lon":"80.91808000"},{"id":57794,"name":"Badvel","native":null,"lat":"14.74510000","lon":"79.06288000"},{"id":57849,"name":"Banganapalle","native":null,"lat":"15.31771000","lon":"78.22669000"},{"id":58137,"name":"Bapatla","native":null,"lat":"15.90422000","lon":"80.46743000"},{"id":57939,"name":"Betamcherla","native":null,"lat":"15.45144000","lon":"78.14797000"},{"id":57971,"name":"Bhattiprolu","native":null,"lat":"16.10260000","lon":"80.78074000"},{"id":58021,"name":"Bhimavaram","native":null,"lat":"16.54078000","lon":"81.52322000"},{"id":58022,"name":"Bhimunipatnam","native":null,"lat":"17.89017000","lon":"83.45203000"},{"id":58070,"name":"Bobbili","native":null,"lat":"18.57366000","lon":"83.35925000"},{"id":58179,"name":"Challapalle","native":null,"lat":"16.11756000","lon":"80.93139000"},{"id":131514,"name":"Chemmumiahpet","native":null,"lat":"15.89794000","lon":"79.32129000"},{"id":131556,"name":"Chilakalurupet","native":null,"lat":"16.08987000","lon":"80.16705000"},{"id":131563,"name":"Chinnachowk","native":null,"lat":"14.47516000","lon":"78.83540000"},{"id":131611,"name":"Chipurupalle","native":null,"lat":"18.31142000","lon":"83.56846000"},{"id":131612,"name":"Chirala","native":null,"lat":"15.82385000","lon":"80.35219000"},{"id":131575,"name":"Chittoor","native":null,"lat":"13.41667000","lon":"79.00000000"},{"id":131577,"name":"Chodavaram","native":null,"lat":"17.82884000","lon":"82.93526000"},{"id":131627,"name":"Cuddapah","native":null,"lat":"14.41667000","lon":"78.75000000"},{"id":131628,"name":"Cumbum","native":null,"lat":"15.58171000","lon":"79.11059000"},{"id":131658,"name":"Darsi","native":null,"lat":"15.76978000","lon":"79.67939000"},{"id":131727,"name":"Dharmavaram","native":null,"lat":"14.41435000","lon":"77.72035000"},{"id":131740,"name":"Dhone","native":null,"lat":"15.39520000","lon":"77.87150000"},{"id":131769,"name":"Diguvametta","native":null,"lat":"15.39507000","lon":"78.82930000"},{"id":131823,"name":"East Godavari","native":null,"lat":"17.83333000","lon":"81.83333000"},{"id":131830,"name":"Elamanchili","native":null,"lat":"17.54907000","lon":"82.85749000"},{"id":131832,"name":"Ellore","native":null,"lat":"16.71311000","lon":"81.10437000"},{"id":131836,"name":"Emmiganur","native":null,"lat":"15.77203000","lon":"77.48345000"},{"id":131842,"name":"Erraguntla","native":null,"lat":"14.63853000","lon":"78.53974000"},{"id":131846,"name":"Etikoppaka","native":null,"lat":"17.50000000","lon":"82.73333000"},{"id":131895,"name":"Gajuwaka","native":null,"lat":"17.70000000","lon":"83.21667000"},{"id":131906,"name":"Ganguvada","native":null,"lat":"18.66667000","lon":"84.11667000"},{"id":131915,"name":"Gannavaram","native":null,"lat":"16.54092000","lon":"80.80213000"},{"id":131955,"name":"Giddalur","native":null,"lat":"15.37439000","lon":"78.92609000"},{"id":131972,"name":"Gokavaram","native":null,"lat":"17.25823000","lon":"81.84985000"},{"id":131993,"name":"Gorantla","native":null,"lat":"13.98411000","lon":"77.77224000"},{"id":132001,"name":"GovindapuramChilakaluripetGuntur","native":null,"lat":"16.15477000","lon":"80.10279000"},{"id":132010,"name":"Gudivada","native":null,"lat":"16.43547000","lon":"80.99555000"},{"id":132012,"name":"Gudlavalleru","native":null,"lat":"16.35000000","lon":"81.05000000"},{"id":132051,"name":"Gudur","native":null,"lat":"14.15093000","lon":"79.85210000"},{"id":132027,"name":"Guntakal Junction","native":null,"lat":"15.17112000","lon":"77.36244000"},{"id":132028,"name":"Guntur","native":null,"lat":"16.29974000","lon":"80.45729000"},{"id":132099,"name":"Hindupur","native":null,"lat":"13.82807000","lon":"77.49143000"},{"id":132151,"name":"Ichchapuram","native":null,"lat":"19.11393000","lon":"84.68721000"},{"id":132189,"name":"Jaggayyapeta","native":null,"lat":"16.89380000","lon":"80.09807000"},{"id":132228,"name":"Jammalamadugu","native":null,"lat":"14.84677000","lon":"78.38314000"},{"id":132328,"name":"Kadiri","native":null,"lat":"14.11168000","lon":"78.15982000"},{"id":132332,"name":"Kaikalur","native":null,"lat":"16.55154000","lon":"81.21400000"},{"id":132678,"name":"Kakinada","native":null,"lat":"16.96036000","lon":"82.23809000"},{"id":132358,"name":"Kalyandurg","native":null,"lat":"14.54519000","lon":"77.10552000"},{"id":132691,"name":"Kamalapuram","native":null,"lat":"14.59830000","lon":"78.66948000"},{"id":132372,"name":"Kandukur","native":null,"lat":"15.21542000","lon":"79.90390000"},{"id":132374,"name":"Kanigiri","native":null,"lat":"15.40555000","lon":"79.50694000"},{"id":132376,"name":"Kankipadu","native":null,"lat":"16.43530000","lon":"80.76715000"},{"id":132388,"name":"Kanuru","native":null,"lat":"16.28584000","lon":"81.25464000"},{"id":132729,"name":"Kavali","native":null,"lat":"14.91630000","lon":"79.99449000"},{"id":132552,"name":"Kolanukonda","native":null,"lat":"16.45392000","lon":"80.61046000"},{"id":132567,"name":"Kondapalle","native":null,"lat":"16.61989000","lon":"80.54244000"},{"id":132584,"name":"Korukollu","native":null,"lat":"16.50000000","lon":"81.25000000"},{"id":132590,"name":"Kosigi","native":null,"lat":"15.85510000","lon":"77.24463000"},{"id":132616,"name":"Kovvur","native":null,"lat":"17.01620000","lon":"81.72934000"},{"id":132621,"name":"Krishna","native":null,"lat":"16.66667000","lon":"81.00000000"},{"id":132653,"name":"Kuppam","native":null,"lat":"12.74931000","lon":"78.34189000"},{"id":132660,"name":"Kurnool","native":null,"lat":"15.58333000","lon":"78.33333000"},{"id":133055,"name":"Macherla","native":null,"lat":"16.47635000","lon":"79.43533000"},{"id":132806,"name":"Machilipatnam","native":null,"lat":"16.18747000","lon":"81.13888000"},{"id":132808,"name":"Madanapalle","native":null,"lat":"13.55030000","lon":"78.50288000"},{"id":133059,"name":"Madugula","native":null,"lat":"17.91589000","lon":"82.81578000"},{"id":132890,"name":"Mandapeta","native":null,"lat":"16.86254000","lon":"81.92921000"},{"id":132891,"name":"Mandasa","native":null,"lat":"18.86830000","lon":"84.46296000"},{"id":132902,"name":"Mangalagiri","native":null,"lat":"16.43083000","lon":"80.56815000"},{"id":133088,"name":"Markapur","native":null,"lat":"15.73534000","lon":"79.26848000"},{"id":133114,"name":"Nagari","native":null,"lat":"13.32139000","lon":"79.58557000"},{"id":133258,"name":"Nagireddipalli","native":null,"lat":"14.27005000","lon":"79.10131000"},{"id":133143,"name":"Nandigama","native":null,"lat":"16.77170000","lon":"80.28596000"},{"id":133144,"name":"Nandikotkur","native":null,"lat":"15.85668000","lon":"78.26569000"},{"id":133146,"name":"Nandyal","native":null,"lat":"15.47799000","lon":"78.48360000"},{"id":133156,"name":"Narasannapeta","native":null,"lat":"18.41428000","lon":"84.04463000"},{"id":133157,"name":"Narasapur","native":null,"lat":"16.43425000","lon":"81.69845000"},{"id":133158,"name":"Narasaraopet","native":null,"lat":"16.23488000","lon":"80.04927000"},{"id":133160,"name":"Narasingapuram","native":null,"lat":"13.60759000","lon":"79.31652000"},{"id":133275,"name":"Narayanavanam","native":null,"lat":"13.42565000","lon":"79.58881000"},{"id":133173,"name":"Narsipatnam","native":null,"lat":"17.66709000","lon":"82.61245000"},{"id":133283,"name":"Nayudupet","native":null,"lat":"13.90742000","lon":"79.89465000"},{"id":133206,"name":"Nellore","native":null,"lat":"14.08333000","lon":"79.58333000"},{"id":133214,"name":"Nidadavole","native":null,"lat":"16.90572000","lon":"81.67222000"},{"id":133294,"name":"Nuzvid","native":null,"lat":"16.78854000","lon":"80.84593000"},{"id":133300,"name":"Ongole","native":null,"lat":"15.50357000","lon":"80.04454000"},{"id":133521,"name":"Pakala","native":null,"lat":"13.44903000","lon":"79.11493000"},{"id":133523,"name":"Palakollu","native":null,"lat":"16.51670000","lon":"81.73000000"},{"id":133340,"name":"Palasa","native":null,"lat":"18.77257000","lon":"84.41012000"},{"id":133534,"name":"Palkonda","native":null,"lat":"18.60374000","lon":"83.75568000"},{"id":133331,"name":"Pallevada","native":null,"lat":"16.57790000","lon":"81.29463000"},{"id":133336,"name":"Palmaner","native":null,"lat":"13.20000000","lon":"78.74725000"},{"id":133361,"name":"Parlakimidi","native":null,"lat":"18.78113000","lon":"84.08836000"},{"id":133549,"name":"Parvatipuram","native":null,"lat":"18.78392000","lon":"83.42569000"},{"id":133395,"name":"Pavuluru","native":null,"lat":"15.85292000","lon":"80.16468000"},{"id":133400,"name":"Pedana","native":null,"lat":"16.25582000","lon":"81.14378000"},{"id":134447,"name":"pedda nakkalapalem","native":null,"lat":"15.86680000","lon":"80.16202000"},{"id":133402,"name":"Peddapuram","native":null,"lat":"17.07701000","lon":"82.13836000"},{"id":133409,"name":"Penugonda","native":null,"lat":"16.65363000","lon":"81.74550000"},{"id":133410,"name":"Penukonda","native":null,"lat":"14.08286000","lon":"77.59473000"},{"id":133440,"name":"Phirangipuram","native":null,"lat":"16.29078000","lon":"80.26233000"},{"id":133455,"name":"Pippara","native":null,"lat":"16.71667000","lon":"81.55000000"},{"id":133465,"name":"Pithapuram","native":null,"lat":"17.11680000","lon":"82.25284000"},{"id":133468,"name":"Polavaram","native":null,"lat":"17.24754000","lon":"81.64372000"},{"id":133476,"name":"Ponnur","native":null,"lat":"16.07114000","lon":"80.54944000"},{"id":133478,"name":"Ponnuru","native":null,"lat":"16.06547000","lon":"80.55203000"},{"id":133485,"name":"Prakasam","native":null,"lat":"15.50000000","lon":"79.50000000"},{"id":133489,"name":"Proddatur","native":null,"lat":"14.75020000","lon":"78.54813000"},{"id":133497,"name":"Pulivendla","native":null,"lat":"14.42139000","lon":"78.22502000"},{"id":133506,"name":"Punganuru","native":null,"lat":"13.36672000","lon":"78.57186000"},{"id":133517,"name":"Puttaparthi","native":null,"lat":"14.16520000","lon":"77.81170000"},{"id":133519,"name":"Puttur","native":null,"lat":"13.44189000","lon":"79.55314000"},{"id":133671,"name":"Rajahmundry","native":null,"lat":"17.00517000","lon":"81.77784000"},{"id":133691,"name":"Ramachandrapuram","native":null,"lat":"16.83636000","lon":"82.02871000"},{"id":133600,"name":"Ramanayyapeta","native":null,"lat":"16.94516000","lon":"82.23850000"},{"id":133712,"name":"Ramapuram","native":null,"lat":"15.28749000","lon":"77.86722000"},{"id":133605,"name":"Rampachodavaram","native":null,"lat":"17.44088000","lon":"81.77558000"},{"id":133729,"name":"Rayachoti","native":null,"lat":"14.05723000","lon":"78.75056000"},{"id":133730,"name":"Rayadrug","native":null,"lat":"14.69971000","lon":"76.85241000"},{"id":133734,"name":"Razam","native":null,"lat":"18.44909000","lon":"83.65957000"},{"id":133732,"name":"Razampeta","native":null,"lat":"14.19544000","lon":"79.15896000"},{"id":133733,"name":"Razole","native":null,"lat":"16.47608000","lon":"81.83912000"},{"id":133627,"name":"Renigunta","native":null,"lat":"13.65143000","lon":"79.51256000"},{"id":133630,"name":"Repalle","native":null,"lat":"16.01840000","lon":"80.82958000"},{"id":134065,"name":"Salur","native":null,"lat":"18.51716000","lon":"83.20548000"},{"id":134066,"name":"Samalkot","native":null,"lat":"17.05675000","lon":"82.17639000"},{"id":133822,"name":"Sattenapalle","native":null,"lat":"16.39381000","lon":"80.15221000"},{"id":133946,"name":"Singarayakonda","native":null,"lat":"15.23046000","lon":"80.02794000"},{"id":133990,"name":"Sompeta","native":null,"lat":"18.94419000","lon":"84.58449000"},{"id":134019,"name":"Srikakulam","native":null,"lat":"18.29890000","lon":"83.89751000"},{"id":134032,"name":"Srisailain","native":null,"lat":"16.07217000","lon":"78.86816000"},{"id":134093,"name":"Suluru","native":null,"lat":"13.70000000","lon":"80.01667000"},{"id":134226,"name":"Tadepalle","native":null,"lat":"16.48333000","lon":"80.60000000"},{"id":134227,"name":"Tadepallegudem","native":null,"lat":"16.81467000","lon":"81.52717000"},{"id":134228,"name":"Tadpatri","native":null,"lat":"14.90832000","lon":"78.01031000"},{"id":134113,"name":"Tanuku","native":null,"lat":"16.75438000","lon":"81.68143000"},{"id":134126,"name":"Tekkali","native":null,"lat":"18.60570000","lon":"84.23546000"},{"id":134183,"name":"Tirumala","native":null,"lat":"13.68333000","lon":"79.35000000"},{"id":134187,"name":"Tirupati","native":null,"lat":"13.63551000","lon":"79.41989000"},{"id":134222,"name":"Tuni","native":null,"lat":"17.35905000","lon":"82.54607000"},{"id":134292,"name":"Uravakonda","native":null,"lat":"14.94348000","lon":"77.25494000"},{"id":134448,"name":"vadlamuru","native":null,"lat":"17.09545000","lon":"82.16565000"},{"id":134308,"name":"Vadlapudi","native":null,"lat":"14.31119000","lon":"79.80430000"},{"id":134347,"name":"Venkatagiri","native":null,"lat":"13.96005000","lon":"79.58032000"},{"id":134348,"name":"Vepagunta","native":null,"lat":"17.77844000","lon":"83.21577000"},{"id":134350,"name":"Vetapalem","native":null,"lat":"15.78502000","lon":"80.30663000"},{"id":134356,"name":"Vijayawada","native":null,"lat":"16.50745000","lon":"80.64660000"},{"id":134364,"name":"Vinukonda","native":null,"lat":"16.05310000","lon":"79.73964000"},{"id":134369,"name":"Visakhapatnam","native":null,"lat":"17.68009000","lon":"83.20161000"},{"id":134373,"name":"Vizianagaram","native":null,"lat":"18.11692000","lon":"83.41148000"},{"id":134374,"name":"Vizianagaram District","native":null,"lat":"18.41102000","lon":"83.37677000"},{"id":134377,"name":"Vuyyuru","native":null,"lat":"16.36307000","lon":"80.84406000"},{"id":134407,"name":"West Godavari","native":null,"lat":"17.00000000","lon":"81.16667000"},{"id":134424,"name":"Yanam","native":null,"lat":"16.73308000","lon":"82.21364000"},{"id":134426,"name":"Yanamalakuduru","native":null,"lat":"16.48531000","lon":"80.66746000"},{"id":134437,"name":"Yarada","native":null,"lat":"17.65872000","lon":"83.27419000"}]},{"id":4024,"name":"Arunachal Pradesh","native":null,"cities":[{"id":57645,"name":"Along","native":null,"lat":"28.16951000","lon":"94.80060000"},{"id":57708,"name":"Anjaw","native":null,"lat":"28.06549000","lon":"96.82878000"},{"id":58151,"name":"Basar","native":null,"lat":"27.99008000","lon":"94.69451000"},{"id":58080,"name":"Bomdila","native":null,"lat":"27.26475000","lon":"92.42472000"},{"id":58196,"name":"Changlang","native":null,"lat":"27.36265000","lon":"96.34518000"},{"id":131763,"name":"Dibang Valley","native":null,"lat":"28.70000000","lon":"95.70000000"},{"id":131826,"name":"East Kameng","native":null,"lat":"27.30000000","lon":"93.05000000"},{"id":131828,"name":"East Siang","native":null,"lat":"28.12379000","lon":"95.16339000"},{"id":132090,"name":"Hayuliang","native":null,"lat":"28.07301000","lon":"96.54305000"},{"id":132178,"name":"Itanagar","native":null,"lat":"27.08694000","lon":"93.60987000"},{"id":132499,"name":"Khonsa","native":null,"lat":"27.01667000","lon":"95.56667000"},{"id":132663,"name":"Kurung Kumey","native":null,"lat":"27.99983000","lon":"93.39240000"},{"id":132769,"name":"Lohit District","native":null,"lat":"27.84012000","lon":"96.19521000"},{"id":132779,"name":"Lower Dibang Valley","native":null,"lat":"28.37258000","lon":"95.88040000"},{"id":132780,"name":"Lower Subansiri","native":null,"lat":"27.62554000","lon":"93.93908000"},{"id":132934,"name":"Margherita","native":null,"lat":"27.28482000","lon":"95.66796000"},{"id":133121,"name":"Naharlagun","native":null,"lat":"27.10467000","lon":"93.69518000"},{"id":133551,"name":"Pasighat","native":null,"lat":"28.06631000","lon":"95.32678000"},{"id":134120,"name":"Tawang","native":null,"lat":"27.57417000","lon":"91.92437000"},{"id":134135,"name":"Tezu","native":null,"lat":"27.91256000","lon":"96.12882000"},{"id":134199,"name":"Tirap","native":null,"lat":"27.01917000","lon":"95.51788000"},{"id":134288,"name":"Upper Siang","native":null,"lat":"28.83355000","lon":"94.91806000"},{"id":134289,"name":"Upper Subansiri","native":null,"lat":"28.30000000","lon":"94.00000000"},{"id":134409,"name":"West Kameng","native":null,"lat":"27.40000000","lon":"92.35000000"},{"id":134411,"name":"West Siang","native":null,"lat":"28.40000000","lon":"94.55000000"},{"id":134444,"name":"Ziro","native":null,"lat":"27.59497000","lon":"93.83854000"}]},{"id":4027,"name":"Assam","native":null,"cities":[{"id":57585,"name":"Abhayapuri","native":null,"lat":"26.32255000","lon":"90.68526000"},{"id":57679,"name":"Amguri","native":null,"lat":"26.81482000","lon":"94.52614000"},{"id":57787,"name":"Badarpur","native":null,"lat":"24.86852000","lon":"92.59606000"},{"id":57820,"name":"Baksa","native":null,"lat":"26.69804000","lon":"91.15142000"},{"id":57883,"name":"Barpathar","native":null,"lat":"26.28709000","lon":"93.88844000"},{"id":57884,"name":"Barpeta","native":null,"lat":"26.47104000","lon":"91.03080000"},{"id":57885,"name":"Barpeta Road","native":null,"lat":"26.50284000","lon":"90.96937000"},{"id":58150,"name":"Basugaon","native":null,"lat":"26.46742000","lon":"90.41951000"},{"id":58028,"name":"Bihpuriagaon","native":null,"lat":"27.01718000","lon":"93.91673000"},{"id":58034,"name":"Bijni","native":null,"lat":"26.49588000","lon":"90.70298000"},{"id":58053,"name":"Bilasipara","native":null,"lat":"26.23285000","lon":"90.23410000"},{"id":58075,"name":"Bokajan","native":null,"lat":"26.02131000","lon":"93.77945000"},{"id":58077,"name":"Bokakhat","native":null,"lat":"26.64018000","lon":"93.60052000"},{"id":58081,"name":"Bongaigaon","native":null,"lat":"26.46030000","lon":"90.64640000"},{"id":131634,"name":"Cachar","native":null,"lat":"24.78213000","lon":"92.85771000"},{"id":131588,"name":"Chabua","native":null,"lat":"27.48253000","lon":"95.17451000"},{"id":131604,"name":"Chapar","native":null,"lat":"26.27266000","lon":"90.44556000"},{"id":131568,"name":"Chirang","native":null,"lat":"26.52527000","lon":"90.49066000"},{"id":131657,"name":"Darrang","native":null,"lat":"26.51195000","lon":"92.16843000"},{"id":131695,"name":"Dergaon","native":null,"lat":"26.70000000","lon":"93.96667000"},{"id":131732,"name":"Dhekiajuli","native":null,"lat":"26.70367000","lon":"92.47808000"},{"id":131733,"name":"Dhemaji","native":null,"lat":"27.60910000","lon":"94.79420000"},{"id":131737,"name":"Dhing","native":null,"lat":"26.46793000","lon":"92.47336000"},{"id":131744,"name":"Dhubri","native":null,"lat":"26.06749000","lon":"90.02238000"},{"id":131762,"name":"Dibrugarh","native":null,"lat":"27.50000000","lon":"95.00000000"},{"id":131766,"name":"Digboi","native":null,"lat":"27.39321000","lon":"95.61839000"},{"id":131770,"name":"Dima Hasao District","native":null,"lat":"25.50000000","lon":"93.00000000"},{"id":131776,"name":"Diphu","native":null,"lat":"25.84341000","lon":"93.43116000"},{"id":131778,"name":"Dispur","native":null,"lat":"26.13564000","lon":"91.80069000"},{"id":131795,"name":"Duliagaon","native":null,"lat":"27.37227000","lon":"95.30754000"},{"id":131796,"name":"Dum Duma","native":null,"lat":"27.56884000","lon":"95.55664000"},{"id":131928,"name":"Gauripur","native":null,"lat":"26.08334000","lon":"89.96118000"},{"id":132004,"name":"Goalpara","native":null,"lat":"26.12791000","lon":"90.60974000"},{"id":131967,"name":"Gohpur","native":null,"lat":"26.88184000","lon":"93.61560000"},{"id":131976,"name":"Golaghat","native":null,"lat":"26.40920000","lon":"93.91193000"},{"id":131977,"name":"Golakganj","native":null,"lat":"26.10216000","lon":"89.82275000"},{"id":131997,"name":"Goshaingaon","native":null,"lat":"26.43946000","lon":"89.96307000"},{"id":132039,"name":"Guwahati","native":null,"lat":"26.18440000","lon":"91.74580000"},{"id":132134,"name":"Haflong","native":null,"lat":"25.16478000","lon":"93.01744000"},{"id":132055,"name":"Hailakandi","native":null,"lat":"24.50170000","lon":"92.60069000"},{"id":132137,"name":"Hajo","native":null,"lat":"26.24520000","lon":"91.52525000"},{"id":132110,"name":"Hojai","native":null,"lat":"26.00281000","lon":"92.85605000"},{"id":132126,"name":"Howli","native":null,"lat":"26.42237000","lon":"90.98004000"},{"id":132291,"name":"Jogighopa","native":null,"lat":"26.22646000","lon":"90.57247000"},{"id":132294,"name":"Jorhat","native":null,"lat":"26.80000000","lon":"94.26000000"},{"id":132693,"name":"Kamrup","native":null,"lat":"26.22322000","lon":"91.65344000"},{"id":132366,"name":"Kamrup Metropolitan","native":null,"lat":"26.05375000","lon":"92.00763000"},{"id":132718,"name":"Karbi Anglong","native":null,"lat":"26.00000000","lon":"93.50000000"},{"id":132402,"name":"Karimganj","native":null,"lat":"24.60000000","lon":"92.40000000"},{"id":132518,"name":"Kharupatia","native":null,"lat":"26.51839000","lon":"92.14722000"},{"id":132551,"name":"Kokrajhar","native":null,"lat":"26.60000000","lon":"90.20000000"},{"id":132742,"name":"Lakhimpur","native":null,"lat":"27.35000000","lon":"94.25000000"},{"id":132743,"name":"Lakhipur","native":null,"lat":"24.79281000","lon":"93.00910000"},{"id":132793,"name":"Lala","native":null,"lat":"24.55418000","lon":"92.61592000"},{"id":132786,"name":"Lumding Railway Colony","native":null,"lat":"25.74903000","lon":"93.16998000"},{"id":132842,"name":"Mahur","native":null,"lat":"25.18305000","lon":"93.11342000"},{"id":132853,"name":"Maibong","native":null,"lat":"25.30125000","lon":"93.13811000"},{"id":133064,"name":"Makum","native":null,"lat":"27.48652000","lon":"95.43646000"},{"id":132904,"name":"Mangaldai","native":null,"lat":"26.44212000","lon":"92.03047000"},{"id":132937,"name":"Mariani","native":null,"lat":"26.65725000","lon":"94.31529000"},{"id":133002,"name":"Moranha","native":null,"lat":"27.18735000","lon":"94.91557000"},{"id":132995,"name":"Morigaon","native":null,"lat":"26.25213000","lon":"92.34238000"},{"id":133110,"name":"Nagaon","native":null,"lat":"26.35037000","lon":"92.69225000"},{"id":133122,"name":"Nahorkatiya","native":null,"lat":"27.28912000","lon":"95.34180000"},{"id":133130,"name":"Nalbari","native":null,"lat":"26.50000000","lon":"91.40000000"},{"id":133266,"name":"Namrup","native":null,"lat":"27.19395000","lon":"95.31929000"},{"id":133284,"name":"Nazira","native":null,"lat":"26.91649000","lon":"94.73611000"},{"id":133239,"name":"North Guwahati","native":null,"lat":"26.19749000","lon":"91.72020000"},{"id":133240,"name":"North Lakhimpur","native":null,"lat":"27.23517000","lon":"94.10357000"},{"id":133248,"name":"Numaligarh","native":null,"lat":"26.62249000","lon":"93.72225000"},{"id":133341,"name":"Palasbari","native":null,"lat":"26.12388000","lon":"91.53974000"},{"id":133584,"name":"Raha","native":null,"lat":"26.23333000","lon":"92.51667000"},{"id":133610,"name":"Rangapara","native":null,"lat":"26.83772000","lon":"92.66876000"},{"id":133608,"name":"Rangia","native":null,"lat":"26.44931000","lon":"91.61356000"},{"id":133798,"name":"Sapatgram","native":null,"lat":"26.33732000","lon":"90.12360000"},{"id":133809,"name":"Sarupathar","native":null,"lat":"26.20600000","lon":"96.81000000"},{"id":133916,"name":"Sibsagar","native":null,"lat":"26.98427000","lon":"94.63784000"},{"id":133934,"name":"Silapathar","native":null,"lat":"27.59441000","lon":"94.72402000"},{"id":133935,"name":"Silchar","native":null,"lat":"24.82733000","lon":"92.79787000"},{"id":133979,"name":"Soalkuchi","native":null,"lat":"26.16806000","lon":"91.57111000"},{"id":133998,"name":"Sonari","native":null,"lat":"27.02462000","lon":"95.01629000"},{"id":133996,"name":"Sonitpur","native":null,"lat":"26.76748000","lon":"92.96425000"},{"id":134003,"name":"Sorbhog","native":null,"lat":"26.48612000","lon":"90.88590000"},{"id":134134,"name":"Tezpur","native":null,"lat":"26.63333000","lon":"92.80000000"},{"id":134175,"name":"Tinsukia","native":null,"lat":"27.60000000","lon":"95.60000000"},{"id":134203,"name":"Titabar","native":null,"lat":"26.60140000","lon":"94.20386000"},{"id":134252,"name":"Udalguri","native":null,"lat":"26.75367000","lon":"92.10215000"}]},{"id":4037,"name":"Bihar","native":null,"cities":[{"id":57661,"name":"Amarpur","native":null,"lat":"25.03967000","lon":"86.90247000"},{"id":57730,"name":"Araria","native":null,"lat":"26.20000000","lon":"87.40000000"},{"id":57739,"name":"Arrah","native":null,"lat":"25.55629000","lon":"84.66335000"},{"id":57747,"name":"Arwal","native":null,"lat":"25.16158000","lon":"84.69040000"},{"id":57749,"name":"Asarganj","native":null,"lat":"25.15046000","lon":"86.68639000"},{"id":57766,"name":"Aurangabad","native":null,"lat":"24.75204000","lon":"84.37420000"},{"id":57796,"name":"Bagaha","native":null,"lat":"27.09918000","lon":"84.09003000"},{"id":57809,"name":"Bahadurganj","native":null,"lat":"26.26172000","lon":"87.82443000"},{"id":57815,"name":"Bairagnia","native":null,"lat":"26.74063000","lon":"85.27323000"},{"id":57816,"name":"Baisi","native":null,"lat":"25.86302000","lon":"87.74487000"},{"id":57818,"name":"Bakhtiyarpur","native":null,"lat":"25.46179000","lon":"85.53179000"},{"id":57850,"name":"Bangaon","native":null,"lat":"25.86728000","lon":"86.51152000"},{"id":57854,"name":"Banka","native":null,"lat":"24.89214000","lon":"86.98425000"},{"id":57855,"name":"Banmankhi","native":null,"lat":"25.88857000","lon":"87.19421000"},{"id":57860,"name":"Bar Bigha","native":null,"lat":"25.21855000","lon":"85.73320000"},{"id":57864,"name":"Barauli","native":null,"lat":"26.38109000","lon":"84.58648000"},{"id":58141,"name":"Barh","native":null,"lat":"25.48339000","lon":"85.70928000"},{"id":57873,"name":"Barhiya","native":null,"lat":"25.28814000","lon":"86.02055000"},{"id":57875,"name":"Bariarpur","native":null,"lat":"25.28791000","lon":"86.57643000"},{"id":58145,"name":"Baruni","native":null,"lat":"25.47509000","lon":"85.96813000"},{"id":57915,"name":"Begusarai","native":null,"lat":"25.41853000","lon":"86.13389000"},{"id":57927,"name":"Belsand","native":null,"lat":"26.44365000","lon":"85.40076000"},{"id":57941,"name":"Bettiah","native":null,"lat":"26.80229000","lon":"84.50311000"},{"id":57947,"name":"Bhabhua","native":null,"lat":"25.04049000","lon":"83.60749000"},{"id":58009,"name":"Bhagalpur","native":null,"lat":"25.29023000","lon":"87.06665000"},{"id":57957,"name":"Bhagirathpur","native":null,"lat":"26.26950000","lon":"86.06346000"},{"id":57974,"name":"Bhawanipur","native":null,"lat":"26.45352000","lon":"87.02744000"},{"id":57991,"name":"Bhojpur","native":null,"lat":"25.30886000","lon":"84.44504000"},{"id":58029,"name":"Bihar Sharif","native":null,"lat":"25.20084000","lon":"85.52389000"},{"id":58030,"name":"Bihariganj","native":null,"lat":"25.73415000","lon":"86.98837000"},{"id":58039,"name":"Bikramganj","native":null,"lat":"25.21073000","lon":"84.25508000"},{"id":58160,"name":"Birpur","native":null,"lat":"26.50823000","lon":"87.01194000"},{"id":58089,"name":"Buddh Gaya","native":null,"lat":"24.69808000","lon":"84.98690000"},{"id":58100,"name":"Buxar","native":null,"lat":"25.50000000","lon":"84.10000000"},{"id":131590,"name":"Chakia","native":null,"lat":"26.41598000","lon":"85.04665000"},{"id":131605,"name":"Chapra","native":null,"lat":"25.78031000","lon":"84.74709000"},{"id":131541,"name":"Chhatapur","native":null,"lat":"26.21965000","lon":"87.00479000"},{"id":131620,"name":"Colgong","native":null,"lat":"25.26328000","lon":"87.23264000"},{"id":131647,"name":"Dalsingh Sarai","native":null,"lat":"25.66795000","lon":"85.83636000"},{"id":131654,"name":"Darbhanga","native":null,"lat":"26.00000000","lon":"86.00000000"},{"id":131664,"name":"Daudnagar","native":null,"lat":"25.03473000","lon":"84.40095000"},{"id":131677,"name":"Dehri","native":null,"lat":"24.90247000","lon":"84.18217000"},{"id":131748,"name":"Dhaka","native":null,"lat":"26.67479000","lon":"85.16698000"},{"id":131767,"name":"Dighwara","native":null,"lat":"25.74434000","lon":"85.01003000"},{"id":131773,"name":"Dinapore","native":null,"lat":"25.63705000","lon":"85.04794000"},{"id":131798,"name":"Dumra","native":null,"lat":"26.56708000","lon":"85.52040000"},{"id":131799,"name":"Dumraon","native":null,"lat":"25.55265000","lon":"84.15149000"},{"id":131873,"name":"Fatwa","native":null,"lat":"25.50958000","lon":"85.30504000"},{"id":131878,"name":"Forbesganj","native":null,"lat":"26.30253000","lon":"87.26556000"},{"id":131932,"name":"Gaya","native":null,"lat":"24.79686000","lon":"85.00385000"},{"id":131943,"name":"Ghoga","native":null,"lat":"25.21738000","lon":"87.15710000"},{"id":131987,"name":"Gopalganj","native":null,"lat":"26.50000000","lon":"84.33333000"},{"id":132138,"name":"Hajipur","native":null,"lat":"25.68544000","lon":"85.20981000"},{"id":132095,"name":"Hilsa","native":null,"lat":"25.31642000","lon":"85.28234000"},{"id":132107,"name":"Hisua","native":null,"lat":"24.83360000","lon":"85.41729000"},{"id":132174,"name":"Islampur","native":null,"lat":"25.14075000","lon":"85.20587000"},{"id":132188,"name":"Jagdispur","native":null,"lat":"25.46811000","lon":"84.41939000"},{"id":132198,"name":"Jahanabad","native":null,"lat":"25.21368000","lon":"84.98710000"},{"id":132234,"name":"Jamalpur","native":null,"lat":"25.31258000","lon":"86.48888000"},{"id":132233,"name":"Jamui","native":null,"lat":"24.92082000","lon":"86.17538000"},{"id":132258,"name":"Jaynagar","native":null,"lat":"26.59048000","lon":"86.13791000"},{"id":132259,"name":"Jehanabad","native":null,"lat":"25.20701000","lon":"84.99573000"},{"id":132274,"name":"Jha-Jha","native":null,"lat":"24.77107000","lon":"86.37888000"},{"id":132267,"name":"Jhanjharpur","native":null,"lat":"26.26467000","lon":"86.27993000"},{"id":132288,"name":"Jogbani","native":null,"lat":"26.39905000","lon":"87.26525000"},{"id":132337,"name":"Kaimur District","native":null,"lat":"25.05077000","lon":"83.58261000"},{"id":132417,"name":"Kasba","native":null,"lat":"25.85643000","lon":"87.53836000"},{"id":132423,"name":"Katihar","native":null,"lat":"25.50000000","lon":"87.60000000"},{"id":132451,"name":"Khagaria","native":null,"lat":"25.50220000","lon":"86.46708000"},{"id":132452,"name":"Khagaul","native":null,"lat":"25.57898000","lon":"85.04564000"},{"id":132470,"name":"Kharagpur","native":null,"lat":"25.12446000","lon":"86.55578000"},{"id":132510,"name":"Khusropur","native":null,"lat":"25.48174000","lon":"85.38492000"},{"id":132529,"name":"Kishanganj","native":null,"lat":"26.30000000","lon":"88.00000000"},{"id":132620,"name":"Koath","native":null,"lat":"25.32643000","lon":"84.25983000"},{"id":132548,"name":"Koelwar","native":null,"lat":"25.58055000","lon":"84.79751000"},{"id":132744,"name":"Lakhisarai","native":null,"lat":"25.20000000","lon":"86.20000000"},{"id":132795,"name":"Lalganj","native":null,"lat":"25.86894000","lon":"85.17394000"},{"id":132781,"name":"Luckeesarai","native":null,"lat":"25.17650000","lon":"86.09470000"},{"id":132812,"name":"Madhepura","native":null,"lat":"25.80000000","lon":"87.00000000"},{"id":132813,"name":"Madhipura","native":null,"lat":"25.92127000","lon":"86.79271000"},{"id":132815,"name":"Madhubani","native":null,"lat":"26.35367000","lon":"86.07169000"},{"id":132849,"name":"Maharajgani","native":null,"lat":"26.11017000","lon":"84.50365000"},{"id":132859,"name":"Mairwa","native":null,"lat":"26.23218000","lon":"84.16349000"},{"id":132901,"name":"Maner","native":null,"lat":"25.64602000","lon":"84.87291000"},{"id":132911,"name":"Manihari","native":null,"lat":"25.33891000","lon":"87.61998000"},{"id":132935,"name":"Marhaura","native":null,"lat":"25.97349000","lon":"84.86796000"},{"id":132938,"name":"Masaurhi Buzurg","native":null,"lat":"25.35417000","lon":"85.03195000"},{"id":132984,"name":"Mohiuddinnagar","native":null,"lat":"25.57374000","lon":"85.66944000"},{"id":132988,"name":"Mokameh","native":null,"lat":"25.39662000","lon":"85.92190000"},{"id":132991,"name":"Monghyr","native":null,"lat":"25.37459000","lon":"86.47455000"},{"id":133005,"name":"Mothihari","native":null,"lat":"26.64862000","lon":"84.91656000"},{"id":133032,"name":"Munger","native":null,"lat":"25.36099000","lon":"86.46515000"},{"id":133037,"name":"Murliganj","native":null,"lat":"25.89690000","lon":"86.99577000"},{"id":133052,"name":"Muzaffarpur","native":null,"lat":"26.16667000","lon":"85.41667000"},{"id":133105,"name":"Nabinagar","native":null,"lat":"24.60681000","lon":"84.12624000"},{"id":133262,"name":"Nalanda","native":null,"lat":"25.25000000","lon":"85.58333000"},{"id":133279,"name":"Nasriganj","native":null,"lat":"25.05140000","lon":"84.32839000"},{"id":133182,"name":"Naugachhia","native":null,"lat":"25.38807000","lon":"87.09906000"},{"id":133192,"name":"Nawada","native":null,"lat":"24.75000000","lon":"85.50000000"},{"id":133222,"name":"Nirmali","native":null,"lat":"26.31397000","lon":"86.58537000"},{"id":133373,"name":"Pashchim Champaran","native":null,"lat":"27.00000000","lon":"84.50000000"},{"id":133386,"name":"Patna","native":null,"lat":"25.41667000","lon":"85.16667000"},{"id":133459,"name":"Piro","native":null,"lat":"25.33218000","lon":"84.40454000"},{"id":133509,"name":"Pupri","native":null,"lat":"26.47079000","lon":"85.70311000"},{"id":133570,"name":"Purba Champaran","native":null,"lat":"26.58333000","lon":"84.83333000"},{"id":133512,"name":"Purnia","native":null,"lat":"25.81614000","lon":"87.40708000"},{"id":133581,"name":"Rafiganj","native":null,"lat":"24.81757000","lon":"84.63445000"},{"id":133582,"name":"Raghunathpur","native":null,"lat":"25.64492000","lon":"87.91762000"},{"id":133678,"name":"Rajgir","native":null,"lat":"25.02828000","lon":"85.42079000"},{"id":133701,"name":"Ramnagar","native":null,"lat":"27.16371000","lon":"84.32342000"},{"id":133621,"name":"Raxaul","native":null,"lat":"26.97982000","lon":"84.85065000"},{"id":133632,"name":"Revelganj","native":null,"lat":"25.78976000","lon":"84.63596000"},{"id":133648,"name":"Rohtas","native":null,"lat":"24.97941000","lon":"84.02774000"},{"id":133656,"name":"Rusera","native":null,"lat":"25.75355000","lon":"86.02597000"},{"id":133748,"name":"Sagauli","native":null,"lat":"26.76390000","lon":"84.74341000"},{"id":133749,"name":"Saharsa","native":null,"lat":"25.87498000","lon":"86.59611000"},{"id":133767,"name":"Samastipur","native":null,"lat":"25.75000000","lon":"85.91667000"},{"id":134076,"name":"Saran","native":null,"lat":"25.91667000","lon":"84.75000000"},{"id":133852,"name":"Shahbazpur","native":null,"lat":"26.30511000","lon":"87.28865000"},{"id":133902,"name":"Shahpur","native":null,"lat":"25.60293000","lon":"84.40412000"},{"id":133858,"name":"Sheikhpura","native":null,"lat":"25.13073000","lon":"85.78176000"},{"id":133860,"name":"Sheohar","native":null,"lat":"26.50000000","lon":"85.30000000"},{"id":133863,"name":"Sherghati","native":null,"lat":"24.55950000","lon":"84.79162000"},{"id":133933,"name":"Silao","native":null,"lat":"25.08358000","lon":"85.42804000"},{"id":134089,"name":"Sitamarhi","native":null,"lat":"26.66667000","lon":"85.50000000"},{"id":133977,"name":"Siwan","native":null,"lat":"26.22096000","lon":"84.35609000"},{"id":134049,"name":"Supaul","native":null,"lat":"26.25000000","lon":"86.80000000"},{"id":134121,"name":"Teghra","native":null,"lat":"25.49043000","lon":"85.94001000"},{"id":134127,"name":"Tekari","native":null,"lat":"24.94253000","lon":"84.84265000"},{"id":134163,"name":"Thakurganj","native":null,"lat":"26.42742000","lon":"88.13112000"},{"id":134314,"name":"Vaishali","native":null,"lat":"25.75000000","lon":"85.41667000"},{"id":134417,"name":"Waris Aliganj","native":null,"lat":"25.01720000","lon":"85.64047000"}]},{"id":4031,"name":"Chandigarh","native":null,"cities":[{"id":58190,"name":"Chandigarh","native":null,"lat":"30.73629000","lon":"76.78840000"}]},{"id":4040,"name":"Chhattisgarh","native":null,"cities":[{"id":57619,"name":"Akaltara","native":null,"lat":"22.02463000","lon":"82.42641000"},{"id":57672,"name":"Ambagarh Chauki","native":null,"lat":"20.77644000","lon":"80.74608000"},{"id":57670,"name":"Ambikapur","native":null,"lat":"23.11892000","lon":"83.19537000"},{"id":57728,"name":"Arang","native":null,"lat":"21.19639000","lon":"81.96912000"},{"id":57812,"name":"Baikunthpur","native":null,"lat":"23.26206000","lon":"82.56051000"},{"id":57830,"name":"Balod","native":null,"lat":"20.73081000","lon":"81.20578000"},{"id":57831,"name":"Baloda","native":null,"lat":"22.13890000","lon":"82.48171000"},{"id":57832,"name":"Baloda Bazar","native":null,"lat":"21.65678000","lon":"82.16062000"},{"id":57898,"name":"Basna","native":null,"lat":"21.27885000","lon":"82.82670000"},{"id":57900,"name":"Bastar","native":null,"lat":"19.26794000","lon":"81.73828000"},{"id":57931,"name":"Bemetara","native":null,"lat":"21.71556000","lon":"81.53423000"},{"id":58013,"name":"Bhanpuri","native":null,"lat":"21.09190000","lon":"80.93218000"},{"id":58015,"name":"Bhatapara","native":null,"lat":"21.73500000","lon":"81.94711000"},{"id":57969,"name":"Bhatgaon","native":null,"lat":"21.15000000","lon":"81.70000000"},{"id":57981,"name":"Bhilai","native":null,"lat":"21.20919000","lon":"81.42850000"},{"id":58032,"name":"Bijapur","native":null,"lat":"18.84322000","lon":"80.77610000"},{"id":58055,"name":"Bilaspur","native":null,"lat":"22.38333000","lon":"82.13333000"},{"id":131593,"name":"Champa","native":null,"lat":"22.03532000","lon":"82.64234000"},{"id":131538,"name":"Chhuikhadan","native":null,"lat":"21.52316000","lon":"80.99788000"},{"id":131690,"name":"Deori","native":null,"lat":"21.45000000","lon":"82.61667000"},{"id":131712,"name":"Dhamtari","native":null,"lat":"20.70718000","lon":"81.54874000"},{"id":131787,"name":"Dongargaon","native":null,"lat":"20.97172000","lon":"80.85077000"},{"id":131788,"name":"Dongargarh","native":null,"lat":"21.18893000","lon":"80.75459000"},{"id":131801,"name":"Durg","native":null,"lat":"21.15000000","lon":"81.40000000"},{"id":131897,"name":"Gandai","native":null,"lat":"21.66667000","lon":"81.10013000"},{"id":131926,"name":"Gariaband","native":null,"lat":"20.63323000","lon":"82.06221000"},{"id":131927,"name":"Gaurela","native":null,"lat":"22.75449000","lon":"81.90107000"},{"id":131938,"name":"Gharghoda","native":null,"lat":"22.17427000","lon":"83.35170000"},{"id":132048,"name":"Gidam","native":null,"lat":"18.97431000","lon":"81.39894000"},{"id":132186,"name":"Jagdalpur","native":null,"lat":"19.08136000","lon":"82.02131000"},{"id":132312,"name":"Janjgir","native":null,"lat":"22.00922000","lon":"82.57780000"},{"id":132240,"name":"Janjgir-Champa","native":null,"lat":"21.90000000","lon":"82.70000000"},{"id":132244,"name":"Jashpur","native":null,"lat":"22.78495000","lon":"83.84573000"},{"id":132245,"name":"Jashpurnagar","native":null,"lat":"22.88783000","lon":"84.13864000"},{"id":132318,"name":"Junagarh","native":null,"lat":"19.85993000","lon":"82.93385000"},{"id":132319,"name":"Kabeerdham","native":null,"lat":"22.10000000","lon":"81.20000000"},{"id":132704,"name":"Kanker","native":null,"lat":"20.27193000","lon":"81.49177000"},{"id":132421,"name":"Katghora","native":null,"lat":"22.50247000","lon":"82.54279000"},{"id":132433,"name":"Kawardha","native":null,"lat":"22.00853000","lon":"81.23148000"},{"id":132456,"name":"Khairagarh","native":null,"lat":"21.41859000","lon":"80.97942000"},{"id":132463,"name":"Khamharia","native":null,"lat":"20.97600000","lon":"82.25116000"},{"id":132480,"name":"Kharod","native":null,"lat":"21.74420000","lon":"82.57880000"},{"id":132481,"name":"Kharsia","native":null,"lat":"21.98953000","lon":"83.10476000"},{"id":132525,"name":"Kirandul","native":null,"lat":"18.63649000","lon":"81.25827000"},{"id":132565,"name":"Kondagaon","native":null,"lat":"19.59083000","lon":"81.66400000"},{"id":132581,"name":"Korba","native":null,"lat":"22.50000000","lon":"82.60000000"},{"id":132583,"name":"Koriya","native":null,"lat":"23.48326000","lon":"82.15037000"},{"id":132612,"name":"Kota","native":null,"lat":"22.29507000","lon":"82.02366000"},{"id":132596,"name":"Kotaparh","native":null,"lat":"19.14256000","lon":"82.32536000"},{"id":132641,"name":"Kumhari","native":null,"lat":"21.26667000","lon":"81.51667000"},{"id":132661,"name":"Kurud","native":null,"lat":"20.83073000","lon":"81.72212000"},{"id":132777,"name":"Lormi","native":null,"lat":"22.27434000","lon":"81.70181000"},{"id":132827,"name":"Mahasamund","native":null,"lat":"21.20000000","lon":"82.50000000"},{"id":133031,"name":"Mungeli","native":null,"lat":"22.06566000","lon":"81.68543000"},{"id":133163,"name":"Narayanpur","native":null,"lat":"19.60426000","lon":"81.08119000"},{"id":133168,"name":"Narharpur","native":null,"lat":"20.44892000","lon":"81.62004000"},{"id":133346,"name":"Pandaria","native":null,"lat":"22.22495000","lon":"81.40994000"},{"id":133540,"name":"Pandatarai","native":null,"lat":"22.18714000","lon":"81.32815000"},{"id":133375,"name":"Pasan","native":null,"lat":"22.84412000","lon":"82.19823000"},{"id":133552,"name":"Patan","native":null,"lat":"21.03333000","lon":"81.53333000"},{"id":133379,"name":"Pathalgaon","native":null,"lat":"22.55656000","lon":"83.46355000"},{"id":133405,"name":"Pendra","native":null,"lat":"22.77548000","lon":"81.95968000"},{"id":133463,"name":"Pithora","native":null,"lat":"21.25021000","lon":"82.51707000"},{"id":133587,"name":"Raigarh","native":null,"lat":"22.08582000","lon":"83.30603000"},{"id":133590,"name":"Raipur","native":null,"lat":"21.25621000","lon":"81.69022000"},{"id":133668,"name":"Raj Nandgaon","native":null,"lat":"21.16667000","lon":"81.00000000"},{"id":133669,"name":"Raj-Nandgaon","native":null,"lat":"21.09687000","lon":"81.02890000"},{"id":133711,"name":"Ramanuj Ganj","native":null,"lat":"23.80637000","lon":"83.69981000"},{"id":133616,"name":"Ratanpur","native":null,"lat":"22.28660000","lon":"82.16823000"},{"id":133761,"name":"Sakti","native":null,"lat":"22.02662000","lon":"82.96091000"},{"id":133801,"name":"Saraipali","native":null,"lat":"21.31530000","lon":"83.00629000"},{"id":134077,"name":"Sarangarh","native":null,"lat":"21.58614000","lon":"83.07850000"},{"id":133845,"name":"Seorinarayan","native":null,"lat":"21.72055000","lon":"82.59344000"},{"id":133940,"name":"Simga","native":null,"lat":"21.62810000","lon":"81.70376000"},{"id":134051,"name":"Surguja","native":null,"lat":"22.89624000","lon":"83.09631000"},{"id":134099,"name":"Takhatpur","native":null,"lat":"22.12915000","lon":"81.86959000"},{"id":134273,"name":"Umarkot","native":null,"lat":"19.66529000","lon":"82.20629000"},{"id":134299,"name":"Uttar Bastar Kanker","native":null,"lat":"20.20000000","lon":"81.10000000"}]},{"id":4033,"name":"Dadra and Nagar Haveli and Daman and Diu","native":null,"cities":[{"id":134459,"name":"Amli","native":null,"lat":"20.28333000","lon":"73.01667000"},{"id":131639,"name":"Dadra","native":null,"lat":"20.32504000","lon":"72.96618000"},{"id":131640,"name":"Dadra & Nagar Haveli","native":null,"lat":"20.20651000","lon":"73.00811000"},{"id":131649,"name":"Daman","native":null,"lat":"20.41431000","lon":"72.83236000"},{"id":131650,"name":"Daman District","native":null,"lat":"20.41667000","lon":"72.88333000"},{"id":131779,"name":"Diu","native":null,"lat":"20.72081000","lon":"70.93989000"},{"id":133937,"name":"Silvassa","native":null,"lat":"20.27386000","lon":"72.99673000"}]},{"id":4021,"name":"Delhi","native":null,"cities":[{"id":57655,"name":"Alipur","native":null,"lat":"28.79862000","lon":"77.13314000"},{"id":57909,"name":"Bawana","native":null,"lat":"28.79820000","lon":"77.03431000"},{"id":58171,"name":"Central Delhi","native":null,"lat":"28.64857000","lon":"77.21895000"},{"id":131679,"name":"Delhi","native":null,"lat":"28.65195000","lon":"77.23149000"},{"id":131687,"name":"Deoli","native":null,"lat":"28.50254000","lon":"77.23117000"},{"id":131821,"name":"East Delhi","native":null,"lat":"28.66242000","lon":"77.29122000"},{"id":132406,"name":"Karol Bagh","native":null,"lat":"28.65136000","lon":"77.19072000"},{"id":133126,"name":"Najafgarh","native":null,"lat":"28.60922000","lon":"76.97982000"},{"id":133269,"name":"Nangloi Jat","native":null,"lat":"28.67957000","lon":"77.06799000"},{"id":133165,"name":"Narela","native":null,"lat":"28.85267000","lon":"77.09288000"},{"id":133210,"name":"New Delhi","native":null,"lat":"28.63576000","lon":"77.22445000"},{"id":133234,"name":"North Delhi","native":null,"lat":"28.66920000","lon":"77.22273000"},{"id":133236,"name":"North East Delhi","native":null,"lat":"28.68690000","lon":"77.30195000"},{"id":133243,"name":"North West Delhi","native":null,"lat":"28.70113000","lon":"77.10154000"},{"id":133461,"name":"Pitampura","native":null,"lat":"28.68964000","lon":"77.13126000"},{"id":133645,"name":"Rohini","native":null,"lat":"28.74322000","lon":"77.06778000"},{"id":134007,"name":"South Delhi","native":null,"lat":"28.53009000","lon":"77.25174000"},{"id":134012,"name":"South West Delhi","native":null,"lat":"28.58060000","lon":"77.06720000"},{"id":134404,"name":"West Delhi","native":null,"lat":"28.65655000","lon":"77.10068000"}]},{"id":4009,"name":"Goa","native":null,"cities":[{"id":57638,"name":"Aldona","native":null,"lat":"15.59337000","lon":"73.87482000"},{"id":57727,"name":"Arambol","native":null,"lat":"15.68681000","lon":"73.70449000"},{"id":57795,"name":"Baga","native":null,"lat":"15.56517000","lon":"73.75517000"},{"id":57836,"name":"Bambolim","native":null,"lat":"15.46361000","lon":"73.85310000"},{"id":57845,"name":"Bandora","native":null,"lat":"15.40823000","lon":"73.98129000"},{"id":57932,"name":"Benaulim","native":null,"lat":"15.26435000","lon":"73.92812000"},{"id":58165,"name":"Calangute","native":null,"lat":"15.54390000","lon":"73.75530000"},{"id":58167,"name":"Candolim","native":null,"lat":"15.51807000","lon":"73.76259000"},{"id":58169,"name":"Carapur","native":null,"lat":"15.56588000","lon":"73.98713000"},{"id":58170,"name":"Cavelossim","native":null,"lat":"15.17255000","lon":"73.94194000"},{"id":131542,"name":"Chicalim","native":null,"lat":"15.39835000","lon":"73.84216000"},{"id":131559,"name":"Chinchinim","native":null,"lat":"15.21447000","lon":"73.97555000"},{"id":131622,"name":"Colovale","native":null,"lat":"15.63522000","lon":"73.82426000"},{"id":131623,"name":"Colva","native":null,"lat":"15.27976000","lon":"73.92285000"},{"id":131625,"name":"Cortalim","native":null,"lat":"15.40247000","lon":"73.90881000"},{"id":131630,"name":"Cuncolim","native":null,"lat":"15.17730000","lon":"73.99392000"},{"id":131631,"name":"Curchorem","native":null,"lat":"15.26349000","lon":"74.10875000"},{"id":131632,"name":"Curti","native":null,"lat":"15.41667000","lon":"74.01667000"},{"id":131672,"name":"Davorlim","native":null,"lat":"15.27221000","lon":"73.99242000"},{"id":131764,"name":"Dicholi","native":null,"lat":"15.59319000","lon":"73.94571000"},{"id":131960,"name":"Goa Velha","native":null,"lat":"15.44384000","lon":"73.88572000"},{"id":132015,"name":"Guirim","native":null,"lat":"15.57552000","lon":"73.80722000"},{"id":132297,"name":"Jua","native":null,"lat":"15.53070000","lon":"73.95047000"},{"id":132705,"name":"Kankon","native":null,"lat":"15.02698000","lon":"74.04617000"},{"id":132811,"name":"Madgaon","native":null,"lat":"15.27501000","lon":"73.95786000"},{"id":133086,"name":"Mapuca","native":null,"lat":"15.59154000","lon":"73.80898000"},{"id":132997,"name":"Morjim","native":null,"lat":"15.63097000","lon":"73.73903000"},{"id":132998,"name":"Mormugao","native":null,"lat":"15.38914000","lon":"73.81491000"},{"id":133185,"name":"Navelim","native":null,"lat":"15.53333000","lon":"73.98333000"},{"id":133238,"name":"North Goa","native":null,"lat":"15.53397000","lon":"73.96408000"},{"id":133330,"name":"Palle","native":null,"lat":"15.46667000","lon":"74.08333000"},{"id":133342,"name":"Panaji","native":null,"lat":"15.49574000","lon":"73.82624000"},{"id":133422,"name":"Pernem","native":null,"lat":"15.72300000","lon":"73.79511000"},{"id":133471,"name":"Ponda","native":null,"lat":"15.40341000","lon":"74.01519000"},{"id":133572,"name":"Quepem","native":null,"lat":"15.21280000","lon":"74.07720000"},{"id":133573,"name":"Queula","native":null,"lat":"15.39011000","lon":"73.98557000"},{"id":133585,"name":"Raia","native":null,"lat":"15.30499000","lon":"73.97096000"},{"id":133764,"name":"Saligao","native":null,"lat":"15.55359000","lon":"73.79036000"},{"id":133777,"name":"Sancoale","native":null,"lat":"15.37794000","lon":"73.90352000"},{"id":133786,"name":"Sanguem","native":null,"lat":"15.22901000","lon":"74.15149000"},{"id":133791,"name":"Sanquelim","native":null,"lat":"15.56422000","lon":"74.00799000"},{"id":133795,"name":"Sanvordem","native":null,"lat":"15.26269000","lon":"74.11965000"},{"id":133850,"name":"Serula","native":null,"lat":"15.54774000","lon":"73.84329000"},{"id":133987,"name":"Solim","native":null,"lat":"15.61521000","lon":"73.76740000"},{"id":134010,"name":"South Goa","native":null,"lat":"15.20425000","lon":"74.16733000"},{"id":134101,"name":"Taleigao","native":null,"lat":"15.46915000","lon":"73.83285000"},{"id":134311,"name":"Vagator","native":null,"lat":"15.59766000","lon":"73.74496000"},{"id":134321,"name":"Valpoy","native":null,"lat":"15.53239000","lon":"74.13671000"},{"id":134329,"name":"Varca","native":null,"lat":"15.23237000","lon":"73.94311000"},{"id":134333,"name":"Vasco da Gama","native":null,"lat":"15.39585000","lon":"73.81568000"}]},{"id":4030,"name":"Gujarat","native":null,"cities":[{"id":57588,"name":"Abrama","native":null,"lat":"20.85865000","lon":"72.90648000"},{"id":57591,"name":"Adalaj","native":null,"lat":"23.16453000","lon":"72.58107000"},{"id":147572,"name":"Agol","native":null,"lat":"23.15000000","lon":"72.26666667"},{"id":57606,"name":"Ahmedabad","native":null,"lat":"23.02579000","lon":"72.58727000"},{"id":57608,"name":"Ahwa","native":null,"lat":"20.75718000","lon":"73.68626000"},{"id":147573,"name":"Akrund","native":null,"lat":"23.28333333","lon":"73.11666667"},{"id":57683,"name":"Amod","native":null,"lat":"21.99317000","lon":"72.87047000"},{"id":147574,"name":"Amod","native":null,"lat":"21.99100000","lon":"72.87100000"},{"id":57685,"name":"Amreli","native":null,"lat":"21.50789000","lon":"71.18323000"},{"id":57688,"name":"Amroli","native":null,"lat":"21.25084000","lon":"72.83878000"},{"id":57695,"name":"Anand","native":null,"lat":"22.40000000","lon":"72.75000000"},{"id":57709,"name":"Anjar","native":null,"lat":"23.11316000","lon":"70.02671000"},{"id":57710,"name":"Ankleshwar","native":null,"lat":"21.63236000","lon":"72.99001000"},{"id":58104,"name":"Babra","native":null,"lat":"21.84577000","lon":"71.30544000"},{"id":142125,"name":"Bagasara","native":null,"lat":"21.48333333","lon":"70.95000000"},{"id":57799,"name":"Bagasra","native":null,"lat":"21.48719000","lon":"70.95516000"},{"id":147575,"name":"Bakharla","native":null,"lat":"21.73151700","lon":"69.63529600"},{"id":147576,"name":"Balagam","native":null,"lat":"21.36666667","lon":"70.10000000"},{"id":147577,"name":"Balasinor","native":null,"lat":"22.95589100","lon":"73.33649900"},{"id":147578,"name":"Balisana","native":null,"lat":"23.81643600","lon":"72.25753600"},{"id":147579,"name":"Bamanbore","native":null,"lat":"22.41666667","lon":"71.01666667"},{"id":57858,"name":"Banas Kantha","native":null,"lat":"24.25000000","lon":"72.50000000"},{"id":147580,"name":"Bandia","native":null,"lat":"23.39604000","lon":"69.01155000"},{"id":58135,"name":"Bantva","native":null,"lat":"21.48815000","lon":"70.07576000"},{"id":58140,"name":"Bardoli","native":null,"lat":"21.12297000","lon":"73.11151000"},{"id":57911,"name":"Bedi","native":null,"lat":"22.50143000","lon":"70.04363000"},{"id":57948,"name":"Bhachau","native":null,"lat":"23.29858000","lon":"70.34279000"},{"id":147581,"name":"Bhadran","native":null,"lat":"22.35930000","lon":"72.90050000"},{"id":147582,"name":"Bhandu","native":null,"lat":"23.70000000","lon":"72.36666667"},{"id":58014,"name":"Bhanvad","native":null,"lat":"21.93053000","lon":"69.78081000"},{"id":57967,"name":"Bharuch","native":null,"lat":"21.69482000","lon":"72.98050000"},{"id":147583,"name":"Bhatha","native":null,"lat":"21.18333333","lon":"72.76666667"},{"id":57972,"name":"Bhavnagar","native":null,"lat":"21.76287000","lon":"72.15331000"},{"id":58017,"name":"Bhayavadar","native":null,"lat":"21.85523000","lon":"70.24791000"},{"id":147584,"name":"Bhildi","native":null,"lat":"24.18333333","lon":"72.03333333"},{"id":147585,"name":"Bhojpur Dharampur","native":null,"lat":"23.25000000","lon":"69.67000000"},{"id":58002,"name":"Bhuj","native":null,"lat":"23.25397000","lon":"69.66928000"},{"id":58045,"name":"Bilimora","native":null,"lat":"20.76957000","lon":"72.96134000"},{"id":58046,"name":"Bilkha","native":null,"lat":"21.44150000","lon":"70.60063000"},{"id":58084,"name":"Borsad","native":null,"lat":"22.40788000","lon":"72.89817000"},{"id":58085,"name":"Botad","native":null,"lat":"22.16917000","lon":"71.66671000"},{"id":58174,"name":"Chaklasi","native":null,"lat":"22.65320000","lon":"72.94497000"},{"id":58180,"name":"Chalala","native":null,"lat":"21.41073000","lon":"71.16621000"},{"id":147586,"name":"Chaloda","native":null,"lat":"22.80000000","lon":"72.45000000"},{"id":147587,"name":"Champaner","native":null,"lat":"22.48590000","lon":"73.53710000"},{"id":131595,"name":"Chanasma","native":null,"lat":"23.71472000","lon":"72.11279000"},{"id":131529,"name":"Chhala","native":null,"lat":"23.30779000","lon":"72.77404000"},{"id":131535,"name":"Chhota Udepur","native":null,"lat":"22.30401000","lon":"74.01580000"},{"id":131548,"name":"Chikhli","native":null,"lat":"20.75751000","lon":"73.06268000"},{"id":131582,"name":"Chotila","native":null,"lat":"22.42347000","lon":"71.19641000"},{"id":147588,"name":"Chuda","native":null,"lat":"22.48333333","lon":"71.68333333"},{"id":147589,"name":"Dabhoda","native":null,"lat":"23.16666667","lon":"72.73333333"},{"id":131635,"name":"Dabhoi","native":null,"lat":"22.18333000","lon":"73.43333000"},{"id":131642,"name":"Dahegam","native":null,"lat":"23.16903000","lon":"72.82161000"},{"id":142126,"name":"Dahod","native":null,"lat":"22.52000000","lon":"74.15000000"},{"id":131808,"name":"Dakor","native":null,"lat":"22.75268000","lon":"73.14967000"},{"id":131809,"name":"Damnagar","native":null,"lat":"21.69232000","lon":"71.51747000"},{"id":147590,"name":"Dandi","native":null,"lat":"21.32988000","lon":"72.62484000"},{"id":142127,"name":"Dangs (India)","native":null,"lat":"20.75000000","lon":"73.75000000"},{"id":147591,"name":"Danta","native":null,"lat":"24.18861111","lon":"72.76583333"},{"id":131673,"name":"Dayapar","native":null,"lat":"23.63371000","lon":"68.90192000"},{"id":131680,"name":"Delvada","native":null,"lat":"20.77544000","lon":"71.04646000"},{"id":142128,"name":"Delwada","native":null,"lat":"20.78330000","lon":"71.05000000"},{"id":147592,"name":"Detroj","native":null,"lat":"23.33333333","lon":"72.18333333"},{"id":131704,"name":"Devbhumi Dwarka","native":null,"lat":"22.20253000","lon":"69.65498000"},{"id":131705,"name":"Devgadh Bariya","native":null,"lat":"22.70517000","lon":"73.90882000"},{"id":131716,"name":"Dhandhuka","native":null,"lat":"22.38185000","lon":"71.98664000"},{"id":131717,"name":"Dhanera","native":null,"lat":"24.50967000","lon":"72.02343000"},{"id":147593,"name":"Dhansura","native":null,"lat":"23.35000000","lon":"73.20000000"},{"id":131719,"name":"Dharampur","native":null,"lat":"20.53693000","lon":"73.17368000"},{"id":147594,"name":"Dharasana","native":null,"lat":"20.68333333","lon":"72.91666667"},{"id":131755,"name":"Dhari","native":null,"lat":"21.32855000","lon":"71.02645000"},{"id":147595,"name":"Dhasa","native":null,"lat":"21.80000000","lon":"71.51666667"},{"id":131738,"name":"Dhola","native":null,"lat":"21.88129000","lon":"71.77269000"},{"id":147596,"name":"Dholera","native":null,"lat":"22.24800000","lon":"72.19500000"},{"id":131739,"name":"Dholka","native":null,"lat":"22.72732000","lon":"72.44128000"},{"id":131741,"name":"Dhoraji","native":null,"lat":"21.73359000","lon":"70.45004000"},{"id":131743,"name":"Dhrangadhra","native":null,"lat":"22.99167000","lon":"71.46793000"},{"id":131742,"name":"Dhrol","native":null,"lat":"22.56700000","lon":"70.41769000"},{"id":131747,"name":"Dhuwaran","native":null,"lat":"22.23779000","lon":"72.75910000"},{"id":131817,"name":"Disa","native":null,"lat":"24.25612000","lon":"72.17928000"},{"id":131782,"name":"Dohad","native":null,"lat":"22.90000000","lon":"74.00000000"},{"id":147597,"name":"Dumkhal","native":null,"lat":"21.73960000","lon":"73.84490000"},{"id":131800,"name":"Dungarpur","native":null,"lat":"21.28777000","lon":"71.75560000"},{"id":131803,"name":"Dwarka","native":null,"lat":"22.23944000","lon":"68.96778000"},{"id":131888,"name":"Gadhada","native":null,"lat":"21.96957000","lon":"71.57828000"},{"id":131899,"name":"Gandevi","native":null,"lat":"20.81214000","lon":"72.99811000"},{"id":132046,"name":"Gandhidham","native":null,"lat":"23.08333000","lon":"70.13333000"},{"id":131900,"name":"Gandhinagar","native":null,"lat":"23.21667000","lon":"72.68333000"},{"id":131925,"name":"Gariadhar","native":null,"lat":"21.53889000","lon":"71.57737000"},{"id":147598,"name":"Ghodasar","native":null,"lat":"24.45000000","lon":"71.85000000"},{"id":131944,"name":"Ghogha","native":null,"lat":"21.68813000","lon":"72.27630000"},{"id":131958,"name":"Gir Somnath","native":null,"lat":"20.91287000","lon":"70.36710000"},{"id":131964,"name":"Godhra","native":null,"lat":"22.77547000","lon":"73.61488000"},{"id":131982,"name":"Gondal","native":null,"lat":"21.96074000","lon":"70.80255000"},{"id":147599,"name":"Gorwa","native":null,"lat":"22.33010000","lon":"73.16110000"},{"id":147600,"name":"Halenda","native":null,"lat":"22.08818500","lon":"71.05171000"},{"id":132139,"name":"Halol","native":null,"lat":"22.50321000","lon":"73.47242000"},{"id":132060,"name":"Halvad","native":null,"lat":"23.01516000","lon":"71.18029000"},{"id":132065,"name":"Hansot","native":null,"lat":"21.58496000","lon":"72.80764000"},{"id":132143,"name":"Harij","native":null,"lat":"23.69356000","lon":"71.90700000"},{"id":147601,"name":"Harsol","native":null,"lat":"23.36000000","lon":"73.02000000"},{"id":147602,"name":"Hathuran","native":null,"lat":"21.50000000","lon":"72.97000000"},{"id":132096,"name":"Himatnagar","native":null,"lat":"23.59893000","lon":"72.96602000"},{"id":147603,"name":"Idar","native":null,"lat":"23.83000000","lon":"73.00000000"},{"id":147604,"name":"Jakhau","native":null,"lat":"23.21861111","lon":"68.71694444"},{"id":142129,"name":"Jalalpore","native":null,"lat":"20.94910000","lon":"72.91360000"},{"id":132219,"name":"Jalalpur","native":null,"lat":"20.94896000","lon":"72.89829000"},{"id":147605,"name":"Jalia","native":null,"lat":"21.80000000","lon":"70.25000000"},{"id":147606,"name":"Jambuda","native":null,"lat":"22.51666667","lon":"70.21666667"},{"id":132226,"name":"Jambusar","native":null,"lat":"22.05236000","lon":"72.80074000"},{"id":132230,"name":"Jamnagar","native":null,"lat":"22.47292000","lon":"70.06673000"},{"id":147607,"name":"Jarod","native":null,"lat":"22.43300000","lon":"73.33300000"},{"id":132243,"name":"Jasdan","native":null,"lat":"22.03709000","lon":"71.20794000"},{"id":147608,"name":"Jetalpur","native":null,"lat":"22.88333333","lon":"72.60000000"},{"id":132261,"name":"Jetalsar","native":null,"lat":"21.70891000","lon":"70.57695000"},{"id":132262,"name":"Jetpur","native":null,"lat":"21.75482000","lon":"70.62347000"},{"id":147609,"name":"Jetpur (Navagadh)","native":null,"lat":"21.75482000","lon":"70.62347000"},{"id":147610,"name":"Jhalod","native":null,"lat":"23.10027778","lon":"74.15611111"},{"id":132272,"name":"Jhulasan","native":null,"lat":"23.32860000","lon":"72.47314000"},{"id":132285,"name":"Jodhpur","native":null,"lat":"21.90174000","lon":"70.03270000"},{"id":147611,"name":"Jodhpur (Ahmedabad)","native":null,"lat":"21.88000000","lon":"70.03000000"},{"id":142130,"name":"Jodia","native":null,"lat":"22.71667000","lon":"70.28333000"},{"id":132287,"name":"Jodiya Bandar","native":null,"lat":"22.71667000","lon":"70.28333000"},{"id":132317,"name":"Junagadh","native":null,"lat":"21.25000000","lon":"70.33333000"},{"id":132321,"name":"Kachchh","native":null,"lat":"23.58333000","lon":"70.00000000"},{"id":147612,"name":"Kachholi","native":null,"lat":"20.83333333","lon":"72.96666667"},{"id":132327,"name":"Kadi","native":null,"lat":"23.29908000","lon":"72.33362000"},{"id":132329,"name":"Kadod","native":null,"lat":"21.21717000","lon":"73.21972000"},{"id":132689,"name":"Kalavad","native":null,"lat":"22.20789000","lon":"70.38343000"},{"id":132682,"name":"Kalol","native":null,"lat":"22.60777000","lon":"73.46272000"},{"id":132698,"name":"Kandla","native":null,"lat":"23.03333000","lon":"70.21667000"},{"id":147613,"name":"Kandla port","native":null,"lat":"23.03000000","lon":"70.22000000"},{"id":132708,"name":"Kanodar","native":null,"lat":"24.08932000","lon":"72.39354000"},{"id":132390,"name":"Kapadvanj","native":null,"lat":"23.02302000","lon":"73.07113000"},{"id":132394,"name":"Karamsad","native":null,"lat":"22.54243000","lon":"72.90392000"},{"id":147614,"name":"Kariana","native":null,"lat":"21.88333333","lon":"71.35000000"},{"id":147615,"name":"Karjan","native":null,"lat":"22.05304167","lon":"73.12351389"},{"id":132723,"name":"Kathor","native":null,"lat":"21.28854000","lon":"72.94070000"},{"id":132425,"name":"Katpur","native":null,"lat":"21.05869000","lon":"71.79457000"},{"id":142131,"name":"Kavant","native":null,"lat":"22.09282000","lon":"74.05078000"},{"id":132434,"name":"Kawant","native":null,"lat":"22.09282000","lon":"74.05078000"},{"id":147616,"name":"Kayavarohan","native":null,"lat":"22.06700000","lon":"73.25000000"},{"id":147617,"name":"Kerwada","native":null,"lat":"21.90000000","lon":"72.85000000"},{"id":132446,"name":"Keshod","native":null,"lat":"21.30328000","lon":"70.24861000"},{"id":142132,"name":"Khambhalia","native":null,"lat":"22.20000000","lon":"69.65000000"},{"id":132462,"name":"Khambhat","native":null,"lat":"22.31744000","lon":"72.61916000"},{"id":147618,"name":"Khavda","native":null,"lat":"23.85000000","lon":"69.72000000"},{"id":132488,"name":"Kheda","native":null,"lat":"22.75000000","lon":"72.83333000"},{"id":132489,"name":"Khedbrahma","native":null,"lat":"24.02990000","lon":"73.04632000"},{"id":147619,"name":"Khedoi","native":null,"lat":"23.05927778","lon":"69.91895556"},{"id":147620,"name":"Kherali","native":null,"lat":"22.68333333","lon":"71.60000000"},{"id":132494,"name":"Kheralu","native":null,"lat":"23.88534000","lon":"72.61869000"},{"id":132547,"name":"Kodinar","native":null,"lat":"20.79393000","lon":"70.70216000"},{"id":132588,"name":"Kosamba","native":null,"lat":"21.46202000","lon":"72.95842000"},{"id":147621,"name":"Kothara","native":null,"lat":"23.13300000","lon":"68.93200000"},{"id":147622,"name":"Kotharia","native":null,"lat":"22.23000000","lon":"70.81000000"},{"id":147623,"name":"Kukarmunda","native":null,"lat":"21.51666667","lon":"74.13333333"},{"id":147624,"name":"Kukma","native":null,"lat":"23.21782200","lon":"69.77792200"},{"id":132647,"name":"Kundla","native":null,"lat":"21.34222000","lon":"71.30633000"},{"id":142133,"name":"Kutch district","native":null,"lat":"23.91500000","lon":"70.36700000"},{"id":132670,"name":"Kutiyana","native":null,"lat":"21.62410000","lon":"69.98494000"},{"id":147628,"name":"Ladol","native":null,"lat":"23.61666667","lon":"72.73333333"},{"id":147625,"name":"Lakhpat","native":null,"lat":"23.82611111","lon":"68.77694444"},{"id":132747,"name":"Lakhtar","native":null,"lat":"22.85683000","lon":"71.78844000"},{"id":132797,"name":"Lalpur","native":null,"lat":"22.19073000","lon":"69.96351000"},{"id":147626,"name":"Langhnaj","native":null,"lat":"23.45000000","lon":"72.48333333"},{"id":132802,"name":"Lathi","native":null,"lat":"21.72310000","lon":"71.38843000"},{"id":132764,"name":"Limbdi","native":null,"lat":"22.56507000","lon":"71.81076000"},{"id":147627,"name":"Limkheda","native":null,"lat":"22.81666667","lon":"73.98333333"},{"id":132804,"name":"Lunavada","native":null,"lat":"23.12841000","lon":"73.61043000"},{"id":147629,"name":"Madhavpur Ghed","native":null,"lat":"21.29929167","lon":"70.02513889"},{"id":147630,"name":"Madhi","native":null,"lat":"22.10000000","lon":"69.10000000"},{"id":132831,"name":"Mahemdavad","native":null,"lat":"22.82359000","lon":"72.75551000"},{"id":132834,"name":"Mahesana","native":null,"lat":"23.66667000","lon":"72.50000000"},{"id":147631,"name":"Mahisa","native":null,"lat":"22.85000000","lon":"73.05000000"},{"id":132841,"name":"Mahudha","native":null,"lat":"22.82082000","lon":"72.94032000"},{"id":147632,"name":"Mahuva","native":null,"lat":"21.08330000","lon":"71.80000000"},{"id":147633,"name":"Mahuva (Surat)","native":null,"lat":"21.02000000","lon":"73.15000000"},{"id":133068,"name":"Malpur","native":null,"lat":"23.36035000","lon":"73.46595000"},{"id":133085,"name":"Manavadar","native":null,"lat":"21.49813000","lon":"70.13775000"},{"id":133073,"name":"Mandal","native":null,"lat":"23.28865000","lon":"71.91854000"},{"id":133076,"name":"Mandvi","native":null,"lat":"22.83282000","lon":"69.35237000"},{"id":142134,"name":"Mandvi (Surat)","native":null,"lat":"21.25526000","lon":"73.30412000"},{"id":133077,"name":"Mangrol","native":null,"lat":"21.12268000","lon":"70.11484000"},{"id":147634,"name":"Mangrol (Junagadh)","native":null,"lat":"21.12000000","lon":"70.12000000"},{"id":133081,"name":"Mansa","native":null,"lat":"23.42564000","lon":"72.65739000"},{"id":132960,"name":"Meghraj","native":null,"lat":"23.49805000","lon":"73.51352000"},{"id":142135,"name":"Mehsana","native":null,"lat":"23.60000000","lon":"72.40000000"},{"id":132966,"name":"Mendarda","native":null,"lat":"21.32112000","lon":"70.44078000"},{"id":147635,"name":"Mithapur","native":null,"lat":"22.41000000","lon":"69.00000000"},{"id":132978,"name":"Modasa","native":null,"lat":"23.46253000","lon":"73.29857000"},{"id":132993,"name":"Morbi","native":null,"lat":"22.81731000","lon":"70.83770000"},{"id":142136,"name":"Morva (Hadaf)","native":null,"lat":"22.90469000","lon":"73.83912000"},{"id":133000,"name":"Morwa","native":null,"lat":"22.90469000","lon":"73.83912000"},{"id":133029,"name":"Mundra","native":null,"lat":"22.83918000","lon":"69.72190000"},{"id":133106,"name":"Nadiad","native":null,"lat":"22.69385000","lon":"72.86157000"},{"id":147636,"name":"Nadiad","native":null,"lat":"22.70000000","lon":"72.87000000"},{"id":147637,"name":"Nagwa","native":null,"lat":"25.69621000","lon":"84.23590000"},{"id":147638,"name":"Naldhara","native":null,"lat":"20.96666667","lon":"73.16666667"},{"id":133133,"name":"Naliya","native":null,"lat":"23.26058000","lon":"68.82655000"},{"id":147639,"name":"Nargol","native":null,"lat":"20.23300000","lon":"72.75000000"},{"id":133169,"name":"Narmada","native":null,"lat":"21.87377000","lon":"73.49527000"},{"id":133170,"name":"Naroda","native":null,"lat":"23.07041000","lon":"72.65702000"},{"id":133187,"name":"Navsari","native":null,"lat":"20.95000000","lon":"72.92000000"},{"id":147640,"name":"Nikora","native":null,"lat":"21.78586000","lon":"73.13968000"},{"id":147641,"name":"Nizar","native":null,"lat":"21.47727000","lon":"74.19595000"},{"id":147642,"name":"Odadar","native":null,"lat":"21.56666667","lon":"69.66666667"},{"id":133297,"name":"Okha","native":null,"lat":"22.46756000","lon":"69.07002000"},{"id":133298,"name":"Olpad","native":null,"lat":"21.33649000","lon":"72.75161000"},{"id":133313,"name":"Paddhari","native":null,"lat":"22.43654000","lon":"70.60162000"},{"id":133315,"name":"Padra","native":null,"lat":"22.23980000","lon":"73.08451000"},{"id":133526,"name":"Palanpur","native":null,"lat":"24.17128000","lon":"72.43827000"},{"id":147643,"name":"Palanswa","native":null,"lat":"23.46666667","lon":"70.93333333"},{"id":133532,"name":"Palitana","native":null,"lat":"21.52519000","lon":"71.82309000"},{"id":133533,"name":"Paliyad","native":null,"lat":"22.25757000","lon":"71.56024000"},{"id":147644,"name":"Paliyad (Bhavnagar)","native":null,"lat":"22.25757000","lon":"71.56024000"},{"id":147645,"name":"Palsana","native":null,"lat":"21.08000000","lon":"72.98000000"},{"id":133536,"name":"Panch Mahals","native":null,"lat":"22.75000000","lon":"73.60000000"},{"id":142137,"name":"Panchmahal district","native":null,"lat":"22.75000000","lon":"73.60000000"},{"id":133548,"name":"Pardi","native":null,"lat":"20.50870000","lon":"72.94569000"},{"id":133362,"name":"Parnera","native":null,"lat":"20.56101000","lon":"72.94846000"},{"id":133376,"name":"Patan","native":null,"lat":"23.70000000","lon":"71.80000000"},{"id":142138,"name":"Pavi Jetpur","native":null,"lat":"22.34472000","lon":"73.84093000"},{"id":133429,"name":"Petlad","native":null,"lat":"22.47681000","lon":"72.79995000"},{"id":147646,"name":"Pipavav","native":null,"lat":"20.96666667","lon":"71.56666667"},{"id":147647,"name":"Piplod","native":null,"lat":"22.81666667","lon":"73.90000000"},{"id":133480,"name":"Porbandar","native":null,"lat":"21.64219000","lon":"69.60929000"},{"id":147648,"name":"Prabhas Patan","native":null,"lat":"20.88808000","lon":"70.40129000"},{"id":147649,"name":"Prantij","native":null,"lat":"23.43841944","lon":"72.85718056"},{"id":133657,"name":"Radhanpur","native":null,"lat":"23.83238000","lon":"71.60470000"},{"id":133679,"name":"Rajkot","native":null,"lat":"22.33333000","lon":"70.83333000"},{"id":133682,"name":"Rajpipla","native":null,"lat":"21.86667000","lon":"73.50000000"},{"id":133684,"name":"Rajula","native":null,"lat":"21.03854000","lon":"71.44345000"},{"id":133718,"name":"Ranavav","native":null,"lat":"21.68734000","lon":"69.74485000"},{"id":147650,"name":"Ranpur","native":null,"lat":"22.36670000","lon":"71.75000000"},{"id":133722,"name":"Rapar","native":null,"lat":"23.57267000","lon":"70.64718000"},{"id":147651,"name":"Reha","native":null,"lat":"23.15172500","lon":"69.75008600"},{"id":133643,"name":"Roha","native":null,"lat":"23.19646000","lon":"69.27076000"},{"id":133739,"name":"Sabar Kantha","native":null,"lat":"23.62974000","lon":"73.00197000"},{"id":133742,"name":"Sachin","native":null,"lat":"21.08718000","lon":"72.88153000"},{"id":133766,"name":"Salaya","native":null,"lat":"22.31038000","lon":"69.60376000"},{"id":147652,"name":"Samakhiali","native":null,"lat":"23.30340000","lon":"70.50688000"},{"id":134069,"name":"Sanand","native":null,"lat":"22.99227000","lon":"72.38177000"},{"id":133790,"name":"Sankheda","native":null,"lat":"22.17021000","lon":"73.57820000"},{"id":147653,"name":"Sarbhon","native":null,"lat":"21.05000000","lon":"73.08330000"},{"id":147654,"name":"Sardoi","native":null,"lat":"23.56670000","lon":"73.26670000"},{"id":133808,"name":"Sarkhej","native":null,"lat":"22.98297000","lon":"72.50196000"},{"id":147655,"name":"Sathamba","native":null,"lat":"23.16912500","lon":"73.32661667"},{"id":133831,"name":"Savarkundla","native":null,"lat":"21.33726000","lon":"71.30350000"},{"id":147656,"name":"Savli","native":null,"lat":"22.56666667","lon":"73.21666667"},{"id":134085,"name":"Sayla","native":null,"lat":"22.54925000","lon":"71.48324000"},{"id":133900,"name":"Shahpur","native":null,"lat":"22.15611000","lon":"70.77068000"},{"id":133882,"name":"Shivrajpur","native":null,"lat":"22.42319000","lon":"73.60865000"},{"id":142139,"name":"Siddhpur","native":null,"lat":"23.91670000","lon":"72.38330000"},{"id":133925,"name":"Sihor","native":null,"lat":"21.71134000","lon":"71.96179000"},{"id":133932,"name":"Sikka","native":null,"lat":"22.43218000","lon":"69.84158000"},{"id":133954,"name":"Sinor","native":null,"lat":"21.91117000","lon":"73.33974000"},{"id":133984,"name":"Sojitra","native":null,"lat":"22.53884000","lon":"72.71984000"},{"id":133995,"name":"Songadh","native":null,"lat":"21.16966000","lon":"73.56357000"},{"id":147657,"name":"Supedi","native":null,"lat":"21.76200000","lon":"70.37800000"},{"id":134096,"name":"Surat","native":null,"lat":"21.17801000","lon":"72.81189000"},{"id":134050,"name":"Surendranagar","native":null,"lat":"22.72706000","lon":"71.64856000"},{"id":147658,"name":"Sutrapada","native":null,"lat":"20.89280000","lon":"70.46500000"},{"id":134107,"name":"Talaja","native":null,"lat":"21.35270000","lon":"72.03524000"},{"id":134112,"name":"Tankara","native":null,"lat":"22.65622000","lon":"70.74945000"},{"id":134114,"name":"Tapi","native":null,"lat":"21.12000000","lon":"73.40000000"},{"id":134164,"name":"Than","native":null,"lat":"22.57422000","lon":"71.19942000"},{"id":142140,"name":"Thangadh","native":null,"lat":"22.56666667","lon":"71.18333333"},{"id":134144,"name":"Tharad","native":null,"lat":"24.39597000","lon":"71.62577000"},{"id":134168,"name":"Thasra","native":null,"lat":"22.79831000","lon":"73.21174000"},{"id":134145,"name":"The Dangs","native":null,"lat":"20.75000000","lon":"73.75000000"},{"id":147659,"name":"Umarpada","native":null,"lat":"21.45000000","lon":"73.50000000"},{"id":134277,"name":"Umrala","native":null,"lat":"21.84353000","lon":"71.80305000"},{"id":134275,"name":"Umreth","native":null,"lat":"22.69881000","lon":"73.11561000"},{"id":134278,"name":"Un","native":null,"lat":"23.88745000","lon":"71.76975000"},{"id":134280,"name":"Una","native":null,"lat":"20.82318000","lon":"71.03795000"},{"id":134284,"name":"Unjha","native":null,"lat":"23.80366000","lon":"72.39101000"},{"id":134286,"name":"Upleta","native":null,"lat":"21.74015000","lon":"70.28256000"},{"id":134297,"name":"Utran","native":null,"lat":"21.23333000","lon":"72.86667000"},{"id":147660,"name":"Vadgam","native":null,"lat":"24.08333333","lon":"72.48333333"},{"id":134309,"name":"Vadnagar","native":null,"lat":"23.78593000","lon":"72.63893000"},{"id":134310,"name":"Vadodara","native":null,"lat":"22.29941000","lon":"73.20812000"},{"id":134381,"name":"Vaghodia","native":null,"lat":"22.30505000","lon":"73.40016000"},{"id":147661,"name":"Vaghodia INA","native":null,"lat":"22.30000000","lon":"73.38330000"},{"id":134318,"name":"Vallabh Vidyanagar","native":null,"lat":"22.53333000","lon":"72.90000000"},{"id":142141,"name":"Vallabhipur","native":null,"lat":"21.88780000","lon":"71.87950000"},{"id":134322,"name":"Valsad","native":null,"lat":"20.50000000","lon":"73.08333000"},{"id":147662,"name":"Vanala","native":null,"lat":"22.45000000","lon":"71.98333333"},{"id":142142,"name":"Vansda","native":null,"lat":"20.45000000","lon":"73.22000000"},{"id":147663,"name":"Vanthli","native":null,"lat":"21.48330000","lon":"70.33330000"},{"id":134326,"name":"Vapi","native":null,"lat":"20.37175000","lon":"72.90493000"},{"id":134331,"name":"Vartej","native":null,"lat":"21.73947000","lon":"72.06553000"},{"id":134332,"name":"Vasa","native":null,"lat":"22.66079000","lon":"72.75519000"},{"id":147664,"name":"Vasavad","native":null,"lat":"21.82657000","lon":"71.02436000"},{"id":142143,"name":"Vaso","native":null,"lat":"22.66079000","lon":"72.75519000"},{"id":147665,"name":"Vataman","native":null,"lat":"22.53000000","lon":"72.42000000"},{"id":134339,"name":"Vejalpur","native":null,"lat":"22.69021000","lon":"73.56299000"},{"id":134349,"name":"Veraval","native":null,"lat":"20.90770000","lon":"70.36786000"},{"id":134357,"name":"Vijapur","native":null,"lat":"23.56230000","lon":"72.74848000"},{"id":142144,"name":"Vinchhiya","native":null,"lat":"22.21027000","lon":"71.37967000"},{"id":134363,"name":"Vinchia","native":null,"lat":"22.21027000","lon":"71.37967000"},{"id":147666,"name":"Viramgam","native":null,"lat":"23.12000000","lon":"72.03000000"},{"id":134365,"name":"Virpur","native":null,"lat":"23.18920000","lon":"73.47987000"},{"id":134387,"name":"Visavadar","native":null,"lat":"21.33954000","lon":"70.74966000"},{"id":134371,"name":"Visnagar","native":null,"lat":"23.69855000","lon":"72.55210000"},{"id":134378,"name":"Vyara","native":null,"lat":"21.11079000","lon":"73.39365000"},{"id":142145,"name":"Wadhai","native":null,"lat":"20.76666667","lon":"73.48333333"},{"id":142146,"name":"Wadhwan","native":null,"lat":"22.70000000","lon":"71.68333333"},{"id":134389,"name":"Waghai","native":null,"lat":"20.77048000","lon":"73.50074000"},{"id":134416,"name":"Wankaner","native":null,"lat":"22.61198000","lon":"70.94379000"}]},{"id":4007,"name":"Haryana","native":null,"cities":[{"id":57675,"name":"Ambala","native":null,"lat":"30.32854000","lon":"76.94220000"},{"id":134464,"name":"Asandh","native":null,"lat":"29.52119000","lon":"76.60552000"},{"id":57756,"name":"Ateli Mandi","native":null,"lat":"28.10080000","lon":"76.25980000"},{"id":57810,"name":"Bahadurgarh","native":null,"lat":"28.69287000","lon":"76.93555000"},{"id":57861,"name":"Bara Uchana","native":null,"lat":"29.46747000","lon":"76.17798000"},{"id":57890,"name":"Barwala","native":null,"lat":"29.36747000","lon":"75.90809000"},{"id":58152,"name":"Bawal","native":null,"lat":"28.07184000","lon":"76.58312000"},{"id":57937,"name":"Beri Khas","native":null,"lat":"28.70146000","lon":"76.57708000"},{"id":57988,"name":"Bhiwani","native":null,"lat":"28.75000000","lon":"76.16667000"},{"id":58054,"name":"Bilaspur","native":null,"lat":"30.30450000","lon":"77.30424000"},{"id":58164,"name":"Buriya","native":null,"lat":"30.15911000","lon":"77.35814000"},{"id":58200,"name":"Charkhi Dadri","native":null,"lat":"28.59166000","lon":"76.27161000"},{"id":131528,"name":"Chhachhrauli","native":null,"lat":"30.24492000","lon":"77.36027000"},{"id":131638,"name":"Dabwali","native":null,"lat":"29.94906000","lon":"74.73832000"},{"id":131757,"name":"Dharuhera","native":null,"lat":"28.20553000","lon":"76.79691000"},{"id":131831,"name":"Ellenabad","native":null,"lat":"29.45282000","lon":"74.66122000"},{"id":131853,"name":"Faridabad","native":null,"lat":"28.41124000","lon":"77.31316000"},{"id":131854,"name":"Faridabad District","native":null,"lat":"28.46292000","lon":"77.37160000"},{"id":131856,"name":"Farrukhnagar","native":null,"lat":"28.44745000","lon":"76.82391000"},{"id":131872,"name":"Fatehabad","native":null,"lat":"29.51525000","lon":"75.45554000"},{"id":131862,"name":"Fatehabad District","native":null,"lat":"29.31000000","lon":"75.27000000"},{"id":131882,"name":"Firozpur Jhirka","native":null,"lat":"27.78853000","lon":"76.94496000"},{"id":131937,"name":"Gharaunda","native":null,"lat":"29.53692000","lon":"76.97142000"},{"id":131968,"name":"Gohana","native":null,"lat":"29.13777000","lon":"76.70247000"},{"id":131991,"name":"Gorakhpur","native":null,"lat":"29.44768000","lon":"75.67206000"},{"id":132032,"name":"Gurgaon","native":null,"lat":"28.43891000","lon":"77.00592000"},{"id":132141,"name":"Hansi","native":null,"lat":"29.10239000","lon":"75.96253000"},{"id":132084,"name":"Hasanpur","native":null,"lat":"27.96944000","lon":"77.49544000"},{"id":132106,"name":"Hisar","native":null,"lat":"29.15394000","lon":"75.72294000"},{"id":132109,"name":"Hodal","native":null,"lat":"27.89196000","lon":"77.36744000"},{"id":132163,"name":"Inda Chhoi","native":null,"lat":"29.64042000","lon":"75.79041000"},{"id":132167,"name":"Indri","native":null,"lat":"29.87999000","lon":"77.05972000"},{"id":132194,"name":"Jagadhri","native":null,"lat":"30.16719000","lon":"77.30367000"},{"id":132305,"name":"Jakhal","native":null,"lat":"29.79627000","lon":"75.82392000"},{"id":132266,"name":"Jhajjar","native":null,"lat":"28.60630000","lon":"76.65650000"},{"id":132315,"name":"Jind","native":null,"lat":"29.31577000","lon":"76.31502000"},{"id":132340,"name":"Kaithal","native":null,"lat":"29.80153000","lon":"76.39959000"},{"id":132360,"name":"Kalanaur","native":null,"lat":"28.82823000","lon":"76.39550000"},{"id":132688,"name":"Kalanwali","native":null,"lat":"29.83573000","lon":"74.97170000"},{"id":132389,"name":"Kanina Khas","native":null,"lat":"28.33093000","lon":"76.31099000"},{"id":132405,"name":"Karnal","native":null,"lat":"29.66667000","lon":"76.83333000"},{"id":132478,"name":"Kharkhauda","native":null,"lat":"28.87870000","lon":"76.91069000"},{"id":132493,"name":"Kheri Sampla","native":null,"lat":"28.77810000","lon":"76.77560000"},{"id":132662,"name":"Kurukshetra","native":null,"lat":"30.00000000","lon":"76.75000000"},{"id":132789,"name":"Ladwa","native":null,"lat":"29.99350000","lon":"77.04563000"},{"id":132772,"name":"Loharu","native":null,"lat":"28.42993000","lon":"75.80779000"},{"id":132825,"name":"Maham","native":null,"lat":"28.96912000","lon":"76.29495000"},{"id":132832,"name":"Mahendragarh","native":null,"lat":"28.25000000","lon":"76.16667000"},{"id":132892,"name":"Mandholi Kalan","native":null,"lat":"28.70850000","lon":"75.68296000"},{"id":133047,"name":"Mustafabad","native":null,"lat":"30.20220000","lon":"77.14873000"},{"id":133176,"name":"Narayangarh","native":null,"lat":"30.47798000","lon":"77.12804000"},{"id":133272,"name":"Narnaul","native":null,"lat":"28.04444000","lon":"76.10833000"},{"id":133273,"name":"Narnaund","native":null,"lat":"29.22047000","lon":"76.14278000"},{"id":133175,"name":"Narwana","native":null,"lat":"29.59903000","lon":"76.11927000"},{"id":133286,"name":"Nilokheri","native":null,"lat":"29.83671000","lon":"76.93191000"},{"id":133290,"name":"Nuh","native":null,"lat":"28.10296000","lon":"77.00144000"},{"id":133337,"name":"Palwal","native":null,"lat":"28.14469000","lon":"77.32546000"},{"id":133345,"name":"Panchkula","native":null,"lat":"30.72883000","lon":"76.94716000"},{"id":133350,"name":"Panipat","native":null,"lat":"29.33259000","lon":"76.92634000"},{"id":133378,"name":"Pataudi","native":null,"lat":"28.32547000","lon":"76.77858000"},{"id":133403,"name":"Pehowa","native":null,"lat":"29.97897000","lon":"76.58249000"},{"id":133451,"name":"Pinjaur","native":null,"lat":"30.79873000","lon":"76.91822000"},{"id":133568,"name":"Punahana","native":null,"lat":"27.86371000","lon":"77.20432000"},{"id":133567,"name":"Pundri","native":null,"lat":"29.76096000","lon":"76.56034000"},{"id":133579,"name":"Radaur","native":null,"lat":"30.02706000","lon":"77.15177000"},{"id":133715,"name":"Rania","native":null,"lat":"29.52454000","lon":"74.83689000"},{"id":133617,"name":"Ratia","native":null,"lat":"29.69029000","lon":"75.57688000"},{"id":133635,"name":"Rewari","native":null,"lat":"28.19900000","lon":"76.61830000"},{"id":133634,"name":"Rewari District","native":null,"lat":"28.19613000","lon":"76.61607000"},{"id":133647,"name":"Rohtak","native":null,"lat":"28.83333000","lon":"76.66667000"},{"id":133746,"name":"Safidon","native":null,"lat":"29.40596000","lon":"76.67042000"},{"id":133774,"name":"Samalkha","native":null,"lat":"29.23552000","lon":"77.01273000"},{"id":133891,"name":"Shadipur Julana","native":null,"lat":"29.12368000","lon":"76.40516000"},{"id":133906,"name":"Shahabad","native":null,"lat":"30.16776000","lon":"76.87046000"},{"id":133961,"name":"Sirsa","native":null,"lat":"29.53489000","lon":"75.02898000"},{"id":133980,"name":"Sohna","native":null,"lat":"28.24737000","lon":"77.06544000"},{"id":133999,"name":"Sonipat","native":null,"lat":"29.00000000","lon":"76.91667000"},{"id":134238,"name":"Taoru","native":null,"lat":"28.21173000","lon":"76.94984000"},{"id":134167,"name":"Thanesar","native":null,"lat":"29.97323000","lon":"76.83214000"},{"id":134206,"name":"Tohana","native":null,"lat":"29.71332000","lon":"75.90441000"},{"id":134211,"name":"Tosham","native":null,"lat":"28.86993000","lon":"75.91650000"},{"id":134265,"name":"Uklana","native":null,"lat":"29.51124000","lon":"75.87823000"},{"id":134422,"name":"Yamunanagar","native":null,"lat":"30.23644000","lon":"77.30498000"}]},{"id":4020,"name":"Himachal Pradesh","native":null,"cities":[{"id":57736,"name":"Arki","native":null,"lat":"31.15196000","lon":"76.96675000"},{"id":57789,"name":"Baddi","native":null,"lat":"30.95783000","lon":"76.79136000"},{"id":57853,"name":"Banjar","native":null,"lat":"31.63900000","lon":"77.34055000"},{"id":58041,"name":"Bilaspur","native":null,"lat":"31.33027000","lon":"76.75663000"},{"id":58181,"name":"Chamba","native":null,"lat":"32.57147000","lon":"76.10229000"},{"id":131512,"name":"Chaupal","native":null,"lat":"30.94647000","lon":"77.58840000"},{"id":131583,"name":"Chowari","native":null,"lat":"32.43190000","lon":"76.01200000"},{"id":131587,"name":"Chuari Khas","native":null,"lat":"32.43058000","lon":"76.01428000"},{"id":131641,"name":"Dagshai","native":null,"lat":"30.88431000","lon":"77.05228000"},{"id":131645,"name":"Dalhousie","native":null,"lat":"32.55219000","lon":"75.94663000"},{"id":131665,"name":"Daulatpur","native":null,"lat":"31.78871000","lon":"75.99154000"},{"id":131694,"name":"Dera Gopipur","native":null,"lat":"31.87919000","lon":"76.21871000"},{"id":131721,"name":"Dharamsala","native":null,"lat":"32.22006000","lon":"76.32013000"},{"id":131891,"name":"Gagret","native":null,"lat":"31.65846000","lon":"76.06144000"},{"id":131949,"name":"Ghumarwin","native":null,"lat":"31.44166000","lon":"76.71509000"},{"id":132063,"name":"Hamirpur","native":null,"lat":"31.75000000","lon":"76.50000000"},{"id":132255,"name":"Jawala Mukhi","native":null,"lat":"31.87456000","lon":"76.32013000"},{"id":132289,"name":"Jogindarnagar","native":null,"lat":"31.98727000","lon":"76.78906000"},{"id":132298,"name":"Jubbal","native":null,"lat":"31.10923000","lon":"77.65085000"},{"id":132302,"name":"Jutogh","native":null,"lat":"31.10000000","lon":"77.11667000"},{"id":132681,"name":"Kalka","native":null,"lat":"30.83982000","lon":"76.94065000"},{"id":132701,"name":"Kangar","native":null,"lat":"32.09135000","lon":"76.26267000"},{"id":132702,"name":"Kangra","native":null,"lat":"32.16667000","lon":"76.25000000"},{"id":132416,"name":"Kasauli","native":null,"lat":"30.89856000","lon":"76.96587000"},{"id":132523,"name":"Kinnaur","native":null,"lat":"31.58333000","lon":"78.41667000"},{"id":132601,"name":"Kotkhai","native":null,"lat":"31.11728000","lon":"77.53936000"},{"id":132602,"name":"Kotla","native":null,"lat":"32.25000000","lon":"76.03333000"},{"id":132636,"name":"Kulu","native":null,"lat":"32.00000000","lon":"77.25000000"},{"id":132675,"name":"Kyelang","native":null,"lat":"32.57170000","lon":"77.02448000"},{"id":132791,"name":"Lahul and Spiti","native":null,"lat":"32.50000000","lon":"77.83333000"},{"id":132929,"name":"Manali","native":null,"lat":"32.25740000","lon":"77.17481000"},{"id":132893,"name":"Mandi","native":null,"lat":"31.71194000","lon":"76.93273000"},{"id":133251,"name":"Nadaun","native":null,"lat":"31.78303000","lon":"76.34310000"},{"id":133113,"name":"Nagar","native":null,"lat":"32.13808000","lon":"77.17393000"},{"id":133118,"name":"Nagrota","native":null,"lat":"32.05710000","lon":"76.09139000"},{"id":133261,"name":"Nahan","native":null,"lat":"30.56029000","lon":"77.29426000"},{"id":133263,"name":"Nalagarh","native":null,"lat":"31.04168000","lon":"76.72285000"},{"id":133525,"name":"Palampur","native":null,"lat":"32.11453000","lon":"76.55681000"},{"id":133539,"name":"Pandoh","native":null,"lat":"31.66902000","lon":"77.05359000"},{"id":133544,"name":"Paonta Sahib","native":null,"lat":"30.43666000","lon":"77.62462000"},{"id":133369,"name":"Parwanoo","native":null,"lat":"30.83716000","lon":"76.96143000"},{"id":133676,"name":"Rajgarh","native":null,"lat":"30.85142000","lon":"77.30066000"},{"id":133706,"name":"Rampur","native":null,"lat":"31.44943000","lon":"77.63087000"},{"id":133646,"name":"Rohru","native":null,"lat":"31.20269000","lon":"77.75484000"},{"id":133741,"name":"Sabathu","native":null,"lat":"30.97494000","lon":"76.99137000"},{"id":133794,"name":"Santokhgarh","native":null,"lat":"31.35205000","lon":"76.31775000"},{"id":133811,"name":"Sarahan","native":null,"lat":"31.50988000","lon":"77.79395000"},{"id":133807,"name":"Sarka Ghat","native":null,"lat":"31.69887000","lon":"76.73529000"},{"id":133841,"name":"Seoni","native":null,"lat":"31.24188000","lon":"77.12362000"},{"id":133871,"name":"Shimla","native":null,"lat":"31.16667000","lon":"77.58333000"},{"id":133957,"name":"Sirmaur","native":null,"lat":"30.75000000","lon":"77.50000000"},{"id":133985,"name":"Solan","native":null,"lat":"31.08333000","lon":"76.83333000"},{"id":134045,"name":"Sundarnagar","native":null,"lat":"31.53523000","lon":"76.90500000"},{"id":134149,"name":"Theog","native":null,"lat":"31.12155000","lon":"77.35838000"},{"id":134246,"name":"Tira Sujanpur","native":null,"lat":"31.83364000","lon":"76.50539000"},{"id":134279,"name":"Una","native":null,"lat":"31.46493000","lon":"76.26914000"},{"id":134435,"name":"Yol","native":null,"lat":"32.16423000","lon":"76.19622000"}]},{"id":4029,"name":"Jammu and Kashmir","native":null,"cities":[{"id":57622,"name":"Akhnur","native":null,"lat":"32.86667000","lon":"74.73333000"},{"id":57699,"name":"Anantnag","native":null,"lat":"33.73068000","lon":"75.15418000"},{"id":57774,"name":"Awantipur","native":null,"lat":"33.91978000","lon":"75.01515000"},{"id":57790,"name":"Badgam","native":null,"lat":"33.89001000","lon":"74.66297000"},{"id":57843,"name":"Bandipore","native":null,"lat":"34.50404000","lon":"74.82832000"},{"id":57844,"name":"Bandipura","native":null,"lat":"34.41728000","lon":"74.64308000"},{"id":57852,"name":"Banihal","native":null,"lat":"33.43647000","lon":"75.19684000"},{"id":58139,"name":"Baramula","native":null,"lat":"34.19287000","lon":"74.36920000"},{"id":57905,"name":"Batoti","native":null,"lat":"33.11826000","lon":"75.30889000"},{"id":57949,"name":"Bhadarwah","native":null,"lat":"32.97941000","lon":"75.71723000"},{"id":58033,"name":"Bijbehara","native":null,"lat":"33.79378000","lon":"75.10700000"},{"id":58065,"name":"Bishnah","native":null,"lat":"32.61060000","lon":"74.85557000"},{"id":131781,"name":"Doda","native":null,"lat":"33.14916000","lon":"75.54746000"},{"id":132044,"name":"Gandarbal","native":null,"lat":"34.22619000","lon":"74.77478000"},{"id":131898,"name":"Ganderbal","native":null,"lat":"34.29467000","lon":"75.19996000"},{"id":131942,"name":"Gho Brahmanan de","native":null,"lat":"32.55590000","lon":"74.95390000"},{"id":132135,"name":"Hajan","native":null,"lat":"34.29895000","lon":"74.61681000"},{"id":132105,"name":"Hiranagar","native":null,"lat":"32.45493000","lon":"75.27187000"},{"id":132229,"name":"Jammu","native":null,"lat":"32.75000000","lon":"74.83333000"},{"id":132253,"name":"Jaurian","native":null,"lat":"32.83255000","lon":"74.57612000"},{"id":132422,"name":"Kathua","native":null,"lat":"32.58333000","lon":"75.50000000"},{"id":132427,"name":"Katra","native":null,"lat":"32.99167000","lon":"74.93195000"},{"id":132485,"name":"Khaur","native":null,"lat":"32.60270000","lon":"74.80918000"},{"id":132533,"name":"Kishtwar","native":null,"lat":"33.52958000","lon":"76.01462000"},{"id":132735,"name":"Kud","native":null,"lat":"33.07246000","lon":"75.28727000"},{"id":132633,"name":"Kulgam","native":null,"lat":"33.64456000","lon":"75.01923000"},{"id":132654,"name":"Kupwara","native":null,"lat":"34.53193000","lon":"74.26605000"},{"id":132740,"name":"Ladakh","native":null,"lat":"34.33333000","lon":"77.41667000"},{"id":133061,"name":"Magam","native":null,"lat":"34.09256000","lon":"74.59016000"},{"id":133193,"name":"Nawanshahr","native":null,"lat":"32.76505000","lon":"74.52772000"},{"id":133244,"name":"Noria","native":null,"lat":"32.52095000","lon":"74.79845000"},{"id":133310,"name":"Padam","native":null,"lat":"33.46659000","lon":"76.88488000"},{"id":133317,"name":"Pahlgam","native":null,"lat":"34.01592000","lon":"75.31899000"},{"id":133363,"name":"Parol","native":null,"lat":"32.34598000","lon":"75.43441000"},{"id":133388,"name":"Pattan","native":null,"lat":"34.16125000","lon":"74.55634000"},{"id":133501,"name":"Pulwama","native":null,"lat":"33.87405000","lon":"74.89955000"},{"id":133503,"name":"Punch","native":null,"lat":"33.70178000","lon":"74.19916000"},{"id":133576,"name":"Qazigund","native":null,"lat":"33.63828000","lon":"75.14261000"},{"id":133593,"name":"Rajaori","native":null,"lat":"33.37526000","lon":"74.30920000"},{"id":133673,"name":"Rajauri","native":null,"lat":"33.25000000","lon":"74.25000000"},{"id":133601,"name":"Ramban","native":null,"lat":"33.32301000","lon":"75.18610000"},{"id":133698,"name":"Ramgarh","native":null,"lat":"33.40379000","lon":"74.22388000"},{"id":133702,"name":"Ramnagar","native":null,"lat":"32.80728000","lon":"75.31119000"},{"id":133640,"name":"Riasi","native":null,"lat":"33.08115000","lon":"74.83242000"},{"id":133768,"name":"Samba","native":null,"lat":"32.57523000","lon":"75.10929000"},{"id":133889,"name":"Shupiyan","native":null,"lat":"33.73067000","lon":"74.81869000"},{"id":134000,"name":"Sopur","native":null,"lat":"34.28671000","lon":"74.47228000"},{"id":134016,"name":"Soyibug","native":null,"lat":"34.07677000","lon":"74.70570000"},{"id":134020,"name":"Srinagar","native":null,"lat":"34.08565000","lon":"74.80555000"},{"id":134043,"name":"Sumbal","native":null,"lat":"34.23072000","lon":"74.64720000"},{"id":134139,"name":"Thang","native":null,"lat":"34.92740000","lon":"76.79336000"},{"id":134141,"name":"Thanna Mandi","native":null,"lat":"33.54204000","lon":"74.38100000"},{"id":134213,"name":"Tral","native":null,"lat":"33.92708000","lon":"75.11585000"},{"id":134214,"name":"Tsrar Sharif","native":null,"lat":"33.86319000","lon":"74.76524000"},{"id":134257,"name":"Udhampur","native":null,"lat":"33.00000000","lon":"75.16667000"},{"id":134293,"name":"Uri","native":null,"lat":"34.08064000","lon":"74.05088000"}]},{"id":4025,"name":"Jharkhand","native":null,"cities":[{"id":57802,"name":"Bagra","native":null,"lat":"23.73333000","lon":"86.31667000"},{"id":57880,"name":"Barka Kana","native":null,"lat":"23.62118000","lon":"85.46748000"},{"id":57878,"name":"Barki Saria","native":null,"lat":"24.17594000","lon":"85.88938000"},{"id":57889,"name":"Barwadih","native":null,"lat":"23.84780000","lon":"84.11049000"},{"id":57992,"name":"Bhojudih","native":null,"lat":"23.63962000","lon":"86.44105000"},{"id":58076,"name":"Bokaro","native":null,"lat":"23.68562000","lon":"85.99026000"},{"id":58163,"name":"Bundu","native":null,"lat":"23.16095000","lon":"85.59007000"},{"id":131608,"name":"Chaibasa","native":null,"lat":"22.55038000","lon":"85.80249000"},{"id":58175,"name":"Chakradharpur","native":null,"lat":"22.67611000","lon":"85.62892000"},{"id":131591,"name":"Chakulia","native":null,"lat":"22.48301000","lon":"86.71793000"},{"id":131598,"name":"Chandil","native":null,"lat":"22.95745000","lon":"86.05331000"},{"id":131606,"name":"Chas","native":null,"lat":"23.63556000","lon":"86.16712000"},{"id":131511,"name":"Chatra","native":null,"lat":"24.20645000","lon":"84.87085000"},{"id":131570,"name":"Chiria","native":null,"lat":"22.31093000","lon":"85.27601000"},{"id":131648,"name":"Daltonganj","native":null,"lat":"24.03971000","lon":"84.06580000"},{"id":131684,"name":"Deogarh","native":null,"lat":"24.44382000","lon":"86.72607000"},{"id":131715,"name":"Dhanbad","native":null,"lat":"23.80199000","lon":"86.44324000"},{"id":131718,"name":"Dhanwar","native":null,"lat":"24.41074000","lon":"85.98183000"},{"id":131794,"name":"Dugda","native":null,"lat":"23.74516000","lon":"86.17175000"},{"id":131797,"name":"Dumka","native":null,"lat":"24.30000000","lon":"87.25000000"},{"id":131922,"name":"Garhwa","native":null,"lat":"24.07494000","lon":"83.71023000"},{"id":131952,"name":"Ghatsila","native":null,"lat":"22.58531000","lon":"86.47682000"},{"id":131959,"name":"Giridih","native":null,"lat":"24.25000000","lon":"85.91667000"},{"id":131962,"name":"Gobindpur","native":null,"lat":"22.63393000","lon":"86.07162000"},{"id":131963,"name":"Godda","native":null,"lat":"24.83333000","lon":"87.21667000"},{"id":131980,"name":"Gomoh","native":null,"lat":"23.87355000","lon":"86.15160000"},{"id":131986,"name":"Gopinathpur","native":null,"lat":"22.66301000","lon":"86.07500000"},{"id":132006,"name":"Gua","native":null,"lat":"22.21361000","lon":"85.38774000"},{"id":132020,"name":"Gumia","native":null,"lat":"23.79750000","lon":"85.82523000"},{"id":132021,"name":"Gumla","native":null,"lat":"23.08055000","lon":"84.53834000"},{"id":132092,"name":"Hazaribag","native":null,"lat":"24.00000000","lon":"85.25000000"},{"id":132091,"name":"Hazaribagh","native":null,"lat":"23.99241000","lon":"85.36162000"},{"id":132094,"name":"Hesla","native":null,"lat":"24.06313000","lon":"85.87905000"},{"id":132131,"name":"Husainabad","native":null,"lat":"24.52849000","lon":"84.00000000"},{"id":132183,"name":"Jagannathpur","native":null,"lat":"22.22115000","lon":"85.63917000"},{"id":132308,"name":"Jamadoba","native":null,"lat":"23.71667000","lon":"86.40000000"},{"id":132231,"name":"Jamshedpur","native":null,"lat":"22.80278000","lon":"86.18545000"},{"id":132232,"name":"Jamtara","native":null,"lat":"24.00000000","lon":"86.85000000"},{"id":132246,"name":"Jasidih","native":null,"lat":"24.51379000","lon":"86.64576000"},{"id":132268,"name":"Jharia","native":null,"lat":"23.74079000","lon":"86.41456000"},{"id":132299,"name":"Jugsalai","native":null,"lat":"22.77668000","lon":"86.18351000"},{"id":132300,"name":"Jumri Tilaiya","native":null,"lat":"24.43490000","lon":"85.52951000"},{"id":132680,"name":"Kalikapur","native":null,"lat":"22.61662000","lon":"86.28810000"},{"id":132699,"name":"Kandra","native":null,"lat":"22.85170000","lon":"86.05192000"},{"id":132703,"name":"Kanke","native":null,"lat":"23.43478000","lon":"85.32059000"},{"id":132727,"name":"Katras","native":null,"lat":"23.79752000","lon":"86.29834000"},{"id":132443,"name":"Kenduadih","native":null,"lat":"23.77574000","lon":"86.37609000"},{"id":132482,"name":"Kharsawan","native":null,"lat":"22.79093000","lon":"85.83102000"},{"id":132506,"name":"Khunti","native":null,"lat":"23.07602000","lon":"85.27818000"},{"id":132540,"name":"Kodarma","native":null,"lat":"24.46753000","lon":"85.59397000"},{"id":132630,"name":"Kuju","native":null,"lat":"23.72536000","lon":"85.51023000"},{"id":132758,"name":"Latehar","native":null,"lat":"23.75000000","lon":"84.40000000"},{"id":132768,"name":"Lohardaga","native":null,"lat":"23.50000000","lon":"84.60000000"},{"id":132816,"name":"Madhupur","native":null,"lat":"24.27419000","lon":"86.63929000"},{"id":132873,"name":"Malkera","native":null,"lat":"23.78213000","lon":"86.28767000"},{"id":132923,"name":"Manoharpur","native":null,"lat":"22.37456000","lon":"85.19234000"},{"id":133015,"name":"Mugma","native":null,"lat":"23.77015000","lon":"86.72746000"},{"id":133044,"name":"Mushabani","native":null,"lat":"22.51135000","lon":"86.45713000"},{"id":133209,"name":"Neturhat","native":null,"lat":"23.47457000","lon":"84.26780000"},{"id":133223,"name":"Nirsa","native":null,"lat":"23.78438000","lon":"86.70692000"},{"id":133246,"name":"Noamundi","native":null,"lat":"22.16094000","lon":"85.50416000"},{"id":133320,"name":"Pakur","native":null,"lat":"24.63925000","lon":"87.84239000"},{"id":133339,"name":"Palamu","native":null,"lat":"23.91667000","lon":"84.08333000"},{"id":133374,"name":"Pashchim Singhbhum","native":null,"lat":"22.50000000","lon":"85.50000000"},{"id":134446,"name":"patamda","native":null,"lat":"24.30000000","lon":"85.41667000"},{"id":133557,"name":"Pathardih","native":null,"lat":"23.66580000","lon":"86.43166000"},{"id":133510,"name":"Purba Singhbhum","native":null,"lat":"22.59238000","lon":"86.48341000"},{"id":133604,"name":"Ramgarh","native":null,"lat":"23.63073000","lon":"85.56057000"},{"id":133606,"name":"Ranchi","native":null,"lat":"23.34316000","lon":"85.30940000"},{"id":133727,"name":"Ray","native":null,"lat":"23.68430000","lon":"85.05457000"},{"id":133752,"name":"Sahibganj","native":null,"lat":"24.99354000","lon":"87.67333000"},{"id":133800,"name":"Saraikela","native":null,"lat":"22.69963000","lon":"85.93126000"},{"id":134079,"name":"Sarubera","native":null,"lat":"23.81813000","lon":"85.99628000"},{"id":133927,"name":"Sijua","native":null,"lat":"23.77617000","lon":"86.33028000"},{"id":133939,"name":"Simdega","native":null,"lat":"22.61523000","lon":"84.50208000"},