[{"id":3929,"name":"Alborz","native":null,"cities":[{"id":150293,"name":"Asara","native":null,"lat":"36.03913120","lon":"51.19087090"},{"id":150288,"name":"Charbagh","native":null,"lat":"35.84060280","lon":"50.83944800"},{"id":134858,"name":"Eshtehard","native":null,"lat":"35.72813000","lon":"50.41422000"},{"id":134635,"name":"Fardis","native":null,"lat":"35.72318000","lon":"50.97865000"},{"id":150295,"name":"Garmdareh","native":null,"lat":"35.75371760","lon":"51.04707220"},{"id":150291,"name":"Golsar","native":null,"lat":"35.90777800","lon":"50.78250000"},{"id":150292,"name":"Hashtgerd","native":null,"lat":"35.96194400","lon":"50.68000000"},{"id":150289,"name":"Hashtgerd New City","native":null,"lat":"35.98327270","lon":"50.68520960"},{"id":150294,"name":"Kamalshahr","native":null,"lat":"35.88239360","lon":"50.84343850"},{"id":134664,"name":"Karaj","native":null,"lat":"35.83266000","lon":"50.99155000"},{"id":150290,"name":"Koohsar","native":null,"lat":"35.96242640","lon":"50.77578280"},{"id":150296,"name":"Mahdasht","native":null,"lat":"35.72040800","lon":"50.76636250"},{"id":150297,"name":"Mohammad Shahr","native":null,"lat":"35.74468970","lon":"50.87227770"},{"id":134710,"name":"Nazarabad","native":null,"lat":"35.95411000","lon":"50.60607000"},{"id":135051,"name":"Savojbolagh","native":null,"lat":"36.00000000","lon":"50.83333000"},{"id":135096,"name":"Taleqan","native":null,"lat":"36.20528000","lon":"50.77610000"},{"id":150298,"name":"Tankaman","native":null,"lat":"35.89154410","lon":"50.60591340"}]},{"id":3934,"name":"Ardabil","native":null,"cities":[{"id":150198,"name":"Abibeiglou","native":null,"lat":"38.28362000","lon":"48.54482890"},{"id":150199,"name":"Anbaran","native":null,"lat":"38.48843440","lon":"48.41767760"},{"id":134568,"name":"Ardabil","native":null,"lat":"38.24980000","lon":"48.29330000"},{"id":150187,"name":"Aslan Duz","native":null,"lat":"39.44298680","lon":"47.40042690"},{"id":134602,"name":"Bileh Savar","native":null,"lat":"39.37961000","lon":"48.35463000"},{"id":150186,"name":"Eslāmābād","native":null,"lat":"38.13110480","lon":"47.93918600"},{"id":150194,"name":"Fakhrabad","native":null,"lat":"38.52260140","lon":"47.85339830"},{"id":134882,"name":"Germi","native":null,"lat":"39.00000000","lon":"47.95000000"},{"id":150190,"name":"Hashjin","native":null,"lat":"37.36980870","lon":"48.31333280"},{"id":150184,"name":"Hir","native":null,"lat":"38.07953040","lon":"48.48940360"},{"id":150185,"name":"Jafarabad","native":null,"lat":"39.42213160","lon":"48.07888930"},{"id":134911,"name":"Khalkhal","native":null,"lat":"37.40604000","lon":"48.54466000"},{"id":150192,"name":"Kivi","native":null,"lat":"37.69312310","lon":"48.32075700"},{"id":150189,"name":"Kolor","native":null,"lat":"37.38848590","lon":"48.71668330"},{"id":134932,"name":"Kowsar","native":null,"lat":"37.72142000","lon":"48.26985000"},{"id":150200,"name":"Kuraim","native":null,"lat":"37.95500000","lon":"48.23555600"},{"id":150196,"name":"Lahroud","native":null,"lat":"38.50801930","lon":"47.82212370"},{"id":134964,"name":"Meshgin Shahr","native":null,"lat":"38.43333000","lon":"47.75000000"},{"id":150197,"name":"Moradlu","native":null,"lat":"38.74800000","lon":"47.74016620"},{"id":134976,"name":"Namin","native":null,"lat":"38.38333000","lon":"48.51667000"},{"id":134986,"name":"Nir","native":null,"lat":"38.00000000","lon":"48.08333000"},{"id":134722,"name":"Omidcheh","native":null,"lat":"38.28667000","lon":"48.14139000"},{"id":134731,"name":"Parsabad","native":null,"lat":"39.64820000","lon":"47.91740000"},{"id":150195,"name":"Qasabeh","native":null,"lat":"38.38781300","lon":"47.53829230"},{"id":150193,"name":"Razi","native":null,"lat":"38.62486600","lon":"48.08286670"},{"id":150191,"name":"Sarein","native":null,"lat":"38.14643470","lon":"48.05716020"},{"id":135031,"name":"Sareyn","native":null,"lat":"38.18333000","lon":"47.98333000"},{"id":150188,"name":"Tazakand","native":null,"lat":"39.10450420","lon":"44.89902010"}]},{"id":3932,"name":"Bushehr","native":null,"cities":[{"id":150327,"name":"Ab Pakhsh","native":null,"lat":"29.36788550","lon":"51.05140670"},{"id":150322,"name":"Abad","native":null,"lat":"29.02994140","lon":"51.23435480"},{"id":134560,"name":"Ahram","native":null,"lat":"28.88260000","lon":"51.27460000"},{"id":150321,"name":"Alishahr","native":null,"lat":"28.93079290","lon":"51.05608460"},{"id":150324,"name":"Anarestan","native":null,"lat":"28.03242110","lon":"52.05895180"},{"id":135103,"name":"Asaluyeh","native":null,"lat":"27.45000000","lon":"52.73333000"},{"id":150335,"name":"Baduleh","native":null,"lat":"28.39721360","lon":"51.49332760"},{"id":150348,"name":"Banak","native":null,"lat":"27.86259810","lon":"52.00103740"},{"id":150318,"name":"Bandar Bushehr","native":null,"lat":"28.91090220","lon":"50.83002130"},{"id":150345,"name":"Bandar Deylam","native":null,"lat":"30.06097110","lon":"50.14617180"},{"id":134579,"name":"Bandar Ganaveh","native":null,"lat":"29.57910000","lon":"50.51700000"},{"id":150350,"name":"Bandar Rig","native":null,"lat":"29.48417390","lon":"50.61869140"},{"id":150347,"name":"Bandar-e Kangan","native":null,"lat":"27.83288720","lon":"52.03707510"},{"id":150349,"name":"BandarSiraf","native":null,"lat":"27.66442800","lon":"52.32552030"},{"id":150341,"name":"Bardestan","native":null,"lat":"27.87006400","lon":"51.94125630"},{"id":134589,"name":"Borazjan","native":null,"lat":"29.26990000","lon":"51.21880000"},{"id":150340,"name":"Bord Khun","native":null,"lat":"28.06421750","lon":"51.47342790"},{"id":150328,"name":"Boshkan","native":null,"lat":"28.83166590","lon":"51.69114580"},{"id":134594,"name":"Bushehr","native":null,"lat":"28.96887000","lon":"50.83657000"},{"id":150319,"name":"Choghadak","native":null,"lat":"28.98004950","lon":"51.00757680"},{"id":150330,"name":"Dalaki","native":null,"lat":"29.43023450","lon":"51.28279560"},{"id":134844,"name":"Dashtestan","native":null,"lat":"29.28333000","lon":"51.25000000"},{"id":134845,"name":"Dashti","native":null,"lat":"28.48685000","lon":"51.56182000"},{"id":150342,"name":"Dayyer","native":null,"lat":"27.84286870","lon":"51.91832720"},{"id":150323,"name":"Delvar","native":null,"lat":"28.75279600","lon":"51.05192160"},{"id":134621,"name":"Deylam","native":null,"lat":"30.02286000","lon":"50.35595000"},{"id":150343,"name":"Dorahak","native":null,"lat":"27.94859620","lon":"51.95292940"},{"id":134881,"name":"Genaveh","native":null,"lat":"29.64574000","lon":"50.64699000"},{"id":150344,"name":"Imam Hassan","native":null,"lat":"29.84250000","lon":"50.26305600"},{"id":150325,"name":"Jam","native":null,"lat":"27.81572560","lon":"52.30998450"},{"id":150338,"name":"Kaki","native":null,"lat":"28.34162750","lon":"51.50626640"},{"id":150333,"name":"Kalameh","native":null,"lat":"28.94047610","lon":"51.45177470"},{"id":134906,"name":"Kangan","native":null,"lat":"27.71330000","lon":"52.26862000"},{"id":150320,"name":"Kharg","native":null,"lat":"29.24059200","lon":"50.27422810"},{"id":134678,"name":"Khark","native":null,"lat":"29.26139000","lon":"50.33056000"},{"id":150336,"name":"Khormoj","native":null,"lat":"28.64840690","lon":"51.35095520"},{"id":150339,"name":"Konar Torshan","native":null,"lat":"28.07801520","lon":"51.74254250"},{"id":150346,"name":"Nakhl Taghi","native":null,"lat":"27.50035250","lon":"52.57634380"},{"id":150326,"name":"Riz","native":null,"lat":"28.05156760","lon":"52.06435920"},{"id":150331,"name":"Sadabad","native":null,"lat":"29.38580150","lon":"51.11174580"},{"id":150332,"name":"Shaban Kareh","native":null,"lat":"29.47081580","lon":"50.97548950"},{"id":150337,"name":"Shonbeh","native":null,"lat":"28.39593970","lon":"51.75433880"},{"id":150329,"name":"Tang Eram","native":null,"lat":"29.15332260","lon":"51.51832580"},{"id":135059,"name":"Tangestan","native":null,"lat":"28.88333000","lon":"51.26667000"},{"id":150334,"name":"Vahdatiyeh","native":null,"lat":"29.48645140","lon":"51.21830440"}]},{"id":3921,"name":"Chaharmahal and Bakhtiari","native":null,"cities":[{"id":150411,"name":"Aluni","native":null,"lat":"31.55421910","lon":"51.04972240"},{"id":150380,"name":"Ardal","native":null,"lat":"32.00501060","lon":"50.61478550"},{"id":150399,"name":"Babaheydar","native":null,"lat":"32.33058500","lon":"50.45960420"},{"id":150404,"name":"Bazoft","native":null,"lat":"32.20000000","lon":"50.05000000"},{"id":134586,"name":"Ben","native":null,"lat":"32.53556000","lon":"50.75201000"},{"id":150385,"name":"Boldaji","native":null,"lat":"31.93677560","lon":"51.04458330"},{"id":150384,"name":"Boroujen","native":null,"lat":"31.97268680","lon":"51.27156200"},{"id":134590,"name":"Borujen","native":null,"lat":"31.96523000","lon":"51.28730000"},{"id":134607,"name":"Chelgard","native":null,"lat":"32.46720000","lon":"50.12229000"},{"id":150405,"name":"Chelgerd","native":null,"lat":"32.46261960","lon":"50.12346200"},{"id":150402,"name":"Choliche","native":null,"lat":"32.23196940","lon":"50.62066420"},{"id":150381,"name":"Dashtak","native":null,"lat":"32.16260720","lon":"50.44992680"},{"id":150407,"name":"Dastena","native":null,"lat":"32.05881780","lon":"50.76100940"},{"id":150387,"name":"Faradonbeh","native":null,"lat":"32.00967370","lon":"51.19972210"},{"id":134637,"name":"Farrokh Shahr","native":null,"lat":"32.27174000","lon":"50.98008000"},{"id":150394,"name":"Farrokhshahr","native":null,"lat":"32.27076050","lon":"50.93707970"},{"id":134641,"name":"Farsan","native":null,"lat":"32.25694000","lon":"50.56095000"},{"id":150409,"name":"Gahru","native":null,"lat":"32.00802020","lon":"50.87719190"},{"id":150388,"name":"Gandoman","native":null,"lat":"31.86348680","lon":"51.13710870"},{"id":150403,"name":"Gujan","native":null,"lat":"32.24561880","lon":"50.54045680"},{"id":150397,"name":"Haarooni","native":null,"lat":"32.39291700","lon":"50.56652790"},{"id":150398,"name":"Hafshejan","native":null,"lat":"32.22555600","lon":"50.79388900"},{"id":150401,"name":"Junqan","native":null,"lat":"32.15297870","lon":"50.67785030"},{"id":150383,"name":"Kaj","native":null,"lat":"32.05868180","lon":"50.57817940"},{"id":150412,"name":"Kal Geh-ye Sardasht","native":null,"lat":"31.39583300","lon":"50.83583300"},{"id":134937,"name":"Kiar","native":null,"lat":"32.00000000","lon":"50.76667000"},{"id":134940,"name":"Kuhrang","native":null,"lat":"32.41667000","lon":"50.00000000"},{"id":134943,"name":"Lordegan","native":null,"lat":"31.43333000","lon":"50.83333000"},{"id":150413,"name":"Mal-e Khalifeh","native":null,"lat":"31.29168000","lon":"51.25682120"},{"id":150414,"name":"Menj","native":null,"lat":"31.48467380","lon":"50.87308270"},{"id":150396,"name":"Nafch","native":null,"lat":"32.42311540","lon":"50.77988140"},{"id":150410,"name":"Naghan","native":null,"lat":"31.93457630","lon":"50.72042630"},{"id":150389,"name":"Naghneh","native":null,"lat":"31.93395290","lon":"51.32190230"},{"id":150400,"name":"Pordanjan","native":null,"lat":"32.25403890","lon":"50.59079640"},{"id":134764,"name":"Saman","native":null,"lat":"32.44980000","lon":"50.91379000"},{"id":150406,"name":"Samsami","native":null,"lat":"32.16811120","lon":"50.27090540"},{"id":150382,"name":"SarKhun","native":null,"lat":"31.74577700","lon":"50.54092890"},{"id":150386,"name":"Sefiddasht","native":null,"lat":"32.13223020","lon":"51.17423050"},{"id":134783,"name":"Shahrekord","native":null,"lat":"32.31667000","lon":"50.80000000"},{"id":150395,"name":"ShahrKian","native":null,"lat":"32.28446520","lon":"50.88317860"},{"id":150408,"name":"Shalamzar ","native":null,"lat":"32.04720560","lon":"50.80899950"},{"id":150391,"name":"Sudejan","native":null,"lat":"32.52143210","lon":"50.39623970"},{"id":150392,"name":"Sureshjan","native":null,"lat":"32.31709400","lon":"50.67117690"},{"id":150393,"name":"Taqanak","native":null,"lat":"32.22333300","lon":"50.83861100"},{"id":150390,"name":"Vardanjan ","native":null,"lat":"32.47903740","lon":"50.75005520"}]},{"id":3944,"name":"East Azerbaijan","native":null,"cities":[{"id":150134,"name":"Abeshahmad","native":null,"lat":"39.04976740","lon":"47.30755790"},{"id":150144,"name":"Achachi","native":null,"lat":"37.39543380","lon":"47.79039870"},{"id":134559,"name":"Ahar","native":null,"lat":"38.47740000","lon":"47.06990000"},{"id":135160,"name":"Ajabshir","native":null,"lat":"37.47760000","lon":"45.89430000"},{"id":150143,"name":"Aqkend","native":null,"lat":"37.25776990","lon":"48.06143040"},{"id":135089,"name":"Azarshahr","native":null,"lat":"37.75001000","lon":"45.83334000"},{"id":150149,"name":"Bakhshāyesh","native":null,"lat":"38.13113810","lon":"46.93808910"},{"id":150114,"name":"Basmenj","native":null,"lat":"38.00133160","lon":"46.44624690"},{"id":150137,"name":"Benab e Marand","native":null,"lat":"38.42810110","lon":"45.90225220"},{"id":134588,"name":"Bonab","native":null,"lat":"37.34040000","lon":"46.05610000"},{"id":150112,"name":"Bostan Abad","native":null,"lat":"37.83949300","lon":"46.80963270"},{"id":134815,"name":"Bostanabad","native":null,"lat":"37.83333000","lon":"46.83333000"},{"id":134838,"name":"Charavimaq","native":null,"lat":"37.10012000","lon":"47.06680000"},{"id":150121,"name":"Duzduzan","native":null,"lat":"37.94875740","lon":"47.11409570"},{"id":150107,"name":"Gogan","native":null,"lat":"37.78153460","lon":"45.89832550"},{"id":150118,"name":"Hadishahr","native":null,"lat":"38.82833100","lon":"45.62179980"},{"id":150154,"name":"Hashtrood","native":null,"lat":"37.47750290","lon":"47.03698730"},{"id":134654,"name":"Hashtrud","native":null,"lat":"37.47790000","lon":"47.05080000"},{"id":134894,"name":"Heris","native":null,"lat":"38.23058000","lon":"46.84011000"},{"id":150111,"name":"Hurand","native":null,"lat":"38.85916700","lon":"47.36861100"},{"id":150109,"name":"Ilkhichi","native":null,"lat":"37.93748590","lon":"45.94332160"},{"id":150133,"name":"Javan Qala","native":null,"lat":"37.49714170","lon":"45.97186080"},{"id":134898,"name":"Jolfa","native":null,"lat":"38.83343000","lon":"45.91680000"},{"id":150135,"name":"Kaleybar","native":null,"lat":"38.86672580","lon":"47.02453120"},{"id":150152,"name":"Kelvanaq","native":null,"lat":"38.10249790","lon":"46.98483460"},{"id":150150,"name":"Khaje","native":null,"lat":"38.15275670","lon":"46.58237460"},{"id":150125,"name":"Khamaneh","native":null,"lat":"38.18523560","lon":"45.61308840"},{"id":150136,"name":"Kharajoo","native":null,"lat":"37.30978140","lon":"46.52171360"},{"id":150147,"name":"Kharvana","native":null,"lat":"38.68560950","lon":"46.15987300"},{"id":134915,"name":"Khoda Afarin","native":null,"lat":"39.06667000","lon":"46.95000000"},{"id":150120,"name":"Khomarlu","native":null,"lat":"39.15455660","lon":"47.02483170"},{"id":150115,"name":"Khosrowshah","native":null,"lat":"37.96330460","lon":"46.01503310"},{"id":150131,"name":"Koozehkonan","native":null,"lat":"38.19320240","lon":"45.54328630"},{"id":150139,"name":"Koshksaray","native":null,"lat":"38.45962010","lon":"45.55695530"},{"id":150141,"name":"Leilan","native":null,"lat":"37.01165090","lon":"46.19523520"},{"id":134951,"name":"Malekan","native":null,"lat":"37.13338000","lon":"46.21667000"},{"id":150108,"name":"Mamaqan","native":null,"lat":"37.85616440","lon":"45.92748410"},{"id":134954,"name":"Maragheh","native":null,"lat":"37.38061000","lon":"46.39372000"},{"id":134695,"name":"Marand","native":null,"lat":"38.43290000","lon":"45.77490000"},{"id":150123,"name":"Mehraban","native":null,"lat":"38.08148170","lon":"47.12825770"},{"id":134974,"name":"Mianeh","native":null,"lat":"37.41667000","lon":"47.70000000"},{"id":150142,"name":"Mobarak Abad","native":null,"lat":"37.18030400","lon":"46.05071780"},{"id":150153,"name":"Nazarkahrizi","native":null,"lat":"37.34737060","lon":"46.75960420"},{"id":134992,"name":"Osku","native":null,"lat":"37.95005000","lon":"45.88340000"},{"id":150119,"name":"Qareh Aghaj","native":null,"lat":"37.12856190","lon":"46.96478250"},{"id":150110,"name":"Sahand","native":null,"lat":"37.94212840","lon":"46.11317040"},{"id":134771,"name":"Sarab","native":null,"lat":"37.94080000","lon":"47.53670000"},{"id":150116,"name":"Sardroud","native":null,"lat":"38.03123850","lon":"46.12973630"},{"id":150127,"name":"Shabestar","native":null,"lat":"38.18273990","lon":"45.68192460"},{"id":150122,"name":"Sharabian","native":null,"lat":"37.88192420","lon":"47.09549190"},{"id":150128,"name":"Sharafkhaneh","native":null,"lat":"38.17865710","lon":"45.46786290"},{"id":150129,"name":"Shendabad","native":null,"lat":"38.14561010","lon":"45.61905390"},{"id":150117,"name":"Siahrood","native":null,"lat":"38.86877450","lon":"45.99665520"},{"id":150126,"name":"Sis","native":null,"lat":"38.19685870","lon":"45.81075660"},{"id":150130,"name":"Soufian","native":null,"lat":"38.27831360","lon":"45.97709660"},{"id":135125,"name":"Tabriz","native":null,"lat":"38.08000000","lon":"46.29190000"},{"id":150145,"name":"Tark","native":null,"lat":"37.61736710","lon":"47.76673070"},{"id":150124,"name":"Tasuj","native":null,"lat":"38.31615040","lon":"45.33654190"},{"id":150113,"name":"Tekmeh Dash","native":null,"lat":"37.73535540","lon":"46.93088980"},{"id":150106,"name":"Teymourlou","native":null,"lat":"37.81040850","lon":"45.88154540"},{"id":150146,"name":"Turkman Chay","native":null,"lat":"37.58178980","lon":"47.37021430"},{"id":150132,"name":"Vaighan","native":null,"lat":"38.12844590","lon":"45.70490600"},{"id":135068,"name":"Varzaqan","native":null,"lat":"38.59492000","lon":"46.46397000"},{"id":150148,"name":"Varzeqān","native":null,"lat":"38.58136590","lon":"46.17000800"},{"id":150140,"name":"Yamchi","native":null,"lat":"38.52447740","lon":"45.63416480"},{"id":150151,"name":"Zarnaq","native":null,"lat":"38.09240870","lon":"47.07680230"},{"id":150138,"name":"Zonouz","native":null,"lat":"38.58949510","lon":"45.82614190"}]},{"id":3939,"name":"Fars","native":null,"cities":[{"id":135151,"name":"Abadeh","native":null,"lat":"31.16080000","lon":"52.65060000"},{"id":150705,"name":"Abadeh Tashk","native":null,"lat":"29.80720880","lon":"53.72005450"},{"id":150692,"name":"Ahel","native":null,"lat":"27.21120460","lon":"53.65720510"},{"id":134562,"name":"Akbarabad","native":null,"lat":"29.24640000","lon":"52.77930000"},{"id":150693,"name":"Alamarvdasht","native":null,"lat":"27.62517770","lon":"52.99113750"},{"id":134795,"name":"Arsanjan","native":null,"lat":"29.80000000","lon":"53.41667000"},{"id":150628,"name":"Arsenjan","native":null,"lat":"29.91892820","lon":"53.28291870"},{"id":150691,"name":"Ashkanan","native":null,"lat":"27.23524440","lon":"53.58667360"},{"id":150701,"name":"Asir","native":null,"lat":"27.72481010","lon":"52.66111850"},{"id":150698,"name":"Baba Monir","native":null,"lat":"30.07159140","lon":"51.20029090"},{"id":150638,"name":"BabAnar","native":null,"lat":"28.96416700","lon":"53.21638900"},{"id":150625,"name":"Bahman","native":null,"lat":"31.19345630","lon":"52.47589580"},{"id":150678,"name":"Baladeh ","native":null,"lat":"29.28302900","lon":"51.92782400"},{"id":150685,"name":"Banaruyeh","native":null,"lat":"28.08653670","lon":"54.03974940"},{"id":134807,"name":"Bavanat","native":null,"lat":"30.33333000","lon":"53.66667000"},{"id":150686,"name":"Beyram","native":null,"lat":"27.43173640","lon":"53.50586420"},{"id":150656,"name":"Beyza","native":null,"lat":"29.97198120","lon":"52.39688860"},{"id":150681,"name":"City Kazeroon","native":null,"lat":"29.62712330","lon":"51.64962760"},{"id":150654,"name":"Dabiran","native":null,"lat":"28.40752830","lon":"54.16883220"},{"id":134626,"name":"Darab","native":null,"lat":"28.75194000","lon":"54.54444000"},{"id":150661,"name":"Dariun","native":null,"lat":"29.56255730","lon":"52.91882510"},{"id":150665,"name":"Dehram","native":null,"lat":"28.49124870","lon":"52.29977130"},{"id":150632,"name":"Dezhkord","native":null,"lat":"30.72281950","lon":"51.95147040"},{"id":150649,"name":"DoBorji","native":null,"lat":"28.30666700","lon":"55.19277800"},{"id":150641,"name":"Douzeh","native":null,"lat":"28.70131620","lon":"52.95476670"},{"id":150673,"name":"Efzar","native":null,"lat":"28.34636970","lon":"52.96109670"},{"id":150629,"name":"Eij","native":null,"lat":"29.02248840","lon":"54.23737580"},{"id":150689,"name":"Emad Deh","native":null,"lat":"27.44620970","lon":"53.85212660"},{"id":150674,"name":"Emam Shahr","native":null,"lat":"28.44682660","lon":"53.14627650"},{"id":134856,"name":"Eqlid","native":null,"lat":"30.70000000","lon":"52.40000000"},{"id":134861,"name":"Estahban","native":null,"lat":"29.11667000","lon":"54.00000000"},{"id":150684,"name":"Evaz","native":null,"lat":"27.76295710","lon":"53.97943440"},{"id":150650,"name":"Fadami ","native":null,"lat":"28.21409230","lon":"55.11737800"},{"id":134868,"name":"Farashband","native":null,"lat":"28.75000000","lon":"52.25000000"},{"id":134870,"name":"Fasa","native":null,"lat":"28.96667000","lon":"53.76667000"},{"id":134642,"name":"Firuzabad","native":null,"lat":"28.84380000","lon":"52.57070000"},{"id":150703,"name":"Galehdar","native":null,"lat":"27.65744580","lon":"52.62983260"},{"id":134644,"name":"Gerash","native":null,"lat":"27.66966000","lon":"54.13586000"},{"id":150669,"name":"Ghare Bolagh","native":null,"lat":"28.92810000","lon":"54.05090000"},{"id":150675,"name":"Ghirokarzin","native":null,"lat":"28.33638090","lon":"52.66841600"},{"id":150653,"name":"HajiAbad","native":null,"lat":"29.65540700","lon":"52.31150870"},{"id":150657,"name":"Hamashahr","native":null,"lat":"30.11166700","lon":"52.08277800"},{"id":150631,"name":"HasanAbad","native":null,"lat":"30.52016170","lon":"52.45160570"},{"id":150634,"name":"Hesami","native":null,"lat":"29.96975010","lon":"53.86682510"},{"id":150624,"name":"IzadKhast","native":null,"lat":"31.51636070","lon":"52.11609370"},{"id":150639,"name":"Jahrom","native":null,"lat":"28.53058250","lon":"53.51852170"},{"id":150648,"name":"JannatShahr","native":null,"lat":"28.65398340","lon":"54.67042500"},{"id":150687,"name":"Juyom","native":null,"lat":"28.25891410","lon":"53.96016580"},{"id":150697,"name":"Kamfiruz","native":null,"lat":"30.32309970","lon":"52.18398570"},{"id":150676,"name":"Karzin","native":null,"lat":"28.43324410","lon":"53.12390410"},{"id":134908,"name":"Kavar","native":null,"lat":"29.21667000","lon":"52.73333000"},{"id":134684,"name":"Kazerun","native":null,"lat":"29.61919000","lon":"51.65350000"},{"id":150660,"name":"KhaneZenian","native":null,"lat":"29.67004760","lon":"52.14333620"},{"id":150694,"name":"Khaniman","native":null,"lat":"30.34916700","lon":"52.24166700"},{"id":150643,"name":"Kharameh","native":null,"lat":"29.50038570","lon":"53.30107210"},{"id":150640,"name":"Khavaran","native":null,"lat":"28.93684290","lon":"53.31201550"},{"id":134914,"name":"Kherameh","native":null,"lat":"29.50000000","lon":"53.25000000"},{"id":150679,"name":"Khesht","native":null,"lat":"27.23347270","lon":"53.43067650"},{"id":150647,"name":"Khonj","native":null,"lat":"27.88763700","lon":"53.41157890"},{"id":150699,"name":"Khoome Zar","native":null,"lat":"30.00924290","lon":"51.56660550"},{"id":150702,"name":"Khoozi","native":null,"lat":"27.44610520","lon":"52.96075340"},{"id":134919,"name":"Khorrambid","native":null,"lat":"30.50000000","lon":"53.08333000"},{"id":150688,"name":"Khour","native":null,"lat":"27.64191680","lon":"54.33750230"},{"id":150682,"name":"Konartakhteh","native":null,"lat":"29.52510620","lon":"51.37342200"},{"id":150651,"name":"Kopen","native":null,"lat":"30.33500890","lon":"51.27854700"},{"id":150635,"name":"Korei","native":null,"lat":"30.03036720","lon":"53.70883220"},{"id":150659,"name":"Kouhenjan","native":null,"lat":"29.23156770","lon":"52.95320030"},{"id":150695,"name":"Koushkak","native":null,"lat":"30.07373620","lon":"52.58820540"},{"id":134946,"name":"Lamerd","native":null,"lat":"27.36667000","lon":"53.38333000"},{"id":150664,"name":"Lapouyee","native":null,"lat":"29.79964990","lon":"52.64236450"},{"id":134778,"name":"Lar","native":null,"lat":"27.68336000","lon":"54.34172000"},{"id":134947,"name":"Larestan","native":null,"lat":"27.75000000","lon":"54.45000000"},{"id":150690,"name":"Latifi","native":null,"lat":"27.69024090","lon":"54.37713040"},{"id":134694,"name":"Mamasani","native":null,"lat":"30.03333000","lon":"51.38333000"},{"id":134696,"name":"Marvdasht","native":null,"lat":"30.08333000","lon":"52.66667000"},{"id":150652,"name":"Masiri","native":null,"lat":"30.24094560","lon":"51.52066790"},{"id":150636,"name":"Mazayejan","native":null,"lat":"28.05616020","lon":"54.65025550"},{"id":150707,"name":"Meshkan","native":null,"lat":"29.47403030","lon":"54.32865840"},{"id":150672,"name":"Meymand","native":null,"lat":"28.86776870","lon":"52.73594130"},{"id":150670,"name":"Miyanshahr","native":null,"lat":"28.71017970","lon":"53.85154720"},{"id":150677,"name":"Mobarakabad","native":null,"lat":"28.35972200","lon":"53.32833300"},{"id":134704,"name":"Mohr","native":null,"lat":"27.55520000","lon":"52.88360000"},{"id":134713,"name":"Neyriz","native":null,"lat":"29.19880000","lon":"54.32780000"},{"id":150671,"name":"No Bandegan","native":null,"lat":"28.85591230","lon":"53.81496180"},{"id":150700,"name":"Nourabad","native":null,"lat":"30.11349310","lon":"51.50369100"},{"id":150683,"name":"Nowdan","native":null,"lat":"29.80119540","lon":"51.68421500"},{"id":150666,"name":"Nowjein","native":null,"lat":"29.11848470","lon":"51.98232590"},{"id":134721,"name":"Nurabad","native":null,"lat":"30.11405000","lon":"51.52174000"},{"id":134732,"name":"Pasargad","native":null,"lat":"30.20194000","lon":"53.18000000"},{"id":150655,"name":"PirCity","native":null,"lat":"28.31454240","lon":"54.31413150"},{"id":150646,"name":"Qaderabad","native":null,"lat":"30.27834010","lon":"53.25756670"},{"id":150680,"name":"Qaemyeh","native":null,"lat":"29.85091920","lon":"51.57323570"},{"id":150706,"name":"Qatruyeh","native":null,"lat":"29.14584570","lon":"54.69936130"},{"id":135005,"name":"Qir va Karzin","native":null,"lat":"28.31667000","lon":"52.90000000"},{"id":150642,"name":"QotbAbad","native":null,"lat":"28.64848720","lon":"53.61144090"},{"id":150630,"name":"RonizOlya","native":null,"lat":"29.19133810","lon":"53.76483680"},{"id":134755,"name":"Rostam","native":null,"lat":"30.40000000","lon":"51.41667000"},{"id":150637,"name":"SaadatShahr","native":null,"lat":"30.08246270","lon":"53.12756530"},{"id":150663,"name":"Sadra","native":null,"lat":"29.80475780","lon":"52.45825710"},{"id":150645,"name":"Safashahr","native":null,"lat":"30.61431720","lon":"53.17833400"},{"id":135026,"name":"Sarvestan","native":null,"lat":"29.21667000","lon":"53.13333000"},{"id":150633,"name":"Sedeh","native":null,"lat":"30.70291140","lon":"52.15963050"},{"id":135035,"name":"Sepidan","native":null,"lat":"30.15000000","lon":"52.10000000"},{"id":150696,"name":"Seyedan","native":null,"lat":"30.00424490","lon":"53.00122260"},{"id":150668,"name":"Sheshdeh","native":null,"lat":"28.91250530","lon":"53.99227100"},{"id":135108,"name":"Shiraz","native":null,"lat":"29.61031000","lon":"52.53113000"},{"id":150627,"name":"Soghad","native":null,"lat":"31.19106770","lon":"52.50031460"},{"id":150644,"name":"SoltanShahr","native":null,"lat":"29.62961460","lon":"53.23294400"},{"id":150626,"name":"Surmaq","native":null,"lat":"31.03248980","lon":"52.83048390"},{"id":150704,"name":"Varavi","native":null,"lat":"27.46528850","lon":"53.04411650"},{"id":150667,"name":"Zahedshahr","native":null,"lat":"28.75180650","lon":"53.78289130"},{"id":150662,"name":"Zarghan","native":null,"lat":"29.76307670","lon":"52.67474350"},{"id":135073,"name":"Zarrin Dasht","native":null,"lat":"28.30000000","lon":"54.46667000"},{"id":150658,"name":"سروستان","native":null,"lat":"29.27022530","lon":"53.20730190"}]},{"id":3920,"name":"Gilan","native":null,"cities":[{"id":150879,"name":"Ahmadsargurab","native":null,"lat":"37.12805600","lon":"49.36666700"},{"id":150860,"name":"Amlash","native":null,"lat":"37.09246800","lon":"50.17314410"},{"id":150883,"name":"Asalem","native":null,"lat":"37.72003980","lon":"48.92658170"},{"id":135154,"name":"Astaneh-ye Ashrafiyeh","native":null,"lat":"37.26318000","lon":"49.94325000"},{"id":135087,"name":"astara","native":null,"lat":"38.33333000","lon":"48.76667000"},{"id":134578,"name":"Bandar Anzali","native":null,"lat":"37.47318000","lon":"49.45785000"},{"id":150869,"name":"Barehsar","native":null,"lat":"36.77599100","lon":"49.74575040"},{"id":150894,"name":"Bazar Jomeh","native":null,"lat":"37.27945660","lon":"49.37436040"},{"id":150874,"name":"Chaboksar","native":null,"lat":"36.97505830","lon":"50.54664930"},{"id":150891,"name":"Chaf and Chamkhaleh","native":null,"lat":"37.22944400","lon":"50.25388900"},{"id":150884,"name":"Choobar","native":null,"lat":"38.18351690","lon":"48.87027790"},{"id":150878,"name":"Deylaman","native":null,"lat":"36.88609010","lon":"49.90029930"},{"id":134877,"name":"Fuman","native":null,"lat":"37.16667000","lon":"49.18333000"},{"id":150881,"name":"Gurab Zarmikh","native":null,"lat":"37.29829280","lon":"49.20505980"},{"id":134653,"name":"Hashtpar","native":null,"lat":"37.79658000","lon":"48.90521000"},{"id":150885,"name":"Haviq","native":null,"lat":"38.14750000","lon":"48.89222200"},{"id":150871,"name":"Jirindih","native":null,"lat":"36.70054440","lon":"49.78016850"},{"id":150876,"name":"Kelachay","native":null,"lat":"37.07707330","lon":"50.38030730"},{"id":150863,"name":"Khomam","native":null,"lat":"37.38749490","lon":"49.63949190"},{"id":150862,"name":"Khoshkebijar","native":null,"lat":"37.37479300","lon":"49.73922700"},{"id":150859,"name":"Kiashahr","native":null,"lat":"37.41682790","lon":"49.92925590"},{"id":150865,"name":"Kuchesfahan","native":null,"lat":"37.27838040","lon":"49.76859950"},{"id":150893,"name":"Kumeleh","native":null,"lat":"37.15277800","lon":"50.17694400"},{"id":134944,"name":"Lahijan","native":null,"lat":"37.21667000","lon":"50.01667000"},{"id":134689,"name":"Langarud","native":null,"lat":"37.19548000","lon":"50.15263000"},{"id":150866,"name":"Lasht-e Nesha","native":null,"lat":"37.36018660","lon":"49.84508860"},{"id":150858,"name":"Lavandvil","native":null,"lat":"38.30771640","lon":"48.84607290"},{"id":150886,"name":"Lisar","native":null,"lat":"37.95806970","lon":"48.88967500"},{"id":150867,"name":"Louleman","native":null,"lat":"37.25747920","lon":"49.80743050"},{"id":150873,"name":"Lowshan","native":null,"lat":"36.63216940","lon":"49.49772640"},{"id":150888,"name":"Maklavan","native":null,"lat":"37.19555600","lon":"49.19861100"},{"id":134730,"name":"Manjil","native":null,"lat":"36.74150000","lon":"49.41610000"},{"id":150882,"name":"Marjaghal","native":null,"lat":"37.27555600","lon":"49.36277800"},{"id":134969,"name":"Masal","native":null,"lat":"37.35000000","lon":"48.98333000"},{"id":150887,"name":"Masuleh","native":null,"lat":"37.15699680","lon":"48.97589190"},{"id":150890,"name":"Otaghvar","native":null,"lat":"37.10889440","lon":"50.11271960"},{"id":150868,"name":"Paresar","native":null,"lat":"37.60172960","lon":"49.06391210"},{"id":150875,"name":"Rahimabad","native":null,"lat":"37.02874220","lon":"50.32571940"},{"id":150861,"name":"Ranekouh","native":null,"lat":"37.05229690","lon":"50.21790480"},{"id":134749,"name":"Rasht","native":null,"lat":"37.27611000","lon":"49.58862000"},{"id":134753,"name":"Rezvanshahr","native":null,"lat":"37.54976000","lon":"49.13703000"},{"id":150889,"name":"Rod Baneh","native":null,"lat":"37.25551520","lon":"50.00032430"},{"id":150872,"name":"Rostamabad","native":null,"lat":"36.89948990","lon":"49.47362410"},{"id":135017,"name":"Rudbar","native":null,"lat":"36.80000000","lon":"49.60000000"},{"id":134761,"name":"Rudsar","native":null,"lat":"37.13696000","lon":"50.29174000"},{"id":150864,"name":"Sangar","native":null,"lat":"37.17965610","lon":"49.68532780"},{"id":150880,"name":"Shaft","native":null,"lat":"37.06483110","lon":"49.17771370"},{"id":150892,"name":"Shalman","native":null,"lat":"37.15916990","lon":"50.20692950"},{"id":135055,"name":"Siahkal","native":null,"lat":"36.93333000","lon":"49.90000000"},{"id":135095,"name":"Someh Sara","native":null,"lat":"37.33333000","lon":"49.30000000"},{"id":135065,"name":"Talesh","native":null,"lat":"37.90000000","lon":"48.78333000"},{"id":150870,"name":"Tutkabon","native":null,"lat":"36.89090440","lon":"49.52147480"},{"id":150877,"name":"Vajargah","native":null,"lat":"37.04083300","lon":"50.40861100"},{"id":135146,"name":"Ziabar","native":null,"lat":"37.42610000","lon":"49.24590000"}]},{"id":3933,"name":"Golestan","native":null,"cities":[{"id":150848,"name":"Aliabad-e-Katul","native":null,"lat":"36.91016390","lon":"54.83907210"},{"id":150840,"name":"Anbar Olum","native":null,"lat":"37.13300090","lon":"54.61230750"},{"id":135082,"name":"Aq Qala","native":null,"lat":"37.16667000","lon":"54.58333000"},{"id":135153,"name":"Aq Qayeh","native":null,"lat":"37.27472000","lon":"55.15889000"},{"id":135156,"name":"Azadshahr","native":null,"lat":"37.08641000","lon":"55.17222000"},{"id":150843,"name":"Bandar Torkaman","native":null,"lat":"36.90507650","lon":"54.03526730"},{"id":150841,"name":"Bandar-e Gaz","native":null,"lat":"36.77416700","lon":"53.94805600"},{"id":150846,"name":"Daland","native":null,"lat":"37.03465860","lon":"55.03712660"},{"id":150851,"name":"Faraqi","native":null,"lat":"37.26035860","lon":"55.16635490"},{"id":150849,"name":"Fazelabad","native":null,"lat":"36.89410210","lon":"54.73096840"},{"id":134889,"name":"Galikesh","native":null,"lat":"37.30000000","lon":"55.65000000"},{"id":150855,"name":"Gomish Tepe","native":null,"lat":"37.07166700","lon":"54.07666700"},{"id":134885,"name":"Gomishan","native":null,"lat":"37.15000000","lon":"54.15000000"},{"id":134646,"name":"Gonbad Kavus","native":null,"lat":"37.25004000","lon":"55.16721000"},{"id":134648,"name":"Gorgan","native":null,"lat":"36.84270000","lon":"54.44391000"},{"id":150856,"name":"Incheboron","native":null,"lat":"37.45422400","lon":"54.71541160"},{"id":150852,"name":"Jelin","native":null,"lat":"36.85127690","lon":"54.52793600"},{"id":134662,"name":"Kalaleh","native":null,"lat":"37.37899000","lon":"55.49300000"},{"id":150845,"name":"Khānbebin","native":null,"lat":"37.00947410","lon":"54.97964140"},{"id":134931,"name":"Kordkuy","native":null,"lat":"36.68333000","lon":"54.20000000"},{"id":150857,"name":"Maraveh","native":null,"lat":"37.90416700","lon":"55.95583300"},{"id":134955,"name":"Maraveh Tappeh","native":null,"lat":"37.85000000","lon":"55.91667000"},{"id":150850,"name":"Mazraeh","native":null,"lat":"36.95386110","lon":"54.85471500"},{"id":134971,"name":"Minudasht","native":null,"lat":"37.11667000","lon":"55.45000000"},{"id":150838,"name":"Neginshahr","native":null,"lat":"37.13936470","lon":"55.15758990"},{"id":150839,"name":"Nowdeh Khanduz","native":null,"lat":"37.07449880","lon":"55.25308730"},{"id":150842,"name":"Nowkandeh","native":null,"lat":"36.74051840","lon":"53.88399070"},{"id":134738,"name":"Qarnabad","native":null,"lat":"36.82203000","lon":"54.59222000"},{"id":135016,"name":"Ramian","native":null,"lat":"36.93333000","lon":"55.08333000"},{"id":150847,"name":"Sangdevin","native":null,"lat":"36.99793400","lon":"54.85263350"},{"id":150853,"name":"Sarkhon Kalateh","native":null,"lat":"36.89138900","lon":"54.56916700"},{"id":150854,"name":"Siminshahr","native":null,"lat":"37.01276160","lon":"54.21581250"},{"id":150844,"name":"Tatar Olia","native":null,"lat":"37.11100750","lon":"55.04270560"},{"id":135133,"name":"Torkaman","native":null,"lat":"36.90000000","lon":"54.16667000"}]},{"id":4920,"name":"Hamadan","native":null,"cities":[{"id":146942,"name":"Ab Meshkin","native":null,"lat":"35.61305556","lon":"48.26916667"},{"id":146943,"name":"Abarlaq-e Sofla","native":null,"lat":"34.67138889","lon":"48.22833333"},{"id":146944,"name":"Abdalan","native":null,"lat":"34.65277778","lon":"48.24555556"},{"id":146945,"name":"Abdol Rahim","native":null,"lat":"34.62638889","lon":"49.01750000"},{"id":146946,"name":"Abrumand","native":null,"lat":"34.90277778","lon":"48.32027778"},{"id":146947,"name":"Abshineh","native":null,"lat":"34.78194400","lon":"48.61472200"},{"id":146948,"name":"Abu ol Fathabad","native":null,"lat":"34.05666667","lon":"48.50916667"},{"id":146949,"name":"Aghcheh Qayah","native":null,"lat":"35.35000000","lon":"48.34250000"},{"id":146950,"name":"Ahmadabad-e Tappeh","native":null,"lat":"34.61277778","lon":"48.99277778"},{"id":146951,"name":"Ahu Tappeh","native":null,"lat":"34.93777778","lon":"48.00111111"},{"id":146952,"name":"Ajin","native":null,"lat":"34.73611111","lon":"47.92416667"},{"id":146953,"name":"Ajorlu","native":null,"lat":"35.13833333","lon":"49.22944444"},{"id":146954,"name":"Akanlu","native":null,"lat":"35.61416667","lon":"48.18805556"},{"id":146955,"name":"Akleh","native":null,"lat":"35.20277778","lon":"49.08250000"},{"id":146956,"name":"Alan-e Sofla","native":null,"lat":"35.28416667","lon":"48.21583333"},{"id":146957,"name":"Alanjeh","native":null,"lat":"34.75083333","lon":"47.95972222"},{"id":146958,"name":"Alfavut","native":null,"lat":"34.64000000","lon":"48.74972222"},{"id":146959,"name":"Aliabad-e Posht Shahr","native":null,"lat":"34.83777778","lon":"48.51111111"},{"id":146960,"name":"Amirabad-e Kord","native":null,"lat":"34.97611111","lon":"49.09166667"},{"id":146961,"name":"Amzajerd","native":null,"lat":"34.93666667","lon":"48.53250000"},{"id":146962,"name":"Angoshteh","native":null,"lat":"34.09138900","lon":"48.54000000"},{"id":146963,"name":"Anjir Baghi","native":null,"lat":"35.19250000","lon":"48.53166667"},{"id":146964,"name":"Ansar ol Emam","native":null,"lat":"34.85861111","lon":"48.49083333"},{"id":146965,"name":"Anuch","native":null,"lat":"34.10805600","lon":"48.57333300"},{"id":146966,"name":"Aq Bolagh-e Aqdaq","native":null,"lat":"35.61166667","lon":"48.44138889"},{"id":146967,"name":"Aq Bolagh-e Latgah","native":null,"lat":"34.98444400","lon":"48.55527800"},{"id":146968,"name":"Aq Bolagh-e Morshed","native":null,"lat":"35.61777778","lon":"48.02972222"},{"id":146969,"name":"Aq Chay","native":null,"lat":"35.47916667","lon":"49.10388889"},{"id":146970,"name":"Aqa Bolaghi","native":null,"lat":"35.36694444","lon":"48.24361111"},{"id":146971,"name":"Aqa Jan Bolaghi","native":null,"lat":"34.84583333","lon":"48.05305556"},{"id":146972,"name":"Aqaj","native":null,"lat":"34.95583333","lon":"49.32416667"},{"id":146973,"name":"Aqcheh Kharabeh","native":null,"lat":"35.71361111","lon":"48.77638889"},{"id":146974,"name":"Aqchelu","native":null,"lat":"35.13138889","lon":"48.49166667"},{"id":146975,"name":"Arges-e Sofla","native":null,"lat":"34.07388889","lon":"48.86388889"},{"id":146976,"name":"Arikan","native":null,"lat":"34.53222222","lon":"48.36055556"},{"id":146977,"name":"Arpa Darreh","native":null,"lat":"35.69138889","lon":"48.80500000"},{"id":146978,"name":"Arteh Bolagh","native":null,"lat":"34.32638889","lon":"48.54916667"},{"id":146979,"name":"Artiman","native":null,"lat":"34.57944400","lon":"48.44777800"},{"id":146980,"name":"Arzan Fud","native":null,"lat":"34.65527778","lon":"48.65416667"},{"id":146981,"name":"Arzuvaj","native":null,"lat":"34.65444444","lon":"48.37305556"},{"id":146982,"name":"Asadabad","native":null,"lat":"34.78222222","lon":"48.11833333"},{"id":146983,"name":"Ashmizan","native":null,"lat":"34.10361111","lon":"48.88444444"},{"id":146984,"name":"Avarzaman","native":null,"lat":"34.26638889","lon":"48.51222222"},{"id":146985,"name":"Azandarian","native":null,"lat":"34.50888889","lon":"48.68666667"},{"id":146986,"name":"Aznahri","native":null,"lat":"34.23750000","lon":"48.14833333"},{"id":146987,"name":"Baba Khanjar","native":null,"lat":"35.55166667","lon":"48.54972222"},{"id":146988,"name":"Baba Pir","native":null,"lat":"34.61416667","lon":"48.40194444"},{"id":146989,"name":"Baba Qasem","native":null,"lat":"34.08000000","lon":"48.44805556"},{"id":146990,"name":"Babolqani","native":null,"lat":"34.24277778","lon":"49.05750000"},{"id":146991,"name":"Bad Khvoreh","native":null,"lat":"34.74305556","lon":"48.08027778"},{"id":146992,"name":"Bahar","native":null,"lat":"34.90694444","lon":"48.44138889"},{"id":146993,"name":"Band Aman","native":null,"lat":"34.22388889","lon":"48.22861111"},{"id":146994,"name":"Banesareh","native":null,"lat":"34.23750000","lon":"48.43333333"},{"id":146995,"name":"Baraband","native":null,"lat":"34.75194444","lon":"48.79861111"},{"id":146996,"name":"Bargecheh","native":null,"lat":"34.45138900","lon":"48.30111100"},{"id":146997,"name":"Barreh Farakh","native":null,"lat":"34.38555556","lon":"48.08638889"},{"id":146998,"name":"Barzul","native":null,"lat":"34.21277778","lon":"48.25888889"},{"id":146999,"name":"Bashqurtaran","native":null,"lat":"35.63722222","lon":"48.11694444"},{"id":147000,"name":"Bazeran","native":null,"lat":"35.15611111","lon":"49.42305556"},{"id":147001,"name":"Behkandan","native":null,"lat":"35.27222222","lon":"49.09888889"},{"id":147002,"name":"Belartu","native":null,"lat":"34.33555556","lon":"48.51583333"},{"id":147003,"name":"Beshik Tappeh","native":null,"lat":"35.53611111","lon":"48.41805556"},{"id":147004,"name":"Biaj","native":null,"lat":"34.81500000","lon":"48.09916667"},{"id":147005,"name":"Biatan-e Sofla","native":null,"lat":"34.02527778","lon":"48.95805556"},{"id":147006,"name":"Bid Korpeh-ye Sofla","native":null,"lat":"34.02111111","lon":"48.89166667"},{"id":147007,"name":"Bid Korpeh-ye Vosta","native":null,"lat":"34.01944444","lon":"48.88722222"},{"id":147008,"name":"Bifanaj","native":null,"lat":"34.61472222","lon":"48.01694444"},{"id":147009,"name":"Bighash","native":null,"lat":"34.09111111","lon":"49.06833333"},{"id":147010,"name":"Bish Aghaj","native":null,"lat":"34.46111111","lon":"48.78583333"},{"id":147011,"name":"Bitervan","native":null,"lat":"34.65444444","lon":"47.91055556"},{"id":147012,"name":"Borjaki","native":null,"lat":"34.32861111","lon":"48.03305556"},{"id":147013,"name":"Boyukabad","native":null,"lat":"35.05972222","lon":"48.84166667"},{"id":147014,"name":"Bozchalu","native":null,"lat":"35.16888889","lon":"49.22444444"},{"id":147015,"name":"Bozineh Jerd","native":null,"lat":"35.02472222","lon":"48.94388889"},{"id":147016,"name":"Bujin","native":null,"lat":"34.80722222","lon":"48.05916667"},{"id":147017,"name":"Bustandar","native":null,"lat":"34.44861111","lon":"48.41944444"},{"id":147018,"name":"Buyaqchi","native":null,"lat":"34.84750000","lon":"49.08916667"},{"id":147019,"name":"Chahar Bolagh","native":null,"lat":"35.58111111","lon":"48.65000000"},{"id":147020,"name":"Chal Boqa","native":null,"lat":"35.42055556","lon":"48.92750000"},{"id":147021,"name":"Chaleh Kand","native":null,"lat":"35.27500000","lon":"48.29944444"},{"id":147022,"name":"Charoq","native":null,"lat":"34.84416667","lon":"48.06611111"},{"id":147023,"name":"Chasht Khvoreh","native":null,"lat":"34.46444444","lon":"48.26694444"},{"id":147024,"name":"Chenari","native":null,"lat":"34.23194444","lon":"48.17611111"},{"id":147025,"name":"Cheshmeh Malek","native":null,"lat":"34.75500000","lon":"48.49305556"},{"id":147026,"name":"Cheshmeh Pahn-e Nanaj","native":null,"lat":"34.45888889","lon":"48.76750000"},{"id":147027,"name":"Cheshmeh Qandab","native":null,"lat":"34.62694444","lon":"48.09111111"},{"id":147028,"name":"Cheshmeh Qareh","native":null,"lat":"34.90611111","lon":"47.87111111"},{"id":147029,"name":"Cheshmeh Qassaban","native":null,"lat":"34.85777778","lon":"48.41888889"},{"id":147030,"name":"Cheshmeh Valad","native":null,"lat":"34.87805556","lon":"47.98388889"},{"id":147031,"name":"Cheshmeh Zowraq","native":null,"lat":"34.06611111","lon":"49.10083333"},{"id":147032,"name":"Choqa Sarahi","native":null,"lat":"34.31527778","lon":"48.04888889"},{"id":147033,"name":"Chowtash","native":null,"lat":"34.83694444","lon":"48.25194444"},{"id":147034,"name":"Chulak Qapanuri","native":null,"lat":"34.23472222","lon":"48.30000000"},{"id":147035,"name":"Dahnejerd","native":null,"lat":"34.96750000","lon":"48.50055600"},{"id":147036,"name":"Dali Chu","native":null,"lat":"35.52138889","lon":"48.02027778"},{"id":147037,"name":"Damaq","native":null,"lat":"35.44277778","lon":"48.82305556"},{"id":147038,"name":"Daqdaqabad","native":null,"lat":"35.18277778","lon":"48.78833333"},{"id":147039,"name":"Dar Qeshlaq","native":null,"lat":"35.49222222","lon":"48.05583333"},{"id":147040,"name":"Darani-ye Sofla","native":null,"lat":"34.49888889","lon":"48.41222222"},{"id":147041,"name":"Darcham","native":null,"lat":"34.26027778","lon":"48.82083333"},{"id":147042,"name":"Darreh Chenar","native":null,"lat":"34.09944444","lon":"48.80305556"},{"id":147043,"name":"Darreh Mianeh-ye Sofla","native":null,"lat":"34.07277778","lon":"48.83527778"},{"id":147044,"name":"Darreh Mirza","native":null,"lat":"34.37611111","lon":"48.00750000"},{"id":147045,"name":"Darreh-ye Ebrahim","native":null,"lat":"34.10166667","lon":"48.39444444"},{"id":147046,"name":"Darsibeh","native":null,"lat":"34.26972222","lon":"48.00694444"},{"id":147047,"name":"Davijan","native":null,"lat":"34.22027778","lon":"48.85833333"},{"id":147048,"name":"Deh Chaneh","native":null,"lat":"34.10527778","lon":"49.12027778"},{"id":147049,"name":"Deh Dalian","native":null,"lat":"34.80472222","lon":"48.71138889"},{"id":147050,"name":"Deh Ful","native":null,"lat":"34.22694444","lon":"48.31388889"},{"id":147051,"name":"Deh Mianeh","native":null,"lat":"34.17305556","lon":"49.04944444"},{"id":147052,"name":"Deh Nush","native":null,"lat":"34.76111111","lon":"48.00305556"},{"id":147053,"name":"Deh Piaz","native":null,"lat":"34.88194444","lon":"48.51472222"},{"id":147054,"name":"Deh-e Shaker","native":null,"lat":"34.37888889","lon":"48.54777778"},{"id":147055,"name":"Dehnow-e Avarzaman","native":null,"lat":"34.30694444","lon":"48.55694444"},{"id":147056,"name":"Dingeleh Kahriz","native":null,"lat":"34.81111111","lon":"48.68472222"},{"id":147057,"name":"Do Rudan","native":null,"lat":"34.55972222","lon":"48.41472222"},{"id":147058,"name":"Doraneh","native":null,"lat":"34.23138889","lon":"48.21944444"},{"id":147059,"name":"Dorudgaran","native":null,"lat":"34.02027800","lon":"48.92472200"},{"id":147060,"name":"Dow Baraleh","native":null,"lat":"34.90222222","lon":"48.03361111"},{"id":147061,"name":"Dowlatabad-e Hajjilu","native":null,"lat":"35.28111111","lon":"48.88694444"},{"id":147062,"name":"Dowlujerdin-e Bala","native":null,"lat":"35.34777778","lon":"49.10944444"},{"id":147063,"name":"Durijan","native":null,"lat":"34.30555556","lon":"48.48972222"},{"id":147064,"name":"Durnian","native":null,"lat":"35.48194444","lon":"49.04000000"},{"id":147065,"name":"Emamzadeh Khatun","native":null,"lat":"34.04972222","lon":"48.95222222"},{"id":147066,"name":"Emamzadeh Pir Nahan","native":null,"lat":"35.01138889","lon":"49.04111111"},{"id":147067,"name":"Eskanan","native":null,"lat":"34.35805556","lon":"48.59277778"},{"id":147068,"name":"Fahrumand","native":null,"lat":"34.22416667","lon":"48.31194444"},{"id":147069,"name":"Famast","native":null,"lat":"34.03897000","lon":"48.46260000"},{"id":147070,"name":"Famenin","native":null,"lat":"35.11388889","lon":"48.97166667"},{"id":147071,"name":"Farasfaj","native":null,"lat":"34.48611111","lon":"48.28555556"},{"id":147072,"name":"Farsban","native":null,"lat":"34.24416667","lon":"48.11916667"},{"id":147073,"name":"Farvaz","native":null,"lat":"34.22694444","lon":"48.90111111"},{"id":147074,"name":"Faryazan","native":null,"lat":"34.52305600","lon":"48.33250000"},{"id":147075,"name":"Fasijan","native":null,"lat":"34.83666667","lon":"48.30472222"},{"id":147076,"name":"Fiazaman","native":null,"lat":"34.13111111","lon":"48.39638889"},{"id":147077,"name":"Firuzabad-e Sofla","native":null,"lat":"34.34694444","lon":"48.09638889"},{"id":147078,"name":"Firuzan","native":null,"lat":"34.27861111","lon":"48.24000000"},{"id":147079,"name":"Gamasa","native":null,"lat":"34.23027778","lon":"49.08750000"},{"id":147080,"name":"Gamasb","native":null,"lat":"34.04000000","lon":"48.46500000"},{"id":147081,"name":"Ganj Tappeh","native":null,"lat":"34.93333300","lon":"48.46361100"},{"id":147082,"name":"Ganjab","native":null,"lat":"34.45277778","lon":"48.98722222"},{"id":147083,"name":"Gashani","native":null,"lat":"34.66055556","lon":"48.39138889"},{"id":147084,"name":"Gav Zaban","native":null,"lat":"35.22916667","lon":"48.30527778"},{"id":147085,"name":"Gavkaran","native":null,"lat":"34.48694444","lon":"48.12000000"},{"id":147086,"name":"Ghazyatan","native":null,"lat":"35.33222222","lon":"48.93166667"},{"id":147087,"name":"Gholam Veys","native":null,"lat":"35.63000000","lon":"48.52583333"},{"id":147088,"name":"Givaki","native":null,"lat":"34.27250000","lon":"48.08111111"},{"id":147089,"name":"Giyan","native":null,"lat":"34.17805556","lon":"48.24416667"},{"id":147090,"name":"Gol Darreh-ye Anuch","native":null,"lat":"34.10222222","lon":"48.59861111"},{"id":147091,"name":"Gol Heydar","native":null,"lat":"34.06250000","lon":"48.41666667"},{"id":151011,"name":"Gol Tappeh","native":null,"lat":"35.22083550","lon":"48.19597000"},{"id":147092,"name":"Golparabad","native":null,"lat":"34.15500000","lon":"49.05777778"},{"id":147093,"name":"Golshir","native":null,"lat":"34.40000000","lon":"48.68333333"},{"id":147094,"name":"Golushjerd","native":null,"lat":"34.36611111","lon":"48.79000000"},{"id":147095,"name":"Gomush Bolagh","native":null,"lat":"34.93194444","lon":"48.28972222"},{"id":147096,"name":"Gonbad Chay","native":null,"lat":"34.86833300","lon":"48.83138900"},{"id":147097,"name":"Gonbad-e Kabud","native":null,"lat":"34.21722222","lon":"48.14777778"},{"id":147098,"name":"Gostar","native":null,"lat":"35.46388889","lon":"48.87638889"},{"id":147099,"name":"Gozal Abdal","native":null,"lat":"35.32166667","lon":"48.23861111"},{"id":147100,"name":"Gug Qash","native":null,"lat":"35.68750000","lon":"48.02530000"},{"id":147101,"name":"Gujak","native":null,"lat":"34.54083333","lon":"48.84027778"},{"id":147102,"name":"Gulvand","native":null,"lat":"34.38083333","lon":"48.97527778"},{"id":147103,"name":"Gunestan","native":null,"lat":"34.03027778","lon":"48.91833333"},{"id":147104,"name":"Gur Gaz","native":null,"lat":"34.93333333","lon":"48.79111111"},{"id":147105,"name":"Gurjiu","native":null,"lat":"34.18583333","lon":"48.40555556"},{"id":147106,"name":"Gushalan","native":null,"lat":"34.83500000","lon":"48.32250000"},{"id":147107,"name":"Gusheh-ye Kasavand","native":null,"lat":"34.15527778","lon":"48.95944444"},{"id":147108,"name":"Hajji Kheder","native":null,"lat":"34.12722222","lon":"48.74833333"},{"id":147109,"name":"Hajji Maqsud","native":null,"lat":"34.96972222","lon":"48.87972222"},{"id":147110,"name":"Hajji Tu","native":null,"lat":"34.45083300","lon":"48.35361100"},{"id":147111,"name":"Hamadan","native":null,"lat":"34.80000000","lon":"48.51666667"},{"id":151014,"name":"Hamedan","native":null,"lat":"34.81230870","lon":"48.44002710"},{"id":147112,"name":"Hamilabad","native":null,"lat":"34.40250000","lon":"48.46083333"},{"id":147113,"name":"Hamzehlu-ye Sofla","native":null,"lat":"34.05777778","lon":"49.07777778"},{"id":147114,"name":"Haramabad","native":null,"lat":"34.28166667","lon":"48.78250000"},{"id":147115,"name":"Hasan Kusej","native":null,"lat":"34.24833333","lon":"48.57527778"},{"id":147116,"name":"Hasan Teymur","native":null,"lat":"35.37583333","lon":"48.36361111"},{"id":147117,"name":"Hasanabad-e Emam","native":null,"lat":"34.95027778","lon":"48.05083333"},{"id":147118,"name":"Hasanabad-e Qush Bolagh","native":null,"lat":"34.42361111","lon":"48.65444444"},{"id":147119,"name":"Hasanabad-e Sheverin","native":null,"lat":"34.84250000","lon":"48.54916667"},{"id":147120,"name":"Heriraz","native":null,"lat":"34.20527778","lon":"48.74305556"},{"id":147121,"name":"Hesar-e Qarah Baghi","native":null,"lat":"34.82250000","lon":"48.26861111"},{"id":147122,"name":"Hesar-e Qujeh Baghi","native":null,"lat":"35.23861111","lon":"48.55972222"},{"id":147123,"name":"Heydareh-ye Dar-e Emam","native":null,"lat":"34.82055556","lon":"48.34694444"},{"id":147124,"name":"Heydareh-ye Posht-e Shahr","native":null,"lat":"34.80250000","lon":"48.45750000"},{"id":147125,"name":"Hizaj","native":null,"lat":"34.93000000","lon":"49.14333333"},{"id":147126,"name":"Holvar-e Sofla","native":null,"lat":"34.68000000","lon":"48.13472222"},{"id":147127,"name":"Hom-e Khosrow","native":null,"lat":"34.31472222","lon":"48.01000000"},{"id":147128,"name":"Horhoreh","native":null,"lat":"34.39111111","lon":"48.36027778"},{"id":147129,"name":"Hoseynabad-e Bahar","native":null,"lat":"34.86750000","lon":"48.36833333"},{"id":147130,"name":"Hoseynabad-e Nazem","native":null,"lat":"34.29527800","lon":"48.60416700"},{"id":147131,"name":"Hoseynabad-e Shamlu","native":null,"lat":"34.44611111","lon":"48.62055556"},{"id":147132,"name":"Hudaraj","native":null,"lat":"34.73361111","lon":"48.16194444"},{"id":147133,"name":"Iraneh","native":null,"lat":"34.24305556","lon":"48.59750000"},{"id":147134,"name":"Isti Bolagh","native":null,"lat":"35.69500000","lon":"48.26611111"},{"id":147135,"name":"Jamishlu","native":null,"lat":"35.24583333","lon":"48.97666667"},{"id":147136,"name":"Jaria","native":null,"lat":"34.35166667","lon":"48.46861111"},{"id":147137,"name":"Javar Sajin","native":null,"lat":"35.28583333","lon":"49.22138889"},{"id":147138,"name":"Jerbanlu","native":null,"lat":"35.58638889","lon":"48.92916667"},{"id":147139,"name":"Jighi","native":null,"lat":"35.20027778","lon":"48.49388889"},{"id":147140,"name":"Jijan Kuh","native":null,"lat":"34.48111111","lon":"48.50694444"},{"id":147141,"name":"Jijian Rud","native":null,"lat":"34.35638889","lon":"48.60861111"},{"id":147142,"name":"Jin Taraqayah","native":null,"lat":"35.34555556","lon":"48.43250000"},{"id":151012,"name":"Jowkar","native":null,"lat":"34.43034520","lon":"48.67798440"},{"id":147143,"name":"Juraqan","native":null,"lat":"34.88472222","lon":"48.55444444"},{"id":147144,"name":"Kaboodrahang","native":null,"lat":"35.20833333","lon":"48.72388889"},{"id":151010,"name":"Kabudrahang","native":null,"lat":"35.20939460","lon":"48.70679130"},{"id":147145,"name":"Kahard","native":null,"lat":"35.28555556","lon":"49.00527778"},{"id":147146,"name":"Kahkadan","native":null,"lat":"34.14388889","lon":"48.65805556"},{"id":147147,"name":"Kahriz-e Baba Hoseyn","native":null,"lat":"35.53388889","lon":"47.94027778"},{"id":147148,"name":"Kahriz-e Boqazi","native":null,"lat":"35.51138889","lon":"48.81833333"},{"id":147149,"name":"Kahriz-e Hoseynabad-e Nazem","native":null,"lat":"34.31888889","lon":"48.62777778"},{"id":147150,"name":"Kahriz-e Jamal","native":null,"lat":"34.33500000","lon":"48.14611111"},{"id":147151,"name":"Kahriz-e Salim","native":null,"lat":"34.32888889","lon":"48.16222222"},{"id":147152,"name":"Kal Kabud","native":null,"lat":"35.48083333","lon":"48.85277778"},{"id":147153,"name":"Kalb Hesari","native":null,"lat":"35.36694444","lon":"48.39583333"},{"id":147154,"name":"Kalilabad","native":null,"lat":"34.33916667","lon":"48.54472222"},{"id":147155,"name":"Kamak-e Sofla","native":null,"lat":"34.88750000","lon":"47.96861111"},{"id":147156,"name":"Kamar Boneh","native":null,"lat":"34.17500000","lon":"48.63500000"},{"id":147157,"name":"Kamazan","native":null,"lat":"34.15083333","lon":"48.95333333"},{"id":147158,"name":"Kand Halan","native":null,"lat":"34.50111111","lon":"48.78194444"},{"id":147159,"name":"Kand Tappeh","native":null,"lat":"35.20138889","lon":"48.30555556"},{"id":147160,"name":"Kand-e Bolaghi","native":null,"lat":"35.43000000","lon":"48.32277778"},{"id":147161,"name":"Kangavar-e Kohneh","native":null,"lat":"34.34194444","lon":"47.97611111"},{"id":147162,"name":"Karafs","native":null,"lat":"35.36333333","lon":"49.29888889"},{"id":147163,"name":"Kark-e Sofla","native":null,"lat":"34.16944444","lon":"48.29138889"},{"id":147164,"name":"Kartilabad","native":null,"lat":"34.31361111","lon":"48.64916667"},{"id":147165,"name":"Kasavand","native":null,"lat":"34.15222222","lon":"48.96972222"},{"id":147166,"name":"Kaslan Qayah","native":null,"lat":"35.19388889","lon":"48.18611111"},{"id":147167,"name":"Kavanaj","native":null,"lat":"34.66388889","lon":"47.89694444"},{"id":147168,"name":"Kesb","native":null,"lat":"34.41416667","lon":"48.72250000"},{"id":147169,"name":"Keykaleh","native":null,"lat":"34.11500000","lon":"48.93916667"},{"id":147170,"name":"Keyni Sayeh","native":null,"lat":"34.82583333","lon":"47.88638889"},{"id":147171,"name":"Khabar Arkhi","native":null,"lat":"35.36333333","lon":"48.27666667"},{"id":147172,"name":"Khaku","native":null,"lat":"34.72638889","lon":"48.53638889"},{"id":147173,"name":"Khaleq Verdi","native":null,"lat":"35.41083333","lon":"48.18111111"},{"id":147174,"name":"Khalil Kord","native":null,"lat":"34.97805556","lon":"48.25305556"},{"id":147175,"name":"Kheradmand","native":null,"lat":"34.62583333","lon":"48.93138889"},{"id":147176,"name":"Kheyr Qoli","native":null,"lat":"34.20222222","lon":"48.40138889"},{"id":147177,"name":"Khomeygan","native":null,"lat":"35.36972222","lon":"49.02333333"},{"id":147178,"name":"Khvajeh Hesar","native":null,"lat":"35.00000000","lon":"49.33916667"},{"id":147179,"name":"Khvajeh Hoseyni","native":null,"lat":"34.15500000","lon":"48.37861111"},{"id":147180,"name":"Khvajeh Kandi","native":null,"lat":"35.36194444","lon":"48.38500000"},{"id":147181,"name":"Khvoshab-e Sofla","native":null,"lat":"35.01777778","lon":"48.35750000"},{"id":147182,"name":"Kitu","native":null,"lat":"35.31972222","lon":"48.15333333"},{"id":147183,"name":"Kohnush","native":null,"lat":"34.72583333","lon":"48.27777778"},{"id":147184,"name":"Kolanjan","native":null,"lat":"34.59444444","lon":"48.39250000"},{"id":147185,"name":"Konjineh","native":null,"lat":"34.79222222","lon":"48.62972222"},{"id":147186,"name":"Kord Bolagh","native":null,"lat":"34.76722222","lon":"48.65277778"},{"id":147187,"name":"Korzan","native":null,"lat":"34.59444444","lon":"48.35361111"},{"id":147188,"name":"Kowzareh","native":null,"lat":"34.69861100","lon":"49.01138900"},{"id":147189,"name":"Kuhani","native":null,"lat":"34.15388900","lon":"48.40500000"},{"id":147190,"name":"Kur Kahriz","native":null,"lat":"34.71722222","lon":"48.77333333"},{"id":147191,"name":"Kusaj Khalil","native":null,"lat":"34.40416667","lon":"48.58805556"},{"id":147192,"name":"Kutah Darreh","native":null,"lat":"34.32055556","lon":"47.95388889"},{"id":147193,"name":"Laleh Dan","native":null,"lat":"35.58111111","lon":"48.95416667"},{"id":147194,"name":"Lalejin","native":null,"lat":"34.97444444","lon":"48.47555556"},{"id":147195,"name":"Lamiyan","native":null,"lat":"34.46277778","lon":"48.19277778"},{"id":147196,"name":"Latgah","native":null,"lat":"34.98944400","lon":"48.54638900"},{"id":147197,"name":"Lavashan","native":null,"lat":"34.25055556","lon":"48.27416667"},{"id":147198,"name":"Leyli Yadegar","native":null,"lat":"34.28583333","lon":"48.21027778"},{"id":147199,"name":"Luluhar","native":null,"lat":"34.31611111","lon":"48.45416667"},{"id":147200,"name":"Mahanabad","native":null,"lat":"34.18083333","lon":"48.20972222"},{"id":147201,"name":"Mahbar","native":null,"lat":"34.87611111","lon":"48.80777778"},{"id":147202,"name":"Mahdaviyeh","native":null,"lat":"34.08333333","lon":"48.88333333"},{"id":147203,"name":"Mahnian","native":null,"lat":"35.50250000","lon":"49.06583333"},{"id":147204,"name":"Malayer","native":null,"lat":"34.29416667","lon":"48.82000000"},{"id":147205,"name":"Malek-e Ashtar","native":null,"lat":"34.95222222","lon":"48.31500000"},{"id":147206,"name":"Malusan","native":null,"lat":"34.32333333","lon":"48.33000000"},{"id":147207,"name":"Mangavi","native":null,"lat":"34.65750000","lon":"48.70861111"},{"id":147208,"name":"Marvil","native":null,"lat":"34.16805556","lon":"48.88694444"},{"id":147209,"name":"Maryanaj","native":null,"lat":"34.83083333","lon":"48.45916667"},{"id":147210,"name":"Masjedin","native":null,"lat":"35.54277778","lon":"48.26333333"},{"id":147211,"name":"Menjan","native":null,"lat":"34.44805556","lon":"48.23555556"},{"id":147212,"name":"Mesinak","native":null,"lat":"35.27222222","lon":"49.15111111"},{"id":147213,"name":"Meyvaleh","native":null,"lat":"34.83194444","lon":"47.85527778"},{"id":147214,"name":"Mianzulan","native":null,"lat":"34.31222222","lon":"48.51555556"},{"id":147215,"name":"Mihamleh-ye Sofla","native":null,"lat":"35.10000000","lon":"48.30805556"},{"id":147216,"name":"Milab","native":null,"lat":"34.05277778","lon":"48.47972222"},{"id":147217,"name":"Mirza Hesari","native":null,"lat":"35.12750000","lon":"48.45944400"},{"id":147218,"name":"Mishen","native":null,"lat":"34.15750000","lon":"48.92722222"},{"id":147219,"name":"Mobarakin","native":null,"lat":"35.09805556","lon":"49.42416667"},{"id":147220,"name":"Mohajeran","native":null,"lat":"35.07388889","lon":"48.61666667"},{"id":147221,"name":"Mohammadabad-e Chulak","native":null,"lat":"34.24666667","lon":"48.30444444"},{"id":147222,"name":"Mohammadiyeh-e Sofla","native":null,"lat":"34.14611111","lon":"48.33861111"},{"id":147223,"name":"Mohara","native":null,"lat":"34.55527778","lon":"48.86861111"},{"id":147224,"name":"Mokarrabi","native":null,"lat":"34.62500000","lon":"48.69777778"},{"id":147225,"name":"Molham Darreh","native":null,"lat":"34.83138889","lon":"48.14527778"},{"id":147226,"name":"Molla Bodagh","native":null,"lat":"35.63138889","lon":"48.73888889"},{"id":147227,"name":"Monavvar Tappeh","native":null,"lat":"34.72027778","lon":"47.91111111"},{"id":147228,"name":"Morghabad","native":null,"lat":"35.18833333","lon":"49.28277778"},{"id":147229,"name":"Mowdaran","native":null,"lat":"34.33250000","lon":"48.47138889"},{"id":147230,"name":"Musa Bolaghi","native":null,"lat":"34.59888889","lon":"48.94111111"},{"id":147231,"name":"Nahandar","native":null,"lat":"34.14944444","lon":"48.96833333"},{"id":147232,"name":"Nahavand","native":null,"lat":"34.18833333","lon":"48.37694444"},{"id":147233,"name":"Najafiyeh","native":null,"lat":"34.55500000","lon":"48.38638889"},{"id":147234,"name":"Nakilabad","native":null,"lat":"34.36777778","lon":"48.65694444"},{"id":147235,"name":"Nakin","native":null,"lat":"35.38805556","lon":"49.26527778"},{"id":147236,"name":"Namileh","native":null,"lat":"34.27111111","lon":"48.82000000"},{"id":147237,"name":"Nanaj","native":null,"lat":"34.42000000","lon":"48.75388889"},{"id":147238,"name":"Nazul","native":null,"lat":"34.22833333","lon":"48.71805556"},{"id":147239,"name":"Negar Khatun","native":null,"lat":"35.11861111","lon":"48.92555556"},{"id":147240,"name":"Negarabad","native":null,"lat":"35.47583333","lon":"48.53277778"},{"id":147241,"name":"Nehenjeh","native":null,"lat":"34.54111111","lon":"48.71722222"},{"id":147242,"name":"Nesar","native":null,"lat":"34.07694444","lon":"48.46861111"},{"id":147243,"name":"Neshar","native":null,"lat":"34.67722222","lon":"48.86694444"},{"id":147244,"name":"Niyanj","native":null,"lat":"35.34861111","lon":"48.91722222"},{"id":147245,"name":"Nosratabad-e Behraz","native":null,"lat":"34.69222222","lon":"48.08555556"},{"id":147246,"name":"Nosratabad-e Laklak","native":null,"lat":"34.66472222","lon":"47.96277778"},{"id":147247,"name":"Nurabad-e Simineh","native":null,"lat":"34.82194444","lon":"48.29277778"},{"id":147248,"name":"Ojaq","native":null,"lat":"35.64000000","lon":"48.84583333"},{"id":147249,"name":"Ommatlar","native":null,"lat":"35.43611111","lon":"48.96861111"},{"id":147250,"name":"Oshtoran","native":null,"lat":"34.63805556","lon":"48.29555556"},{"id":147251,"name":"Oshtorjin","native":null,"lat":"34.77583333","lon":"48.17222222"},{"id":147252,"name":"Ovraqin","native":null,"lat":"35.28222222","lon":"48.69111111"},{"id":147253,"name":"Owrteh Qamish","native":null,"lat":"35.57083333","lon":"48.62916667"},{"id":147254,"name":"Owryad","native":null,"lat":"35.26277778","lon":"48.37250000"},{"id":147255,"name":"Pahnabad","native":null,"lat":"34.84166667","lon":"48.61472222"},{"id":147256,"name":"Panbeh Dar","native":null,"lat":"34.06527778","lon":"48.44555556"},{"id":147257,"name":"Parluk","native":null,"lat":"35.06555556","lon":"48.24611111"},{"id":147258,"name":"Parvaraq","native":null,"lat":"35.15583333","lon":"48.76777778"},{"id":147259,"name":"Payandeh","native":null,"lat":"35.44194444","lon":"48.85305556"},{"id":147260,"name":"Peyhan","native":null,"lat":"34.12972222","lon":"48.86750000"},{"id":147261,"name":"Pileh Jin","native":null,"lat":"35.38388889","lon":"48.85583333"},{"id":147262,"name":"Pir Anbar","native":null,"lat":"35.24250000","lon":"48.51361111"},{"id":147263,"name":"Pir Badam","native":null,"lat":"35.56722222","lon":"48.13888889"},{"id":147264,"name":"Pir Khodaverdi","native":null,"lat":"34.32500000","lon":"48.92861111"},{"id":147265,"name":"Pir Malu","native":null,"lat":"34.91222222","lon":"48.06611111"},{"id":147266,"name":"Pir Mishan","native":null,"lat":"34.39166667","lon":"48.66611111"},{"id":147267,"name":"Pir Savaran","native":null,"lat":"34.11805556","lon":"48.77861111"},{"id":147268,"name":"Pir Yusof","native":null,"lat":"34.68888889","lon":"47.89277778"},{"id":147269,"name":"Piruz","native":null,"lat":"34.13500000","lon":"49.04527778"},{"id":147270,"name":"Poshtjin","native":null,"lat":"35.31416667","lon":"49.07166667"},{"id":147271,"name":"Qabanqoli","native":null,"lat":"35.19833333","lon":"49.17833333"},{"id":147272,"name":"Qader Khalaj","native":null,"lat":"35.40111111","lon":"48.73000000"},{"id":147273,"name":"Qadimi","native":null,"lat":"34.65194444","lon":"48.73666667"},{"id":147274,"name":"Qahavand","native":null,"lat":"34.86027778","lon":"49.00472222"},{"id":147275,"name":"Qajar Ab-e Sofla","native":null,"lat":"34.43527778","lon":"48.97527778"},{"id":147276,"name":"Qarah Day","native":null,"lat":"35.12527778","lon":"49.28222222"},{"id":147277,"name":"Qarah Tegini","native":null,"lat":"34.44027778","lon":"48.93555556"},{"id":147278,"name":"Qaranqu Darreh","native":null,"lat":"35.51305556","lon":"48.17750000"},{"id":147279,"name":"Qasabestan","native":null,"lat":"34.42000000","lon":"48.18777778"},{"id":147280,"name":"Qasemabad-e Laklak","native":null,"lat":"34.67527778","lon":"47.97222222"},{"id":147281,"name":"Qater Owlan","native":null,"lat":"35.37527778","lon":"48.93166667"},{"id":147282,"name":"Qayesh","native":null,"lat":"35.49611111","lon":"48.86694444"},{"id":147283,"name":"Qazan Qarah","native":null,"lat":"35.66190000","lon":"48.08220000"},{"id":147284,"name":"Qazi Mardan","native":null,"lat":"34.77694444","lon":"48.01416667"},{"id":147285,"name":"Qeshlaq Baba Rostam","native":null,"lat":"34.14194444","lon":"48.36250000"},{"id":147286,"name":"Qeshlaq-e Anuch","native":null,"lat":"34.11611111","lon":"48.57777778"},{"id":147287,"name":"Qeshlaq-e Deh Ful","native":null,"lat":"34.24388889","lon":"48.33750000"},{"id":147288,"name":"Qeshlaq-e Dehnow","native":null,"lat":"34.50000000","lon":"48.56666667"},{"id":147289,"name":"Qeshlaq-e Mohammadi","native":null,"lat":"34.06666667","lon":"48.91666667"},{"id":147290,"name":"Qeshlaq-e Najaf","native":null,"lat":"34.37222222","lon":"48.24500000"},{"id":147291,"name":"Qeshlaq-e Pust Shuran","native":null,"lat":"34.40305556","lon":"48.21638889"},{"id":147292,"name":"Qeshlaq-e Qobad","native":null,"lat":"34.58777778","lon":"48.89583333"},{"id":147293,"name":"Qeshlaq-e Shirazi","native":null,"lat":"34.38388889","lon":"48.93916667"},{"id":147294,"name":"Qeshlaq-e Sofla","native":null,"lat":"34.70083333","lon":"49.06972222"},{"id":147295,"name":"Qeshlaq-e Valiollah","native":null,"lat":"34.35222222","lon":"48.22416667"},{"id":147296,"name":"Qeydli Bolagh","native":null,"lat":"35.01500000","lon":"48.28750000"},{"id":147297,"name":"Qilab","native":null,"lat":"34.30444444","lon":"48.06083333"},{"id":147298,"name":"Qohurd-e Sofla","native":null,"lat":"35.47111100","lon":"48.05944400"},{"id":147299,"name":"Qoli Laleh-ye Sofla","native":null,"lat":"34.52805556","lon":"48.25972222"},{"id":147300,"name":"Qolqolabad","native":null,"lat":"35.13083333","lon":"49.29083333"},{"id":151009,"name":"Qorveh-e Darjazin","native":null,"lat":"35.31264740","lon":"49.08991810"},{"id":147301,"name":"Quch Tappeh","native":null,"lat":"34.92722222","lon":"48.02611111"},{"id":147302,"name":"Qushjeh","native":null,"lat":"35.66416667","lon":"48.30555556"},{"id":147303,"name":"Rahmanabad Malayer","native":null,"lat":"34.08861111","lon":"48.58555556"},{"id":147304,"name":"Ramishan","native":null,"lat":"35.15972222","lon":"48.80500000"},{"id":147305,"name":"Rastguyan","native":null,"lat":"34.91666667","lon":"48.21666667"},{"id":147306,"name":"Rasulabad-e Sofla","native":null,"lat":"34.87888889","lon":"48.21861111"},{"id":147307,"name":"Ravand-e Vosta","native":null,"lat":"34.13333333","lon":"48.34916667"},{"id":147308,"name":"Rayegan-e Sofla","native":null,"lat":"35.07111100","lon":"48.66333300"},{"id":147309,"name":"Razaj","native":null,"lat":"34.89527778","lon":"49.14666667"},{"id":147310,"name":"Razan","native":null,"lat":"35.38638889","lon":"49.03361111"},{"id":147311,"name":"Razini","native":null,"lat":"34.26777778","lon":"48.12611111"},{"id":147312,"name":"Reza Baghi","native":null,"lat":"35.18277778","lon":"49.31444444"},{"id":147313,"name":"Rezvankadeh","native":null,"lat":"34.25000000","lon":"48.83333333"},{"id":147314,"name":"Rivasijan","native":null,"lat":"34.57722222","lon":"48.43194444"},{"id":147315,"name":"Robat-e Sheverin","native":null,"lat":"34.86111111","lon":"48.60027778"},{"id":147316,"name":"Rud Avar","native":null,"lat":"34.55055556","lon":"48.41055556"},{"id":147317,"name":"Rud-e Hasan-e Sofla","native":null,"lat":"34.12444444","lon":"48.37166667"},{"id":147318,"name":"Safa Riz","native":null,"lat":"35.40694444","lon":"48.30611111"},{"id":147319,"name":"Sahamabad","native":null,"lat":"34.55388889","lon":"48.30472222"},{"id":147320,"name":"Salehabad","native":null,"lat":"34.92361111","lon":"48.34250000"},{"id":147321,"name":"Salilak","native":null,"lat":"35.25277778","lon":"49.11888889"},{"id":147322,"name":"Saluk","native":null,"lat":"34.34138889","lon":"48.99305556"},{"id":147323,"name":"Samen","native":null,"lat":"34.20916667","lon":"48.70583333"},{"id":147324,"name":"Sanaj","native":null,"lat":"35.12222222","lon":"49.02555556"},{"id":147325,"name":"Sanjuzan","native":null,"lat":"34.65611111","lon":"48.39333333"},{"id":147326,"name":"Sar Duran","native":null,"lat":"34.20305556","lon":"48.26388889"},{"id":147327,"name":"Sarab-e Tajar","native":null,"lat":"34.23222222","lon":"48.60638889"},{"id":147328,"name":"Saravak","native":null,"lat":"35.17916667","lon":"48.94638889"},{"id":147329,"name":"Sarayjuq","native":null,"lat":"35.42888889","lon":"47.96194444"},{"id":147330,"name":"Sarijlu","native":null,"lat":"35.61250000","lon":"48.89222222"},{"id":147331,"name":"Sarkan","native":null,"lat":"34.60166667","lon":"48.45055556"},{"id":147332,"name":"Saziyan","native":null,"lat":"34.57361111","lon":"48.15361111"},{"id":147333,"name":"Sefid Khaneh","native":null,"lat":"34.06972222","lon":"48.50805556"},{"id":147334,"name":"Segavi","native":null,"lat":"34.58527778","lon":"48.10083333"},{"id":151008,"name":"Serkan","native":null,"lat":"34.60070120","lon":"48.43862940"},{"id":147335,"name":"Setaq","native":null,"lat":"35.04583300","lon":"49.29638900"},{"id":147336,"name":"Shademaneh","native":null,"lat":"34.36166667","lon":"48.28055556"},{"id":147337,"name":"Shanabad","native":null,"lat":"34.60888889","lon":"48.10416667"},{"id":147338,"name":"Shanjur","native":null,"lat":"35.29722222","lon":"49.17638889"},{"id":147339,"name":"Sharifabad-e Quzan","native":null,"lat":"34.41222222","lon":"48.82583333"},{"id":147340,"name":"Sharifabad-e Tajar","native":null,"lat":"34.26472222","lon":"48.63833333"},{"id":147341,"name":"Shatzal","native":null,"lat":"34.30305556","lon":"47.97388889"},{"id":147342,"name":"Shavand","native":null,"lat":"35.37527778","lon":"49.20972222"},{"id":147343,"name":"Sheverin","native":null,"lat":"34.80750000","lon":"48.57027778"},{"id":147344,"name":"Sheykh Jarrah","native":null,"lat":"35.50222222","lon":"48.22250000"},{"id":147345,"name":"Shilandar-e Sofla","native":null,"lat":"34.66750000","lon":"48.16861111"},{"id":147346,"name":"Shir Barat","native":null,"lat":"35.63333333","lon":"48.38250000"},{"id":147347,"name":"Shirin Su","native":null,"lat":"35.49277778","lon":"48.45055556"},{"id":147348,"name":"Shush Ab","native":null,"lat":"34.35361111","lon":"48.63222222"},{"id":147349,"name":"Siah Goleh","native":null,"lat":"34.94583333","lon":"47.96833333"},{"id":147350,"name":"Sib Dar","native":null,"lat":"34.21694444","lon":"48.78472222"},{"id":147351,"name":"Silvar","native":null,"lat":"34.74583333","lon":"48.50666667"},{"id":147352,"name":"Simin-e Abaru","native":null,"lat":"34.68250000","lon":"48.58583300"},{"id":147353,"name":"Simin-e Zagheh","native":null,"lat":"34.87666667","lon":"48.32166667"},{"id":147354,"name":"Siravand","native":null,"lat":"34.79527778","lon":"47.99638889"},{"id":147355,"name":"Sistaneh","native":null,"lat":"34.66333333","lon":"48.32055556"},{"id":147356,"name":"Solulan","native":null,"lat":"34.82611111","lon":"48.42944444"},{"id":147357,"name":"Sorkh Kand","native":null,"lat":"34.08750000","lon":"48.42916667"},{"id":147358,"name":"Sulijeh","native":null,"lat":"35.26860000","lon":"48.33440000"},{"id":147359,"name":"Surtajin","native":null,"lat":"35.53560000","lon":"49.01390000"},{"id":147360,"name":"Sutlaq","native":null,"lat":"34.57640000","lon":"48.27750000"},{"id":147361,"name":"Tafrijan","native":null,"lat":"34.76330000","lon":"48.58190000"},{"id":147362,"name":"Tahunabad","native":null,"lat":"34.83860000","lon":"48.86640000"},{"id":147363,"name":"Tajar-e Samen","native":null,"lat":"34.22560000","lon":"48.66500000"},{"id":147364,"name":"Takhtiabad","native":null,"lat":"34.81220000","lon":"47.83780000"},{"id":147365,"name":"Taleh Jerd-e Sofla","native":null,"lat":"34.04580000","lon":"48.87780000"},{"id":147366,"name":"Tamuzan","native":null,"lat":"35.27970000","lon":"49.13280000"},{"id":147367,"name":"Tappeh Yazdan","native":null,"lat":"34.33670000","lon":"48.02250000"},{"id":147368,"name":"Tappeh-ye Dibi","native":null,"lat":"35.42920000","lon":"48.69420000"},{"id":147369,"name":"Taraqayah","native":null,"lat":"35.31890000","lon":"48.37110000"},{"id":147370,"name":"Tarik Darreh-ye Bala","native":null,"lat":"34.27330000","lon":"47.93920000"},{"id":147371,"name":"Tarkhinabad","native":null,"lat":"34.81530000","lon":"48.12250000"},{"id":147372,"name":"Tas Tappeh","native":null,"lat":"35.16390000","lon":"48.48330000"},{"id":147373,"name":"Tasbandi","native":null,"lat":"34.56140000","lon":"48.79060000"},{"id":147374,"name":"Tasran","native":null,"lat":"35.33830000","lon":"48.63390000"},{"id":147375,"name":"Tavaleh","native":null,"lat":"35.15440000","lon":"49.04390000"},{"id":147376,"name":"Tavaneh","native":null,"lat":"34.21138900","lon":"48.18583300"},{"id":147377,"name":"Taveh","native":null,"lat":"35.11670000","lon":"49.02720000"},{"id":147378,"name":"Tavilan-e Sofla","native":null,"lat":"34.79940000","lon":"47.86940000"},{"id":147379,"name":"Tazehnab-e Sofla","native":null,"lat":"34.09780000","lon":"48.31530000"},{"id":147380,"name":"Termianak","native":null,"lat":"34.63190000","lon":"48.17360000"},{"id":147381,"name":"Timi Jan","native":null,"lat":"34.69030000","lon":"48.34140000"},{"id":147382,"name":"Tuchaqaz","native":null,"lat":"34.29970000","lon":"48.71500000"},{"id":147383,"name":"Tulki Tappeh","native":null,"lat":"35.49530000","lon":"48.95780000"},{"id":147384,"name":"Tusk-e Sofla","native":null,"lat":"34.25000000","lon":"48.99000000"},{"id":147385,"name":"Tutal","native":null,"lat":"34.51500000","lon":"49.02140000"},{"id":147386,"name":"Tuyserkan","native":null,"lat":"34.54805556","lon":"48.44666667"},{"id":147387,"name":"Vafr-e Jin","native":null,"lat":"34.81030000","lon":"48.38420000"},{"id":147388,"name":"Vahandeh","native":null,"lat":"35.50940000","lon":"49.04750000"},{"id":147389,"name":"Vahman","native":null,"lat":"34.26080000","lon":"48.27080000"},{"id":147390,"name":"Vahnan","native":null,"lat":"34.79000000","lon":"48.28860000"},{"id":147391,"name":"Vali Mohammad","native":null,"lat":"35.15190000","lon":"48.38060000"},{"id":147392,"name":"Vali Sir Ab","native":null,"lat":"34.23280000","lon":"48.18940000"},{"id":147393,"name":"Vandarabad","native":null,"lat":"34.66970000","lon":"48.07890000"},{"id":147394,"name":"Varayeneh","native":null,"lat":"34.07920000","lon":"48.40560000"},{"id":147395,"name":"Varazaneh","native":null,"lat":"34.18640000","lon":"48.18610000"},{"id":147396,"name":"Varchaq","native":null,"lat":"34.37170000","lon":"48.89780000"},{"id":147397,"name":"Vardavard-e Sofla","native":null,"lat":"34.70030000","lon":"48.29390000"},{"id":147398,"name":"Vardavard-e Vosta","native":null,"lat":"34.70440000","lon":"48.30170000"},{"id":147399,"name":"Varkaneh","native":null,"lat":"34.67690000","lon":"48.61920000"},{"id":147400,"name":"Varqestan","native":null,"lat":"35.39640000","lon":"49.00920000"},{"id":147401,"name":"Varvazin","native":null,"lat":"35.36580000","lon":"48.96060000"},{"id":147402,"name":"Vasaj","native":null,"lat":"34.32060000","lon":"48.22580000"},{"id":147403,"name":"Vashur","native":null,"lat":"35.23170000","lon":"48.35170000"},{"id":147404,"name":"Vasleh","native":null,"lat":"35.21280000","lon":"48.34640000"},{"id":147405,"name":"Vesht","native":null,"lat":"34.13860000","lon":"48.46830000"},{"id":147406,"name":"Vezendan","native":null,"lat":"34.95810000","lon":"49.31250000"},{"id":147407,"name":"Yalfan","native":null,"lat":"34.73640000","lon":"48.61110000"},{"id":147408,"name":"Yarom Qayah","native":null,"lat":"35.06890000","lon":"49.38170000"},{"id":147409,"name":"Yaromjeh Bagh","native":null,"lat":"35.51750000","lon":"48.67640000"},{"id":147410,"name":"Yeganeh","native":null,"lat":"34.80720000","lon":"48.63780000"},{"id":147411,"name":"Yekanabad","native":null,"lat":"34.87360000","lon":"48.45420000"},{"id":147412,"name":"Yekleh","native":null,"lat":"34.87777800","lon":"49.00666700"},{"id":147413,"name":"Yeserlu","native":null,"lat":"35.06110000","lon":"48.78360000"},{"id":147414,"name":"Yunes","native":null,"lat":"34.15860000","lon":"48.67330000"},{"id":147415,"name":"Yunji","native":null,"lat":"34.35860000","lon":"48.78170000"},{"id":147416,"name":"Zagheh-ye Anuch","native":null,"lat":"34.14780000","lon":"48.55420000"},{"id":147417,"name":"Zagheh-ye Tasbandi","native":null,"lat":"34.60360000","lon":"48.81110000"},{"id":147418,"name":"Zaghlijeh","native":null,"lat":"35.15280000","lon":"49.37580000"},{"id":147419,"name":"Zamanabad-e Mohammadabad","native":null,"lat":"34.41250000","lon":"48.64220000"},{"id":151013,"name":"Zangeneh","native":null,"lat":"34.15427170","lon":"49.00369050"},{"id":147420,"name":"Zangeneh-ye Sofla","native":null,"lat":"34.14670000","lon":"49.01670000"},{"id":147421,"name":"Zapon","native":null,"lat":"34.38390000","lon":"48.18940000"},{"id":147422,"name":"Zaramin-e Sofla","native":null,"lat":"34.19360000","lon":"48.30000000"},{"id":147423,"name":"Zarrin Bagh","native":null,"lat":"34.29470000","lon":"48.05190000"},{"id":147424,"name":"Zeraq","native":null,"lat":"35.07140000","lon":"49.16940000"},{"id":147425,"name":"Zirabiyeh","native":null,"lat":"34.41330000","lon":"48.61690000"}]},{"id":3937,"name":"Hormozgan","native":null,"cities":[{"id":134786,"name":"Abu Musa","native":null,"lat":"26.05474000","lon":"55.16243000"},{"id":150978,"name":"Abumusa ","native":null,"lat":"27.19805600","lon":"54.36861100"},{"id":134576,"name":"Bandar Abbas","native":null,"lat":"27.18650000","lon":"56.28080000"},{"id":150986,"name":"Bandar Charak","native":null,"lat":"26.73055600","lon":"54.27472200"},{"id":150995,"name":"Bandar Khamir","native":null,"lat":"26.95185270","lon":"55.57268840"},{"id":150987,"name":"Bandar Kong","native":null,"lat":"26.60285650","lon":"54.92980580"},{"id":134580,"name":"Bandar Lengeh","native":null,"lat":"26.55792000","lon":"54.88067000"},{"id":150991,"name":"Bandar-e-Jask","native":null,"lat":"25.65385140","lon":"57.76995600"},{"id":134806,"name":"Bashagard","native":null,"lat":"26.45000000","lon":"58.08333000"},{"id":134583,"name":"Bastak","native":null,"lat":"27.20000000","lon":"54.36667000"},{"id":150997,"name":"Bikah","native":null,"lat":"27.35404360","lon":"57.16993320"},{"id":151002,"name":"Dargahan","native":null,"lat":"26.95833690","lon":"56.04316930"},{"id":150989,"name":"Dashti","native":null,"lat":"27.17918870","lon":"52.99824000"},{"id":150998,"name":"Dehbārez","native":null,"lat":"27.44841050","lon":"57.16675690"},{"id":150994,"name":"Fareghan","native":null,"lat":"28.00785210","lon":"56.24459260"},{"id":150984,"name":"Fin","native":null,"lat":"27.63285790","lon":"55.88187210"},{"id":151001,"name":"Gerouk","native":null,"lat":"26.58856490","lon":"57.08517550"},{"id":150981,"name":"Gouharan","native":null,"lat":"26.59615360","lon":"57.88707010"},{"id":150992,"name":"Haji Abad","native":null,"lat":"28.31352140","lon":"55.89620570"},{"id":135098,"name":"Hajjiabad","native":null,"lat":"28.33333000","lon":"55.83333000"},{"id":151007,"name":"Hasht Bandi","native":null,"lat":"27.14586240","lon":"57.43326510"},{"id":151004,"name":"Hormuz","native":null,"lat":"27.09500000","lon":"56.45277800"},{"id":150979,"name":"Janah","native":null,"lat":"27.02755080","lon":"54.27128050"},{"id":134900,"name":"Jask","native":null,"lat":"25.88333000","lon":"58.20000000"},{"id":134913,"name":"Khamir","native":null,"lat":"27.26667000","lon":"55.55000000"},{"id":134685,"name":"Kish","native":null,"lat":"26.55778000","lon":"54.01944000"},{"id":150990,"name":"Koshkonar","native":null,"lat":"27.25012720","lon":"52.85715580"},{"id":151000,"name":"Kouhestak","native":null,"lat":"26.80426850","lon":"57.01887130"},{"id":150988,"name":"Lemazan","native":null,"lat":"27.05369130","lon":"54.83641080"},{"id":134705,"name":"Minab","native":null,"lat":"27.13104000","lon":"57.08716000"},{"id":134995,"name":"Parsian","native":null,"lat":"27.16667000","lon":"53.26667000"},{"id":150985,"name":"Qaleh Qazi","native":null,"lat":"27.44472200","lon":"56.54777800"},{"id":134742,"name":"Qeshm","native":null,"lat":"26.78333000","lon":"55.86667000"},{"id":135020,"name":"Rudan","native":null,"lat":"27.53333000","lon":"57.11667000"},{"id":150996,"name":"Ruydar","native":null,"lat":"27.46003100","lon":"55.40825820"},{"id":150980,"name":"Sardasht Bashagard","native":null,"lat":"26.45871900","lon":"57.88425900"},{"id":150993,"name":"Sargaz","native":null,"lat":"28.42563000","lon":"55.70177000"},{"id":151006,"name":"Senderk","native":null,"lat":"26.83816290","lon":"57.41788730"},{"id":135054,"name":"Sirik","native":null,"lat":"26.50000000","lon":"57.18333000"},{"id":151003,"name":"Suzā","native":null,"lat":"26.77724030","lon":"56.04379160"},{"id":150983,"name":"Takht","native":null,"lat":"27.50356930","lon":"56.62731160"},{"id":150982,"name":"Tazian","native":null,"lat":"27.29016000","lon":"56.15210300"},{"id":151005,"name":"Tirour","native":null,"lat":"27.33793880","lon":"56.95310350"},{"id":150999,"name":"Ziyārat Ali","native":null,"lat":"27.73557730","lon":"57.21072420"}]},{"id":3918,"name":"Ilam","native":null,"cities":[{"id":135149,"name":"abdanan","native":null,"lat":"32.99260000","lon":"47.41980000"},{"id":150314,"name":"Arkavaz","native":null,"lat":"33.38544050","lon":"46.57578680"},{"id":150304,"name":"Aseman Abad","native":null,"lat":"33.85182450","lon":"46.44400060"},{"id":134574,"name":"Badreh","native":null,"lat":"33.00000000","lon":"47.25000000"},{"id":150305,"name":"Balavah Tareh","native":null,"lat":"33.66690070","lon":"46.80243500"},{"id":150303,"name":"Bedreh","native":null,"lat":"33.30662610","lon":"47.02968120"},{"id":134606,"name":"Chardavol County","native":null,"lat":"33.75910000","lon":"46.56980000"},{"id":150301,"name":"Chovar","native":null,"lat":"33.69522650","lon":"46.29299630"},{"id":134614,"name":"Darreh Shahr","native":null,"lat":"33.14447000","lon":"47.37990000"},{"id":134617,"name":"Dehloran","native":null,"lat":"32.69410000","lon":"47.26790000"},{"id":150315,"name":"Delgosha","native":null,"lat":"33.40633120","lon":"46.58975600"},{"id":134862,"name":"Eyvan","native":null,"lat":"33.90000000","lon":"46.16667000"},{"id":135157,"name":"Ilam","native":null,"lat":"33.63740000","lon":"46.42270000"},{"id":150313,"name":"Loumar","native":null,"lat":"33.56787760","lon":"46.80513740"},{"id":134950,"name":"Malekshahi","native":null,"lat":"33.30000000","lon":"46.55000000"},{"id":150312,"name":"Maymeh","native":null,"lat":"33.22788250","lon":"46.91291920"},{"id":150309,"name":"Mazhin","native":null,"lat":"32.95297150","lon":"47.78095720"},{"id":150316,"name":"Mehr","native":null,"lat":"33.43694400","lon":"46.46111100"},{"id":134700,"name":"Mehran","native":null,"lat":"33.12220000","lon":"46.16460000"},{"id":150311,"name":"Mousiyan","native":null,"lat":"32.51868160","lon":"47.36810080"},{"id":150300,"name":"Murmuri ","native":null,"lat":"32.72546810","lon":"47.66744610"},{"id":150310,"name":"Pahleh","native":null,"lat":"33.01059760","lon":"46.87927360"},{"id":150317,"name":"Saleh Abad","native":null,"lat":"33.47157940","lon":"46.18184570"},{"id":150299,"name":"Sarabbagh","native":null,"lat":"32.89856040","lon":"47.57032870"},{"id":150307,"name":"Sarableh","native":null,"lat":"33.76577730","lon":"46.54643580"},{"id":150308,"name":"Shabab","native":null,"lat":"33.74878600","lon":"46.63228510"},{"id":135117,"name":"Sirvan","native":null,"lat":"33.75460000","lon":"46.56651000"},{"id":150306,"name":"Tohid","native":null,"lat":"33.72550000","lon":"47.06850000"},{"id":150302,"name":"Zarneh","native":null,"lat":"33.92863690","lon":"46.17875560"}]},{"id":3923,"name":"Isfahan","native":null,"cities":[{"id":150201,"name":"Abouzeidabad","native":null,"lat":"33.90165760","lon":"51.74337370"},{"id":134557,"name":"Abrisham","native":null,"lat":"32.55613000","lon":"51.57325000"},{"id":150226,"name":"Afus","native":null,"lat":"33.02495550","lon":"50.08812900"},{"id":150282,"name":"Alavijeh","native":null,"lat":"33.05169010","lon":"51.05992540"},{"id":150277,"name":"Anarak","native":null,"lat":"33.30702060","lon":"53.68767500"},{"id":135084,"name":"Aran va Bidgol","native":null,"lat":"34.10000000","lon":"51.90000000"},{"id":134570,"name":"Ardestan","native":null,"lat":"33.37610000","lon":"52.36940000"},{"id":150230,"name":"Asghar Abad","native":null,"lat":"32.65260910","lon":"51.47119400"},{"id":150228,"name":"Askaran","native":null,"lat":"32.86623280","lon":"50.84719420"},{"id":150285,"name":"Badroud","native":null,"lat":"33.68939670","lon":"51.99780820"},{"id":150278,"name":"Bafrān","native":null,"lat":"32.83938320","lon":"53.13662050"},{"id":150263,"name":"Baghbahadoran","native":null,"lat":"32.37872850","lon":"51.18191240"},{"id":150264,"name":"Baghshad","native":null,"lat":"32.38226100","lon":"51.22944130"},{"id":150250,"name":"Baharan Shahr","native":null,"lat":"32.65097430","lon":"51.72070930"},{"id":150207,"name":"Baharestan","native":null,"lat":"32.48391000","lon":"51.73393190"},{"id":150247,"name":"Barf Anbar","native":null,"lat":"32.99523650","lon":"50.17576210"},{"id":150255,"name":"Barzok","native":null,"lat":"33.77699410","lon":"51.19740420"},{"id":134812,"name":"Borkhvar","native":null,"lat":"32.98333000","lon":"51.76667000"},{"id":134593,"name":"Buin va Miandasht","native":null,"lat":"33.07241000","lon":"50.14641000"},{"id":134609,"name":"Chadegan","native":null,"lat":"32.76825000","lon":"50.62873000"},{"id":150266,"name":"Chamgordan","native":null,"lat":"32.39291670","lon":"51.33082860"},{"id":150265,"name":"Chermahin","native":null,"lat":"32.32433430","lon":"51.14324500"},{"id":150246,"name":"Damaneh","native":null,"lat":"33.01758740","lon":"50.47904490"},{"id":134627,"name":"Daran","native":null,"lat":"32.98871000","lon":"50.41267000"},{"id":150221,"name":"Dastgerd","native":null,"lat":"32.80222710","lon":"51.65711400"},{"id":150281,"name":"Dehagh","native":null,"lat":"33.10728330","lon":"50.93896840"},{"id":150236,"name":"Dehaghan","native":null,"lat":"31.93724900","lon":"51.64522640"},{"id":134618,"name":"Dehaqan","native":null,"lat":"31.94004000","lon":"51.64786000"},{"id":150272,"name":"Diziche","native":null,"lat":"32.40433490","lon":"51.48476550"},{"id":150222,"name":"Dolatabad","native":null,"lat":"32.80826470","lon":"51.67975170"},{"id":150231,"name":"Dorcheh","native":null,"lat":"32.61500960","lon":"51.53461450"},{"id":134623,"name":"Dorcheh Piaz","native":null,"lat":"32.61528000","lon":"51.55556000"},{"id":134624,"name":"Dowlatabad","native":null,"lat":"32.79978000","lon":"51.69553000"},{"id":134863,"name":"Esfahan","native":null,"lat":"32.26667000","lon":"52.45000000"},{"id":150206,"name":"Ezhieh","native":null,"lat":"32.44236700","lon":"52.37182610"},{"id":134632,"name":"Falavarjan","native":null,"lat":"32.55530000","lon":"51.50973000"},{"id":134636,"name":"Fareydunshahr","native":null,"lat":"32.94098000","lon":"50.12100000"},{"id":150235,"name":"Farrokhi","native":null,"lat":"33.84195750","lon":"54.94378560"},{"id":134639,"name":"Fereydan","native":null,"lat":"33.10000000","lon":"50.26667000"},{"id":150248,"name":"Fereydun Shahr","native":null,"lat":"32.93718600","lon":"50.12029390"},{"id":150270,"name":"Fooladshahr","native":null,"lat":"32.52549510","lon":"51.29630090"},{"id":150242,"name":"Gazborkhar","native":null,"lat":"32.80222200","lon":"51.62111100"},{"id":150253,"name":"Ghahderijan","native":null,"lat":"32.56889540","lon":"51.40953480"},{"id":150257,"name":"Ghamsar","native":null,"lat":"33.74066420","lon":"51.41000730"},{"id":150284,"name":"Goldasht","native":null,"lat":"32.62173270","lon":"51.42737730"},{"id":134645,"name":"Golpayegan","native":null,"lat":"33.45370000","lon":"50.28836000"},{"id":150261,"name":"Golshahr","native":null,"lat":"33.50595700","lon":"50.45278070"},{"id":150237,"name":"Golshan","native":null,"lat":"31.92651440","lon":"51.72279540"},{"id":150262,"name":"Googad","native":null,"lat":"33.47637670","lon":"50.34423700"},{"id":150241,"name":"Gorgab","native":null,"lat":"32.86625040","lon":"51.58879270"},{"id":150219,"name":"Habibabad","native":null,"lat":"32.83124240","lon":"51.76599030"},{"id":150238,"name":"Hanna","native":null,"lat":"31.19744850","lon":"51.71396600"},{"id":150218,"name":"Harand","native":null,"lat":"32.57486500","lon":"52.39937730"},{"id":150209,"name":"Hassan Abad","native":null,"lat":"32.13927970","lon":"52.62129300"},{"id":150249,"name":"Imanshahr","native":null,"lat":"32.48392420","lon":"51.43493040"},{"id":134656,"name":"Isfahan","native":null,"lat":"32.65246000","lon":"51.67462000"},{"id":150234,"name":"Jandaq","native":null,"lat":"34.04261310","lon":"54.40511230"},{"id":150256,"name":"Josheqaneqali","native":null,"lat":"33.55601380","lon":"51.13534680"},{"id":150258,"name":"Jowsheqan va Kamu","native":null,"lat":"33.60000000","lon":"51.23333300"},{"id":150280,"name":"Jowzdan","native":null,"lat":"32.55601720","lon":"51.35696400"},{"id":150283,"name":"Kahrizsang","native":null,"lat":"32.63252520","lon":"51.46807190"},{"id":150275,"name":"Karkevand","native":null,"lat":"32.34227880","lon":"51.43751610"},{"id":134935,"name":"Kashan","native":null,"lat":"33.88333000","lon":"51.28333000"},{"id":150254,"name":"Kelishad and Soderjaan","native":null,"lat":"32.55185850","lon":"51.52158730"},{"id":134666,"name":"Kelishad va Sudarjan","native":null,"lat":"32.55118000","lon":"51.52758000"},{"id":150286,"name":"Khaled Abad","native":null,"lat":"33.70071610","lon":"51.98288430"},{"id":150233,"name":"Khansar","native":null,"lat":"33.26748190","lon":"50.24871590"},{"id":134672,"name":"Khomeyni Shahr","native":null,"lat":"32.68560000","lon":"51.53609000"},{"id":150220,"name":"Khorzugh","native":null,"lat":"32.78003800","lon":"51.62544240"},{"id":134680,"name":"Khur","native":null,"lat":"33.77512000","lon":"55.08329000"},{"id":134677,"name":"Khvansar","native":null,"lat":"33.22052000","lon":"50.31497000"},{"id":150239,"name":"Komeh","native":null,"lat":"31.06320870","lon":"51.58456560"},{"id":150225,"name":"Komshecheh","native":null,"lat":"32.90664920","lon":"51.80178170"},{"id":150232,"name":"Kooshk","native":null,"lat":"32.63866920","lon":"51.49090280"},{"id":150213,"name":"Kuhpayeh","native":null,"lat":"32.70287470","lon":"52.42220820"},{"id":150243,"name":"Laybid","native":null,"lat":"33.45682060","lon":"50.68666930"},{"id":134942,"name":"Lenjan","native":null,"lat":"32.36667000","lon":"51.20000000"},{"id":150205,"name":"Mahabad","native":null,"lat":"33.52890960","lon":"52.21336130"},{"id":150276,"name":"Majlesi","native":null,"lat":"32.19536780","lon":"51.48369300"},{"id":150245,"name":"Manzariyeh","native":null,"lat":"31.94638130","lon":"51.87130450"},{"id":150259,"name":"Mashkat","native":null,"lat":"34.18385200","lon":"51.25709940"},{"id":135043,"name":"Meymeh","native":null,"lat":"33.44504910","lon":"51.16345880"},{"id":134703,"name":"Mobarakeh","native":null,"lat":"32.34651000","lon":"51.50449000"},{"id":150214,"name":"Mohammad Abad","native":null,"lat":"32.31742670","lon":"52.09172950"},{"id":150279,"name":"Naein","native":null,"lat":"32.86148940","lon":"53.07443600"},{"id":134718,"name":"Nain","native":null,"lat":"32.86006000","lon":"53.08749000"},{"id":134707,"name":"Najafabad","native":null,"lat":"32.63440000","lon":"51.36680000"},{"id":150215,"name":"Nasr Abad","native":null,"lat":"32.28016610","lon":"52.05294370"},{"id":134711,"name":"Natanz","native":null,"lat":"33.51118000","lon":"51.91808000"},{"id":150260,"name":"Niasar","native":null,"lat":"33.97745700","lon":"51.14122850"},{"id":150216,"name":"Nik Abad","native":null,"lat":"32.30380070","lon":"52.18973630"},{"id":150203,"name":"Nushabad","native":null,"lat":"34.07957060","lon":"51.42786020"},{"id":150251,"name":"Pir Bakran","native":null,"lat":"32.46747760","lon":"51.53905380"},{"id":134735,"name":"Qahderijan","native":null,"lat":"32.57670000","lon":"51.45500000"},{"id":150212,"name":"Qahjavarestan","native":null,"lat":"32.70272036","lon":"51.82802440"},{"id":134751,"name":"Rehnan","native":null,"lat":"32.68325000","lon":"51.60158000"},{"id":150227,"name":"Rezvanshahr","native":null,"lat":"32.66581050","lon":"51.02359710"},{"id":150229,"name":"Rezveh","native":null,"lat":"32.83687710","lon":"50.56521890"},{"id":150269,"name":"Sedeh Lenjan","native":null,"lat":"32.37447790","lon":"51.30912400"},{"id":150202,"name":"Sefid Shahr","native":null,"lat":"34.12406120","lon":"51.34705070"},{"id":150211,"name":"Sejzi","native":null,"lat":"32.69866640","lon":"52.06674040"},{"id":135034,"name":"Semirom","native":null,"lat":"31.30000000","lon":"51.53333000"},{"id":135111,"name":"Shahin Shahr","native":null,"lat":"32.85788000","lon":"51.55290000"},{"id":135104,"name":"Shahreza","native":null,"lat":"32.00890000","lon":"51.86680000"},{"id":150224,"name":"Shapur Abad","native":null,"lat":"32.84337640","lon":"51.73918970"},{"id":150223,"name":"Sin","native":null,"lat":"32.85028040","lon":"51.64761890"},{"id":150274,"name":"Talkhooncheh","native":null,"lat":"32.24999310","lon":"51.51884030"},{"id":150287,"name":"Tarq Rud","native":null,"lat":"33.34682690","lon":"51.79114390"},{"id":135136,"name":"Tiran","native":null,"lat":"32.70260000","lon":"51.15370000"},{"id":150208,"name":"Toodeshk","native":null,"lat":"32.72089190","lon":"52.65622610"},{"id":150240,"name":"Vanak","native":null,"lat":"31.52755750","lon":"51.32147620"},{"id":150271,"name":"Varnamkhast","native":null,"lat":"32.35522120","lon":"51.37205960"},{"id":150217,"name":"Varzaneh","native":null,"lat":"32.41767450","lon":"52.63817870"},{"id":150244,"name":"Vazvan","native":null,"lat":"33.41799110","lon":"51.17397300"},{"id":150268,"name":"Zarinshahr","native":null,"lat":"32.41176360","lon":"51.36318620"},{"id":135144,"name":"Zarrin Shahr","native":null,"lat":"32.38970000","lon":"51.37660000"},{"id":150204,"name":"Zavareh","native":null,"lat":"33.44411680","lon":"52.46542430"},{"id":150267,"name":"Zayandehrod","native":null,"lat":"32.38257720","lon":"51.25747000"},{"id":150252,"name":"Zazeran","native":null,"lat":"32.59599600","lon":"51.48399340"},{"id":150210,"name":"Ziar","native":null,"lat":"32.51124460","lon":"51.92680470"},{"id":150273,"name":"Zibashahr","native":null,"lat":"32.38680810","lon":"51.54482590"}]},{"id":3943,"name":"Kerman","native":null,"cities":[{"id":150753,"name":"Aminshahr ","native":null,"lat":"30.84221360","lon":"55.33205130"},{"id":134791,"name":"Anar","native":null,"lat":"30.85000000","lon":"55.35000000"},{"id":135102,"name":"Anbarabad","native":null,"lat":"28.43333000","lon":"58.16667000"},{"id":150790,"name":"Andouhjerd","native":null,"lat":"30.23285440","lon":"57.73551450"},{"id":134598,"name":"Baft","native":null,"lat":"29.23310000","lon":"56.60220000"},{"id":150791,"name":"Bagheyn","native":null,"lat":"30.18547660","lon":"56.80399410"},{"id":150765,"name":"Bahreman","native":null,"lat":"30.90036410","lon":"55.71686260"},{"id":150775,"name":"Balvard","native":null,"lat":"29.42318820","lon":"56.03645320"},{"id":134575,"name":"Bam","native":null,"lat":"29.06667000","lon":"58.23333000"},{"id":150759,"name":"Baravat","native":null,"lat":"29.06156180","lon":"58.38503770"},{"id":134582,"name":"Bardsir","native":null,"lat":"29.92266000","lon":"56.57433000"},{"id":150754,"name":"Bezanjan","native":null,"lat":"29.24761330","lon":"56.68898110"},{"id":150760,"name":"Boluk","native":null,"lat":"28.23060410","lon":"57.50465150"},{"id":150793,"name":"Chatroud","native":null,"lat":"30.60212460","lon":"56.90428730"},{"id":150762,"name":"Darb-e Behesht","native":null,"lat":"29.23461930","lon":"57.33000760"},{"id":150755,"name":"Dashtkar","native":null,"lat":"29.90690010","lon":"56.65785420"},{"id":150784,"name":"Dehaj","native":null,"lat":"30.69372360","lon":"54.86387720"},{"id":150785,"name":"Dow Sari","native":null,"lat":"28.42500000","lon":"57.94250000"},{"id":150789,"name":"Ekhteyarabad","native":null,"lat":"30.32721010","lon":"56.90308550"},{"id":150787,"name":"Fahraj","native":null,"lat":"28.94585560","lon":"58.87598980"},{"id":134872,"name":"Faryab","native":null,"lat":"28.20000000","lon":"57.21667000"},{"id":150788,"name":"Ghalehganj","native":null,"lat":"27.52440690","lon":"57.85301680"},{"id":150798,"name":"Golbāf","native":null,"lat":"29.88492820","lon":"57.71448600"},{"id":150756,"name":"Golzar","native":null,"lat":"29.70544120","lon":"57.02460030"},{"id":150770,"name":"Gonbaki","native":null,"lat":"28.71475080","lon":"58.84328830"},{"id":150763,"name":"Hanza","native":null,"lat":"29.29845610","lon":"57.17977030"},{"id":150764,"name":"Hojedk","native":null,"lat":"30.75808180","lon":"56.98747860"},{"id":150780,"name":"Homashahr","native":null,"lat":"29.64449710","lon":"55.80265050"},{"id":150761,"name":"Jebalbarez","native":null,"lat":"28.90703670","lon":"57.88232800"},{"id":134901,"name":"Jiroft","native":null,"lat":"28.83333000","lon":"57.58333000"},{"id":150792,"name":"Joupar","native":null,"lat":"30.05605440","lon":"57.09809280"},{"id":150781,"name":"Jowzam","native":null,"lat":"30.51302580","lon":"55.02259970"},{"id":150801,"name":"Kahnooj","native":null,"lat":"27.97934880","lon":"57.66592480"},{"id":134903,"name":"Kahnuj","native":null,"lat":"27.90000000","lon":"57.61667000"},{"id":150797,"name":"Kazem Abad","native":null,"lat":"30.56691630","lon":"56.83686730"},{"id":134667,"name":"Kerman","native":null,"lat":"30.28321000","lon":"57.07879000"},{"id":150777,"name":"Khajoo Shahr","native":null,"lat":"29.27247370","lon":"55.82664020"},{"id":150772,"name":"Khanook","native":null,"lat":"30.71558630","lon":"56.75333240"},{"id":150782,"name":"KhatonAbad","native":null,"lat":"30.00947510","lon":"55.41270020"},{"id":150783,"name":"Khursand","native":null,"lat":"30.15484910","lon":"55.07781030"},{"id":134781,"name":"Kian Shahr","native":null,"lat":"31.13444000","lon":"56.39806000"},{"id":150767,"name":"Koshkuiyeh","native":null,"lat":"30.52904570","lon":"55.63227370"},{"id":134686,"name":"Kuh Sefid","native":null,"lat":"29.27620000","lon":"56.80140000"},{"id":134938,"name":"Kuhbanan","native":null,"lat":"31.38333000","lon":"56.33333000"},{"id":150757,"name":"Laleh zaar","native":null,"lat":"29.52051620","lon":"56.80753450"},{"id":150799,"name":"Mahan","native":null,"lat":"30.06414420","lon":"57.25602090"},{"id":150802,"name":"Manoojan","native":null,"lat":"27.36824920","lon":"57.20289640"},{"id":134953,"name":"Manujan","native":null,"lat":"27.35000000","lon":"57.61667000"},{"id":150786,"name":"Mardehak","native":null,"lat":"28.35363910","lon":"58.14999100"},{"id":150771,"name":"Mohammadabad","native":null,"lat":"28.62839590","lon":"59.11886930"},{"id":150800,"name":"MohyAbad","native":null,"lat":"30.08404130","lon":"57.15257410"},