[{"id":1679,"name":"Abruzzo","native":null,"cities":[{"id":135240,"name":"Abbateggio","native":null,"lat":"42.22421000","lon":"14.01001000"},{"id":135250,"name":"Acciano","native":null,"lat":"42.17677000","lon":"13.71783000"},{"id":135325,"name":"Aielli","native":null,"lat":"42.08146000","lon":"13.59113000"},{"id":135342,"name":"Alanno","native":null,"lat":"42.29552000","lon":"13.97084000"},{"id":135347,"name":"Alba Adriatica","native":null,"lat":"42.83176000","lon":"13.92590000"},{"id":135400,"name":"Alfedena","native":null,"lat":"41.73545000","lon":"14.03500000"},{"id":135440,"name":"Altino","native":null,"lat":"42.09954000","lon":"14.33267000"},{"id":135477,"name":"Ancarano","native":null,"lat":"42.83767000","lon":"13.74662000"},{"id":135523,"name":"Anversa degli Abruzzi","native":null,"lat":"41.99478000","lon":"13.80379000"},{"id":135565,"name":"Archi","native":null,"lat":"42.09135000","lon":"14.38270000"},{"id":135597,"name":"Ari","native":null,"lat":"42.28967000","lon":"14.25856000"},{"id":135602,"name":"Arielli","native":null,"lat":"42.26003000","lon":"14.31004000"},{"id":135638,"name":"Arsita","native":null,"lat":"42.50266000","lon":"13.78516000"},{"id":135672,"name":"Ateleta","native":null,"lat":"41.85435000","lon":"14.19806000"},{"id":135675,"name":"Atessa","native":null,"lat":"42.07018000","lon":"14.45049000"},{"id":135679,"name":"Atri","native":null,"lat":"42.57642000","lon":"13.98899000"},{"id":135704,"name":"Avezzano","native":null,"lat":"42.02896000","lon":"13.42641000"},{"id":135795,"name":"Balsorano","native":null,"lat":"41.80982000","lon":"13.55980000"},{"id":135796,"name":"Balsorano Nuovo","native":null,"lat":"41.80881000","lon":"13.56069000"},{"id":135826,"name":"Barberi","native":null,"lat":"42.44072000","lon":"14.04268000"},{"id":135847,"name":"Barete","native":null,"lat":"42.45009000","lon":"13.28061000"},{"id":135858,"name":"Barisciano","native":null,"lat":"42.32465000","lon":"13.59036000"},{"id":135870,"name":"Barrea","native":null,"lat":"41.75543000","lon":"13.99095000"},{"id":135881,"name":"Basciano","native":null,"lat":"42.59639000","lon":"13.73561000"},{"id":135938,"name":"Bellante","native":null,"lat":"42.74421000","lon":"13.80234000"},{"id":135939,"name":"Bellante Stazione","native":null,"lat":"42.70650000","lon":"13.83953000"},{"id":136062,"name":"Bisegna","native":null,"lat":"41.92113000","lon":"13.75760000"},{"id":136063,"name":"Bisenti","native":null,"lat":"42.52883000","lon":"13.79950000"},{"id":136108,"name":"Bolognano","native":null,"lat":"42.21814000","lon":"13.96011000"},{"id":136119,"name":"Bomba","native":null,"lat":"42.03343000","lon":"14.36656000"},{"id":136189,"name":"Borgo Santa Maria Immacolata","native":null,"lat":"42.61172000","lon":"14.04553000"},{"id":136227,"name":"Borrello","native":null,"lat":"41.91730000","lon":"14.30535000"},{"id":136343,"name":"Brittoli","native":null,"lat":"42.31518000","lon":"13.86026000"},{"id":136385,"name":"Bucchianico","native":null,"lat":"42.30368000","lon":"14.18377000"},{"id":136397,"name":"Bugnara","native":null,"lat":"42.02383000","lon":"13.86141000"},{"id":136430,"name":"Bussi sul Tirino","native":null,"lat":"42.21321000","lon":"13.82511000"},{"id":136470,"name":"Cagnano Amiterno","native":null,"lat":"42.45744000","lon":"13.22789000"},{"id":136494,"name":"Calascio","native":null,"lat":"42.32595000","lon":"13.69699000"},{"id":136625,"name":"Campli","native":null,"lat":"42.72679000","lon":"13.68692000"},{"id":136635,"name":"Campo di Giove","native":null,"lat":"42.01013000","lon":"14.03941000"},{"id":136683,"name":"Campotosto","native":null,"lat":"42.55884000","lon":"13.36799000"},{"id":136716,"name":"Canistro Inferiore","native":null,"lat":"41.94101000","lon":"13.41194000"},{"id":136731,"name":"Canosa Sannita","native":null,"lat":"42.29629000","lon":"14.30514000"},{"id":136736,"name":"Cansano","native":null,"lat":"42.00350000","lon":"14.01341000"},{"id":136752,"name":"Canzano","native":null,"lat":"42.64564000","lon":"13.80410000"},{"id":136765,"name":"Capestrano","native":null,"lat":"42.26807000","lon":"13.76779000"},{"id":136771,"name":"Capistrello","native":null,"lat":"41.97223000","lon":"13.39616000"},{"id":136774,"name":"Capitignano","native":null,"lat":"42.52041000","lon":"13.30122000"},{"id":136786,"name":"Caporciano","native":null,"lat":"42.25001000","lon":"13.67455000"},{"id":136790,"name":"Cappadocia","native":null,"lat":"42.00755000","lon":"13.27806000"},{"id":136794,"name":"Cappelle sul Tavo","native":null,"lat":"42.47709000","lon":"14.10735000"},{"id":136831,"name":"Caramanico Terme","native":null,"lat":"42.15593000","lon":"14.00480000"},{"id":136835,"name":"Carapelle Calvisio","native":null,"lat":"42.29908000","lon":"13.68643000"},{"id":136920,"name":"Carpineto della Nora","native":null,"lat":"42.33365000","lon":"13.86062000"},{"id":136919,"name":"Carpineto Sinello","native":null,"lat":"42.01044000","lon":"14.50418000"},{"id":136936,"name":"Carsoli","native":null,"lat":"42.09882000","lon":"13.08856000"},{"id":136945,"name":"Carunchio","native":null,"lat":"41.91761000","lon":"14.52683000"},{"id":136954,"name":"Casacanditella","native":null,"lat":"42.24643000","lon":"14.20040000"},{"id":136961,"name":"Casalanguida","native":null,"lat":"42.03752000","lon":"14.49613000"},{"id":136965,"name":"Casalbordino-Miracoli","native":null,"lat":"42.15354000","lon":"14.59912000"},{"id":136995,"name":"Casalincontrada","native":null,"lat":"42.29744000","lon":"14.13511000"},{"id":137083,"name":"Casoli","native":null,"lat":"42.61723000","lon":"13.97910000"},{"id":137133,"name":"Castel Castagna","native":null,"lat":"42.54294000","lon":"13.71640000"},{"id":137165,"name":"Castel del Monte","native":null,"lat":"42.36544000","lon":"13.72592000"},{"id":137169,"name":"Castel di Ieri","native":null,"lat":"42.11353000","lon":"13.74200000"},{"id":137173,"name":"Castel di Sangro","native":null,"lat":"41.78392000","lon":"14.10653000"},{"id":137136,"name":"Castel Frentano","native":null,"lat":"42.19875000","lon":"14.35643000"},{"id":137205,"name":"Castelguidone","native":null,"lat":"41.82258000","lon":"14.52286000"},{"id":137210,"name":"Castellafiume","native":null,"lat":"41.98913000","lon":"13.33440000"},{"id":137211,"name":"Castellalto","native":null,"lat":"42.67705000","lon":"13.82101000"},{"id":137242,"name":"Castelli","native":null,"lat":"42.48476000","lon":"13.71201000"},{"id":137295,"name":"Castelnuovo Vomano","native":null,"lat":"42.62933000","lon":"13.85003000"},{"id":137321,"name":"Castelvecchio Calvisio","native":null,"lat":"42.31134000","lon":"13.68720000"},{"id":137322,"name":"Castelvecchio Subequo","native":null,"lat":"42.12881000","lon":"13.72868000"},{"id":137347,"name":"Castiglione a Casauria","native":null,"lat":"42.23601000","lon":"13.89832000"},{"id":137342,"name":"Castiglione Messer Marino","native":null,"lat":"41.86833000","lon":"14.44996000"},{"id":137343,"name":"Castiglione Messer Raimondo","native":null,"lat":"42.53194000","lon":"13.87953000"},{"id":137360,"name":"Castilenti","native":null,"lat":"42.53334000","lon":"13.91710000"},{"id":137395,"name":"Catignano","native":null,"lat":"42.34697000","lon":"13.95190000"},{"id":137462,"name":"Celano","native":null,"lat":"42.08077000","lon":"13.51700000"},{"id":137465,"name":"Celenza sul Trigno","native":null,"lat":"41.87198000","lon":"14.57893000"},{"id":137479,"name":"Cellino Attanasio","native":null,"lat":"42.58574000","lon":"13.86050000"},{"id":137505,"name":"Cepagatti","native":null,"lat":"42.36506000","lon":"14.07424000"},{"id":137525,"name":"Cerchio","native":null,"lat":"42.06357000","lon":"13.60006000"},{"id":137555,"name":"Cermignano","native":null,"lat":"42.59131000","lon":"13.79540000"},{"id":137560,"name":"Cerratina","native":null,"lat":"42.39007000","lon":"14.10338000"},{"id":137672,"name":"Chieti","native":null,"lat":"42.34827000","lon":"14.16494000"},{"id":137772,"name":"Città Sant'Angelo","native":null,"lat":"42.51254000","lon":"14.06203000"},{"id":137787,"name":"Civita d'Antino","native":null,"lat":"41.88629000","lon":"13.47215000"},{"id":137789,"name":"Civitaluparella","native":null,"lat":"41.94490000","lon":"14.30135000"},{"id":137793,"name":"Civitaquana","native":null,"lat":"42.32578000","lon":"13.90012000"},{"id":137795,"name":"Civitella Alfedena","native":null,"lat":"41.76533000","lon":"13.94271000"},{"id":137796,"name":"Civitella Casanova","native":null,"lat":"42.36391000","lon":"13.88514000"},{"id":137802,"name":"Civitella del Tronto","native":null,"lat":"42.77298000","lon":"13.67626000"},{"id":137798,"name":"Civitella Messer Raimondo","native":null,"lat":"42.08893000","lon":"14.21701000"},{"id":137799,"name":"Civitella Roveto","native":null,"lat":"41.91329000","lon":"13.42396000"},{"id":137826,"name":"Cocullo","native":null,"lat":"42.03283000","lon":"13.77500000"},{"id":137857,"name":"Collarmele","native":null,"lat":"42.06031000","lon":"13.62670000"},{"id":137876,"name":"Collecorvino","native":null,"lat":"42.46024000","lon":"14.01564000"},{"id":137877,"name":"Colledara","native":null,"lat":"42.53918000","lon":"13.67556000"},{"id":137878,"name":"Colledimacine","native":null,"lat":"42.00370000","lon":"14.20079000"},{"id":137879,"name":"Colledimezzo","native":null,"lat":"41.98606000","lon":"14.38690000"},{"id":137884,"name":"Collelongo","native":null,"lat":"41.88659000","lon":"13.58380000"},{"id":137889,"name":"Collepietro","native":null,"lat":"42.22089000","lon":"13.78101000"},{"id":137890,"name":"Colleranesco","native":null,"lat":"42.72112000","lon":"13.93732000"},{"id":137911,"name":"Cologna Spiaggia","native":null,"lat":"42.72152000","lon":"13.98311000"},{"id":137923,"name":"Colonnella","native":null,"lat":"42.87230000","lon":"13.86987000"},{"id":137941,"name":"Cominio","native":null,"lat":"42.31248000","lon":"13.43250000"},{"id":137980,"name":"Controguerra","native":null,"lat":"42.85398000","lon":"13.81775000"},{"id":137989,"name":"Coppito","native":null,"lat":"42.36730000","lon":"13.34358000"},{"id":138008,"name":"Corfinio","native":null,"lat":"42.12149000","lon":"13.83940000"},{"id":138044,"name":"Corropoli","native":null,"lat":"42.82720000","lon":"13.83471000"},{"id":138069,"name":"Cortino","native":null,"lat":"42.62186000","lon":"13.50774000"},{"id":138072,"name":"Corvara","native":null,"lat":"42.27511000","lon":"13.87363000"},{"id":138129,"name":"Crecchio","native":null,"lat":"42.29778000","lon":"14.32656000"},{"id":138163,"name":"Crognaleto","native":null,"lat":"42.58771000","lon":"13.48890000"},{"id":138186,"name":"Cugnoli","native":null,"lat":"42.30692000","lon":"13.93490000"},{"id":138195,"name":"Cupello","native":null,"lat":"42.06936000","lon":"14.67054000"},{"id":138277,"name":"Dogliola","native":null,"lat":"41.94238000","lon":"14.63507000"},{"id":138351,"name":"Elice","native":null,"lat":"42.52279000","lon":"13.97071000"},{"id":138422,"name":"Fallo","native":null,"lat":"41.93833000","lon":"14.32362000"},{"id":138434,"name":"Fano Adriano","native":null,"lat":"42.55230000","lon":"13.53764000"},{"id":138437,"name":"Fara Filiorum Petri","native":null,"lat":"42.24152000","lon":"14.18026000"},{"id":138441,"name":"Fara San Martino","native":null,"lat":"42.09248000","lon":"14.20896000"},{"id":138447,"name":"Farindola","native":null,"lat":"42.44292000","lon":"13.82137000"},{"id":138527,"name":"Filetto","native":null,"lat":"42.22931000","lon":"14.24501000"},{"id":138607,"name":"Fonte Umano-San Martino Alta","native":null,"lat":"42.52084000","lon":"14.10760000"},{"id":138609,"name":"Fontecchio","native":null,"lat":"42.23027000","lon":"13.60613000"},{"id":138667,"name":"Fossa","native":null,"lat":"42.29273000","lon":"13.48779000"},{"id":138669,"name":"Fossacesia","native":null,"lat":"42.24198000","lon":"14.48339000"},{"id":138690,"name":"Fraine","native":null,"lat":"41.90624000","lon":"14.48788000"},{"id":138696,"name":"Francavilla al Mare","native":null,"lat":"42.42158000","lon":"14.28217000"},{"id":138730,"name":"Fresagrandinaria","native":null,"lat":"41.97900000","lon":"14.66211000"},{"id":138736,"name":"Frisa","native":null,"lat":"42.26572000","lon":"14.37625000"},{"id":138755,"name":"Furci","native":null,"lat":"42.00746000","lon":"14.58802000"},{"id":138781,"name":"Gagliano Aterno","native":null,"lat":"42.12598000","lon":"13.70023000"},{"id":138832,"name":"Gamberale","native":null,"lat":"41.90529000","lon":"14.20845000"},{"id":138926,"name":"Gessopalena","native":null,"lat":"42.05521000","lon":"14.27367000"},{"id":138970,"name":"Gioia dei Marsi","native":null,"lat":"41.95697000","lon":"13.69057000"},{"id":138985,"name":"Gissi","native":null,"lat":"42.01803000","lon":"14.54484000"},{"id":138991,"name":"Giuliano Teatino","native":null,"lat":"42.31220000","lon":"14.28082000"},{"id":138993,"name":"Giulianova","native":null,"lat":"42.75381000","lon":"13.96650000"},{"id":139031,"name":"Goriano Sicoli","native":null,"lat":"42.08011000","lon":"13.77459000"},{"id":139163,"name":"Guardiagrele","native":null,"lat":"42.19406000","lon":"14.21939000"},{"id":139181,"name":"Guilmi","native":null,"lat":"41.99653000","lon":"14.47882000"},{"id":139201,"name":"Imposte","native":null,"lat":"42.68634000","lon":"13.52829000"},{"id":139212,"name":"Introdacqua","native":null,"lat":"42.00968000","lon":"13.89779000"},{"id":139245,"name":"Isola del Gran Sasso d'Italia","native":null,"lat":"42.50324000","lon":"13.65721000"},{"id":139285,"name":"L'Aquila","native":null,"lat":"42.35055000","lon":"13.39954000"},{"id":139341,"name":"Lama dei Peligni","native":null,"lat":"42.04214000","lon":"14.18678000"},{"id":139354,"name":"Lanciano","native":null,"lat":"42.22718000","lon":"14.39024000"},{"id":139431,"name":"Lecce Nei Marsi","native":null,"lat":"41.93436000","lon":"13.68430000"},{"id":139451,"name":"Lentella","native":null,"lat":"41.99576000","lon":"14.67692000"},{"id":139479,"name":"Lettomanoppello","native":null,"lat":"42.24336000","lon":"14.03843000"},{"id":139480,"name":"Lettopalena","native":null,"lat":"42.00251000","lon":"14.15652000"},{"id":139538,"name":"Liscia","native":null,"lat":"41.95524000","lon":"14.55532000"},{"id":139610,"name":"Loreto Aprutino","native":null,"lat":"42.43104000","lon":"13.98057000"},{"id":139638,"name":"Luco dei Marsi","native":null,"lat":"41.95925000","lon":"13.47349000"},{"id":139639,"name":"Lucoli","native":null,"lat":"42.29093000","lon":"13.33799000"},{"id":139725,"name":"Magliano De'Marsi","native":null,"lat":"42.09153000","lon":"13.36379000"},{"id":139802,"name":"Manoppello","native":null,"lat":"42.25918000","lon":"14.06024000"},{"id":139803,"name":"Manoppello Scalo","native":null,"lat":"42.30762000","lon":"14.05363000"},{"id":139895,"name":"Marina di San Vito","native":null,"lat":"42.30514000","lon":"14.44844000"},{"id":139897,"name":"Marina di Vasto","native":null,"lat":"42.09373000","lon":"14.72683000"},{"id":139936,"name":"Martinsicuro","native":null,"lat":"42.88031000","lon":"13.91326000"},{"id":139975,"name":"Massa d'Albe-Corona","native":null,"lat":"42.10723000","lon":"13.39429000"},{"id":140132,"name":"Miglianico","native":null,"lat":"42.35773000","lon":"14.29179000"},{"id":140214,"name":"Molina Aterno","native":null,"lat":"42.14903000","lon":"13.73540000"},{"id":140350,"name":"Montazzoli","native":null,"lat":"41.94887000","lon":"14.43069000"},{"id":140389,"name":"Montebello di Bertona","native":null,"lat":"42.41686000","lon":"13.87119000"},{"id":140390,"name":"Montebello sul Sangro","native":null,"lat":"41.98663000","lon":"14.32402000"},{"id":140436,"name":"Monteferrante","native":null,"lat":"41.95396000","lon":"14.38856000"},{"id":140438,"name":"Montefino","native":null,"lat":"42.54551000","lon":"13.88479000"},{"id":140465,"name":"Montelapiano","native":null,"lat":"41.96267000","lon":"14.34212000"},{"id":140504,"name":"Montenerodomo","native":null,"lat":"41.97682000","lon":"14.25177000"},{"id":140505,"name":"Monteodorisio","native":null,"lat":"42.08485000","lon":"14.65386000"},{"id":140514,"name":"Montereale","native":null,"lat":"42.52332000","lon":"13.24585000"},{"id":140541,"name":"Montesilvano Marina","native":null,"lat":"42.51140000","lon":"14.14507000"},{"id":140557,"name":"Monticchio","native":null,"lat":"42.32035000","lon":"13.46382000"},{"id":140586,"name":"Montorio al Vomano","native":null,"lat":"42.58123000","lon":"13.63715000"},{"id":140620,"name":"Morino","native":null,"lat":"41.86442000","lon":"13.45700000"},{"id":140634,"name":"Morro d'Oro","native":null,"lat":"42.66291000","lon":"13.92129000"},{"id":140646,"name":"Mosciano Sant'Angelo","native":null,"lat":"42.74700000","lon":"13.88891000"},{"id":140647,"name":"Moscufo","native":null,"lat":"42.42713000","lon":"14.05434000"},{"id":140671,"name":"Mozzagrogna","native":null,"lat":"42.21267000","lon":"14.44258000"},{"id":140731,"name":"Navelli","native":null,"lat":"42.23721000","lon":"13.72961000"},{"id":140743,"name":"Nepezzano","native":null,"lat":"42.68994000","lon":"13.75650000"},{"id":140745,"name":"Nereto","native":null,"lat":"42.81548000","lon":"13.81989000"},{"id":140746,"name":"Nerito","native":null,"lat":"42.54763000","lon":"13.47759000"},{"id":140780,"name":"Nocciano","native":null,"lat":"42.33366000","lon":"13.98571000"},{"id":140811,"name":"Notaresco","native":null,"lat":"42.65742000","lon":"13.89491000"},{"id":140842,"name":"Nucleo Industriale di Bazzano","native":null,"lat":"42.33623000","lon":"13.46755000"},{"id":140874,"name":"Ofena","native":null,"lat":"42.32536000","lon":"13.75864000"},{"id":140932,"name":"Opi","native":null,"lat":"41.77838000","lon":"13.82932000"},{"id":140952,"name":"Oricola","native":null,"lat":"42.04922000","lon":"13.03939000"},{"id":140975,"name":"Orsogna","native":null,"lat":"42.22344000","lon":"14.28085000"},{"id":140987,"name":"Ortona","native":null,"lat":"42.35087000","lon":"14.40342000"},{"id":140988,"name":"Ortona dei Marsi","native":null,"lat":"41.99820000","lon":"13.72909000"},{"id":140990,"name":"Ortucchio","native":null,"lat":"41.95525000","lon":"13.64651000"},{"id":141058,"name":"Ovindoli","native":null,"lat":"42.13765000","lon":"13.51603000"},{"id":141070,"name":"Pacentro","native":null,"lat":"42.05043000","lon":"13.99151000"},{"id":141095,"name":"Paganica-Tempera","native":null,"lat":"42.35715000","lon":"13.47138000"},{"id":58205,"name":"Pagliare","native":null,"lat":"42.64372000","lon":"13.95171000"},{"id":58209,"name":"Paglieta","native":null,"lat":"42.16139000","lon":"14.50306000"},{"id":58238,"name":"Palena","native":null,"lat":"41.98353000","lon":"14.13696000"},{"id":58260,"name":"Palmoli","native":null,"lat":"41.93944000","lon":"14.58142000"},{"id":58264,"name":"Palombaro","native":null,"lat":"42.12323000","lon":"14.22989000"},{"id":58403,"name":"Penna Sant'Andrea","native":null,"lat":"42.59403000","lon":"13.77215000"},{"id":58406,"name":"Pennadomo","native":null,"lat":"42.00394000","lon":"14.32338000"},{"id":58407,"name":"Pennapiedimonte","native":null,"lat":"42.15563000","lon":"14.19432000"},{"id":58408,"name":"Penne","native":null,"lat":"42.45474000","lon":"13.92754000"},{"id":58411,"name":"Perano","native":null,"lat":"42.10460000","lon":"14.39581000"},{"id":58420,"name":"Pereto","native":null,"lat":"42.05821000","lon":"13.10231000"},{"id":58450,"name":"Pescara","native":null,"lat":"42.45840000","lon":"14.20283000"},{"id":58452,"name":"Pescasseroli","native":null,"lat":"41.80343000","lon":"13.78707000"},{"id":58459,"name":"Pescina","native":null,"lat":"42.02351000","lon":"13.65116000"},{"id":58461,"name":"Pescocostanzo","native":null,"lat":"41.88722000","lon":"14.06614000"},{"id":58466,"name":"Pescosansonesco Nuovo","native":null,"lat":"42.25524000","lon":"13.88480000"},{"id":58493,"name":"Pettorano sul Gizio","native":null,"lat":"41.97326000","lon":"13.96001000"},{"id":58523,"name":"Pianella","native":null,"lat":"42.39918000","lon":"14.04781000"},{"id":58548,"name":"Pianola","native":null,"lat":"42.32341000","lon":"13.40394000"},{"id":58554,"name":"Pianura Vomano","native":null,"lat":"42.63028000","lon":"13.91548000"},{"id":58579,"name":"Picciano","native":null,"lat":"42.47525000","lon":"13.98990000"},{"id":58607,"name":"Pietracamela","native":null,"lat":"42.52344000","lon":"13.55431000"},{"id":58612,"name":"Pietraferrazzana","native":null,"lat":"41.96943000","lon":"14.37451000"},{"id":58619,"name":"Pietranico","native":null,"lat":"42.27565000","lon":"13.91077000"},{"id":58677,"name":"Pineto","native":null,"lat":"42.60879000","lon":"14.06639000"},{"id":58727,"name":"Pizzoferrato","native":null,"lat":"41.92244000","lon":"14.23632000"},{"id":58728,"name":"Pizzoli","native":null,"lat":"42.43603000","lon":"13.29886000"},{"id":58759,"name":"Poggio Picenze","native":null,"lat":"42.32061000","lon":"13.54036000"},{"id":58768,"name":"Poggiofiorito","native":null,"lat":"42.25414000","lon":"14.32082000"},{"id":58802,"name":"Pollutri","native":null,"lat":"42.13784000","lon":"14.59172000"},{"id":58900,"name":"Popoli","native":null,"lat":"42.16866000","lon":"13.82997000"},{"id":59015,"name":"Prata d'Ansidonia","native":null,"lat":"42.27793000","lon":"13.60830000"},{"id":59033,"name":"Pratola Peligna","native":null,"lat":"42.09701000","lon":"13.87467000"},{"id":59069,"name":"Pretoro","native":null,"lat":"42.21923000","lon":"14.14248000"},{"id":59070,"name":"Preturo","native":null,"lat":"42.37808000","lon":"13.29633000"},{"id":59072,"name":"Prezza","native":null,"lat":"42.05789000","lon":"13.83592000"},{"id":59087,"name":"Progetto Case Bazzano","native":null,"lat":"42.33643000","lon":"13.44410000"},{"id":59088,"name":"Progetto Case Coppito 3","native":null,"lat":"42.36981000","lon":"13.31973000"},{"id":59089,"name":"Progetto Case Sassa Nsi","native":null,"lat":"42.36560000","lon":"13.31509000"},{"id":59106,"name":"Provincia dell' Aquila","native":null,"lat":"42.08333000","lon":"13.66667000"},{"id":59124,"name":"Provincia di Chieti","native":null,"lat":"42.11667000","lon":"14.35000000"},{"id":59160,"name":"Provincia di Pescara","native":null,"lat":"42.33333000","lon":"13.95000000"},{"id":59179,"name":"Provincia di Teramo","native":null,"lat":"42.65000000","lon":"13.68333000"},{"id":59212,"name":"Quadri","native":null,"lat":"41.92402000","lon":"14.28768000"},{"id":59270,"name":"Raiano","native":null,"lat":"42.10158000","lon":"13.81386000"},{"id":59285,"name":"Rapino","native":null,"lat":"42.20931000","lon":"14.18493000"},{"id":59399,"name":"Ripa Teatina","native":null,"lat":"42.36603000","lon":"14.24441000"},{"id":59439,"name":"Rivisondoli","native":null,"lat":"41.87023000","lon":"14.06671000"},{"id":59483,"name":"Rocca di Botte","native":null,"lat":"42.03102000","lon":"13.07185000"},{"id":59484,"name":"Rocca di Cambio","native":null,"lat":"42.23755000","lon":"13.48906000"},{"id":59487,"name":"Rocca di Mezzo","native":null,"lat":"42.20441000","lon":"13.51840000"},{"id":59473,"name":"Rocca Pia","native":null,"lat":"41.93429000","lon":"13.97726000"},{"id":59478,"name":"Rocca San Giovanni","native":null,"lat":"42.24604000","lon":"14.46162000"},{"id":59494,"name":"Roccacasale","native":null,"lat":"42.12249000","lon":"13.88758000"},{"id":59510,"name":"Roccamorice","native":null,"lat":"42.21274000","lon":"14.02531000"},{"id":59516,"name":"Roccaraso","native":null,"lat":"41.84872000","lon":"14.07846000"},{"id":59518,"name":"Roccascalegna","native":null,"lat":"42.06212000","lon":"14.30802000"},{"id":59524,"name":"Roccaspinalveti-Santa Giusta","native":null,"lat":"41.94233000","lon":"14.47092000"},{"id":59531,"name":"Roccavivi","native":null,"lat":"41.81214000","lon":"13.53662000"},{"id":59567,"name":"Roio del Sangro","native":null,"lat":"41.91153000","lon":"14.37382000"},{"id":59629,"name":"Rosciano","native":null,"lat":"42.32227000","lon":"14.04555000"},{"id":59634,"name":"Rosello","native":null,"lat":"41.90116000","lon":"14.34919000"},{"id":59637,"name":"Roseto degli Abruzzi","native":null,"lat":"42.67164000","lon":"14.01481000"},{"id":59772,"name":"Salino","native":null,"lat":"42.78571000","lon":"13.91400000"},{"id":59777,"name":"Salle","native":null,"lat":"42.17756000","lon":"13.96091000"},{"id":59792,"name":"Salvo Marina","native":null,"lat":"42.07037000","lon":"14.76597000"},{"id":59806,"name":"Sambuceto","native":null,"lat":"42.42168000","lon":"14.18747000"},{"id":59831,"name":"San Benedetto dei Marsi","native":null,"lat":"42.00760000","lon":"13.62381000"},{"id":59833,"name":"San Benedetto in Perillis","native":null,"lat":"42.18377000","lon":"13.76996000"},{"id":59849,"name":"San Buono","native":null,"lat":"41.98140000","lon":"14.56818000"},{"id":59892,"name":"San Demetrio Ne' Vestini","native":null,"lat":"42.28963000","lon":"13.55519000"},{"id":59986,"name":"San Giovanni Lipioni","native":null,"lat":"41.84383000","lon":"14.56271000"},{"id":60072,"name":"San Martino Bassa","native":null,"lat":"42.51827000","lon":"14.13045000"},{"id":60097,"name":"San Martino sulla Marrucina","native":null,"lat":"42.22419000","lon":"14.21577000"},{"id":60148,"name":"San Nicolò a Tordino","native":null,"lat":"42.69648000","lon":"13.79708000"},{"id":60153,"name":"San Panfilo d'Ocre","native":null,"lat":"42.28616000","lon":"13.47518000"},{"id":60203,"name":"San Pio delle Camere","native":null,"lat":"42.28423000","lon":"13.65570000"},{"id":60222,"name":"San Rocco","native":null,"lat":"42.24294000","lon":"14.12891000"},{"id":60234,"name":"San Salvo","native":null,"lat":"42.04413000","lon":"14.73335000"},{"id":60259,"name":"San Valentino in Abruzzo Citeriore","native":null,"lat":"42.23304000","lon":"13.98561000"},{"id":60269,"name":"San Vincenzo Valle Roveto","native":null,"lat":"41.84452000","lon":"13.53566000"},{"id":60275,"name":"San Vito Chietino","native":null,"lat":"42.29014000","lon":"14.44270000"},{"id":60391,"name":"Sant'Egidio alla Vibrata","native":null,"lat":"42.81705000","lon":"13.72164000"},{"id":60400,"name":"Sant'Eufemia a Maiella","native":null,"lat":"42.12613000","lon":"14.02651000"},{"id":60403,"name":"Sant'Eusanio del Sangro","native":null,"lat":"42.16908000","lon":"14.32776000"},{"id":60402,"name":"Sant'Eusanio Forconese","native":null,"lat":"42.28951000","lon":"13.52425000"},{"id":60407,"name":"Sant'Omero","native":null,"lat":"42.79011000","lon":"13.78906000"},{"id":60463,"name":"Santa Maria Imbaro","native":null,"lat":"42.21999000","lon":"14.45027000"},{"id":60494,"name":"Santa Teresa","native":null,"lat":"42.42753000","lon":"14.15816000"},{"id":60504,"name":"Sante Marie","native":null,"lat":"42.10369000","lon":"13.20163000"},{"id":60524,"name":"Santo Stefano di Sessanio","native":null,"lat":"42.34339000","lon":"13.64477000"},{"id":60565,"name":"Sassa","native":null,"lat":"42.35204000","lon":"13.29924000"},{"id":60601,"name":"Scafa","native":null,"lat":"42.26575000","lon":"13.99665000"},{"id":60622,"name":"Scanno","native":null,"lat":"41.90442000","lon":"13.87961000"},{"id":60639,"name":"Scerne","native":null,"lat":"42.64754000","lon":"14.03791000"},{"id":60640,"name":"Scerni","native":null,"lat":"42.10418000","lon":"14.57428000"},{"id":60643,"name":"Schiavi di Abruzzo","native":null,"lat":"41.81311000","lon":"14.48655000"},{"id":60662,"name":"Scontrone","native":null,"lat":"41.74681000","lon":"14.03880000"},{"id":60665,"name":"Scoppito","native":null,"lat":"42.36948000","lon":"13.25936000"},{"id":60670,"name":"Scurcola Marsicana","native":null,"lat":"42.06313000","lon":"13.33919000"},{"id":60676,"name":"Secinaro","native":null,"lat":"42.15062000","lon":"13.68145000"},{"id":60704,"name":"Selva","native":null,"lat":"42.11442000","lon":"14.34425000"},{"id":60765,"name":"Serramonacesca","native":null,"lat":"42.24795000","lon":"14.09297000"},{"id":60857,"name":"Silvi","native":null,"lat":"42.54984000","lon":"14.11759000"},{"id":61027,"name":"Spoltore","native":null,"lat":"42.45501000","lon":"14.13988000"},{"id":61116,"name":"Sulmona","native":null,"lat":"42.04945000","lon":"13.92578000"},{"id":61142,"name":"Tagliacozzo","native":null,"lat":"42.06933000","lon":"13.25469000"},{"id":61163,"name":"Taranta Peligna","native":null,"lat":"42.02052000","lon":"14.17103000"},{"id":61217,"name":"Teramo","native":null,"lat":"42.66123000","lon":"13.69901000"},{"id":61280,"name":"Tione degli Abruzzi","native":null,"lat":"42.20393000","lon":"13.63570000"},{"id":61293,"name":"Tocco da Casauria","native":null,"lat":"42.21203000","lon":"13.91547000"},{"id":61301,"name":"Tollo","native":null,"lat":"42.34542000","lon":"14.32360000"},{"id":61317,"name":"Torano Nuovo","native":null,"lat":"42.82305000","lon":"13.77729000"},{"id":61330,"name":"Torino di Sangro","native":null,"lat":"42.19100000","lon":"14.54272000"},{"id":61334,"name":"Tornareccio","native":null,"lat":"42.03763000","lon":"14.41525000"},{"id":61336,"name":"Tornimparte","native":null,"lat":"42.29007000","lon":"13.30092000"},{"id":61368,"name":"Torre de' Passeri","native":null,"lat":"42.24324000","lon":"13.93330000"},{"id":61380,"name":"Torrebruna","native":null,"lat":"41.86742000","lon":"14.54148000"},{"id":61392,"name":"Torrevecchia","native":null,"lat":"42.38274000","lon":"14.21331000"},{"id":61399,"name":"Torricella","native":null,"lat":"42.65904000","lon":"13.65719000"},{"id":61401,"name":"Torricella Peligna","native":null,"lat":"42.02397000","lon":"14.25854000"},{"id":61416,"name":"Tortoreto","native":null,"lat":"42.80371000","lon":"13.91346000"},{"id":61417,"name":"Tortoreto Lido","native":null,"lat":"42.79956000","lon":"13.94205000"},{"id":61424,"name":"Tossicia","native":null,"lat":"42.54472000","lon":"13.64595000"},{"id":61444,"name":"Trasacco","native":null,"lat":"41.95742000","lon":"13.53270000"},{"id":61473,"name":"Treglio","native":null,"lat":"42.26184000","lon":"14.42315000"},{"id":61563,"name":"Tufillo","native":null,"lat":"41.91685000","lon":"14.62558000"},{"id":61578,"name":"Turrivalignani","native":null,"lat":"42.26296000","lon":"14.02852000"},{"id":61626,"name":"Vacri","native":null,"lat":"42.29764000","lon":"14.22901000"},{"id":61686,"name":"Valle Castellana","native":null,"lat":"42.73614000","lon":"13.49709000"},{"id":61704,"name":"Vallecupa","native":null,"lat":"42.25366000","lon":"13.57467000"},{"id":61781,"name":"Vasto","native":null,"lat":"42.11150000","lon":"14.70649000"},{"id":61922,"name":"Vicoli","native":null,"lat":"42.34095000","lon":"13.89688000"},{"id":61988,"name":"Villa Caldari","native":null,"lat":"42.29566000","lon":"14.36157000"},{"id":61992,"name":"Villa Celiera","native":null,"lat":"42.38184000","lon":"13.85860000"},{"id":62003,"name":"Villa Lempa","native":null,"lat":"42.79345000","lon":"13.64433000"},{"id":62012,"name":"Villa Raspa","native":null,"lat":"42.45542000","lon":"14.18457000"},{"id":62015,"name":"Villa Rosa","native":null,"lat":"42.85059000","lon":"13.92015000"},{"id":62022,"name":"Villa Sant'Angelo","native":null,"lat":"42.27043000","lon":"13.53710000"},{"id":62025,"name":"Villa Santa Lucia degli Abruzzi","native":null,"lat":"42.33286000","lon":"13.77792000"},{"id":62026,"name":"Villa Santa Maria","native":null,"lat":"41.95130000","lon":"14.35148000"},{"id":62071,"name":"Villagrande","native":null,"lat":"42.29533000","lon":"13.29999000"},{"id":62075,"name":"Villalago","native":null,"lat":"41.93514000","lon":"13.83868000"},{"id":62078,"name":"Villalfonsina","native":null,"lat":"42.16038000","lon":"14.56932000"},{"id":62080,"name":"Villamagna","native":null,"lat":"42.32984000","lon":"14.23689000"},{"id":62093,"name":"Villanova","native":null,"lat":"42.38251000","lon":"14.12338000"},{"id":62145,"name":"Villavallelonga","native":null,"lat":"41.87104000","lon":"13.62088000"},{"id":62151,"name":"Villetta Barrea","native":null,"lat":"41.77646000","lon":"13.93892000"},{"id":62186,"name":"Vittorito","native":null,"lat":"42.12703000","lon":"13.81670000"}]},{"id":1727,"name":"Agrigento","native":null,"cities":[]},{"id":1783,"name":"Alessandria","native":null,"cities":[]},{"id":1672,"name":"Ancona","native":null,"cities":[]},{"id":1716,"name":"Aosta Valley","native":null,"cities":[{"id":135416,"name":"Allein","native":null,"lat":"45.80723000","lon":"7.27262000"},{"id":135511,"name":"Antagnod","native":null,"lat":"45.81484000","lon":"7.68931000"},{"id":135516,"name":"Antey-Saint-Andrè","native":null,"lat":"45.80603000","lon":"7.58666000"},{"id":135530,"name":"Aosta","native":null,"lat":"45.73764000","lon":"7.31722000"},{"id":135618,"name":"Arnad","native":null,"lat":"45.64726000","lon":"7.71701000"},{"id":135645,"name":"Arvier","native":null,"lat":"45.70205000","lon":"7.16267000"},{"id":135712,"name":"Avise","native":null,"lat":"45.70886000","lon":"7.13990000"},{"id":135716,"name":"Ayas","native":null,"lat":"45.81506000","lon":"7.68911000"},{"id":135717,"name":"Aymavilles","native":null,"lat":"45.70130000","lon":"7.24683000"},{"id":135838,"name":"Bard","native":null,"lat":"45.60936000","lon":"7.74491000"},{"id":135997,"name":"Berriat","native":null,"lat":"45.70729000","lon":"7.67617000"},{"id":136055,"name":"Bionaz","native":null,"lat":"45.87356000","lon":"7.42310000"},{"id":136378,"name":"Brusson","native":null,"lat":"45.75926000","lon":"7.72899000"},{"id":137627,"name":"Challand-Saint-Anselme","native":null,"lat":"45.71456000","lon":"7.73451000"},{"id":137628,"name":"Challand-Saint-Victor","native":null,"lat":"45.69046000","lon":"7.70471000"},{"id":137629,"name":"Chambave","native":null,"lat":"45.74426000","lon":"7.54931000"},{"id":137630,"name":"Chamois","native":null,"lat":"45.83886000","lon":"7.61871000"},{"id":137631,"name":"Champdepraz","native":null,"lat":"45.68526000","lon":"7.65681000"},{"id":137632,"name":"Champorcher","native":null,"lat":"45.62376000","lon":"7.62151000"},{"id":137633,"name":"Charvensod","native":null,"lat":"45.72025000","lon":"7.32433000"},{"id":137634,"name":"Chatillon","native":null,"lat":"45.74991000","lon":"7.61668000"},{"id":137635,"name":"Chef-Lieu","native":null,"lat":"45.75091000","lon":"7.35372000"},{"id":137841,"name":"Cogne","native":null,"lat":"45.60742000","lon":"7.35803000"},{"id":138115,"name":"Courmayeur","native":null,"lat":"45.79659000","lon":"6.96893000"},{"id":138301,"name":"Donnas","native":null,"lat":"45.60286000","lon":"7.77491000"},{"id":138321,"name":"Doues","native":null,"lat":"45.81916000","lon":"7.30600000"},{"id":138355,"name":"Emarese","native":null,"lat":"45.72489000","lon":"7.68976000"},{"id":138388,"name":"Etroubles","native":null,"lat":"45.82082000","lon":"7.23137000"},{"id":138765,"name":"Fénis","native":null,"lat":"45.73469000","lon":"7.49544000"},{"id":138591,"name":"Fontainemore","native":null,"lat":"45.64746000","lon":"7.85952000"},{"id":138771,"name":"Gaby","native":null,"lat":"45.71300000","lon":"7.88224000"},{"id":138960,"name":"Gignod","native":null,"lat":"45.77996000","lon":"7.29640000"},{"id":139063,"name":"Grand Brissogne","native":null,"lat":"45.72566000","lon":"7.39260000"},{"id":139089,"name":"Gressan","native":null,"lat":"45.72050000","lon":"7.29311000"},{"id":139090,"name":"Gressoney-La-Trinitè","native":null,"lat":"45.82967000","lon":"7.82321000"},{"id":139091,"name":"Gressoney-Saint-Jean","native":null,"lat":"45.77272000","lon":"7.82802000"},{"id":139187,"name":"Hone","native":null,"lat":"45.61356000","lon":"7.73851000"},{"id":139211,"name":"Introd","native":null,"lat":"45.69306000","lon":"7.18240000"},{"id":139262,"name":"Issime","native":null,"lat":"45.68546000","lon":"7.85411000"},{"id":139264,"name":"Issogne","native":null,"lat":"45.65496000","lon":"7.68571000"},{"id":139283,"name":"Jovencan","native":null,"lat":"45.71486000","lon":"7.27260000"},{"id":139290,"name":"La Cretaz-Roisan","native":null,"lat":"45.78396000","lon":"7.31310000"},{"id":139294,"name":"La Magdeleine","native":null,"lat":"45.80996000","lon":"7.61871000"},{"id":139299,"name":"La Place","native":null,"lat":"45.65414000","lon":"7.68414000"},{"id":139303,"name":"La Salle","native":null,"lat":"45.74497000","lon":"7.07295000"},{"id":139306,"name":"La Thuile","native":null,"lat":"45.71366000","lon":"6.95099000"},{"id":139383,"name":"Lassolaz","native":null,"lat":"45.73851000","lon":"7.58883000"},{"id":139514,"name":"Lillianes","native":null,"lat":"45.62948000","lon":"7.84126000"},{"id":140288,"name":"Mongnod","native":null,"lat":"45.80549000","lon":"7.56806000"},{"id":140337,"name":"Montan-Angelin-Arensod","native":null,"lat":"45.72820000","lon":"7.27647000"},{"id":140576,"name":"Montjovet","native":null,"lat":"45.70796000","lon":"7.67411000"},{"id":140613,"name":"Morgex","native":null,"lat":"45.75664000","lon":"7.04123000"},{"id":140860,"name":"Nus","native":null,"lat":"45.74026000","lon":"7.46660000"},{"id":140907,"name":"Ollomont","native":null,"lat":"45.84976000","lon":"7.31060000"},{"id":141060,"name":"Oyace","native":null,"lat":"45.85116000","lon":"7.38300000"},{"id":58293,"name":"Paquier","native":null,"lat":"45.87879000","lon":"7.62575000"},{"id":58430,"name":"Perloz","native":null,"lat":"45.61386000","lon":"7.80811000"},{"id":58476,"name":"Petit Fenis","native":null,"lat":"45.75115000","lon":"7.46391000"},{"id":58732,"name":"Plan d'Introd","native":null,"lat":"45.69203000","lon":"7.18328000"},{"id":58796,"name":"Pollein","native":null,"lat":"45.72780000","lon":"7.35146000"},{"id":58827,"name":"Pont-Bozet","native":null,"lat":"45.60726000","lon":"7.68641000"},{"id":58829,"name":"Pont-Saint-Martin","native":null,"lat":"45.59536000","lon":"7.79451000"},{"id":58881,"name":"Pontey","native":null,"lat":"45.73886000","lon":"7.58831000"},{"id":59193,"name":"Prè Saint Didier","native":null,"lat":"45.76416000","lon":"6.98579000"},{"id":59225,"name":"Quart","native":null,"lat":"45.74096000","lon":"7.41520000"},{"id":59244,"name":"Quincod","native":null,"lat":"45.71513000","lon":"7.73495000"},{"id":59350,"name":"Rhemes-Notre-Dame","native":null,"lat":"45.56965000","lon":"7.11870000"},{"id":59351,"name":"Rhemes-Saint-Georges","native":null,"lat":"45.65226000","lon":"7.15440000"},{"id":59727,"name":"Saint Marcel","native":null,"lat":"45.73146000","lon":"7.44820000"},{"id":59728,"name":"Saint Maurice","native":null,"lat":"45.71771000","lon":"7.25547000"},{"id":59729,"name":"Saint-Christophe","native":null,"lat":"45.75406000","lon":"7.34720000"},{"id":59730,"name":"Saint-Denis","native":null,"lat":"45.75256000","lon":"7.55531000"},{"id":59731,"name":"Saint-Nicolas","native":null,"lat":"45.71656000","lon":"7.16670000"},{"id":59732,"name":"Saint-Oyen","native":null,"lat":"45.82439000","lon":"7.21372000"},{"id":59733,"name":"Saint-Pierre","native":null,"lat":"45.71153000","lon":"7.22683000"},{"id":59734,"name":"Saint-Rhémy","native":null,"lat":"45.83553000","lon":"7.18393000"},{"id":59735,"name":"Saint-Vincent","native":null,"lat":"45.75082000","lon":"7.64815000"},{"id":60030,"name":"San Leonardo","native":null,"lat":"45.82366000","lon":"7.18140000"},{"id":61328,"name":"Torgnon","native":null,"lat":"45.80616000","lon":"7.56980000"},{"id":61677,"name":"Valgrisenche","native":null,"lat":"45.63036000","lon":"7.06400000"},{"id":61694,"name":"Valle d'Aosta","native":null,"lat":"45.76667000","lon":"7.41667000"},{"id":61735,"name":"Valpelline","native":null,"lat":"45.82486000","lon":"7.32550000"},{"id":61738,"name":"Valsavarenche","native":null,"lat":"45.59186000","lon":"7.21000000"},{"id":61744,"name":"Valtournenche","native":null,"lat":"45.87607000","lon":"7.62430000"},{"id":61865,"name":"Verrayes","native":null,"lat":"45.76326000","lon":"7.53460000"},{"id":61866,"name":"Verres","native":null,"lat":"45.66656000","lon":"7.68911000"},{"id":62045,"name":"Villa-Nabian","native":null,"lat":"45.68970000","lon":"7.70470000"},{"id":62074,"name":"Villair-Amerique","native":null,"lat":"45.74793000","lon":"7.38982000"},{"id":62147,"name":"Ville Sur Sarre","native":null,"lat":"45.73339000","lon":"7.25857000"},{"id":62148,"name":"Villefranche","native":null,"lat":"45.74064000","lon":"7.41598000"},{"id":62149,"name":"Villeneuve","native":null,"lat":"45.70201000","lon":"7.20682000"}]},{"id":1688,"name":"Apulia","native":null,"cities":[{"id":135247,"name":"Accadia","native":null,"lat":"41.15768000","lon":"15.33100000"},{"id":135272,"name":"Acquarica del Capo","native":null,"lat":"39.90979000","lon":"18.24680000"},{"id":135281,"name":"Acquaviva delle Fonti","native":null,"lat":"40.89704000","lon":"16.84330000"},{"id":135286,"name":"Adelfia","native":null,"lat":"41.00330000","lon":"16.87208000"},{"id":135365,"name":"Alberobello","native":null,"lat":"40.78448000","lon":"17.23618000"},{"id":135366,"name":"Alberona","native":null,"lat":"41.43225000","lon":"15.12304000"},{"id":135397,"name":"Alessano","native":null,"lat":"39.89381000","lon":"18.33221000"},{"id":135398,"name":"Alezio","native":null,"lat":"40.06226000","lon":"18.05712000"},{"id":135418,"name":"Alliste","native":null,"lat":"39.94803000","lon":"18.08971000"},{"id":135430,"name":"Altamura","native":null,"lat":"40.82664000","lon":"16.54952000"},{"id":135486,"name":"Andrano","native":null,"lat":"39.98546000","lon":"18.38232000"},{"id":135525,"name":"Anzano di Puglia","native":null,"lat":"41.12162000","lon":"15.28688000"},{"id":135540,"name":"Apricena","native":null,"lat":"41.78629000","lon":"15.44394000"},{"id":135549,"name":"Aradeo","native":null,"lat":"40.12921000","lon":"18.12951000"},{"id":135621,"name":"Arnesano","native":null,"lat":"40.33679000","lon":"18.09145000"},{"id":135656,"name":"Ascoli Satriano","native":null,"lat":"41.20365000","lon":"15.56646000"},{"id":135703,"name":"Avetrana","native":null,"lat":"40.35070000","lon":"17.73260000"},{"id":135771,"name":"Bagnolo del Salento","native":null,"lat":"40.14908000","lon":"18.35208000"},{"id":135853,"name":"Bari","native":null,"lat":"40.93333000","lon":"16.66667000"},{"id":136043,"name":"Biccari","native":null,"lat":"41.39736000","lon":"15.19644000"},{"id":136053,"name":"Binetto","native":null,"lat":"41.02343000","lon":"16.70988000"},{"id":136067,"name":"Bitetto","native":null,"lat":"41.04146000","lon":"16.74806000"},{"id":136068,"name":"Bitonto","native":null,"lat":"41.11006000","lon":"16.69086000"},{"id":136069,"name":"Bitritto","native":null,"lat":"41.04336000","lon":"16.82682000"},{"id":136153,"name":"Borgagne","native":null,"lat":"40.24108000","lon":"18.37661000"},{"id":136257,"name":"Botrugno","native":null,"lat":"40.06359000","lon":"18.32254000"},{"id":136272,"name":"Bovino","native":null,"lat":"41.24916000","lon":"15.33948000"},{"id":136334,"name":"Brindisi","native":null,"lat":"40.63215000","lon":"17.93607000"},{"id":136471,"name":"Cagnano Varano","native":null,"lat":"41.82832000","lon":"15.77203000"},{"id":136528,"name":"Calimera","native":null,"lat":"40.24948000","lon":"18.27982000"},{"id":136616,"name":"Campi Salentina","native":null,"lat":"40.39747000","lon":"18.02141000"},{"id":136697,"name":"Candela","native":null,"lat":"41.13601000","lon":"15.51537000"},{"id":136727,"name":"Cannole","native":null,"lat":"40.16592000","lon":"18.36456000"},{"id":136769,"name":"Capirro","native":null,"lat":"41.25403000","lon":"16.42242000"},{"id":136804,"name":"Caprarica di Lecce","native":null,"lat":"40.26060000","lon":"18.24426000"},{"id":136826,"name":"Capurso","native":null,"lat":"41.04598000","lon":"16.92168000"},{"id":136834,"name":"Carapelle","native":null,"lat":"41.36365000","lon":"15.69384000"},{"id":136884,"name":"Carlantino","native":null,"lat":"41.59388000","lon":"14.97681000"},{"id":136891,"name":"Carmiano","native":null,"lat":"40.34404000","lon":"18.04195000"},{"id":136903,"name":"Carosino","native":null,"lat":"40.46538000","lon":"17.39857000"},{"id":136904,"name":"Carovigno","native":null,"lat":"40.70626000","lon":"17.65847000"},{"id":136915,"name":"Carpignano Salentino","native":null,"lat":"40.19537000","lon":"18.33826000"},{"id":136921,"name":"Carpino","native":null,"lat":"41.84450000","lon":"15.85712000"},{"id":136996,"name":"Casalini","native":null,"lat":"40.73777000","lon":"17.47062000"},{"id":137003,"name":"Casalnuovo Monterotaro","native":null,"lat":"41.61942000","lon":"15.10411000"},{"id":137011,"name":"Casalvecchio di Puglia","native":null,"lat":"41.59470000","lon":"15.10999000"},{"id":137016,"name":"Casamassella","native":null,"lat":"40.11424000","lon":"18.45100000"},{"id":137017,"name":"Casamassima","native":null,"lat":"40.95653000","lon":"16.92075000"},{"id":137030,"name":"Casarano","native":null,"lat":"40.01131000","lon":"18.16237000"},{"id":137101,"name":"Cassano delle Murge","native":null,"lat":"40.89112000","lon":"16.76531000"},{"id":137215,"name":"Castellana","native":null,"lat":"40.88643000","lon":"17.16549000"},{"id":137217,"name":"Castellaneta","native":null,"lat":"40.62794000","lon":"16.93290000"},{"id":137267,"name":"Castelluccio dei Sauri","native":null,"lat":"41.30460000","lon":"15.47561000"},{"id":137266,"name":"Castelluccio Valmaggiore","native":null,"lat":"41.34290000","lon":"15.19944000"},{"id":137298,"name":"Castelnuovo della Daunia","native":null,"lat":"41.58139000","lon":"15.11796000"},{"id":137338,"name":"Castiglione","native":null,"lat":"39.98333000","lon":"18.35000000"},{"id":137372,"name":"Castri di Lecce","native":null,"lat":"40.27360000","lon":"18.26240000"},{"id":137373,"name":"Castrignano De' Greci","native":null,"lat":"40.17342000","lon":"18.29643000"},{"id":137374,"name":"Castrignano del Capo","native":null,"lat":"39.83280000","lon":"18.35087000"},{"id":137376,"name":"Castro","native":null,"lat":"40.00702000","lon":"18.42573000"},{"id":137382,"name":"Castromediano","native":null,"lat":"40.32803000","lon":"18.17877000"},{"id":137418,"name":"Cavallino","native":null,"lat":"40.31020000","lon":"18.20221000"},{"id":137461,"name":"Ceglie Messapica","native":null,"lat":"40.64620000","lon":"17.51661000"},{"id":137464,"name":"Celenza Valfortore","native":null,"lat":"41.56048000","lon":"14.97898000"},{"id":137469,"name":"Cellamare","native":null,"lat":"41.01969000","lon":"16.92741000"},{"id":137476,"name":"Celle di San Vito","native":null,"lat":"41.32593000","lon":"15.18104000"},{"id":137480,"name":"Cellino San Marco","native":null,"lat":"40.47133000","lon":"17.96427000"},{"id":137544,"name":"Cerfignano","native":null,"lat":"40.06107000","lon":"18.44291000"},{"id":137550,"name":"Cerignola","native":null,"lat":"41.26523000","lon":"15.89559000"},{"id":137673,"name":"Chieuti","native":null,"lat":"41.84486000","lon":"15.16681000"},{"id":137763,"name":"Cisternino","native":null,"lat":"40.74326000","lon":"17.42587000"},{"id":137885,"name":"Collemeto","native":null,"lat":"40.20885000","lon":"18.10285000"},{"id":137887,"name":"Collepasso","native":null,"lat":"40.07115000","lon":"18.16222000"},{"id":137983,"name":"Conversano","native":null,"lat":"40.96836000","lon":"17.11329000"},{"id":137986,"name":"Copertino","native":null,"lat":"40.26821000","lon":"18.05430000"},{"id":137991,"name":"Corato","native":null,"lat":"41.15171000","lon":"16.41143000"},{"id":138014,"name":"Corigliano d'Otranto","native":null,"lat":"40.15925000","lon":"18.25598000"},{"id":138047,"name":"Corsano","native":null,"lat":"39.88911000","lon":"18.36747000"},{"id":138119,"name":"Cozzana","native":null,"lat":"40.92025000","lon":"17.22259000"},{"id":138157,"name":"Crispiano","native":null,"lat":"40.60379000","lon":"17.23290000"},{"id":138206,"name":"Cursi","native":null,"lat":"40.14847000","lon":"18.31605000"},{"id":138219,"name":"Cutrofiano","native":null,"lat":"40.12616000","lon":"18.20260000"},{"id":138244,"name":"Deliceto","native":null,"lat":"41.22289000","lon":"15.38447000"},{"id":138249,"name":"Depressa","native":null,"lat":"39.95908000","lon":"18.36174000"},{"id":138270,"name":"Diso","native":null,"lat":"40.00915000","lon":"18.39144000"},{"id":138371,"name":"Erchie","native":null,"lat":"40.43609000","lon":"17.73610000"},{"id":138404,"name":"Faeto","native":null,"lat":"41.32489000","lon":"15.16045000"},{"id":138407,"name":"Faggiano","native":null,"lat":"40.41616000","lon":"17.38861000"},{"id":138454,"name":"Fasano","native":null,"lat":"40.83625000","lon":"17.36007000"},{"id":138473,"name":"Felline","native":null,"lat":"39.93651000","lon":"18.11822000"},{"id":138572,"name":"Foggia","native":null,"lat":"41.45845000","lon":"15.55188000"},{"id":138687,"name":"Fragagnano","native":null,"lat":"40.43020000","lon":"17.47553000"},{"id":138694,"name":"Francavilla Fontana","native":null,"lat":"40.53123000","lon":"17.58522000"},{"id":138783,"name":"Gagliano del Capo","native":null,"lat":"39.84323000","lon":"18.36962000"},{"id":138795,"name":"Galatina","native":null,"lat":"40.17416000","lon":"18.17032000"},{"id":138796,"name":"Galatone","native":null,"lat":"40.14673000","lon":"18.06937000"},{"id":138813,"name":"Gallipoli","native":null,"lat":"40.05594000","lon":"17.99088000"},{"id":138823,"name":"Galugnano","native":null,"lat":"40.25601000","lon":"18.21473000"},{"id":138891,"name":"Gemini","native":null,"lat":"39.91134000","lon":"18.18742000"},{"id":138966,"name":"Ginosa","native":null,"lat":"40.57690000","lon":"16.75655000"},{"id":138971,"name":"Gioia del Colle","native":null,"lat":"40.79968000","lon":"16.92298000"},{"id":138975,"name":"Giorgilorio","native":null,"lat":"40.38683000","lon":"18.14873000"},{"id":138979,"name":"Giovinazzo","native":null,"lat":"41.18500000","lon":"16.67054000"},{"id":138987,"name":"Giuggianello","native":null,"lat":"40.09383000","lon":"18.36894000"},{"id":138996,"name":"Giurdignano","native":null,"lat":"40.12367000","lon":"18.43155000"},{"id":139083,"name":"Gravina in Puglia","native":null,"lat":"40.81748000","lon":"16.41915000"},{"id":139121,"name":"Grottaglie","native":null,"lat":"40.53694000","lon":"17.43723000"},{"id":139139,"name":"Grumo Appula","native":null,"lat":"41.01089000","lon":"16.70844000"},{"id":139144,"name":"Guagnano","native":null,"lat":"40.40123000","lon":"17.94902000"},{"id":139230,"name":"Ischitella","native":null,"lat":"41.90434000","lon":"15.89945000"},{"id":139255,"name":"Isole Tremiti","native":null,"lat":"42.12085000","lon":"15.50424000"},{"id":139300,"name":"La Rosa","native":null,"lat":"40.60674000","lon":"17.95207000"},{"id":139345,"name":"Lamie","native":null,"lat":"41.03364000","lon":"16.87559000"},{"id":139346,"name":"Lamie di Olimpie-Selva","native":null,"lat":"40.81714000","lon":"17.33478000"},{"id":139388,"name":"Laterza","native":null,"lat":"40.62881000","lon":"16.79947000"},{"id":139389,"name":"Latiano","native":null,"lat":"40.55052000","lon":"17.71856000"},{"id":139430,"name":"Lecce","native":null,"lat":"40.35481000","lon":"18.17244000"},{"id":139458,"name":"Leporano","native":null,"lat":"40.38218000","lon":"17.33426000"},{"id":139459,"name":"Leporano Marina","native":null,"lat":"40.37860000","lon":"17.30960000"},{"id":139460,"name":"Lequile","native":null,"lat":"40.30583000","lon":"18.14022000"},{"id":139469,"name":"Lesina","native":null,"lat":"41.86125000","lon":"15.35322000"},{"id":139481,"name":"Leuca","native":null,"lat":"39.79949000","lon":"18.35815000"},{"id":139486,"name":"Leverano","native":null,"lat":"40.28852000","lon":"17.99650000"},{"id":139554,"name":"Lizzanello","native":null,"lat":"40.30475000","lon":"18.22283000"},{"id":139555,"name":"Lizzano","native":null,"lat":"40.39301000","lon":"17.44571000"},{"id":139565,"name":"Locorotondo","native":null,"lat":"40.75661000","lon":"17.32392000"},{"id":139616,"name":"Loseto","native":null,"lat":"41.04214000","lon":"16.84917000"},{"id":139631,"name":"Lucera","native":null,"lat":"41.50550000","lon":"15.33910000"},{"id":139641,"name":"Lucugnano","native":null,"lat":"39.93490000","lon":"18.32174000"},{"id":139722,"name":"Magliano","native":null,"lat":"40.33740000","lon":"18.06287000"},{"id":139731,"name":"Maglie","native":null,"lat":"40.12069000","lon":"18.29797000"},{"id":139791,"name":"Manduria","native":null,"lat":"40.39899000","lon":"17.63726000"},{"id":139796,"name":"Manfredonia","native":null,"lat":"41.63065000","lon":"15.91876000"},{"id":139886,"name":"Marina di Ginosa","native":null,"lat":"40.42833000","lon":"16.88003000"},{"id":139901,"name":"Mariotto","native":null,"lat":"41.05028000","lon":"16.56142000"},{"id":139902,"name":"Marittima","native":null,"lat":"39.99609000","lon":"18.39895000"},{"id":139926,"name":"Martano","native":null,"lat":"40.20205000","lon":"18.30193000"},{"id":139932,"name":"Martignano","native":null,"lat":"40.23821000","lon":"18.25602000"},{"id":139933,"name":"Martina Franca","native":null,"lat":"40.70355000","lon":"17.33814000"},{"id":139942,"name":"Maruggio","native":null,"lat":"40.32054000","lon":"17.57052000"},{"id":139977,"name":"Massafra","native":null,"lat":"40.58618000","lon":"17.11635000"},{"id":139994,"name":"Materdomini","native":null,"lat":"40.65571000","lon":"17.95949000"},{"id":139997,"name":"Matino","native":null,"lat":"40.03083000","lon":"18.13630000"},{"id":140001,"name":"Mattinata","native":null,"lat":"41.71112000","lon":"16.05087000"},{"id":140041,"name":"Melendugno","native":null,"lat":"40.27252000","lon":"18.33798000"},{"id":140049,"name":"Melissano","native":null,"lat":"39.97315000","lon":"18.12113000"},{"id":140056,"name":"Melpignano","native":null,"lat":"40.15624000","lon":"18.29194000"},{"id":140085,"name":"Merine","native":null,"lat":"40.33418000","lon":"18.22383000"},{"id":140091,"name":"Mesagne","native":null,"lat":"40.55851000","lon":"17.80774000"},{"id":140131,"name":"Miggiano","native":null,"lat":"39.96180000","lon":"18.31119000"},{"id":140160,"name":"Minervino di Lecce","native":null,"lat":"40.09025000","lon":"18.42139000"},{"id":140192,"name":"Modugno","native":null,"lat":"41.08433000","lon":"16.78342000"},{"id":140209,"name":"Mola di Bari","native":null,"lat":"41.05997000","lon":"17.09001000"},{"id":140213,"name":"Molfetta","native":null,"lat":"41.20036000","lon":"16.59905000"},{"id":140296,"name":"Monopoli","native":null,"lat":"40.94918000","lon":"17.29717000"},{"id":140315,"name":"Montalbano","native":null,"lat":"40.77827000","lon":"17.48157000"},{"id":140379,"name":"Monte Sant'Angelo","native":null,"lat":"41.70530000","lon":"15.96068000"},{"id":140462,"name":"Monteiasi","native":null,"lat":"40.49992000","lon":"17.38260000"},{"id":140471,"name":"Monteleone di Puglia","native":null,"lat":"41.16711000","lon":"15.25822000"},{"id":140491,"name":"Montemesola","native":null,"lat":"40.56760000","lon":"17.33665000"},{"id":140508,"name":"Monteparano","native":null,"lat":"40.44335000","lon":"17.41308000"},{"id":140520,"name":"Monteroni di Lecce","native":null,"lat":"40.31929000","lon":"18.09163000"},{"id":140530,"name":"Montesano Salentino","native":null,"lat":"39.97544000","lon":"18.32277000"},{"id":140533,"name":"Montesardo","native":null,"lat":"39.87572000","lon":"18.33967000"},{"id":140555,"name":"Monti d'Arena-Bosco Caggione","native":null,"lat":"40.35510000","lon":"17.36432000"},{"id":140604,"name":"Morciano di Leuca","native":null,"lat":"39.84719000","lon":"18.31089000"},{"id":140659,"name":"Motta Montecorvino","native":null,"lat":"41.50743000","lon":"15.11414000"},{"id":140670,"name":"Mottola","native":null,"lat":"40.63890000","lon":"17.03432000"},{"id":140693,"name":"Muro Leccese","native":null,"lat":"40.10286000","lon":"18.33674000"},{"id":140718,"name":"Nardò","native":null,"lat":"40.17953000","lon":"18.03174000"},{"id":140754,"name":"Neviano","native":null,"lat":"40.10650000","lon":"18.11517000"},{"id":140788,"name":"Noci","native":null,"lat":"40.79356000","lon":"17.12681000"},{"id":140789,"name":"Nociglia","native":null,"lat":"40.03804000","lon":"18.32757000"},{"id":140795,"name":"Noha","native":null,"lat":"40.15323000","lon":"18.16569000"},{"id":140796,"name":"Noicattaro","native":null,"lat":"41.03449000","lon":"16.98963000"},{"id":140840,"name":"Novoli","native":null,"lat":"40.37673000","lon":"18.04757000"},{"id":140946,"name":"Ordona","native":null,"lat":"41.31501000","lon":"15.62832000"},{"id":140951,"name":"Oria","native":null,"lat":"40.49999000","lon":"17.64280000"},{"id":140972,"name":"Orsara di Puglia","native":null,"lat":"41.28163000","lon":"15.26765000"},{"id":140977,"name":"Orta Nova","native":null,"lat":"41.32879000","lon":"15.70994000"},{"id":140983,"name":"Ortelle","native":null,"lat":"40.03371000","lon":"18.39125000"},{"id":141044,"name":"Ostuni","native":null,"lat":"40.72913000","lon":"17.57675000"},{"id":141045,"name":"Otranto","native":null,"lat":"40.14789000","lon":"18.48682000"},{"id":58219,"name":"Palagianello","native":null,"lat":"40.60851000","lon":"16.97802000"},{"id":58220,"name":"Palagiano","native":null,"lat":"40.57762000","lon":"17.03812000"},{"id":58256,"name":"Palmariggi","native":null,"lat":"40.13099000","lon":"18.37863000"},{"id":58261,"name":"Palo del Colle","native":null,"lat":"41.05562000","lon":"16.70321000"},{"id":58262,"name":"Palombaio","native":null,"lat":"41.07036000","lon":"16.60962000"},{"id":58282,"name":"Panni","native":null,"lat":"41.22082000","lon":"15.27560000"},{"id":58289,"name":"Paolo VI","native":null,"lat":"40.52218000","lon":"17.27401000"},{"id":58295,"name":"Parabita","native":null,"lat":"40.05139000","lon":"18.12651000"},{"id":58300,"name":"Parco Scizzo-Parchitello","native":null,"lat":"41.07457000","lon":"16.99329000"},{"id":58351,"name":"Patù","native":null,"lat":"39.84078000","lon":"18.33784000"},{"id":58455,"name":"Peschici","native":null,"lat":"41.94521000","lon":"16.01612000"},{"id":58500,"name":"Pezze di Greco","native":null,"lat":"40.81004000","lon":"17.41333000"},{"id":58617,"name":"Pietramontecorvino","native":null,"lat":"41.54228000","lon":"15.12894000"},{"id":58709,"name":"Pisignano","native":null,"lat":"40.30470000","lon":"18.27155000"},{"id":58748,"name":"Poggiardo","native":null,"lat":"40.05315000","lon":"18.37819000"},{"id":58755,"name":"Poggio Imperiale","native":null,"lat":"41.82503000","lon":"15.36680000"},{"id":58771,"name":"Poggiorsini","native":null,"lat":"40.91403000","lon":"16.25605000"},{"id":58790,"name":"Polignano a Mare","native":null,"lat":"40.99221000","lon":"17.22149000"},{"id":58926,"name":"Porto Cesareo","native":null,"lat":"40.26228000","lon":"17.89896000"},{"id":59067,"name":"Presicce","native":null,"lat":"39.90055000","lon":"18.26282000"},{"id":59112,"name":"Provincia di Barletta - Andria - Trani","native":null,"lat":"41.25097000","lon":"16.17599000"},{"id":59118,"name":"Provincia di Brindisi","native":null,"lat":"40.58333000","lon":"17.66667000"},{"id":59131,"name":"Provincia di Foggia","native":null,"lat":"41.45000000","lon":"15.53333000"},{"id":59141,"name":"Provincia di Lecce","native":null,"lat":"40.21667000","lon":"18.16667000"},{"id":59178,"name":"Provincia di Taranto","native":null,"lat":"40.61667000","lon":"17.25000000"},{"id":59203,"name":"Pulsano","native":null,"lat":"40.38109000","lon":"17.35612000"},{"id":59209,"name":"Putignano","native":null,"lat":"40.85106000","lon":"17.12190000"},{"id":59233,"name":"Quasano","native":null,"lat":"40.96724000","lon":"16.57354000"},{"id":59255,"name":"Racale","native":null,"lat":"39.96086000","lon":"18.09154000"},{"id":59378,"name":"Rignano Garganico","native":null,"lat":"41.67934000","lon":"15.58835000"},{"id":59500,"name":"Roccaforzata","native":null,"lat":"40.43700000","lon":"17.38986000"},{"id":59541,"name":"Rocchetta Sant'Antonio","native":null,"lat":"41.10326000","lon":"15.45993000"},{"id":59553,"name":"Rodi Garganico","native":null,"lat":"41.92745000","lon":"15.88217000"},{"id":59636,"name":"Roseto Valfortore","native":null,"lat":"41.37544000","lon":"15.09824000"},{"id":59696,"name":"Ruffano","native":null,"lat":"39.98195000","lon":"18.24974000"},{"id":59705,"name":"Rutigliano","native":null,"lat":"41.00997000","lon":"17.00558000"},{"id":59709,"name":"Ruvo di Puglia","native":null,"lat":"41.11758000","lon":"16.48421000"},{"id":59767,"name":"Salice Salentino","native":null,"lat":"40.38485000","lon":"17.96134000"},{"id":59789,"name":"Salve","native":null,"lat":"39.86111000","lon":"18.29493000"},{"id":59810,"name":"Sammichele di Bari","native":null,"lat":"40.88711000","lon":"16.94919000"},{"id":59859,"name":"San Cassiano","native":null,"lat":"40.05631000","lon":"18.33392000"},{"id":59864,"name":"San Cesario di Lecce","native":null,"lat":"40.30221000","lon":"18.16098000"},{"id":59894,"name":"San Donaci","native":null,"lat":"40.44853000","lon":"17.92252000"},{"id":59898,"name":"San Donato di Lecce","native":null,"lat":"40.26728000","lon":"18.18256000"},{"id":59956,"name":"San Giorgio Ionico","native":null,"lat":"40.45796000","lon":"17.38034000"},{"id":59988,"name":"San Giovanni Rotondo","native":null,"lat":"41.70643000","lon":"15.72770000"},{"id":60065,"name":"San Marco in Lamis","native":null,"lat":"41.71210000","lon":"15.63825000"},{"id":60066,"name":"San Marco la Catola","native":null,"lat":"41.52483000","lon":"15.00594000"},{"id":60099,"name":"San Marzano di San Giuseppe","native":null,"lat":"40.45455000","lon":"17.50351000"},{"id":60119,"name":"San Michele Salentino","native":null,"lat":"40.63163000","lon":"17.63254000"},{"id":60152,"name":"San Pancrazio Salentino","native":null,"lat":"40.41800000","lon":"17.83419000"},{"id":60156,"name":"San Paolo","native":null,"lat":"41.12476000","lon":"16.79258000"},{"id":60161,"name":"San Paolo di Civitate","native":null,"lat":"41.73893000","lon":"15.26080000"},{"id":60201,"name":"San Pietro in Lama","native":null,"lat":"40.30711000","lon":"18.12787000"},{"id":60184,"name":"San Pietro Vernotico","native":null,"lat":"40.48890000","lon":"17.99752000"},{"id":60244,"name":"San Severo","native":null,"lat":"41.68564000","lon":"15.38148000"},{"id":60282,"name":"San Vito dei Normanni","native":null,"lat":"40.65642000","lon":"17.70814000"},{"id":60298,"name":"Sanarica","native":null,"lat":"40.08908000","lon":"18.34803000"},{"id":60311,"name":"Sannicandro di Bari","native":null,"lat":"41.00047000","lon":"16.79714000"},{"id":60310,"name":"Sannicandro Garganico","native":null,"lat":"41.83844000","lon":"15.56535000"},{"id":60312,"name":"Sannicola","native":null,"lat":"40.09244000","lon":"18.06765000"},{"id":60324,"name":"Sant'Agata di Puglia","native":null,"lat":"41.15127000","lon":"15.37968000"},{"id":60418,"name":"Santa Cesarea Terme","native":null,"lat":"40.03607000","lon":"18.45542000"},{"id":60506,"name":"Santeramo in Colle","native":null,"lat":"40.79236000","lon":"16.75873000"},{"id":60583,"name":"Sava","native":null,"lat":"40.40203000","lon":"17.55267000"},{"id":60667,"name":"Scorrano","native":null,"lat":"40.09018000","lon":"18.29993000"},{"id":60677,"name":"Seclì","native":null,"lat":"40.11897000","lon":"18.10931000"},{"id":60758,"name":"Serracapriola","native":null,"lat":"41.80912000","lon":"15.16098000"},{"id":60766,"name":"Serrano","native":null,"lat":"40.18438000","lon":"18.35156000"},{"id":60896,"name":"Sogliano Cavour","native":null,"lat":"40.14827000","lon":"18.19741000"},{"id":60916,"name":"Soleto","native":null,"lat":"40.18781000","lon":"18.20630000"},{"id":60994,"name":"Specchia","native":null,"lat":"39.93913000","lon":"18.29784000"},{"id":61028,"name":"Spongano","native":null,"lat":"40.01782000","lon":"18.36563000"},{"id":61036,"name":"Squinzano","native":null,"lat":"40.43513000","lon":"18.04086000"},{"id":61049,"name":"Statte","native":null,"lat":"40.52856000","lon":"17.20122000"},{"id":61067,"name":"Sternatia","native":null,"lat":"40.22022000","lon":"18.22748000"},{"id":61079,"name":"Stornara","native":null,"lat":"41.28672000","lon":"15.77003000"},{"id":61080,"name":"Stornarella","native":null,"lat":"41.25591000","lon":"15.73023000"},{"id":61103,"name":"Strudà","native":null,"lat":"40.31991000","lon":"18.28176000"},{"id":61123,"name":"Supersano","native":null,"lat":"40.01655000","lon":"18.24205000"},{"id":61125,"name":"Surano","native":null,"lat":"40.02818000","lon":"18.34591000"},{"id":61126,"name":"Surbo","native":null,"lat":"40.39383000","lon":"18.13456000"},{"id":61165,"name":"Taranto","native":null,"lat":"40.46438000","lon":"17.24707000"},{"id":61177,"name":"Taurisano","native":null,"lat":"39.95746000","lon":"18.21498000"},{"id":61193,"name":"Taviano","native":null,"lat":"39.98224000","lon":"18.08151000"},{"id":61225,"name":"Terlizzi","native":null,"lat":"41.12905000","lon":"16.54536000"},{"id":61276,"name":"Tiggiano","native":null,"lat":"39.90284000","lon":"18.36501000"},{"id":61321,"name":"Torchiarolo","native":null,"lat":"40.48349000","lon":"18.05122000"},{"id":61331,"name":"Toritto","native":null,"lat":"40.99774000","lon":"16.67945000"},{"id":61361,"name":"Torre San Giovanni","native":null,"lat":"39.89001000","lon":"18.11159000"},{"id":61363,"name":"Torre Santa Susanna","native":null,"lat":"40.46762000","lon":"17.73864000"},{"id":61384,"name":"Torremaggiore","native":null,"lat":"41.68894000","lon":"15.29408000"},{"id":61400,"name":"Torricella","native":null,"lat":"40.35509000","lon":"17.49846000"},{"id":61489,"name":"Trepuzzi","native":null,"lat":"40.40535000","lon":"18.07625000"},{"id":61519,"name":"Tricase","native":null,"lat":"39.93018000","lon":"18.35421000"},{"id":61525,"name":"Triggiano","native":null,"lat":"41.06549000","lon":"16.92501000"},{"id":61549,"name":"Troia","native":null,"lat":"41.36428000","lon":"15.31730000"},{"id":61566,"name":"Tuglie","native":null,"lat":"40.07346000","lon":"18.09872000"},{"id":61574,"name":"Turi","native":null,"lat":"40.91657000","lon":"17.02038000"},{"id":61582,"name":"Tuturano","native":null,"lat":"40.54474000","lon":"17.94754000"},{"id":61588,"name":"Ugento","native":null,"lat":"39.92724000","lon":"18.15832000"},{"id":61591,"name":"Uggiano la Chiesa","native":null,"lat":"40.10091000","lon":"18.44872000"},{"id":61590,"name":"Uggiano Montefusco","native":null,"lat":"40.38612000","lon":"17.60460000"},{"id":61665,"name":"Valenzano","native":null,"lat":"41.04376000","lon":"16.88491000"},{"id":61796,"name":"Veglie","native":null,"lat":"40.33474000","lon":"17.96238000"},{"id":61858,"name":"Vernole","native":null,"lat":"40.28834000","lon":"18.30165000"},{"id":61918,"name":"Vico del Gargano","native":null,"lat":"41.89661000","lon":"15.95682000"},{"id":61933,"name":"Vieste","native":null,"lat":"41.88209000","lon":"16.17139000"},{"id":61955,"name":"Vignacastrisi","native":null,"lat":"40.01604000","lon":"18.40704000"},{"id":61990,"name":"Villa Castelli","native":null,"lat":"40.58293000","lon":"17.47468000"},{"id":62181,"name":"Vitigliano","native":null,"lat":"40.03951000","lon":"18.41170000"},{"id":62220,"name":"Volturara Appula","native":null,"lat":"41.49603000","lon":"15.05224000"},{"id":62222,"name":"Volturino","native":null,"lat":"41.47723000","lon":"15.12424000"},{"id":62237,"name":"Zapponeta","native":null,"lat":"41.45710000","lon":"15.95615000"},{"id":62269,"name":"Zollino","native":null,"lat":"40.20581000","lon":"18.24774000"}]},{"id":1681,"name":"Ascoli Piceno","native":null,"cities":[]},{"id":1780,"name":"Asti","native":null,"cities":[]},{"id":1692,"name":"Avellino","native":null,"cities":[]},{"id":1686,"name":"Barletta-Andria-Trani","native":null,"cities":[{"id":135491,"name":"Andria","native":null,"lat":"41.23117000","lon":"16.29797000"},{"id":135860,"name":"Barletta","native":null,"lat":"41.31429000","lon":"16.28165000"},{"id":136061,"name":"Bisceglie","native":null,"lat":"41.24264000","lon":"16.50104000"},{"id":136732,"name":"Canosa di Puglia","native":null,"lat":"41.21954000","lon":"16.06768000"},{"id":139863,"name":"Margherita di Savoia","native":null,"lat":"41.37174000","lon":"16.15275000"},{"id":140159,"name":"Minervino Murge","native":null,"lat":"41.08264000","lon":"16.07861000"},{"id":59915,"name":"San Ferdinando di Puglia","native":null,"lat":"41.30263000","lon":"16.07046000"},{"id":61014,"name":"Spinazzola","native":null,"lat":"40.96399000","lon":"16.09111000"},{"id":61437,"name":"Trani","native":null,"lat":"41.27733000","lon":"16.41011000"},{"id":61528,"name":"Trinitapoli","native":null,"lat":"41.35654000","lon":"16.08924000"}]},{"id":1706,"name":"Basilicata","native":null,"cities":[{"id":135245,"name":"Abriola","native":null,"lat":"40.50748000","lon":"15.81310000"},{"id":135249,"name":"Accettura","native":null,"lat":"40.49102000","lon":"16.15798000"},{"id":135253,"name":"Acerenza","native":null,"lat":"40.79386000","lon":"15.93808000"},{"id":135354,"name":"Albano di Lucania","native":null,"lat":"40.58614000","lon":"16.03712000"},{"id":135407,"name":"Aliano","native":null,"lat":"40.31359000","lon":"16.22984000"},{"id":135526,"name":"Anzi","native":null,"lat":"40.51662000","lon":"15.92457000"},{"id":135614,"name":"Armento","native":null,"lat":"40.30660000","lon":"16.06550000"},{"id":135673,"name":"Atella","native":null,"lat":"40.87855000","lon":"15.65226000"},{"id":135709,"name":"Avigliano","native":null,"lat":"40.73291000","lon":"15.72004000"},{"id":135797,"name":"Balvano","native":null,"lat":"40.64953000","lon":"15.51345000"},{"id":135806,"name":"Banzi","native":null,"lat":"40.86063000","lon":"16.00976000"},{"id":135810,"name":"Baragiano","native":null,"lat":"40.68001000","lon":"15.59398000"},{"id":135857,"name":"Barile","native":null,"lat":"40.94327000","lon":"15.67167000"},{"id":135934,"name":"Bella","native":null,"lat":"40.76059000","lon":"15.54101000"},{"id":135992,"name":"Bernalda","native":null,"lat":"40.41261000","lon":"16.68919000"},{"id":136329,"name":"Brienza","native":null,"lat":"40.47751000","lon":"15.62927000"},{"id":136335,"name":"Brindisi Montagna","native":null,"lat":"40.60952000","lon":"15.93977000"},{"id":136504,"name":"Calciano","native":null,"lat":"40.58802000","lon":"16.19238000"},{"id":136553,"name":"Calvello","native":null,"lat":"40.47482000","lon":"15.85092000"},{"id":136556,"name":"Calvera","native":null,"lat":"40.14871000","lon":"16.14362000"},{"id":136667,"name":"Campomaggiore","native":null,"lat":"40.56590000","lon":"16.07250000"},{"id":136694,"name":"Cancellara","native":null,"lat":"40.73068000","lon":"15.92470000"},{"id":136850,"name":"Carbone","native":null,"lat":"40.14227000","lon":"16.08846000"},{"id":137203,"name":"Castelgrande","native":null,"lat":"40.78639000","lon":"15.43109000"},{"id":137264,"name":"Castelluccio Inferiore","native":null,"lat":"40.00151000","lon":"15.98149000"},{"id":137265,"name":"Castelluccio Superiore","native":null,"lat":"40.01003000","lon":"15.97184000"},{"id":137273,"name":"Castelmezzano","native":null,"lat":"40.52832000","lon":"16.04585000"},{"id":137313,"name":"Castelsaraceno","native":null,"lat":"40.16213000","lon":"15.99281000"},{"id":137384,"name":"Castronuovo di Sant'Andrea","native":null,"lat":"40.18903000","lon":"16.18559000"},{"id":137577,"name":"Cersosimo","native":null,"lat":"40.04703000","lon":"16.35059000"},{"id":137655,"name":"Chiaromonte","native":null,"lat":"40.12323000","lon":"16.21440000"},{"id":137747,"name":"Cirigliano","native":null,"lat":"40.39376000","lon":"16.17194000"},{"id":137910,"name":"Colobraro","native":null,"lat":"40.18841000","lon":"16.42480000"},{"id":138019,"name":"Corleto Perticara","native":null,"lat":"40.38214000","lon":"16.03917000"},{"id":138121,"name":"Craco-Sant'Angelo","native":null,"lat":"40.37992000","lon":"16.43708000"},{"id":138364,"name":"Episcopia","native":null,"lat":"40.07481000","lon":"16.09818000"},{"id":138445,"name":"Fardella","native":null,"lat":"40.11381000","lon":"16.16978000"},{"id":138488,"name":"Ferrandina","native":null,"lat":"40.50084000","lon":"16.45258000"},{"id":138529,"name":"Filiano","native":null,"lat":"40.81042000","lon":"15.70984000"},{"id":138624,"name":"Forenza","native":null,"lat":"40.86041000","lon":"15.85457000"},{"id":138699,"name":"Francavilla in Sinni","native":null,"lat":"40.08142000","lon":"16.20417000"},{"id":138809,"name":"Gallicchio","native":null,"lat":"40.29232000","lon":"16.13561000"},{"id":138843,"name":"Garaguso","native":null,"lat":"40.54866000","lon":"16.22827000"},{"id":138903,"name":"Genzano di Lucania","native":null,"lat":"40.84589000","lon":"16.03124000"},{"id":138963,"name":"Ginestra","native":null,"lat":"40.93092000","lon":"15.73497000"},{"id":139029,"name":"Gorgoglione","native":null,"lat":"40.39532000","lon":"16.14456000"},{"id":139072,"name":"Grassano","native":null,"lat":"40.63457000","lon":"16.27792000"},{"id":139130,"name":"Grottole","native":null,"lat":"40.60333000","lon":"16.37831000"},{"id":139137,"name":"Grumento Nova","native":null,"lat":"40.28281000","lon":"15.88877000"},{"id":139160,"name":"Guardia Perticara","native":null,"lat":"40.36167000","lon":"16.09845000"},{"id":139223,"name":"Irsina","native":null,"lat":"40.75015000","lon":"16.23816000"},{"id":139295,"name":"La Martella","native":null,"lat":"40.66251000","lon":"16.53551000"},{"id":139327,"name":"Lagonegro","native":null,"lat":"40.12785000","lon":"15.76212000"},{"id":139393,"name":"Latronico","native":null,"lat":"40.08909000","lon":"16.00947000"},{"id":139400,"name":"Laurenzana","native":null,"lat":"40.45908000","lon":"15.97075000"},{"id":139401,"name":"Lauria","native":null,"lat":"40.04702000","lon":"15.83812000"},{"id":139410,"name":"Lavello","native":null,"lat":"41.04769000","lon":"15.78915000"},{"id":139501,"name":"Lido","native":null,"lat":"40.19128000","lon":"16.70692000"},{"id":139832,"name":"Maratea","native":null,"lat":"39.99932000","lon":"15.71539000"},{"id":139855,"name":"Marconia","native":null,"lat":"40.36355000","lon":"16.68823000"},{"id":139922,"name":"Marsico Nuovo","native":null,"lat":"40.42359000","lon":"15.73462000"},{"id":139923,"name":"Marsicovetere","native":null,"lat":"40.37591000","lon":"15.82569000"},{"id":139954,"name":"Maschito","native":null,"lat":"40.90892000","lon":"15.82946000"},{"id":139993,"name":"Matera","native":null,"lat":"40.66599000","lon":"16.60463000"},{"id":140043,"name":"Melfi","native":null,"lat":"40.99571000","lon":"15.65578000"},{"id":140138,"name":"Miglionico","native":null,"lat":"40.56763000","lon":"16.49964000"},{"id":140183,"name":"Missanello","native":null,"lat":"40.28311000","lon":"16.16650000"},{"id":140228,"name":"Moliterno","native":null,"lat":"40.24394000","lon":"15.86544000"},{"id":140318,"name":"Montalbano Jonico","native":null,"lat":"40.28591000","lon":"16.56960000"},{"id":140495,"name":"Montemilone","native":null,"lat":"41.02742000","lon":"15.96661000"},{"id":140499,"name":"Montemurro","native":null,"lat":"40.29765000","lon":"15.99182000"},{"id":140534,"name":"Montescaglioso","native":null,"lat":"40.55024000","lon":"16.66541000"},{"id":140694,"name":"Muro Lucano","native":null,"lat":"40.75379000","lon":"15.48808000"},{"id":140741,"name":"Nemoli","native":null,"lat":"40.06765000","lon":"15.79962000"},{"id":140790,"name":"Noepoli","native":null,"lat":"40.08705000","lon":"16.32834000"},{"id":140816,"name":"Nova Siri","native":null,"lat":"40.14823000","lon":"16.53976000"},{"id":140817,"name":"Nova Siri Scalo","native":null,"lat":"40.13177000","lon":"16.63593000"},{"id":140902,"name":"Oliveto Lucano","native":null,"lat":"40.53554000","lon":"16.18547000"},{"id":140934,"name":"Oppido Lucano","native":null,"lat":"40.76174000","lon":"15.98818000"},{"id":58231,"name":"Palazzo San Gervasio","native":null,"lat":"40.93156000","lon":"15.98149000"},{"id":58343,"name":"Paterno","native":null,"lat":"40.37507000","lon":"15.73510000"},{"id":58463,"name":"Pescopagano","native":null,"lat":"40.83494000","lon":"15.39946000"},{"id":58580,"name":"Picerno","native":null,"lat":"40.63975000","lon":"15.64232000"},{"id":58614,"name":"Pietragalla","native":null,"lat":"40.74572000","lon":"15.87398000"},{"id":58621,"name":"Pietrapertosa","native":null,"lat":"40.51731000","lon":"16.06244000"},{"id":58663,"name":"Pignola","native":null,"lat":"40.57412000","lon":"15.78295000"},{"id":58713,"name":"Pisticci","native":null,"lat":"40.39017000","lon":"16.55919000"},{"id":58789,"name":"Policoro","native":null,"lat":"40.21280000","lon":"16.67795000"},{"id":58810,"name":"Pomarico","native":null,"lat":"40.52804000","lon":"16.52708000"},{"id":58965,"name":"Potenza","native":null,"lat":"40.64175000","lon":"15.80794000"},{"id":59149,"name":"Provincia di Matera","native":null,"lat":"40.50000000","lon":"16.41667000"},{"id":59164,"name":"Provincia di Potenza","native":null,"lat":"40.46442000","lon":"15.89938000"},{"id":59287,"name":"Rapolla","native":null,"lat":"40.97499000","lon":"15.67201000"},{"id":59288,"name":"Rapone","native":null,"lat":"40.84710000","lon":"15.49818000"},{"id":59397,"name":"Rionero in Vulture","native":null,"lat":"40.92328000","lon":"15.67110000"},{"id":59402,"name":"Ripacandida","native":null,"lat":"40.91256000","lon":"15.72597000"},{"id":59436,"name":"Rivello","native":null,"lat":"40.07821000","lon":"15.75798000"},{"id":59511,"name":"Roccanova","native":null,"lat":"40.21250000","lon":"16.20429000"},{"id":59659,"name":"Rotonda","native":null,"lat":"39.95215000","lon":"16.03904000"},{"id":59660,"name":"Rotondella","native":null,"lat":"40.17136000","lon":"16.52491000"},{"id":59703,"name":"Ruoti","native":null,"lat":"40.71660000","lon":"15.68369000"},{"id":59708,"name":"Ruvo del Monte","native":null,"lat":"40.84951000","lon":"15.54217000"},{"id":59746,"name":"Salandra","native":null,"lat":"40.52668000","lon":"16.32037000"},{"id":59848,"name":"San Brancato","native":null,"lat":"40.25822000","lon":"16.25661000"},{"id":59866,"name":"San Chirico Nuovo","native":null,"lat":"40.67764000","lon":"16.07892000"},{"id":59867,"name":"San Chirico Raparo","native":null,"lat":"40.19242000","lon":"16.07618000"},{"id":59880,"name":"San Costantino Albanese","native":null,"lat":"40.03679000","lon":"16.30475000"},{"id":59905,"name":"San Fele","native":null,"lat":"40.81647000","lon":"15.54043000"},{"id":59957,"name":"San Giorgio Lucano","native":null,"lat":"40.11132000","lon":"16.38930000"},{"id":60081,"name":"San Martino d'Agri","native":null,"lat":"40.23913000","lon":"16.05216000"},{"id":60107,"name":"San Mauro Forte","native":null,"lat":"40.48333000","lon":"16.25155000"},{"id":60157,"name":"San Paolo Albanese","native":null,"lat":"40.03567000","lon":"16.33498000"},{"id":60242,"name":"San Severino Lucano","native":null,"lat":"40.02021000","lon":"16.13860000"},{"id":60372,"name":"Sant'Angelo le Fratte","native":null,"lat":"40.54490000","lon":"15.56156000"},{"id":60387,"name":"Sant'Arcangelo","native":null,"lat":"40.24852000","lon":"16.27046000"},{"id":60542,"name":"Sarconi","native":null,"lat":"40.24800000","lon":"15.88837000"},{"id":60573,"name":"Sasso di Castalda","native":null,"lat":"40.48525000","lon":"15.67569000"},{"id":60579,"name":"Satriano di Lucania","native":null,"lat":"40.54296000","lon":"15.64024000"},{"id":60598,"name":"Savoia di Lucania","native":null,"lat":"40.56949000","lon":"15.55132000"},{"id":60611,"name":"Scalo di Baragiano","native":null,"lat":"40.69500000","lon":"15.57508000"},{"id":60626,"name":"Scanzano Jonico","native":null,"lat":"40.25085000","lon":"16.69824000"},{"id":60726,"name":"Senise","native":null,"lat":"40.14616000","lon":"16.28867000"},{"id":61024,"name":"Spinoso","native":null,"lat":"40.26921000","lon":"15.96658000"},{"id":61072,"name":"Stigliano","native":null,"lat":"40.40237000","lon":"16.22983000"},{"id":61198,"name":"Teana","native":null,"lat":"40.12586000","lon":"16.15281000"},{"id":61242,"name":"Terranova di Pollino","native":null,"lat":"39.97765000","lon":"16.29583000"},{"id":61287,"name":"Tito","native":null,"lat":"40.58370000","lon":"15.67621000"},{"id":61303,"name":"Tolve","native":null,"lat":"40.69422000","lon":"16.01627000"},{"id":61435,"name":"Tramutola","native":null,"lat":"40.31858000","lon":"15.78753000"},{"id":61467,"name":"Trecchina","native":null,"lat":"40.02611000","lon":"15.77585000"},{"id":61518,"name":"Tricarico","native":null,"lat":"40.61458000","lon":"16.14259000"},{"id":61544,"name":"Trivigno","native":null,"lat":"40.58015000","lon":"15.98857000"},{"id":61579,"name":"Tursi","native":null,"lat":"40.24651000","lon":"16.47140000"},{"id":61634,"name":"Vaglio Basilicata","native":null,"lat":"40.66643000","lon":"15.91434000"},{"id":61739,"name":"Valsinni","native":null,"lat":"40.17098000","lon":"16.44388000"},{"id":61823,"name":"Venosa","native":null,"lat":"40.96283000","lon":"15.81285000"},{"id":61934,"name":"Vietri di Potenza","native":null,"lat":"40.60027000","lon":"15.50787000"},{"id":61945,"name":"Viggianello","native":null,"lat":"39.97227000","lon":"16.08521000"},{"id":61946,"name":"Viggiano","native":null,"lat":"40.34213000","lon":"15.89964000"},{"id":62033,"name":"Villa d'Agri","native":null,"lat":"40.35426000","lon":"15.82770000"},{"id":62270,"name":"Zona 179","native":null,"lat":"41.00313000","lon":"15.61868000"}]},{"id":1689,"name":"Belluno","native":null,"cities":[]},{"id":1701,"name":"Benevento","native":null,"cities":[]},{"id":1704,"name":"Bergamo","native":null,"cities":[]},{"id":1778,"name":"Biella","native":null,"cities":[]},{"id":1717,"name":"Brescia","native":null,"cities":[]},{"id":1714,"name":"Brindisi","native":null,"cities":[]},{"id":1703,"name":"Calabria","native":null,"cities":[{"id":135251,"name":"Acconia","native":null,"lat":"38.83585000","lon":"16.26530000"},{"id":135265,"name":"Acquaformosa","native":null,"lat":"39.72278000","lon":"16.09096000"},{"id":135271,"name":"Acquappesa","native":null,"lat":"39.49573000","lon":"15.95419000"},{"id":135273,"name":"Acquaro","native":null,"lat":"38.55729000","lon":"16.18781000"},{"id":135284,"name":"Acri","native":null,"lat":"39.49624000","lon":"16.38635000"},{"id":135295,"name":"Africo Nuovo","native":null,"lat":"38.05067000","lon":"16.13320000"},{"id":135296,"name":"Africo Vecchio","native":null,"lat":"38.06667000","lon":"15.98333000"},{"id":135309,"name":"Agnana Calabra","native":null,"lat":"38.30206000","lon":"16.22718000"},{"id":135326,"name":"Aiello Calabro","native":null,"lat":"39.11785000","lon":"16.16539000"},{"id":135329,"name":"Aieta","native":null,"lat":"39.92780000","lon":"15.82348000"},{"id":135369,"name":"Albi","native":null,"lat":"39.02456000","lon":"16.59721000"},{"id":135374,"name":"Albidona","native":null,"lat":"39.92332000","lon":"16.47237000"},{"id":135395,"name":"Alessandria del Carretto","native":null,"lat":"39.95874000","lon":"16.37963000"},{"id":135439,"name":"Altilia","native":null,"lat":"39.13049000","lon":"16.25269000"},{"id":135445,"name":"Altomonte","native":null,"lat":"39.69900000","lon":"16.12999000"},{"id":135458,"name":"Amantea","native":null,"lat":"39.12658000","lon":"16.07512000"},{"id":135460,"name":"Amaroni","native":null,"lat":"38.79424000","lon":"16.44809000"},{"id":135462,"name":"Amato","native":null,"lat":"38.38333000","lon":"16.13333000"},{"id":135469,"name":"Amendolara","native":null,"lat":"39.95162000","lon":"16.58293000"},{"id":135471,"name":"Amica","native":null,"lat":"39.60085000","lon":"16.66694000"},{"id":135480,"name":"Andali","native":null,"lat":"39.01281000","lon":"16.76926000"},{"id":135489,"name":"Andreotta","native":null,"lat":"39.30750000","lon":"16.21770000"},{"id":135509,"name":"Anoia Inferiore","native":null,"lat":"38.43618000","lon":"16.07940000"},{"id":135510,"name":"Anoia Superiore","native":null,"lat":"38.43144000","lon":"16.09740000"},{"id":135520,"name":"Antonimina","native":null,"lat":"38.27298000","lon":"16.14824000"},{"id":135541,"name":"Aprigliano","native":null,"lat":"39.24228000","lon":"16.34046000"},{"id":135560,"name":"Arcavacata","native":null,"lat":"39.35846000","lon":"16.20844000"},{"id":135582,"name":"Ardore","native":null,"lat":"38.19173000","lon":"16.16734000"},{"id":135583,"name":"Ardore Marina","native":null,"lat":"38.16667000","lon":"16.20000000"},{"id":135585,"name":"Arena","native":null,"lat":"38.56235000","lon":"16.21060000"},{"id":135596,"name":"Argusto","native":null,"lat":"38.68051000","lon":"16.43627000"},{"id":135742,"name":"Badolato","native":null,"lat":"38.56868000","lon":"16.52461000"},{"id":135743,"name":"Badolato Marina","native":null,"lat":"38.57613000","lon":"16.56527000"},{"id":135744,"name":"Bagaladi","native":null,"lat":"38.02560000","lon":"15.82152000"},{"id":135749,"name":"Bagnara Calabra","native":null,"lat":"38.28778000","lon":"15.80591000"},{"id":135863,"name":"Barone","native":null,"lat":"38.85225000","lon":"16.63927000"},{"id":135926,"name":"Belcastro","native":null,"lat":"39.01799000","lon":"16.78641000"},{"id":135951,"name":"Belmonte Calabro","native":null,"lat":"39.16398000","lon":"16.08215000"},{"id":135958,"name":"Belsito","native":null,"lat":"39.17685000","lon":"16.28745000"},{"id":135963,"name":"Belvedere Marittimo","native":null,"lat":"39.61930000","lon":"15.86220000"},{"id":135965,"name":"Belvedere Spinello","native":null,"lat":"39.20674000","lon":"16.89233000"},{"id":135973,"name":"Benestare","native":null,"lat":"38.18487000","lon":"16.13900000"},{"id":136029,"name":"Bianchi","native":null,"lat":"39.10058000","lon":"16.41018000"},{"id":136030,"name":"Bianco","native":null,"lat":"38.09170000","lon":"16.15159000"},{"id":136064,"name":"Bisignano","native":null,"lat":"39.50727000","lon":"16.28106000"},{"id":136076,"name":"Bivongi","native":null,"lat":"38.48328000","lon":"16.45251000"},{"id":136088,"name":"Bocchigliero","native":null,"lat":"39.41930000","lon":"16.75057000"},{"id":136138,"name":"Bonifati","native":null,"lat":"39.58595000","lon":"15.90163000"},{"id":136156,"name":"Borgata Marina","native":null,"lat":"39.97136000","lon":"16.62091000"},{"id":136166,"name":"Borgia","native":null,"lat":"38.82627000","lon":"16.50770000"},{"id":136256,"name":"Botricello","native":null,"lat":"38.92997000","lon":"16.85801000"},{"id":136264,"name":"Bova","native":null,"lat":"37.99507000","lon":"15.93190000"},{"id":136265,"name":"Bova Marina","native":null,"lat":"37.93503000","lon":"15.91736000"},{"id":136266,"name":"Bovalino","native":null,"lat":"38.15376000","lon":"16.17232000"},{"id":136267,"name":"Bovalino Superiore","native":null,"lat":"38.16905000","lon":"16.15849000"},{"id":136285,"name":"Brancaleone","native":null,"lat":"37.96297000","lon":"16.10040000"},{"id":136286,"name":"Brancaleone-Marina","native":null,"lat":"37.96667000","lon":"16.10000000"},{"id":136325,"name":"Briatico","native":null,"lat":"38.72254000","lon":"16.02737000"},{"id":136347,"name":"Brognaturo","native":null,"lat":"38.60128000","lon":"16.34140000"},{"id":136380,"name":"Bruzzano Zeffirio","native":null,"lat":"38.01327000","lon":"16.08260000"},{"id":136408,"name":"Buonvicino","native":null,"lat":"39.68877000","lon":"15.88400000"},{"id":136452,"name":"Caccuri","native":null,"lat":"39.22562000","lon":"16.77767000"},{"id":136491,"name":"Calanna","native":null,"lat":"38.18457000","lon":"15.72293000"},{"id":136536,"name":"Caloppezzati","native":null,"lat":"39.56120000","lon":"16.80180000"},{"id":136538,"name":"Caloveto","native":null,"lat":"39.50656000","lon":"16.76065000"},{"id":136563,"name":"Calvisi","native":null,"lat":"39.12739000","lon":"16.30590000"},{"id":136589,"name":"Camini","native":null,"lat":"38.43179000","lon":"16.48321000"},{"id":136607,"name":"Campana","native":null,"lat":"39.41360000","lon":"16.82220000"},{"id":136627,"name":"Campo Calabro","native":null,"lat":"38.21607000","lon":"15.65919000"},{"id":136673,"name":"Campora San Giovanni","native":null,"lat":"39.06798000","lon":"16.09566000"},{"id":136705,"name":"Candidoni","native":null,"lat":"38.50548000","lon":"16.08630000"},{"id":136717,"name":"Canna","native":null,"lat":"40.09484000","lon":"16.50378000"},{"id":136728,"name":"Canolo","native":null,"lat":"38.31497000","lon":"16.19990000"},{"id":136749,"name":"Cantinella","native":null,"lat":"39.66458000","lon":"16.44912000"},{"id":136770,"name":"Capistrano","native":null,"lat":"38.69131000","lon":"16.28935000"},{"id":136777,"name":"Capo Rizzuto","native":null,"lat":"38.90412000","lon":"17.09872000"},{"id":136827,"name":"Caraffa del Bianco","native":null,"lat":"38.09259000","lon":"16.08766000"},{"id":136828,"name":"Caraffa di Catanzaro","native":null,"lat":"38.88194000","lon":"16.48675000"},{"id":136860,"name":"Cardeto","native":null,"lat":"38.08440000","lon":"15.76577000"},{"id":136861,"name":"Cardinale","native":null,"lat":"38.65379000","lon":"16.38715000"},{"id":136868,"name":"Careri","native":null,"lat":"38.17741000","lon":"16.11614000"},{"id":136872,"name":"Carfizzi","native":null,"lat":"39.30771000","lon":"16.97447000"},{"id":136874,"name":"Cariati","native":null,"lat":"39.49627000","lon":"16.95495000"},{"id":136889,"name":"Carlopoli","native":null,"lat":"39.05406000","lon":"16.45455000"},{"id":136898,"name":"Carolei","native":null,"lat":"39.25472000","lon":"16.21979000"},{"id":136907,"name":"Carpanzano","native":null,"lat":"39.14817000","lon":"16.30451000"},{"id":136952,"name":"Casabona","native":null,"lat":"39.24951000","lon":"16.95446000"},{"id":137069,"name":"Casignana","native":null,"lat":"38.10187000","lon":"16.08990000"},{"id":137081,"name":"Casole Bruzio","native":null,"lat":"39.28384000","lon":"16.33193000"},{"id":137095,"name":"Cassano Allo Ionio","native":null,"lat":"39.78142000","lon":"16.32738000"},{"id":137316,"name":"Castelsilano","native":null,"lat":"39.26910000","lon":"16.76741000"},{"id":137340,"name":"Castiglione Cosentino","native":null,"lat":"39.35271000","lon":"16.28821000"},{"id":137381,"name":"Castrolibero","native":null,"lat":"39.31002000","lon":"16.19453000"},{"id":137388,"name":"Castroregio","native":null,"lat":"39.99220000","lon":"16.47846000"},{"id":137389,"name":"Castrovillari","native":null,"lat":"39.81632000","lon":"16.20183000"},{"id":137392,"name":"Catanzaro","native":null,"lat":"38.88247000","lon":"16.60086000"},{"id":137398,"name":"Caulonia","native":null,"lat":"38.38171000","lon":"16.40951000"},{"id":137399,"name":"Caulonia Marina","native":null,"lat":"38.34679000","lon":"16.46353000"},{"id":137404,"name":"Cava-Cuculera Nobile","native":null,"lat":"38.89383000","lon":"16.62226000"},{"id":137440,"name":"Cavoni-Ginestreto","native":null,"lat":"39.45212000","lon":"16.26267000"},{"id":137466,"name":"Celico","native":null,"lat":"39.31009000","lon":"16.33989000"},{"id":137470,"name":"Cellara","native":null,"lat":"39.21849000","lon":"16.33480000"},{"id":137485,"name":"Cenadi","native":null,"lat":"38.71934000","lon":"16.41582000"},{"id":137500,"name":"Centrache","native":null,"lat":"38.72872000","lon":"16.43101000"},{"id":137512,"name":"Ceramida-Pellegrina","native":null,"lat":"38.29667000","lon":"15.82572000"},{"id":137524,"name":"Cerchiara di Calabria","native":null,"lat":"39.85978000","lon":"16.38368000"},{"id":137534,"name":"Cerenzia","native":null,"lat":"39.24554000","lon":"16.78758000"},{"id":137551,"name":"Cerisano","native":null,"lat":"39.27715000","lon":"16.17654000"},{"id":137581,"name":"Cerva","native":null,"lat":"39.02397000","lon":"16.74538000"},{"id":137592,"name":"Cervicati","native":null,"lat":"39.54237000","lon":"16.12682000"},{"id":137599,"name":"Cerzeto","native":null,"lat":"39.50789000","lon":"16.11603000"},{"id":137617,"name":"Cessaniti","native":null,"lat":"38.66395000","lon":"16.02959000"},{"id":137623,"name":"Cetraro","native":null,"lat":"39.51660000","lon":"15.94158000"},{"id":137624,"name":"Cetraro Marina","native":null,"lat":"39.51701000","lon":"15.93460000"},{"id":137653,"name":"Chiaravalle Centrale","native":null,"lat":"38.67936000","lon":"16.40864000"},{"id":137708,"name":"Cicala","native":null,"lat":"39.02219000","lon":"16.48610000"},{"id":137725,"name":"Ciminà","native":null,"lat":"38.24618000","lon":"16.14023000"},{"id":137737,"name":"Cinque Frondi","native":null,"lat":"38.41618000","lon":"16.08420000"},{"id":137750,"name":"Cirò","native":null,"lat":"39.38297000","lon":"17.06377000"},{"id":137751,"name":"Cirò Marina","native":null,"lat":"39.36876000","lon":"17.12477000"},{"id":137766,"name":"Cittadella del Capo","native":null,"lat":"39.55932000","lon":"15.87602000"},{"id":137768,"name":"Cittanova","native":null,"lat":"38.35431000","lon":"16.07898000"},{"id":137785,"name":"Civita","native":null,"lat":"39.82804000","lon":"16.31337000"},{"id":137812,"name":"Cleto","native":null,"lat":"39.09019000","lon":"16.15839000"},{"id":137927,"name":"Colosimi","native":null,"lat":"39.11911000","lon":"16.39909000"},{"id":137963,"name":"Condofuri","native":null,"lat":"38.00447000","lon":"15.85770000"},{"id":137969,"name":"Conflenti","native":null,"lat":"39.07169000","lon":"16.28450000"},{"id":138012,"name":"Corigliano Calabro","native":null,"lat":"39.59553000","lon":"16.51907000"},{"id":138013,"name":"Corigliano Scalo","native":null,"lat":"39.62713000","lon":"16.51368000"},{"id":138051,"name":"Cortale","native":null,"lat":"38.84009000","lon":"16.40960000"},{"id":138078,"name":"Cosenza","native":null,"lat":"39.29890000","lon":"16.25307000"},{"id":138082,"name":"Cosoleto","native":null,"lat":"38.27483000","lon":"15.92814000"},{"id":138112,"name":"Cotronei","native":null,"lat":"39.15935000","lon":"16.77688000"},{"id":138154,"name":"Crichi","native":null,"lat":"38.95296000","lon":"16.64178000"},{"id":138165,"name":"Cropalati","native":null,"lat":"39.51673000","lon":"16.72674000"},{"id":138166,"name":"Cropani","native":null,"lat":"38.96690000","lon":"16.78022000"},{"id":138167,"name":"Cropani Marina","native":null,"lat":"38.92376000","lon":"16.81080000"},{"id":138168,"name":"Crosia","native":null,"lat":"39.56822000","lon":"16.77126000"},{"id":138170,"name":"Crotone","native":null,"lat":"39.08077000","lon":"17.12764000"},{"id":138174,"name":"Crucoli","native":null,"lat":"39.42713000","lon":"17.00281000"},{"id":138202,"name":"Curinga","native":null,"lat":"38.82811000","lon":"16.31344000"},{"id":138218,"name":"Cutro","native":null,"lat":"39.03484000","lon":"16.98658000"},{"id":138230,"name":"Dasà","native":null,"lat":"38.56514000","lon":"16.19521000"},{"id":138233,"name":"Davoli","native":null,"lat":"38.64904000","lon":"16.48764000"},{"id":138238,"name":"Decollatura","native":null,"lat":"39.04645000","lon":"16.35753000"},{"id":138243,"name":"Delianuova","native":null,"lat":"38.23587000","lon":"15.91714000"},{"id":138259,"name":"Diamante","native":null,"lat":"39.68070000","lon":"15.82168000"},{"id":138268,"name":"Dinami","native":null,"lat":"38.53136000","lon":"16.14461000"},{"id":138269,"name":"Dipignano","native":null,"lat":"39.23869000","lon":"16.25184000"},{"id":138287,"name":"Domanico","native":null,"lat":"39.21693000","lon":"16.20721000"},{"id":138302,"name":"Donnici Inferiore","native":null,"lat":"39.25020000","lon":"16.29307000"},{"id":138307,"name":"Doria","native":null,"lat":"39.73042000","lon":"16.35597000"},{"id":138327,"name":"Drapia","native":null,"lat":"38.66612000","lon":"15.91122000"},{"id":138395,"name":"Fabrizia","native":null,"lat":"38.48989000","lon":"16.29832000"},{"id":138396,"name":"Fabrizio","native":null,"lat":"39.63939000","lon":"16.55666000"},{"id":138408,"name":"Fagnano Castello","native":null,"lat":"39.57160000","lon":"16.06253000"},{"id":138415,"name":"Falconara Albanese","native":null,"lat":"39.27524000","lon":"16.08819000"},{"id":138419,"name":"Falerna","native":null,"lat":"39.00298000","lon":"16.17151000"},{"id":138420,"name":"Falerna Scalo","native":null,"lat":"38.97285000","lon":"16.15294000"},{"id":138485,"name":"Feroleto Antico","native":null,"lat":"38.96239000","lon":"16.38780000"},{"id":138486,"name":"Feroleto della Chiesa","native":null,"lat":"38.46609000","lon":"16.07012000"},{"id":138498,"name":"Ferruzzano","native":null,"lat":"38.03699000","lon":"16.08918000"},{"id":138520,"name":"Figline Vegliaturo","native":null,"lat":"39.22519000","lon":"16.33030000"},{"id":138522,"name":"Filadelfia","native":null,"lat":"38.78468000","lon":"16.29200000"},{"id":138524,"name":"Filandari","native":null,"lat":"38.61508000","lon":"16.03140000"},{"id":138532,"name":"Filogaso","native":null,"lat":"38.68287000","lon":"16.22584000"},{"id":138544,"name":"Firmo","native":null,"lat":"39.72208000","lon":"16.16344000"},{"id":138549,"name":"Fiumara","native":null,"lat":"38.21267000","lon":"15.69369000"},{"id":138552,"name":"Fiumefreddo Bruzio","native":null,"lat":"39.23568000","lon":"16.07056000"},{"id":138625,"name":"Foresta","native":null,"lat":"39.09939000","lon":"16.81287000"},{"id":138675,"name":"Fossato Ionico-Fossatello-San Luca Marcelluzzo","native":null,"lat":"38.01065000","lon":"15.76302000"},{"id":138676,"name":"Fossato Serralta","native":null,"lat":"38.99629000","lon":"16.57960000"},{"id":138692,"name":"Francavilla Angitola","native":null,"lat":"38.78016000","lon":"16.27228000"},{"id":138695,"name":"Francavilla Marittima","native":null,"lat":"39.81610000","lon":"16.39499000"},{"id":138702,"name":"Francica","native":null,"lat":"38.61697000","lon":"16.10007000"},{"id":138709,"name":"Frascineto","native":null,"lat":"39.83382000","lon":"16.26378000"},{"id":138760,"name":"Fuscaldo","native":null,"lat":"39.41421000","lon":"16.02839000"},{"id":138784,"name":"Gagliato","native":null,"lat":"38.67578000","lon":"16.46061000"},{"id":138797,"name":"Galatro","native":null,"lat":"38.46067000","lon":"16.10840000"},{"id":138864,"name":"Gasperina","native":null,"lat":"38.74039000","lon":"16.50666000"},{"id":138907,"name":"Gerace","native":null,"lat":"38.27137000","lon":"16.22070000"},{"id":138919,"name":"Gerocarne","native":null,"lat":"38.58767000","lon":"16.21818000"},{"id":138956,"name":"Giffone","native":null,"lat":"38.43957000","lon":"16.14898000"},{"id":138962,"name":"Gimigliano","native":null,"lat":"38.97338000","lon":"16.53165000"},{"id":138969,"name":"Gioia Tauro","native":null,"lat":"38.42510000","lon":"15.89750000"},{"id":138972,"name":"Gioiosa Ionica","native":null,"lat":"38.32723000","lon":"16.30407000"},{"id":138983,"name":"Girifalco","native":null,"lat":"38.82594000","lon":"16.42688000"},{"id":139003,"name":"Gizzeria","native":null,"lat":"38.98025000","lon":"16.20671000"},{"id":139101,"name":"Grimaldi","native":null,"lat":"39.14111000","lon":"16.23511000"},{"id":139104,"name":"Grisolia","native":null,"lat":"39.72538000","lon":"15.85605000"},{"id":139128,"name":"Grotteria","native":null,"lat":"38.36509000","lon":"16.26522000"},{"id":139156,"name":"Guardavalle","native":null,"lat":"38.50510000","lon":"16.50669000"},{"id":139157,"name":"Guardavalle Marina","native":null,"lat":"38.47957000","lon":"16.57656000"},{"id":139161,"name":"Guardia Piemontese","native":null,"lat":"39.46572000","lon":"15.99970000"},{"id":139225,"name":"Isca Marina","native":null,"lat":"38.60341000","lon":"16.55733000"},{"id":139226,"name":"Isca sullo Ionio","native":null,"lat":"38.60103000","lon":"16.52010000"},{"id":139250,"name":"Isola di Capo Rizzuto","native":null,"lat":"38.95844000","lon":"17.09242000"},{"id":139273,"name":"Jacurso","native":null,"lat":"38.84649000","lon":"16.37980000"},{"id":139280,"name":"Jonadi","native":null,"lat":"38.62988000","lon":"16.06100000"},{"id":139281,"name":"Joppolo","native":null,"lat":"38.58338000","lon":"15.89709000"},{"id":139320,"name":"Laganadi","native":null,"lat":"38.17391000","lon":"15.74133000"},{"id":139326,"name":"Lago","native":null,"lat":"39.17068000","lon":"16.14825000"},{"id":139333,"name":"Laino Borgo","native":null,"lat":"39.95430000","lon":"15.97348000"},{"id":139334,"name":"Laino Castello-Nuovo Centro","native":null,"lat":"39.93630000","lon":"15.97658000"},{"id":139344,"name":"Lamezia Terme","native":null,"lat":"38.96255000","lon":"16.30938000"},{"id":139369,"name":"Lappano","native":null,"lat":"39.31964000","lon":"16.31143000"},{"id":139394,"name":"Lattarico","native":null,"lat":"39.45105000","lon":"16.12700000"},{"id":139398,"name":"Laureana di Borrello","native":null,"lat":"38.49215000","lon":"16.08429000"},{"id":139403,"name":"Laurignano","native":null,"lat":"39.27915000","lon":"16.24232000"},{"id":139421,"name":"Lazzaro","native":null,"lat":"37.97276000","lon":"15.66511000"},{"id":139425,"name":"Le Castella","native":null,"lat":"38.91010000","lon":"17.02216000"},{"id":139517,"name":"Limbadi-Caroni","native":null,"lat":"38.55902000","lon":"15.96441000"},{"id":139566,"name":"Locri","native":null,"lat":"38.23868000","lon":"16.25957000"},{"id":139597,"name":"Longobardi","native":null,"lat":"39.21059000","lon":"16.07464000"},{"id":139598,"name":"Longobucco","native":null,"lat":"39.44830000","lon":"16.61050000"},{"id":139661,"name":"Lungro","native":null,"lat":"39.73772000","lon":"16.12586000"},{"id":139685,"name":"Luzzi","native":null,"lat":"39.44799000","lon":"16.28730000"},{"id":139721,"name":"Magisano","native":null,"lat":"39.01339000","lon":"16.62790000"},{"id":139745,"name":"Maida","native":null,"lat":"38.85884000","lon":"16.36277000"},{"id":139747,"name":"Maierà","native":null,"lat":"39.71655000","lon":"15.85012000"},{"id":139746,"name":"Maierato","native":null,"lat":"38.71111000","lon":"16.17532000"},{"id":139767,"name":"Malito","native":null,"lat":"39.15775000","lon":"16.24677000"},{"id":139778,"name":"Malvito","native":null,"lat":"39.60105000","lon":"16.05341000"},{"id":139780,"name":"Mammola","native":null,"lat":"38.36262000","lon":"16.23871000"},