[{"name":"Ajloun","native":null,"cities":[{"name":"‘Ajlūn","native":null,"lat":"32.33326000","lon":"35.75279000"},{"name":"‘Anjarah","native":null,"lat":"32.30630000","lon":"35.75653000"},{"name":"‘Ayn Jannah","native":null,"lat":"32.33466000","lon":"35.76370000"},{"name":"Ḩalāwah","native":null,"lat":"32.38433000","lon":"35.66167000"},{"name":"Şakhrah","native":null,"lat":"32.37087000","lon":"35.84267000"}]},{"name":"Amman","native":null,"cities":[{"name":"Al Jīzah","native":null,"lat":"31.69893000","lon":"35.95530000"},{"name":"Al Jubayhah","native":null,"lat":"32.01071000","lon":"35.89802000"},{"name":"Amman","native":null,"lat":"31.95522000","lon":"35.94503000"},{"name":"Ḩayy al Bunayyāt","native":null,"lat":"31.89603000","lon":"35.88465000"},{"name":"Ḩayy al Quwaysimah","native":null,"lat":"31.91037000","lon":"35.94975000"},{"name":"Jāwā","native":null,"lat":"31.85247000","lon":"35.93928000"},{"name":"Saḩāb","native":null,"lat":"31.87032000","lon":"36.00479000"},{"name":"Umm as Summāq","native":null,"lat":"31.88542000","lon":"35.85430000"},{"name":"Wādī as Sīr","native":null,"lat":"31.95450000","lon":"35.81831000"}]},{"name":"Aqaba","native":null,"cities":[{"name":"Aqaba","native":null,"lat":"29.52667000","lon":"35.00778000"},{"name":"Tala Bay","native":null,"lat":"29.40842000","lon":"34.97918000"}]},{"name":"Balqa","native":null,"cities":[{"name":"Al Karāmah","native":null,"lat":"31.95439000","lon":"35.58033000"},{"name":"As Salţ","native":null,"lat":"32.03917000","lon":"35.72722000"},{"name":"Yarqā","native":null,"lat":"31.97583000","lon":"35.69638000"}]},{"name":"Irbid","native":null,"cities":[{"name":"Ar Ramthā","native":null,"lat":"32.55873000","lon":"36.00816000"},{"name":"Ash Shajarah","native":null,"lat":"32.64391000","lon":"35.94175000"},{"name":"Aţ Ţayyibah","native":null,"lat":"32.54304000","lon":"35.71756000"},{"name":"Aţ Ţurrah","native":null,"lat":"32.63979000","lon":"35.98943000"},{"name":"Aydūn","native":null,"lat":"32.50528000","lon":"35.85809000"},{"name":"Bayt Īdis","native":null,"lat":"32.43775000","lon":"35.69765000"},{"name":"Bayt Yāfā","native":null,"lat":"32.52253000","lon":"35.78618000"},{"name":"Dayr Yūsuf","native":null,"lat":"32.48701000","lon":"35.79635000"},{"name":"Ḩakamā","native":null,"lat":"32.59354000","lon":"35.88320000"},{"name":"Ḩātim","native":null,"lat":"32.64492000","lon":"35.77771000"},{"name":"Irbid","native":null,"lat":"32.55556000","lon":"35.85000000"},{"name":"Judita","native":null,"lat":"32.40792000","lon":"35.70802000"},{"name":"Kafr Abīl","native":null,"lat":"32.41752000","lon":"35.66305000"},{"name":"Kafr Asad","native":null,"lat":"32.59800000","lon":"35.71266000"},{"name":"Kafr Sawm","native":null,"lat":"32.68527000","lon":"35.80102000"},{"name":"Kharjā","native":null,"lat":"32.65988000","lon":"35.88782000"},{"name":"Kitim","native":null,"lat":"32.43834000","lon":"35.89677000"},{"name":"Kurayyimah","native":null,"lat":"32.27639000","lon":"35.59938000"},{"name":"Malkā","native":null,"lat":"32.67645000","lon":"35.74851000"},{"name":"Qumaym","native":null,"lat":"32.57174000","lon":"35.73452000"},{"name":"Saḩam al Kaffārāt","native":null,"lat":"32.69848000","lon":"35.77438000"},{"name":"Sāl","native":null,"lat":"32.56897000","lon":"35.91185000"},{"name":"Şammā","native":null,"lat":"32.57102000","lon":"35.68984000"},{"name":"Tibnah","native":null,"lat":"32.47521000","lon":"35.73056000"},{"name":"Umm Qays","native":null,"lat":"32.65348000","lon":"35.68457000"},{"name":"Waqqāş","native":null,"lat":"32.54214000","lon":"35.60508000"},{"name":"Zaḩar","native":null,"lat":"32.56670000","lon":"35.77811000"}]},{"name":"Jerash","native":null,"cities":[{"name":"Al Kittah","native":null,"lat":"32.27685000","lon":"35.84114000"},{"name":"Balīlā","native":null,"lat":"32.39109000","lon":"35.93832000"},{"name":"Burmā","native":null,"lat":"32.21930000","lon":"35.78507000"},{"name":"Jarash","native":null,"lat":"32.28082000","lon":"35.89929000"},{"name":"Qafqafā","native":null,"lat":"32.34851000","lon":"35.93864000"},{"name":"Raymūn","native":null,"lat":"32.28202000","lon":"35.82779000"},{"name":"Sakib","native":null,"lat":"32.28431000","lon":"35.80909000"},{"name":"Sūf","native":null,"lat":"32.31372000","lon":"35.83713000"}]},{"name":"Karak","native":null,"cities":[{"name":"‘Ayy","native":null,"lat":"31.13371000","lon":"35.64375000"},{"name":"‘Izrā","native":null,"lat":"31.15889000","lon":"35.69278000"},{"name":"Adir","native":null,"lat":"31.20217000","lon":"35.76155000"},{"name":"Al Khinzīrah","native":null,"lat":"31.05056000","lon":"35.60606000"},{"name":"Al Mazār al Janūbī","native":null,"lat":"31.06722000","lon":"35.69486000"},{"name":"Al Qaşr","native":null,"lat":"31.31407000","lon":"35.74393000"},{"name":"Ar Rabbah","native":null,"lat":"31.26923000","lon":"35.73829000"},{"name":"Karak City","native":null,"lat":"31.16368000","lon":"35.76204000"},{"name":"Safi","native":null,"lat":"31.03608000","lon":"35.46544000"}]},{"name":"Ma'an","native":null,"cities":[{"name":"Al Jafr","native":null,"lat":"30.31840000","lon":"36.17775000"},{"name":"Al Quwayrah","native":null,"lat":"29.80045000","lon":"35.31160000"},{"name":"Ash Shawbak","native":null,"lat":"30.52134000","lon":"35.57135000"},{"name":"Aţ Ţayyibah","native":null,"lat":"30.25125000","lon":"35.46570000"},{"name":"Ma'an","native":null,"lat":"30.19624000","lon":"35.73405000"},{"name":"Petra","native":null,"lat":"30.32096000","lon":"35.47895000"},{"name":"Qīr Moāv","native":null,"lat":"31.18248000","lon":"35.69999000"}]},{"name":"Madaba","native":null,"cities":[{"name":"Mādabā","native":null,"lat":"31.71599000","lon":"35.79392000"}]},{"name":"Mafraq","native":null,"cities":[{"name":"Al Ḩamrā’","native":null,"lat":"32.44017000","lon":"36.15265000"},{"name":"Mafraq","native":null,"lat":"32.34289000","lon":"36.20804000"},{"name":"Rehab","native":null,"lat":"32.32341000","lon":"36.09087000"},{"name":"Rukban","native":null,"lat":"33.31405000","lon":"38.70342000"},{"name":"Şabḩā","native":null,"lat":"32.32696000","lon":"36.50159000"},{"name":"Umm al Qiţţayn","native":null,"lat":"32.31449000","lon":"36.62826000"}]},{"name":"Tafilah","native":null,"cities":[{"name":"Aţ Ţafīlah","native":null,"lat":"30.83752000","lon":"35.60442000"},{"name":"Buşayrā","native":null,"lat":"30.73256000","lon":"35.60943000"}]},{"name":"Zarqa","native":null,"cities":[{"name":"Al Azraq ash Shamālī","native":null,"lat":"31.88209000","lon":"36.83017000"},{"name":"Russeifa","native":null,"lat":"32.01778000","lon":"36.04639000"},{"name":"Zarqa","native":null,"lat":"32.07275000","lon":"36.08796000"}]}]