[{"id":963,"name":"Ajloun","native":null,"cities":[{"id":63206,"name":"‘Ajlūn","native":null,"lat":"32.33326000","lon":"35.75279000"},{"id":63207,"name":"‘Anjarah","native":null,"lat":"32.30630000","lon":"35.75653000"},{"id":63208,"name":"‘Ayn Jannah","native":null,"lat":"32.33466000","lon":"35.76370000"},{"id":63202,"name":"Ḩalāwah","native":null,"lat":"32.38433000","lon":"35.66167000"},{"id":63199,"name":"Şakhrah","native":null,"lat":"32.37087000","lon":"35.84267000"}]},{"id":965,"name":"Amman","native":null,"cities":[{"id":63133,"name":"Al Jīzah","native":null,"lat":"31.69893000","lon":"35.95530000"},{"id":63132,"name":"Al Jubayhah","native":null,"lat":"32.01071000","lon":"35.89802000"},{"id":63141,"name":"Amman","native":null,"lat":"31.95522000","lon":"35.94503000"},{"id":63203,"name":"Ḩayy al Bunayyāt","native":null,"lat":"31.89603000","lon":"35.88465000"},{"id":63204,"name":"Ḩayy al Quwaysimah","native":null,"lat":"31.91037000","lon":"35.94975000"},{"id":63162,"name":"Jāwā","native":null,"lat":"31.85247000","lon":"35.93928000"},{"id":63185,"name":"Saḩāb","native":null,"lat":"31.87032000","lon":"36.00479000"},{"id":63192,"name":"Umm as Summāq","native":null,"lat":"31.88542000","lon":"35.85430000"},{"id":63194,"name":"Wādī as Sīr","native":null,"lat":"31.95450000","lon":"35.81831000"}]},{"id":959,"name":"Aqaba","native":null,"cities":[{"id":63142,"name":"Aqaba","native":null,"lat":"29.52667000","lon":"35.00778000"},{"id":63188,"name":"Tala Bay","native":null,"lat":"29.40842000","lon":"34.97918000"}]},{"id":961,"name":"Balqa","native":null,"cities":[{"id":63134,"name":"Al Karāmah","native":null,"lat":"31.95439000","lon":"35.58033000"},{"id":63145,"name":"As Salţ","native":null,"lat":"32.03917000","lon":"35.72722000"},{"id":63195,"name":"Yarqā","native":null,"lat":"31.97583000","lon":"35.69638000"}]},{"id":960,"name":"Irbid","native":null,"cities":[{"id":63144,"name":"Ar Ramthā","native":null,"lat":"32.55873000","lon":"36.00816000"},{"id":63146,"name":"Ash Shajarah","native":null,"lat":"32.64391000","lon":"35.94175000"},{"id":63151,"name":"Aţ Ţayyibah","native":null,"lat":"32.54304000","lon":"35.71756000"},{"id":63152,"name":"Aţ Ţurrah","native":null,"lat":"32.63979000","lon":"35.98943000"},{"id":63148,"name":"Aydūn","native":null,"lat":"32.50528000","lon":"35.85809000"},{"id":63155,"name":"Bayt Īdis","native":null,"lat":"32.43775000","lon":"35.69765000"},{"id":63154,"name":"Bayt Yāfā","native":null,"lat":"32.52253000","lon":"35.78618000"},{"id":63158,"name":"Dayr Yūsuf","native":null,"lat":"32.48701000","lon":"35.79635000"},{"id":63201,"name":"Ḩakamā","native":null,"lat":"32.59354000","lon":"35.88320000"},{"id":63205,"name":"Ḩātim","native":null,"lat":"32.64492000","lon":"35.77771000"},{"id":63159,"name":"Irbid","native":null,"lat":"32.55556000","lon":"35.85000000"},{"id":63161,"name":"Judita","native":null,"lat":"32.40792000","lon":"35.70802000"},{"id":63163,"name":"Kafr Abīl","native":null,"lat":"32.41752000","lon":"35.66305000"},{"id":63164,"name":"Kafr Asad","native":null,"lat":"32.59800000","lon":"35.71266000"},{"id":63165,"name":"Kafr Sawm","native":null,"lat":"32.68527000","lon":"35.80102000"},{"id":63167,"name":"Kharjā","native":null,"lat":"32.65988000","lon":"35.88782000"},{"id":63168,"name":"Kitim","native":null,"lat":"32.43834000","lon":"35.89677000"},{"id":63169,"name":"Kurayyimah","native":null,"lat":"32.27639000","lon":"35.59938000"},{"id":63172,"name":"Malkā","native":null,"lat":"32.67645000","lon":"35.74851000"},{"id":63176,"name":"Qumaym","native":null,"lat":"32.57174000","lon":"35.73452000"},{"id":63184,"name":"Saḩam al Kaffārāt","native":null,"lat":"32.69848000","lon":"35.77438000"},{"id":63186,"name":"Sāl","native":null,"lat":"32.56897000","lon":"35.91185000"},{"id":63200,"name":"Şammā","native":null,"lat":"32.57102000","lon":"35.68984000"},{"id":63189,"name":"Tibnah","native":null,"lat":"32.47521000","lon":"35.73056000"},{"id":63190,"name":"Umm Qays","native":null,"lat":"32.65348000","lon":"35.68457000"},{"id":63193,"name":"Waqqāş","native":null,"lat":"32.54214000","lon":"35.60508000"},{"id":63197,"name":"Zaḩar","native":null,"lat":"32.56670000","lon":"35.77811000"}]},{"id":966,"name":"Jerash","native":null,"cities":[{"id":63136,"name":"Al Kittah","native":null,"lat":"32.27685000","lon":"35.84114000"},{"id":63153,"name":"Balīlā","native":null,"lat":"32.39109000","lon":"35.93832000"},{"id":63156,"name":"Burmā","native":null,"lat":"32.21930000","lon":"35.78507000"},{"id":63160,"name":"Jarash","native":null,"lat":"32.28082000","lon":"35.89929000"},{"id":63175,"name":"Qafqafā","native":null,"lat":"32.34851000","lon":"35.93864000"},{"id":63178,"name":"Raymūn","native":null,"lat":"32.28202000","lon":"35.82779000"},{"id":63183,"name":"Sakib","native":null,"lat":"32.28431000","lon":"35.80909000"},{"id":63187,"name":"Sūf","native":null,"lat":"32.31372000","lon":"35.83713000"}]},{"id":956,"name":"Karak","native":null,"cities":[{"id":63209,"name":"‘Ayy","native":null,"lat":"31.13371000","lon":"35.64375000"},{"id":63210,"name":"‘Izrā","native":null,"lat":"31.15889000","lon":"35.69278000"},{"id":63129,"name":"Adir","native":null,"lat":"31.20217000","lon":"35.76155000"},{"id":63135,"name":"Al Khinzīrah","native":null,"lat":"31.05056000","lon":"35.60606000"},{"id":63137,"name":"Al Mazār al Janūbī","native":null,"lat":"31.06722000","lon":"35.69486000"},{"id":63138,"name":"Al Qaşr","native":null,"lat":"31.31407000","lon":"35.74393000"},{"id":63143,"name":"Ar Rabbah","native":null,"lat":"31.26923000","lon":"35.73829000"},{"id":63166,"name":"Karak City","native":null,"lat":"31.16368000","lon":"35.76204000"},{"id":63182,"name":"Safi","native":null,"lat":"31.03608000","lon":"35.46544000"}]},{"id":964,"name":"Ma'an","native":null,"cities":[{"id":63131,"name":"Al Jafr","native":null,"lat":"30.31840000","lon":"36.17775000"},{"id":63139,"name":"Al Quwayrah","native":null,"lat":"29.80045000","lon":"35.31160000"},{"id":63147,"name":"Ash Shawbak","native":null,"lat":"30.52134000","lon":"35.57135000"},{"id":63150,"name":"Aţ Ţayyibah","native":null,"lat":"30.25125000","lon":"35.46570000"},{"id":63170,"name":"Ma'an","native":null,"lat":"30.19624000","lon":"35.73405000"},{"id":63174,"name":"Petra","native":null,"lat":"30.32096000","lon":"35.47895000"},{"id":63177,"name":"Qīr Moāv","native":null,"lat":"31.18248000","lon":"35.69999000"}]},{"id":958,"name":"Madaba","native":null,"cities":[{"id":63173,"name":"Mādabā","native":null,"lat":"31.71599000","lon":"35.79392000"}]},{"id":962,"name":"Mafraq","native":null,"cities":[{"id":63140,"name":"Al Ḩamrā’","native":null,"lat":"32.44017000","lon":"36.15265000"},{"id":63171,"name":"Mafraq","native":null,"lat":"32.34289000","lon":"36.20804000"},{"id":63179,"name":"Rehab","native":null,"lat":"32.32341000","lon":"36.09087000"},{"id":63180,"name":"Rukban","native":null,"lat":"33.31405000","lon":"38.70342000"},{"id":63198,"name":"Şabḩā","native":null,"lat":"32.32696000","lon":"36.50159000"},{"id":63191,"name":"Umm al Qiţţayn","native":null,"lat":"32.31449000","lon":"36.62826000"}]},{"id":957,"name":"Tafilah","native":null,"cities":[{"id":63149,"name":"Aţ Ţafīlah","native":null,"lat":"30.83752000","lon":"35.60442000"},{"id":63157,"name":"Buşayrā","native":null,"lat":"30.73256000","lon":"35.60943000"}]},{"id":967,"name":"Zarqa","native":null,"cities":[{"id":63130,"name":"Al Azraq ash Shamālī","native":null,"lat":"31.88209000","lon":"36.83017000"},{"id":63181,"name":"Russeifa","native":null,"lat":"32.01778000","lon":"36.04639000"},{"id":63196,"name":"Zarqa","native":null,"lat":"32.07275000","lon":"36.08796000"}]}]