[{"id":181,"name":"Baringo","native":null,"cities":[{"id":64774,"name":"Baringo","native":null,"lat":"0.46667000","lon":"35.96667000"},{"id":64781,"name":"Eldama Ravine","native":null,"lat":"0.05196000","lon":"35.72734000"},{"id":64790,"name":"Kabarnet","native":null,"lat":"0.49194000","lon":"35.74303000"}]},{"id":210,"name":"Bomet","native":null,"cities":[{"id":64870,"name":"Sotik","native":null,"lat":"-0.69069000","lon":"35.11102000"},{"id":64871,"name":"Sotik Post","native":null,"lat":"-0.78129000","lon":"35.34156000"}]},{"id":168,"name":"Bungoma","native":null,"cities":[{"id":64776,"name":"Bungoma","native":null,"lat":"0.56350000","lon":"34.56055000"},{"id":64827,"name":"Malikisi","native":null,"lat":"0.67694000","lon":"34.42167000"},{"id":64877,"name":"Webuye","native":null,"lat":"0.60040000","lon":"34.77119000"}]},{"id":161,"name":"Busia","native":null,"cities":[{"id":64777,"name":"Busia","native":null,"lat":"0.46005000","lon":"34.11169000"},{"id":64821,"name":"Luanda","native":null,"lat":"0.31354000","lon":"34.07146000"},{"id":64822,"name":"Lugulu","native":null,"lat":"0.39337000","lon":"34.30399000"},{"id":64826,"name":"Malaba","native":null,"lat":"0.63513000","lon":"34.28165000"},{"id":64848,"name":"Nambare","native":null,"lat":"0.45813000","lon":"34.25353000"},{"id":64861,"name":"Port Victoria","native":null,"lat":"0.09809000","lon":"33.97248000"}]},{"id":201,"name":"Elgeyo-Marakwet","native":null,"cities":[]},{"id":163,"name":"Embu","native":null,"cities":[{"id":64783,"name":"Embu","native":null,"lat":"-0.53987000","lon":"37.45743000"}]},{"id":196,"name":"Garissa","native":null,"cities":[{"id":64784,"name":"Garissa","native":null,"lat":"-0.45275000","lon":"39.64601000"}]},{"id":195,"name":"Homa Bay","native":null,"cities":[{"id":64787,"name":"Homa Bay","native":null,"lat":"-0.52731000","lon":"34.45714000"},{"id":64860,"name":"Oyugis","native":null,"lat":"-0.50974000","lon":"34.73067000"},{"id":64863,"name":"Rachuonyo District","native":null,"lat":"-0.44000000","lon":"34.73900000"}]},{"id":170,"name":"Isiolo","native":null,"cities":[{"id":64788,"name":"Isiolo","native":null,"lat":"0.35462000","lon":"37.58218000"}]},{"id":197,"name":"Kajiado","native":null,"cities":[{"id":64791,"name":"Kajiado","native":null,"lat":"-1.85238000","lon":"36.77683000"},{"id":64824,"name":"Magadi","native":null,"lat":"-1.90122000","lon":"36.28700000"},{"id":64853,"name":"Ngong","native":null,"lat":"-1.35270000","lon":"36.66990000"}]},{"id":158,"name":"Kakamega","native":null,"cities":[{"id":64778,"name":"Butere","native":null,"lat":"0.20694000","lon":"34.49006000"},{"id":64792,"name":"Kakamega","native":null,"lat":"0.28422000","lon":"34.75229000"},{"id":64842,"name":"Mumias","native":null,"lat":"0.33474000","lon":"34.48796000"}]},{"id":193,"name":"Kericho","native":null,"cities":[{"id":64799,"name":"Kericho","native":null,"lat":"-0.36774000","lon":"35.28314000"},{"id":64809,"name":"Kipkelion","native":null,"lat":"-0.19982000","lon":"35.46735000"},{"id":64818,"name":"Litein","native":null,"lat":"-0.58249000","lon":"35.18969000"},{"id":64820,"name":"Londiani","native":null,"lat":"-0.16552000","lon":"35.59359000"}]},{"id":199,"name":"Kiambu","native":null,"cities":[{"id":64802,"name":"Kiambu","native":null,"lat":"-1.17139000","lon":"36.83556000"},{"id":64805,"name":"Kikuyu","native":null,"lat":"-1.24627000","lon":"36.66291000"},{"id":64817,"name":"Limuru","native":null,"lat":"-1.11360000","lon":"36.64205000"},{"id":64874,"name":"Thika","native":null,"lat":"-1.03326000","lon":"37.06933000"}]},{"id":174,"name":"Kilifi","native":null,"cities":[{"id":64789,"name":"Iten","native":null,"lat":"0.67028000","lon":"35.50806000"},{"id":64797,"name":"Kapsowar","native":null,"lat":"0.97890000","lon":"35.55854000"},{"id":64806,"name":"Kilifi","native":null,"lat":"-3.63045000","lon":"39.84992000"},{"id":64828,"name":"Malindi","native":null,"lat":"-3.21799000","lon":"40.11692000"},{"id":64832,"name":"Mariakani","native":null,"lat":"-3.86261000","lon":"39.47458000"},{"id":64872,"name":"Takaungu","native":null,"lat":"-3.68350000","lon":"39.85687000"}]},{"id":167,"name":"Kirinyaga","native":null,"cities":[{"id":64801,"name":"Kerugoya","native":null,"lat":"-0.49887000","lon":"37.28031000"},{"id":64866,"name":"Sagana","native":null,"lat":"-0.66806000","lon":"37.20875000"}]},{"id":159,"name":"Kisii","native":null,"cities":[{"id":64810,"name":"Kisii","native":null,"lat":"-0.68174000","lon":"34.76666000"},{"id":64857,"name":"Ogembo","native":null,"lat":"-0.80116000","lon":"34.72579000"}]},{"id":171,"name":"Kisumu","native":null,"cities":[{"id":64772,"name":"Ahero","native":null,"lat":"-0.17359000","lon":"34.91890000"},{"id":64811,"name":"Kisumu","native":null,"lat":"-0.10221000","lon":"34.76171000"},{"id":64841,"name":"Muhoroni","native":null,"lat":"-0.15816000","lon":"35.19645000"}]},{"id":211,"name":"Kitui","native":null,"cities":[{"id":64813,"name":"Kitui","native":null,"lat":"-1.36696000","lon":"38.01055000"},{"id":64844,"name":"Mwingi","native":null,"lat":"-0.93605000","lon":"38.05955000"}]},{"id":173,"name":"Kwale","native":null,"cities":[{"id":64785,"name":"Gazi","native":null,"lat":"-4.42402000","lon":"39.50588000"},{"id":64807,"name":"Kinango","native":null,"lat":"-4.13723000","lon":"39.31528000"},{"id":64815,"name":"Kwale","native":null,"lat":"-4.17375000","lon":"39.45206000"},{"id":64867,"name":"Sawa Sawa","native":null,"lat":"-4.47166000","lon":"39.48463000"},{"id":64868,"name":"Shimoni","native":null,"lat":"-4.64756000","lon":"39.38175000"}]},{"id":164,"name":"Laikipia","native":null,"cities":[{"id":64850,"name":"Nanyuki","native":null,"lat":"0.00624000","lon":"37.07398000"},{"id":64854,"name":"Nyahururu","native":null,"lat":"0.03813000","lon":"36.36339000"},{"id":64865,"name":"Rumuruti","native":null,"lat":"0.27250000","lon":"36.53806000"}]},{"id":166,"name":"Lamu","native":null,"cities":[{"id":64816,"name":"Lamu","native":null,"lat":"-2.27169000","lon":"40.90201000"},{"id":64878,"name":"Witu","native":null,"lat":"-2.38892000","lon":"40.43827000"}]},{"id":184,"name":"Machakos","native":null,"cities":[{"id":64773,"name":"Athi River","native":null,"lat":"-1.45630000","lon":"36.97826000"},{"id":64794,"name":"Kangundo","native":null,"lat":"-1.30342000","lon":"37.34813000"},{"id":64814,"name":"Konza","native":null,"lat":"-1.73947000","lon":"37.13195000"},{"id":64823,"name":"Machakos","native":null,"lat":"-1.52233000","lon":"37.26521000"}]},{"id":188,"name":"Makueni","native":null,"cities":[{"id":64825,"name":"Makueni Boma","native":null,"lat":"-1.80388000","lon":"37.62405000"},{"id":64840,"name":"Mtito Andei","native":null,"lat":"-2.68987000","lon":"38.16687000"},{"id":64879,"name":"Wote","native":null,"lat":"-1.78079000","lon":"37.62882000"}]},{"id":187,"name":"Mandera","native":null,"cities":[{"id":64829,"name":"Mandera","native":null,"lat":"3.93726000","lon":"41.85688000"}]},{"id":194,"name":"Marsabit","native":null,"cities":[{"id":64833,"name":"Marsabit","native":null,"lat":"2.33468000","lon":"37.99086000"},{"id":64839,"name":"Moyale","native":null,"lat":"3.52661000","lon":"39.05610000"}]},{"id":198,"name":"Meru","native":null,"cities":[{"id":64834,"name":"Maua","native":null,"lat":"0.23320000","lon":"37.94086000"},{"id":64835,"name":"Meru","native":null,"lat":"0.04626000","lon":"37.65587000"}]},{"id":190,"name":"Migori","native":null,"cities":[{"id":64803,"name":"Kihancha","native":null,"lat":"-1.19347000","lon":"34.61967000"},{"id":64836,"name":"Migori","native":null,"lat":"-1.06343000","lon":"34.47313000"}]},{"id":200,"name":"Mombasa","native":null,"cities":[{"id":64838,"name":"Mombasa","native":null,"lat":"-4.05466000","lon":"39.66359000"}]},{"id":178,"name":"Murang'a","native":null,"cities":[{"id":64793,"name":"Kangema","native":null,"lat":"-0.68553000","lon":"36.96463000"},{"id":64798,"name":"Karuri","native":null,"lat":"-0.70000000","lon":"37.18333000"},{"id":64830,"name":"Maragua","native":null,"lat":"-0.79602000","lon":"37.13292000"},{"id":64843,"name":"Murang’a","native":null,"lat":"-0.72104000","lon":"37.15259000"}]},{"id":191,"name":"Nairobi City","native":null,"cities":[{"id":64845,"name":"Nairobi","native":null,"lat":"-1.28333000","lon":"36.81667000"},{"id":64862,"name":"Pumwani","native":null,"lat":"-1.28333000","lon":"36.85000000"}]},{"id":203,"name":"Nakuru","native":null,"cities":[{"id":64804,"name":"Kijabe","native":null,"lat":"-0.93334000","lon":"36.57233000"},{"id":64837,"name":"Molo","native":null,"lat":"-0.24849000","lon":"35.73194000"},{"id":64846,"name":"Naivasha","native":null,"lat":"-0.71383000","lon":"36.43261000"},{"id":64847,"name":"Nakuru","native":null,"lat":"-0.30719000","lon":"36.07225000"},{"id":64864,"name":"Rongai","native":null,"lat":"-0.17344000","lon":"35.86313000"}]},{"id":165,"name":"Nandi","native":null,"cities":[{"id":64796,"name":"Kapsabet","native":null,"lat":"0.20387000","lon":"35.10500000"},{"id":64849,"name":"Nandi Hills","native":null,"lat":"0.10366000","lon":"35.18426000"}]},{"id":175,"name":"Narok","native":null,"cities":[{"id":64852,"name":"Narok","native":null,"lat":"-1.08083000","lon":"35.87111000"}]},{"id":209,"name":"Nyamira","native":null,"cities":[{"id":64800,"name":"Keroka","native":null,"lat":"-0.77612000","lon":"34.94678000"},{"id":64855,"name":"Nyamira","native":null,"lat":"-0.56333000","lon":"34.93583000"}]},{"id":192,"name":"Nyandarua","native":null,"cities":[{"id":64858,"name":"Ol Kalou","native":null,"lat":"-0.27088000","lon":"36.37917000"}]},{"id":180,"name":"Nyeri","native":null,"cities":[{"id":64851,"name":"Naro Moru","native":null,"lat":"-0.16357000","lon":"37.01773000"},{"id":64856,"name":"Nyeri","native":null,"lat":"-0.42013000","lon":"36.94759000"},{"id":64859,"name":"Othaya","native":null,"lat":"-0.54655000","lon":"36.93178000"}]},{"id":207,"name":"Samburu","native":null,"cities":[{"id":64831,"name":"Maralal","native":null,"lat":"1.09667000","lon":"36.69806000"}]},{"id":186,"name":"Siaya","native":null,"cities":[{"id":64775,"name":"Bondo","native":null,"lat":"0.23522000","lon":"34.28086000"},{"id":64869,"name":"Siaya","native":null,"lat":"0.06070000","lon":"34.28806000"},{"id":64881,"name":"Yala","native":null,"lat":"0.09438000","lon":"34.53602000"}]},{"id":176,"name":"Taita–Taveta","native":null,"cities":[]},{"id":205,"name":"Tana River","native":null,"cities":[{"id":64786,"name":"Hola","native":null,"lat":"-1.48256000","lon":"40.03341000"},{"id":64808,"name":"Kipini","native":null,"lat":"-2.52565000","lon":"40.52620000"}]},{"id":185,"name":"Tharaka-Nithi","native":null,"cities":[{"id":64780,"name":"Chuka","native":null,"lat":"-0.33316000","lon":"37.64587000"}]},{"id":183,"name":"Trans Nzoia","native":null,"cities":[{"id":64812,"name":"Kitale","native":null,"lat":"1.01572000","lon":"35.00622000"}]},{"id":206,"name":"Turkana","native":null,"cities":[{"id":64819,"name":"Lodwar","native":null,"lat":"3.11988000","lon":"35.59642000"}]},{"id":169,"name":"Uasin Gishu","native":null,"cities":[{"id":64782,"name":"Eldoret","native":null,"lat":"0.52036000","lon":"35.26993000"}]},{"id":202,"name":"Vihiga","native":null,"cities":[]},{"id":182,"name":"Wajir","native":null,"cities":[{"id":64876,"name":"Wajir","native":null,"lat":"1.74710000","lon":"40.05732000"}]},{"id":208,"name":"West Pokot","native":null,"cities":[{"id":64779,"name":"Chepareria","native":null,"lat":"1.30583000","lon":"35.20365000"},{"id":64795,"name":"Kapenguria","native":null,"lat":"1.23889000","lon":"35.11194000"},{"id":64873,"name":"Taveta","native":null,"lat":"-3.39879000","lon":"37.68336000"},{"id":64875,"name":"Voi","native":null,"lat":"-3.39605000","lon":"38.55609000"},{"id":64880,"name":"Wundanyi","native":null,"lat":"-3.39642000","lon":"38.35729000"}]}]