[{"name":"Baringo","native":null,"cities":[{"name":"Baringo","native":null,"lat":"0.46667000","lon":"35.96667000"},{"name":"Eldama Ravine","native":null,"lat":"0.05196000","lon":"35.72734000"},{"name":"Kabarnet","native":null,"lat":"0.49194000","lon":"35.74303000"}]},{"name":"Bomet","native":null,"cities":[{"name":"Sotik","native":null,"lat":"-0.69069000","lon":"35.11102000"},{"name":"Sotik Post","native":null,"lat":"-0.78129000","lon":"35.34156000"}]},{"name":"Bungoma","native":null,"cities":[{"name":"Bungoma","native":null,"lat":"0.56350000","lon":"34.56055000"},{"name":"Malikisi","native":null,"lat":"0.67694000","lon":"34.42167000"},{"name":"Webuye","native":null,"lat":"0.60040000","lon":"34.77119000"}]},{"name":"Busia","native":null,"cities":[{"name":"Busia","native":null,"lat":"0.46005000","lon":"34.11169000"},{"name":"Luanda","native":null,"lat":"0.31354000","lon":"34.07146000"},{"name":"Lugulu","native":null,"lat":"0.39337000","lon":"34.30399000"},{"name":"Malaba","native":null,"lat":"0.63513000","lon":"34.28165000"},{"name":"Nambare","native":null,"lat":"0.45813000","lon":"34.25353000"},{"name":"Port Victoria","native":null,"lat":"0.09809000","lon":"33.97248000"}]},{"name":"Elgeyo-Marakwet","native":null,"cities":[]},{"name":"Embu","native":null,"cities":[{"name":"Embu","native":null,"lat":"-0.53987000","lon":"37.45743000"}]},{"name":"Garissa","native":null,"cities":[{"name":"Garissa","native":null,"lat":"-0.45275000","lon":"39.64601000"}]},{"name":"Homa Bay","native":null,"cities":[{"name":"Homa Bay","native":null,"lat":"-0.52731000","lon":"34.45714000"},{"name":"Oyugis","native":null,"lat":"-0.50974000","lon":"34.73067000"},{"name":"Rachuonyo District","native":null,"lat":"-0.44000000","lon":"34.73900000"}]},{"name":"Isiolo","native":null,"cities":[{"name":"Isiolo","native":null,"lat":"0.35462000","lon":"37.58218000"}]},{"name":"Kajiado","native":null,"cities":[{"name":"Kajiado","native":null,"lat":"-1.85238000","lon":"36.77683000"},{"name":"Magadi","native":null,"lat":"-1.90122000","lon":"36.28700000"},{"name":"Ngong","native":null,"lat":"-1.35270000","lon":"36.66990000"}]},{"name":"Kakamega","native":null,"cities":[{"name":"Butere","native":null,"lat":"0.20694000","lon":"34.49006000"},{"name":"Kakamega","native":null,"lat":"0.28422000","lon":"34.75229000"},{"name":"Mumias","native":null,"lat":"0.33474000","lon":"34.48796000"}]},{"name":"Kericho","native":null,"cities":[{"name":"Kericho","native":null,"lat":"-0.36774000","lon":"35.28314000"},{"name":"Kipkelion","native":null,"lat":"-0.19982000","lon":"35.46735000"},{"name":"Litein","native":null,"lat":"-0.58249000","lon":"35.18969000"},{"name":"Londiani","native":null,"lat":"-0.16552000","lon":"35.59359000"}]},{"name":"Kiambu","native":null,"cities":[{"name":"Kiambu","native":null,"lat":"-1.17139000","lon":"36.83556000"},{"name":"Kikuyu","native":null,"lat":"-1.24627000","lon":"36.66291000"},{"name":"Limuru","native":null,"lat":"-1.11360000","lon":"36.64205000"},{"name":"Thika","native":null,"lat":"-1.03326000","lon":"37.06933000"}]},{"name":"Kilifi","native":null,"cities":[{"name":"Iten","native":null,"lat":"0.67028000","lon":"35.50806000"},{"name":"Kapsowar","native":null,"lat":"0.97890000","lon":"35.55854000"},{"name":"Kilifi","native":null,"lat":"-3.63045000","lon":"39.84992000"},{"name":"Malindi","native":null,"lat":"-3.21799000","lon":"40.11692000"},{"name":"Mariakani","native":null,"lat":"-3.86261000","lon":"39.47458000"},{"name":"Takaungu","native":null,"lat":"-3.68350000","lon":"39.85687000"}]},{"name":"Kirinyaga","native":null,"cities":[{"name":"Kerugoya","native":null,"lat":"-0.49887000","lon":"37.28031000"},{"name":"Sagana","native":null,"lat":"-0.66806000","lon":"37.20875000"}]},{"name":"Kisii","native":null,"cities":[{"name":"Kisii","native":null,"lat":"-0.68174000","lon":"34.76666000"},{"name":"Ogembo","native":null,"lat":"-0.80116000","lon":"34.72579000"}]},{"name":"Kisumu","native":null,"cities":[{"name":"Ahero","native":null,"lat":"-0.17359000","lon":"34.91890000"},{"name":"Kisumu","native":null,"lat":"-0.10221000","lon":"34.76171000"},{"name":"Muhoroni","native":null,"lat":"-0.15816000","lon":"35.19645000"}]},{"name":"Kitui","native":null,"cities":[{"name":"Kitui","native":null,"lat":"-1.36696000","lon":"38.01055000"},{"name":"Mwingi","native":null,"lat":"-0.93605000","lon":"38.05955000"}]},{"name":"Kwale","native":null,"cities":[{"name":"Gazi","native":null,"lat":"-4.42402000","lon":"39.50588000"},{"name":"Kinango","native":null,"lat":"-4.13723000","lon":"39.31528000"},{"name":"Kwale","native":null,"lat":"-4.17375000","lon":"39.45206000"},{"name":"Sawa Sawa","native":null,"lat":"-4.47166000","lon":"39.48463000"},{"name":"Shimoni","native":null,"lat":"-4.64756000","lon":"39.38175000"}]},{"name":"Laikipia","native":null,"cities":[{"name":"Nanyuki","native":null,"lat":"0.00624000","lon":"37.07398000"},{"name":"Nyahururu","native":null,"lat":"0.03813000","lon":"36.36339000"},{"name":"Rumuruti","native":null,"lat":"0.27250000","lon":"36.53806000"}]},{"name":"Lamu","native":null,"cities":[{"name":"Lamu","native":null,"lat":"-2.27169000","lon":"40.90201000"},{"name":"Witu","native":null,"lat":"-2.38892000","lon":"40.43827000"}]},{"name":"Machakos","native":null,"cities":[{"name":"Athi River","native":null,"lat":"-1.45630000","lon":"36.97826000"},{"name":"Kangundo","native":null,"lat":"-1.30342000","lon":"37.34813000"},{"name":"Konza","native":null,"lat":"-1.73947000","lon":"37.13195000"},{"name":"Machakos","native":null,"lat":"-1.52233000","lon":"37.26521000"}]},{"name":"Makueni","native":null,"cities":[{"name":"Makueni Boma","native":null,"lat":"-1.80388000","lon":"37.62405000"},{"name":"Mtito Andei","native":null,"lat":"-2.68987000","lon":"38.16687000"},{"name":"Wote","native":null,"lat":"-1.78079000","lon":"37.62882000"}]},{"name":"Mandera","native":null,"cities":[{"name":"Mandera","native":null,"lat":"3.93726000","lon":"41.85688000"}]},{"name":"Marsabit","native":null,"cities":[{"name":"Marsabit","native":null,"lat":"2.33468000","lon":"37.99086000"},{"name":"Moyale","native":null,"lat":"3.52661000","lon":"39.05610000"}]},{"name":"Meru","native":null,"cities":[{"name":"Maua","native":null,"lat":"0.23320000","lon":"37.94086000"},{"name":"Meru","native":null,"lat":"0.04626000","lon":"37.65587000"}]},{"name":"Migori","native":null,"cities":[{"name":"Kihancha","native":null,"lat":"-1.19347000","lon":"34.61967000"},{"name":"Migori","native":null,"lat":"-1.06343000","lon":"34.47313000"}]},{"name":"Mombasa","native":null,"cities":[{"name":"Mombasa","native":null,"lat":"-4.05466000","lon":"39.66359000"}]},{"name":"Murang'a","native":null,"cities":[{"name":"Kangema","native":null,"lat":"-0.68553000","lon":"36.96463000"},{"name":"Karuri","native":null,"lat":"-0.70000000","lon":"37.18333000"},{"name":"Maragua","native":null,"lat":"-0.79602000","lon":"37.13292000"},{"name":"Murang’a","native":null,"lat":"-0.72104000","lon":"37.15259000"}]},{"name":"Nairobi City","native":null,"cities":[{"name":"Nairobi","native":null,"lat":"-1.28333000","lon":"36.81667000"},{"name":"Pumwani","native":null,"lat":"-1.28333000","lon":"36.85000000"}]},{"name":"Nakuru","native":null,"cities":[{"name":"Kijabe","native":null,"lat":"-0.93334000","lon":"36.57233000"},{"name":"Molo","native":null,"lat":"-0.24849000","lon":"35.73194000"},{"name":"Naivasha","native":null,"lat":"-0.71383000","lon":"36.43261000"},{"name":"Nakuru","native":null,"lat":"-0.30719000","lon":"36.07225000"},{"name":"Rongai","native":null,"lat":"-0.17344000","lon":"35.86313000"}]},{"name":"Nandi","native":null,"cities":[{"name":"Kapsabet","native":null,"lat":"0.20387000","lon":"35.10500000"},{"name":"Nandi Hills","native":null,"lat":"0.10366000","lon":"35.18426000"}]},{"name":"Narok","native":null,"cities":[{"name":"Narok","native":null,"lat":"-1.08083000","lon":"35.87111000"}]},{"name":"Nyamira","native":null,"cities":[{"name":"Keroka","native":null,"lat":"-0.77612000","lon":"34.94678000"},{"name":"Nyamira","native":null,"lat":"-0.56333000","lon":"34.93583000"}]},{"name":"Nyandarua","native":null,"cities":[{"name":"Ol Kalou","native":null,"lat":"-0.27088000","lon":"36.37917000"}]},{"name":"Nyeri","native":null,"cities":[{"name":"Naro Moru","native":null,"lat":"-0.16357000","lon":"37.01773000"},{"name":"Nyeri","native":null,"lat":"-0.42013000","lon":"36.94759000"},{"name":"Othaya","native":null,"lat":"-0.54655000","lon":"36.93178000"}]},{"name":"Samburu","native":null,"cities":[{"name":"Maralal","native":null,"lat":"1.09667000","lon":"36.69806000"}]},{"name":"Siaya","native":null,"cities":[{"name":"Bondo","native":null,"lat":"0.23522000","lon":"34.28086000"},{"name":"Siaya","native":null,"lat":"0.06070000","lon":"34.28806000"},{"name":"Yala","native":null,"lat":"0.09438000","lon":"34.53602000"}]},{"name":"Taita–Taveta","native":null,"cities":[]},{"name":"Tana River","native":null,"cities":[{"name":"Hola","native":null,"lat":"-1.48256000","lon":"40.03341000"},{"name":"Kipini","native":null,"lat":"-2.52565000","lon":"40.52620000"}]},{"name":"Tharaka-Nithi","native":null,"cities":[{"name":"Chuka","native":null,"lat":"-0.33316000","lon":"37.64587000"}]},{"name":"Trans Nzoia","native":null,"cities":[{"name":"Kitale","native":null,"lat":"1.01572000","lon":"35.00622000"}]},{"name":"Turkana","native":null,"cities":[{"name":"Lodwar","native":null,"lat":"3.11988000","lon":"35.59642000"}]},{"name":"Uasin Gishu","native":null,"cities":[{"name":"Eldoret","native":null,"lat":"0.52036000","lon":"35.26993000"}]},{"name":"Vihiga","native":null,"cities":[]},{"name":"Wajir","native":null,"cities":[{"name":"Wajir","native":null,"lat":"1.74710000","lon":"40.05732000"}]},{"name":"West Pokot","native":null,"cities":[{"name":"Chepareria","native":null,"lat":"1.30583000","lon":"35.20365000"},{"name":"Kapenguria","native":null,"lat":"1.23889000","lon":"35.11194000"},{"name":"Taveta","native":null,"lat":"-3.39879000","lon":"37.68336000"},{"name":"Voi","native":null,"lat":"-3.39605000","lon":"38.55609000"},{"name":"Wundanyi","native":null,"lat":"-3.39642000","lon":"38.35729000"}]}]