[{"id":3984,"name":"Banteay Meanchey","native":null,"cities":[{"id":64967,"name":"Mongkol Borei","native":null,"lat":"13.45531000","lon":"102.99186000"},{"id":64969,"name":"Paoy Paet","native":null,"lat":"13.65805000","lon":"102.56365000"},{"id":64981,"name":"Sisophon","native":null,"lat":"13.58588000","lon":"102.97369000"},{"id":65009,"name":"Srŏk Malai","native":null,"lat":"13.49902000","lon":"102.60164000"},{"id":65022,"name":"Srŏk Svay Chék","native":null,"lat":"13.81305000","lon":"102.95269000"}]},{"id":3976,"name":"Battambang","native":null,"cities":[{"id":64940,"name":"Battambang","native":null,"lat":"13.10271000","lon":"103.19822000"},{"id":65028,"name":"Srŏk Âk Phnŭm","native":null,"lat":"13.23621000","lon":"103.45894000"},{"id":64988,"name":"Srŏk Banăn","native":null,"lat":"12.97067000","lon":"103.04742000"},{"id":64995,"name":"Srŏk Bâvĭl","native":null,"lat":"13.23601000","lon":"102.82910000"},{"id":65017,"name":"Srŏk Rotanak Mondol","native":null,"lat":"12.84048000","lon":"102.88700000"}]},{"id":3991,"name":"Kampong Cham","native":null,"cities":[{"id":64941,"name":"Cheung Prey","native":null,"lat":"12.10000000","lon":"105.07000000"},{"id":64944,"name":"Kampong Cham","native":null,"lat":"11.98000000","lon":"105.44500000"},{"id":64990,"name":"Srŏk Bathéay","native":null,"lat":"12.02986000","lon":"104.93171000"}]},{"id":3979,"name":"Kampong Chhnang","native":null,"cities":[{"id":64939,"name":"Baribour","native":null,"lat":"12.43000000","lon":"104.47000000"},{"id":64945,"name":"Kampong Chhnang","native":null,"lat":"12.26000000","lon":"104.67000000"},{"id":64974,"name":"Rolea B'ier","native":null,"lat":"12.21000000","lon":"104.61000000"},{"id":64997,"name":"Srŏk Chol Kiri","native":null,"lat":"12.15861000","lon":"104.82287000"},{"id":65019,"name":"Srŏk Sameakki Mean Chey","native":null,"lat":"11.86788000","lon":"104.55549000"}]},{"id":3988,"name":"Kampong Speu","native":null,"cities":[{"id":64946,"name":"Kampong Speu","native":null,"lat":"11.45332000","lon":"104.52085000"},{"id":64962,"name":"Krŏng Chbar Mon","native":null,"lat":"11.47091000","lon":"104.50655000"},{"id":64989,"name":"Srŏk Basedth","native":null,"lat":"11.18432000","lon":"104.53584000"},{"id":65008,"name":"Srŏk Kông Pĭsei","native":null,"lat":"11.31648000","lon":"104.65992000"},{"id":65032,"name":"Srŏk Ŏdŏngk","native":null,"lat":"11.66845000","lon":"104.61224000"}]},{"id":5070,"name":"Kampong Thom","native":null,"cities":[]},{"id":3981,"name":"Kampot","native":null,"cities":[{"id":64935,"name":"Angkor Chey","native":null,"lat":"10.76667000","lon":"104.65000000"},{"id":64938,"name":"Banteay Meas","native":null,"lat":"10.61667000","lon":"104.53333000"},{"id":64942,"name":"Chhouk District","native":null,"lat":"10.81667000","lon":"104.45000000"},{"id":64943,"name":"Kampong Bay","native":null,"lat":"10.59554000","lon":"104.17136000"},{"id":64947,"name":"Kampong Tranch","native":null,"lat":"10.55000000","lon":"104.46667000"},{"id":64948,"name":"Kampot","native":null,"lat":"10.61041000","lon":"104.18145000"},{"id":64998,"name":"Srŏk Chŭm Kiri","native":null,"lat":"11.00540000","lon":"104.44207000"},{"id":65001,"name":"Srŏk Dângtóng","native":null,"lat":"10.70733000","lon":"104.42229000"},{"id":64986,"name":"Srok Tuek Chhou","native":null,"lat":"10.74557000","lon":"104.11013000"}]},{"id":3983,"name":"Kandal","native":null,"cities":[{"id":64965,"name":"Krŏng Ta Khmau","native":null,"lat":"11.45474000","lon":"104.94350000"},{"id":65003,"name":"Srŏk Khsăch Kândal","native":null,"lat":"11.69224000","lon":"105.03732000"},{"id":65037,"name":"Ta Khmau","native":null,"lat":"11.48333000","lon":"104.95000000"}]},{"id":3978,"name":"Kep","native":null,"cities":[{"id":64961,"name":"Krong Kep","native":null,"lat":"10.48291000","lon":"104.31672000"},{"id":65000,"name":"Srŏk Dâmnăk Châng’aeur","native":null,"lat":"10.53394000","lon":"104.34855000"}]},{"id":3982,"name":"Koh Kong","native":null,"cities":[{"id":64957,"name":"Koh Kong","native":null,"lat":"11.61531000","lon":"102.98380000"},{"id":64982,"name":"Smach Mean Chey","native":null,"lat":"11.54665000","lon":"103.03569000"},{"id":64984,"name":"Srae Ambel","native":null,"lat":"11.10968000","lon":"103.76226000"},{"id":64991,"name":"Srŏk Batum Sakôr","native":null,"lat":"11.11465000","lon":"103.38993000"},{"id":65011,"name":"Srŏk Môndôl Seima","native":null,"lat":"11.81292000","lon":"103.01159000"}]},{"id":3986,"name":"Kratie","native":null,"cities":[{"id":64958,"name":"Kracheh","native":null,"lat":"12.57000000","lon":"106.20000000"},{"id":64960,"name":"Kratié","native":null,"lat":"12.48811000","lon":"106.01879000"},{"id":64983,"name":"Snuol","native":null,"lat":"12.19373000","lon":"106.47361000"}]},{"id":3985,"name":"Mondulkiri","native":null,"cities":[{"id":64964,"name":"Krŏng Sênmônoŭrôm","native":null,"lat":"12.50480000","lon":"107.15525000"},{"id":64978,"name":"Sen Monorom","native":null,"lat":"12.45583000","lon":"107.18811000"},{"id":65002,"name":"Srŏk Kaev Seima","native":null,"lat":"12.41722000","lon":"106.77025000"},{"id":65014,"name":"Srŏk Pech Chreada","native":null,"lat":"12.72780000","lon":"107.09480000"}]},{"id":3987,"name":"Oddar Meanchey","native":null,"cities":[{"id":64976,"name":"Samraong","native":null,"lat":"14.18175000","lon":"103.51761000"},{"id":64994,"name":"Srŏk Bântéay Âmpĭl","native":null,"lat":"14.18590000","lon":"103.25925000"},{"id":65023,"name":"Srŏk Sâmraông","native":null,"lat":"14.25039000","lon":"103.62739000"},{"id":65026,"name":"Srŏk Trâpeăng Prasat","native":null,"lat":"14.25809000","lon":"104.30835000"}]},{"id":3980,"name":"Pailin","native":null,"cities":[{"id":64956,"name":"Khan Sala Krau","native":null,"lat":"12.97984000","lon":"102.63957000"},{"id":64968,"name":"Pailin","native":null,"lat":"12.84895000","lon":"102.60928000"}]},{"id":3994,"name":"Phnom Penh","native":null,"cities":[{"id":64949,"name":"Khan 7 Makara","native":null,"lat":"11.56254000","lon":"104.91405000"},{"id":64950,"name":"Khan Châmkar Mon","native":null,"lat":"11.54390000","lon":"104.92175000"},{"id":64952,"name":"Khan Dângkaô","native":null,"lat":"11.52457000","lon":"104.83944000"},{"id":64951,"name":"Khan Duŏn Pénh","native":null,"lat":"11.57561000","lon":"104.92025000"},{"id":64953,"name":"Khan Méan Chey","native":null,"lat":"11.51976000","lon":"104.95467000"},{"id":64954,"name":"Khan Russey Keo","native":null,"lat":"11.61946000","lon":"104.90990000"},{"id":64955,"name":"Khan Saen Sokh","native":null,"lat":"11.61289000","lon":"104.86078000"},{"id":64970,"name":"Phnom Penh","native":null,"lat":"11.56245000","lon":"104.91601000"}]},{"id":3973,"name":"Preah Vihear","native":null,"cities":[{"id":64977,"name":"Sangkom Thmei","native":null,"lat":"13.47395000","lon":"104.77051000"},{"id":64999,"name":"Srŏk Ch’êh Sên","native":null,"lat":"13.58215000","lon":"105.34533000"},{"id":64996,"name":"Srŏk Chhêb","native":null,"lat":"13.91077000","lon":"105.46180000"},{"id":65005,"name":"Srŏk Kulén","native":null,"lat":"13.78597000","lon":"104.61052000"},{"id":65018,"name":"Srŏk Rôviĕng","native":null,"lat":"13.35105000","lon":"105.09956000"},{"id":65025,"name":"Srŏk Tbêng Méanchey","native":null,"lat":"13.78622000","lon":"105.01586000"},{"id":65039,"name":"Tbeng Meanchey","native":null,"lat":"13.80731000","lon":"104.98046000"}]},{"id":3974,"name":"Prey Veng","native":null,"cities":[{"id":64972,"name":"Prey Veng","native":null,"lat":"11.48682000","lon":"105.32533000"},{"id":65006,"name":"Srŏk Kâmpóng Léav","native":null,"lat":"11.50970000","lon":"105.30110000"},{"id":65010,"name":"Srŏk Mésang","native":null,"lat":"11.35528000","lon":"105.57235000"},{"id":65016,"name":"Srŏk Preăh Sdéch","native":null,"lat":"11.08690000","lon":"105.37497000"}]},{"id":3977,"name":"Pursat","native":null,"cities":[{"id":64936,"name":"Bakan","native":null,"lat":"12.78000000","lon":"103.79000000"},{"id":64959,"name":"Krakor","native":null,"lat":"12.48000000","lon":"104.19000000"},{"id":64973,"name":"Pursat","native":null,"lat":"12.53878000","lon":"103.91920000"},{"id":64975,"name":"Sampov Meas","native":null,"lat":"12.47055000","lon":"103.91817000"},{"id":65007,"name":"Srŏk Kândiĕng","native":null,"lat":"12.71245000","lon":"104.02592000"},{"id":65027,"name":"Srŏk Véal Vêng","native":null,"lat":"12.24230000","lon":"103.13444000"}]},{"id":3990,"name":"Ratanakiri","native":null,"cities":[{"id":64937,"name":"Banlung","native":null,"lat":"13.73939000","lon":"106.98727000"},{"id":64966,"name":"Lumphat","native":null,"lat":"13.49146000","lon":"106.98022000"},{"id":65029,"name":"Srŏk Ândong Méas","native":null,"lat":"13.93352000","lon":"107.31155000"},{"id":64993,"name":"Srŏk Bâ Kêv","native":null,"lat":"13.70749000","lon":"107.19442000"},{"id":64987,"name":"Srŏk Ban Lŭng","native":null,"lat":"13.68200000","lon":"107.03025000"},{"id":65004,"name":"Srŏk Koun Mom","native":null,"lat":"13.51772000","lon":"106.75142000"},{"id":65012,"name":"Srŏk Ou Chum","native":null,"lat":"13.84069000","lon":"107.03469000"},{"id":65013,"name":"Srŏk Ou Ya Dav","native":null,"lat":"13.54328000","lon":"107.44636000"},{"id":65024,"name":"Srŏk Ta Vêng","native":null,"lat":"14.29192000","lon":"107.24031000"}]},{"id":3992,"name":"Siem Reap","native":null,"cities":[{"id":64979,"name":"Siem Reap","native":null,"lat":"13.36179000","lon":"103.86056000"},{"id":65031,"name":"Srŏk Ângkôr Thum","native":null,"lat":"13.57881000","lon":"103.85645000"},{"id":65015,"name":"Srŏk Prasat Bakong","native":null,"lat":"13.21031000","lon":"103.97689000"},{"id":65035,"name":"Svay Leu","native":null,"lat":"13.69168000","lon":"104.27446000"},{"id":65040,"name":"Varin","native":null,"lat":"13.83574000","lon":"103.89968000"}]},{"id":3989,"name":"Sihanoukville","native":null,"cities":[{"id":64980,"name":"Sihanoukville","native":null,"lat":"10.60932000","lon":"103.52958000"},{"id":64985,"name":"Srok Stueng Hav","native":null,"lat":"10.85249000","lon":"103.74016000"}]},{"id":3993,"name":"Stung Treng","native":null,"cities":[{"id":65020,"name":"Srŏk Srêsén","native":null,"lat":"13.60530000","lon":"106.35819000"},{"id":65033,"name":"Stueng Traeng","native":null,"lat":"13.65000000","lon":"106.07000000"},{"id":65034,"name":"Stung Treng","native":null,"lat":"13.52586000","lon":"105.96830000"}]},{"id":3972,"name":"Svay Rieng","native":null,"cities":[{"id":65021,"name":"Srŏk Svay Chrŭm","native":null,"lat":"11.11160000","lon":"105.69814000"},{"id":65036,"name":"Svay Rieng","native":null,"lat":"11.08785000","lon":"105.79935000"}]},{"id":3975,"name":"Takeo","native":null,"cities":[{"id":64963,"name":"Krŏng Doun Kaev","native":null,"lat":"10.99459000","lon":"104.79550000"},{"id":64971,"name":"Phumĭ Véal Srê","native":null,"lat":"10.98081000","lon":"104.77828000"},{"id":65030,"name":"Srŏk Ângkôr Borei","native":null,"lat":"10.99291000","lon":"104.95177000"},{"id":64992,"name":"Srŏk Borei Cholsar","native":null,"lat":"10.81414000","lon":"104.98994000"},{"id":65038,"name":"Takeo","native":null,"lat":"10.99081000","lon":"104.78498000"}]}]