[{"name":"Banteay Meanchey","native":null,"cities":[{"name":"Mongkol Borei","native":null,"lat":"13.45531000","lon":"102.99186000"},{"name":"Paoy Paet","native":null,"lat":"13.65805000","lon":"102.56365000"},{"name":"Sisophon","native":null,"lat":"13.58588000","lon":"102.97369000"},{"name":"Srŏk Malai","native":null,"lat":"13.49902000","lon":"102.60164000"},{"name":"Srŏk Svay Chék","native":null,"lat":"13.81305000","lon":"102.95269000"}]},{"name":"Battambang","native":null,"cities":[{"name":"Battambang","native":null,"lat":"13.10271000","lon":"103.19822000"},{"name":"Srŏk Âk Phnŭm","native":null,"lat":"13.23621000","lon":"103.45894000"},{"name":"Srŏk Banăn","native":null,"lat":"12.97067000","lon":"103.04742000"},{"name":"Srŏk Bâvĭl","native":null,"lat":"13.23601000","lon":"102.82910000"},{"name":"Srŏk Rotanak Mondol","native":null,"lat":"12.84048000","lon":"102.88700000"}]},{"name":"Kampong Cham","native":null,"cities":[{"name":"Cheung Prey","native":null,"lat":"12.10000000","lon":"105.07000000"},{"name":"Kampong Cham","native":null,"lat":"11.98000000","lon":"105.44500000"},{"name":"Srŏk Bathéay","native":null,"lat":"12.02986000","lon":"104.93171000"}]},{"name":"Kampong Chhnang","native":null,"cities":[{"name":"Baribour","native":null,"lat":"12.43000000","lon":"104.47000000"},{"name":"Kampong Chhnang","native":null,"lat":"12.26000000","lon":"104.67000000"},{"name":"Rolea B'ier","native":null,"lat":"12.21000000","lon":"104.61000000"},{"name":"Srŏk Chol Kiri","native":null,"lat":"12.15861000","lon":"104.82287000"},{"name":"Srŏk Sameakki Mean Chey","native":null,"lat":"11.86788000","lon":"104.55549000"}]},{"name":"Kampong Speu","native":null,"cities":[{"name":"Kampong Speu","native":null,"lat":"11.45332000","lon":"104.52085000"},{"name":"Krŏng Chbar Mon","native":null,"lat":"11.47091000","lon":"104.50655000"},{"name":"Srŏk Basedth","native":null,"lat":"11.18432000","lon":"104.53584000"},{"name":"Srŏk Kông Pĭsei","native":null,"lat":"11.31648000","lon":"104.65992000"},{"name":"Srŏk Ŏdŏngk","native":null,"lat":"11.66845000","lon":"104.61224000"}]},{"name":"Kampong Thom","native":null,"cities":[]},{"name":"Kampot","native":null,"cities":[{"name":"Angkor Chey","native":null,"lat":"10.76667000","lon":"104.65000000"},{"name":"Banteay Meas","native":null,"lat":"10.61667000","lon":"104.53333000"},{"name":"Chhouk District","native":null,"lat":"10.81667000","lon":"104.45000000"},{"name":"Kampong Bay","native":null,"lat":"10.59554000","lon":"104.17136000"},{"name":"Kampong Tranch","native":null,"lat":"10.55000000","lon":"104.46667000"},{"name":"Kampot","native":null,"lat":"10.61041000","lon":"104.18145000"},{"name":"Srŏk Chŭm Kiri","native":null,"lat":"11.00540000","lon":"104.44207000"},{"name":"Srŏk Dângtóng","native":null,"lat":"10.70733000","lon":"104.42229000"},{"name":"Srok Tuek Chhou","native":null,"lat":"10.74557000","lon":"104.11013000"}]},{"name":"Kandal","native":null,"cities":[{"name":"Krŏng Ta Khmau","native":null,"lat":"11.45474000","lon":"104.94350000"},{"name":"Srŏk Khsăch Kândal","native":null,"lat":"11.69224000","lon":"105.03732000"},{"name":"Ta Khmau","native":null,"lat":"11.48333000","lon":"104.95000000"}]},{"name":"Kep","native":null,"cities":[{"name":"Krong Kep","native":null,"lat":"10.48291000","lon":"104.31672000"},{"name":"Srŏk Dâmnăk Châng’aeur","native":null,"lat":"10.53394000","lon":"104.34855000"}]},{"name":"Koh Kong","native":null,"cities":[{"name":"Koh Kong","native":null,"lat":"11.61531000","lon":"102.98380000"},{"name":"Smach Mean Chey","native":null,"lat":"11.54665000","lon":"103.03569000"},{"name":"Srae Ambel","native":null,"lat":"11.10968000","lon":"103.76226000"},{"name":"Srŏk Batum Sakôr","native":null,"lat":"11.11465000","lon":"103.38993000"},{"name":"Srŏk Môndôl Seima","native":null,"lat":"11.81292000","lon":"103.01159000"}]},{"name":"Kratie","native":null,"cities":[{"name":"Kracheh","native":null,"lat":"12.57000000","lon":"106.20000000"},{"name":"Kratié","native":null,"lat":"12.48811000","lon":"106.01879000"},{"name":"Snuol","native":null,"lat":"12.19373000","lon":"106.47361000"}]},{"name":"Mondulkiri","native":null,"cities":[{"name":"Krŏng Sênmônoŭrôm","native":null,"lat":"12.50480000","lon":"107.15525000"},{"name":"Sen Monorom","native":null,"lat":"12.45583000","lon":"107.18811000"},{"name":"Srŏk Kaev Seima","native":null,"lat":"12.41722000","lon":"106.77025000"},{"name":"Srŏk Pech Chreada","native":null,"lat":"12.72780000","lon":"107.09480000"}]},{"name":"Oddar Meanchey","native":null,"cities":[{"name":"Samraong","native":null,"lat":"14.18175000","lon":"103.51761000"},{"name":"Srŏk Bântéay Âmpĭl","native":null,"lat":"14.18590000","lon":"103.25925000"},{"name":"Srŏk Sâmraông","native":null,"lat":"14.25039000","lon":"103.62739000"},{"name":"Srŏk Trâpeăng Prasat","native":null,"lat":"14.25809000","lon":"104.30835000"}]},{"name":"Pailin","native":null,"cities":[{"name":"Khan Sala Krau","native":null,"lat":"12.97984000","lon":"102.63957000"},{"name":"Pailin","native":null,"lat":"12.84895000","lon":"102.60928000"}]},{"name":"Phnom Penh","native":null,"cities":[{"name":"Khan 7 Makara","native":null,"lat":"11.56254000","lon":"104.91405000"},{"name":"Khan Châmkar Mon","native":null,"lat":"11.54390000","lon":"104.92175000"},{"name":"Khan Dângkaô","native":null,"lat":"11.52457000","lon":"104.83944000"},{"name":"Khan Duŏn Pénh","native":null,"lat":"11.57561000","lon":"104.92025000"},{"name":"Khan Méan Chey","native":null,"lat":"11.51976000","lon":"104.95467000"},{"name":"Khan Russey Keo","native":null,"lat":"11.61946000","lon":"104.90990000"},{"name":"Khan Saen Sokh","native":null,"lat":"11.61289000","lon":"104.86078000"},{"name":"Phnom Penh","native":null,"lat":"11.56245000","lon":"104.91601000"}]},{"name":"Preah Vihear","native":null,"cities":[{"name":"Sangkom Thmei","native":null,"lat":"13.47395000","lon":"104.77051000"},{"name":"Srŏk Ch’êh Sên","native":null,"lat":"13.58215000","lon":"105.34533000"},{"name":"Srŏk Chhêb","native":null,"lat":"13.91077000","lon":"105.46180000"},{"name":"Srŏk Kulén","native":null,"lat":"13.78597000","lon":"104.61052000"},{"name":"Srŏk Rôviĕng","native":null,"lat":"13.35105000","lon":"105.09956000"},{"name":"Srŏk Tbêng Méanchey","native":null,"lat":"13.78622000","lon":"105.01586000"},{"name":"Tbeng Meanchey","native":null,"lat":"13.80731000","lon":"104.98046000"}]},{"name":"Prey Veng","native":null,"cities":[{"name":"Prey Veng","native":null,"lat":"11.48682000","lon":"105.32533000"},{"name":"Srŏk Kâmpóng Léav","native":null,"lat":"11.50970000","lon":"105.30110000"},{"name":"Srŏk Mésang","native":null,"lat":"11.35528000","lon":"105.57235000"},{"name":"Srŏk Preăh Sdéch","native":null,"lat":"11.08690000","lon":"105.37497000"}]},{"name":"Pursat","native":null,"cities":[{"name":"Bakan","native":null,"lat":"12.78000000","lon":"103.79000000"},{"name":"Krakor","native":null,"lat":"12.48000000","lon":"104.19000000"},{"name":"Pursat","native":null,"lat":"12.53878000","lon":"103.91920000"},{"name":"Sampov Meas","native":null,"lat":"12.47055000","lon":"103.91817000"},{"name":"Srŏk Kândiĕng","native":null,"lat":"12.71245000","lon":"104.02592000"},{"name":"Srŏk Véal Vêng","native":null,"lat":"12.24230000","lon":"103.13444000"}]},{"name":"Ratanakiri","native":null,"cities":[{"name":"Banlung","native":null,"lat":"13.73939000","lon":"106.98727000"},{"name":"Lumphat","native":null,"lat":"13.49146000","lon":"106.98022000"},{"name":"Srŏk Ândong Méas","native":null,"lat":"13.93352000","lon":"107.31155000"},{"name":"Srŏk Bâ Kêv","native":null,"lat":"13.70749000","lon":"107.19442000"},{"name":"Srŏk Ban Lŭng","native":null,"lat":"13.68200000","lon":"107.03025000"},{"name":"Srŏk Koun Mom","native":null,"lat":"13.51772000","lon":"106.75142000"},{"name":"Srŏk Ou Chum","native":null,"lat":"13.84069000","lon":"107.03469000"},{"name":"Srŏk Ou Ya Dav","native":null,"lat":"13.54328000","lon":"107.44636000"},{"name":"Srŏk Ta Vêng","native":null,"lat":"14.29192000","lon":"107.24031000"}]},{"name":"Siem Reap","native":null,"cities":[{"name":"Siem Reap","native":null,"lat":"13.36179000","lon":"103.86056000"},{"name":"Srŏk Ângkôr Thum","native":null,"lat":"13.57881000","lon":"103.85645000"},{"name":"Srŏk Prasat Bakong","native":null,"lat":"13.21031000","lon":"103.97689000"},{"name":"Svay Leu","native":null,"lat":"13.69168000","lon":"104.27446000"},{"name":"Varin","native":null,"lat":"13.83574000","lon":"103.89968000"}]},{"name":"Sihanoukville","native":null,"cities":[{"name":"Sihanoukville","native":null,"lat":"10.60932000","lon":"103.52958000"},{"name":"Srok Stueng Hav","native":null,"lat":"10.85249000","lon":"103.74016000"}]},{"name":"Stung Treng","native":null,"cities":[{"name":"Srŏk Srêsén","native":null,"lat":"13.60530000","lon":"106.35819000"},{"name":"Stueng Traeng","native":null,"lat":"13.65000000","lon":"106.07000000"},{"name":"Stung Treng","native":null,"lat":"13.52586000","lon":"105.96830000"}]},{"name":"Svay Rieng","native":null,"cities":[{"name":"Srŏk Svay Chrŭm","native":null,"lat":"11.11160000","lon":"105.69814000"},{"name":"Svay Rieng","native":null,"lat":"11.08785000","lon":"105.79935000"}]},{"name":"Takeo","native":null,"cities":[{"name":"Krŏng Doun Kaev","native":null,"lat":"10.99459000","lon":"104.79550000"},{"name":"Phumĭ Véal Srê","native":null,"lat":"10.98081000","lon":"104.77828000"},{"name":"Srŏk Ângkôr Borei","native":null,"lat":"10.99291000","lon":"104.95177000"},{"name":"Srŏk Borei Cholsar","native":null,"lat":"10.81414000","lon":"104.98994000"},{"name":"Takeo","native":null,"lat":"10.99081000","lon":"104.78498000"}]}]