[{"id":3860,"name":"Busan","native":null,"cities":[{"id":65276,"name":"Buk-gu","native":null,"lat":"35.19724000","lon":"128.99134000"},{"id":65278,"name":"Busan","native":null,"lat":"35.10168000","lon":"129.03004000"},{"id":65313,"name":"Dongnae-gu","native":null,"lat":"35.20447000","lon":"129.07800000"},{"id":65325,"name":"Gangseo-gu","native":null,"lat":"35.15930000","lon":"128.93300000"},{"id":65331,"name":"Geumjeong-gu","native":null,"lat":"35.25863000","lon":"129.09010000"},{"id":65333,"name":"Gijang","native":null,"lat":"35.24417000","lon":"129.21389000"},{"id":65334,"name":"Gijang-gun","native":null,"lat":"35.29721000","lon":"129.20076000"},{"id":65375,"name":"Haeundae-gu","native":null,"lat":"35.16665000","lon":"129.16792000"},{"id":65421,"name":"Jung-gu","native":null,"lat":"35.10594000","lon":"129.03331000"},{"id":65452,"name":"Nam-gu","native":null,"lat":"35.13648000","lon":"129.08266000"},{"id":65477,"name":"Saha-gu","native":null,"lat":"35.08552000","lon":"128.98725000"},{"id":65482,"name":"Sasang-gu","native":null,"lat":"35.14479000","lon":"128.97986000"},{"id":65484,"name":"Seo-gu","native":null,"lat":"35.12529000","lon":"129.01946000"},{"id":65513,"name":"Suyeong-gu","native":null,"lat":"35.15627000","lon":"129.11253000"},{"id":65552,"name":"Yeongdo-gu","native":null,"lat":"35.07849000","lon":"129.06483000"}]},{"id":3846,"name":"Daegu","native":null,"cities":[{"id":65300,"name":"Daegu","native":null,"lat":"35.87028000","lon":"128.59111000"},{"id":65302,"name":"Dalseo-gu","native":null,"lat":"35.82569000","lon":"128.52403000"},{"id":65303,"name":"Dalseong-gun","native":null,"lat":"35.77467000","lon":"128.42955000"},{"id":65307,"name":"Dong-gu","native":null,"lat":"35.88566000","lon":"128.63296000"},{"id":65394,"name":"Hwawŏn","native":null,"lat":"35.80167000","lon":"128.50083000"},{"id":65422,"name":"Jung-gu","native":null,"lat":"35.86678000","lon":"128.59538000"},{"id":65485,"name":"Seo-gu","native":null,"lat":"35.87465000","lon":"128.55109000"},{"id":65511,"name":"Suseong-gu","native":null,"lat":"35.85905000","lon":"128.62625000"}]},{"id":3850,"name":"Daejeon","native":null,"cities":[{"id":65301,"name":"Daejeon","native":null,"lat":"36.34913000","lon":"127.38493000"},{"id":65486,"name":"Seo-gu","native":null,"lat":"36.27211000","lon":"127.33100000"},{"id":65503,"name":"Sintansin","native":null,"lat":"36.45361000","lon":"127.43111000"},{"id":65506,"name":"Songgangdong","native":null,"lat":"36.43387000","lon":"127.37587000"},{"id":65567,"name":"Yuseong-gu","native":null,"lat":"36.36685000","lon":"127.32700000"}]},{"id":3862,"name":"Gangwon Province","native":null,"cities":[{"id":65293,"name":"Cheorwon-gun","native":null,"lat":"38.24391000","lon":"127.44522000"},{"id":65297,"name":"Chuncheon","native":null,"lat":"37.87472000","lon":"127.73417000"},{"id":65298,"name":"Chuncheon-si","native":null,"lat":"37.88048000","lon":"127.72776000"},{"id":65311,"name":"Donghae-si","native":null,"lat":"37.52345000","lon":"129.11357000"},{"id":65322,"name":"Gangneung","native":null,"lat":"37.75266000","lon":"128.87239000"},{"id":65323,"name":"Gangneung-si","native":null,"lat":"37.75190000","lon":"128.87825000"},{"id":65349,"name":"Goseong-gun","native":null,"lat":"38.37945000","lon":"128.46755000"},{"id":65383,"name":"Hoengseong-gun","native":null,"lat":"37.48817000","lon":"127.98570000"},{"id":65385,"name":"Hongch’ŏn","native":null,"lat":"37.69180000","lon":"127.88570000"},{"id":65384,"name":"Hongcheon-gun","native":null,"lat":"37.76058000","lon":"128.02823000"},{"id":65388,"name":"Hwacheon","native":null,"lat":"38.10705000","lon":"127.70632000"},{"id":65389,"name":"Hwacheon-gun","native":null,"lat":"38.14212000","lon":"127.67615000"},{"id":65401,"name":"Inje-gun","native":null,"lat":"38.04416000","lon":"128.27876000"},{"id":65411,"name":"Jeongseon-gun","native":null,"lat":"37.38911000","lon":"128.72995000"},{"id":65430,"name":"Kosong","native":null,"lat":"38.37881000","lon":"128.46760000"},{"id":65459,"name":"Neietsu","native":null,"lat":"37.18447000","lon":"128.46821000"},{"id":65473,"name":"Pyeongchang","native":null,"lat":"37.37028000","lon":"128.39306000"},{"id":65474,"name":"Pyeongchang-gun","native":null,"lat":"37.36820000","lon":"128.39550000"},{"id":65478,"name":"Samcheok-si","native":null,"lat":"37.45013000","lon":"129.16626000"},{"id":65481,"name":"Santyoku","native":null,"lat":"37.44056000","lon":"129.17083000"},{"id":65504,"name":"Sokcho","native":null,"lat":"38.20701000","lon":"128.59181000"},{"id":65505,"name":"Sokcho-si","native":null,"lat":"38.20725000","lon":"128.59275000"},{"id":65519,"name":"T’aebaek","native":null,"lat":"37.17590000","lon":"128.98890000"},{"id":65515,"name":"Taebaek-si","native":null,"lat":"37.16520000","lon":"128.98570000"},{"id":65518,"name":"Tonghae","native":null,"lat":"37.54389000","lon":"129.10694000"},{"id":65534,"name":"Wŏnju","native":null,"lat":"37.35139000","lon":"127.94528000"},{"id":65533,"name":"Wonju-si","native":null,"lat":"37.32104000","lon":"127.92132000"},{"id":65536,"name":"Yanggu","native":null,"lat":"38.10583000","lon":"127.98944000"},{"id":65537,"name":"Yanggu-gun","native":null,"lat":"38.10160000","lon":"127.98555000"},{"id":65543,"name":"Yangyang-gun","native":null,"lat":"38.06215000","lon":"128.61471000"}]},{"id":3858,"name":"Gwangju","native":null,"cities":[{"id":65362,"name":"Gwangju","native":null,"lat":"35.15472000","lon":"126.91556000"},{"id":65366,"name":"Gwangsan-gu","native":null,"lat":"35.16158000","lon":"126.80810000"},{"id":65437,"name":"Masan","native":null,"lat":"35.12725000","lon":"126.83149000"}]},{"id":3847,"name":"Gyeonggi Province","native":null,"cities":[{"id":65262,"name":"Ansan-si","native":null,"lat":"37.32361000","lon":"126.82194000"},{"id":65263,"name":"Anseong","native":null,"lat":"37.01083000","lon":"127.27028000"},{"id":65264,"name":"Anyang-si","native":null,"lat":"37.39250000","lon":"126.92694000"},{"id":65274,"name":"Bucheon-si","native":null,"lat":"37.50440000","lon":"126.76625000"},{"id":65310,"name":"Dongducheon","native":null,"lat":"37.91889000","lon":"127.06897000"},{"id":65326,"name":"Gapyeong","native":null,"lat":"37.83101000","lon":"127.51059000"},{"id":65327,"name":"Gapyeong-gun","native":null,"lat":"37.83080000","lon":"127.51522000"},{"id":65339,"name":"Gimpo-si","native":null,"lat":"37.63637000","lon":"126.69270000"},{"id":65350,"name":"Goyang-si","native":null,"lat":"37.65639000","lon":"126.83500000"},{"id":65352,"name":"Gunpo-si","native":null,"lat":"37.34261000","lon":"126.92149000"},{"id":65356,"name":"Guri-si","native":null,"lat":"37.59860000","lon":"127.13940000"},{"id":65359,"name":"Gwacheon-si","native":null,"lat":"37.43407000","lon":"126.99989000"},{"id":65363,"name":"Gwangju","native":null,"lat":"37.41000000","lon":"127.25722000"},{"id":65364,"name":"Gwangju-si","native":null,"lat":"37.40329000","lon":"127.29855000"},{"id":65365,"name":"Gwangmyeong-si","native":null,"lat":"37.44435000","lon":"126.86499000"},{"id":65378,"name":"Hanam","native":null,"lat":"37.54000000","lon":"127.20556000"},{"id":65379,"name":"Hanam-si","native":null,"lat":"37.53895000","lon":"127.21250000"},{"id":65390,"name":"Hwado","native":null,"lat":"37.65250000","lon":"127.30750000"},{"id":65391,"name":"Hwaseong-si","native":null,"lat":"37.20682000","lon":"126.81690000"},{"id":65395,"name":"Icheon-si","native":null,"lat":"37.27642000","lon":"127.43692000"},{"id":65433,"name":"Kwangmyŏng","native":null,"lat":"37.47722000","lon":"126.86639000"},{"id":65448,"name":"Munsan","native":null,"lat":"37.85944000","lon":"126.78500000"},{"id":65456,"name":"Namyangju","native":null,"lat":"37.63667000","lon":"127.21417000"},{"id":65457,"name":"Namyangju-si","native":null,"lat":"37.65217000","lon":"127.24010000"},{"id":65465,"name":"Osan","native":null,"lat":"37.15222000","lon":"127.07056000"},{"id":65466,"name":"Osan-si","native":null,"lat":"37.16230000","lon":"127.05246000"},{"id":65467,"name":"Paju-si","native":null,"lat":"37.75952000","lon":"126.77772000"},{"id":65468,"name":"Pocheon-si","native":null,"lat":"37.89370000","lon":"127.20028000"},{"id":65472,"name":"Pubal","native":null,"lat":"37.29167000","lon":"127.50778000"},{"id":65475,"name":"Pyeongtaek","native":null,"lat":"37.01372000","lon":"126.98748000"},{"id":65495,"name":"Seongnam-si","native":null,"lat":"37.41875000","lon":"127.12877000"},{"id":65499,"name":"Siheung","native":null,"lat":"37.39067000","lon":"126.78880000"},{"id":65512,"name":"Suwon","native":null,"lat":"37.29111000","lon":"127.00889000"},{"id":65520,"name":"Uijeongbu-si","native":null,"lat":"37.73865000","lon":"127.04770000"},{"id":65523,"name":"Uiwang-si","native":null,"lat":"37.34500000","lon":"126.97575000"},{"id":65529,"name":"Wabu","native":null,"lat":"37.58972000","lon":"127.22028000"},{"id":65538,"name":"Yangju","native":null,"lat":"37.83311000","lon":"127.06169000"},{"id":65539,"name":"Yangju-si","native":null,"lat":"37.81732000","lon":"127.04600000"},{"id":65540,"name":"Yangp'yŏng","native":null,"lat":"37.48972000","lon":"127.49056000"},{"id":65541,"name":"Yangpyeong-gun","native":null,"lat":"37.48880000","lon":"127.49222000"},{"id":65545,"name":"Yeoju-si","native":null,"lat":"37.29562000","lon":"127.63668000"},{"id":65546,"name":"Yeoncheon-gun","native":null,"lat":"38.09404000","lon":"127.07577000"},{"id":65564,"name":"Yongin-si","native":null,"lat":"37.23825000","lon":"127.17795000"}]},{"id":3848,"name":"Incheon","native":null,"cities":[{"id":65277,"name":"Bupyeong-gu","native":null,"lat":"37.49720000","lon":"126.71107000"},{"id":65400,"name":"Incheon","native":null,"lat":"37.45646000","lon":"126.70515000"},{"id":65438,"name":"Michuhol","native":null,"lat":"37.46362000","lon":"126.65000000"},{"id":65560,"name":"Yeonsu-gu","native":null,"lat":"37.41911000","lon":"126.66489000"}]},{"id":3853,"name":"Jeju","native":null,"cities":[{"id":65317,"name":"Gaigeturi","native":null,"lat":"33.46444000","lon":"126.31833000"},{"id":65406,"name":"Jeju City","native":null,"lat":"33.50972000","lon":"126.52194000"},{"id":65407,"name":"Jeju-si","native":null,"lat":"33.45578000","lon":"126.53928000"},{"id":65490,"name":"Seogwipo","native":null,"lat":"33.25333000","lon":"126.56181000"}]},{"id":3854,"name":"North Chungcheong Province","native":null,"cities":[{"id":65268,"name":"Boeun-gun","native":null,"lat":"36.49489000","lon":"127.72865000"},{"id":65289,"name":"Cheongju-si","native":null,"lat":"36.63722000","lon":"127.48972000"},{"id":65295,"name":"Chinch'ŏn","native":null,"lat":"36.85667000","lon":"127.44333000"},{"id":65299,"name":"Chungju-si","native":null,"lat":"37.01791000","lon":"127.87713000"},{"id":65305,"name":"Danyang-gun","native":null,"lat":"36.98615000","lon":"128.36945000"},{"id":65315,"name":"Eumseong-gun","native":null,"lat":"36.92602000","lon":"127.68070000"},{"id":65341,"name":"Goesan-gun","native":null,"lat":"36.77179000","lon":"127.81426000"},{"id":65405,"name":"Jecheon-si","native":null,"lat":"37.06206000","lon":"128.14065000"},{"id":65414,"name":"Jeungpyeong-gun","native":null,"lat":"36.78377000","lon":"127.59858000"},{"id":65416,"name":"Jincheon-gun","native":null,"lat":"36.88281000","lon":"127.42768000"},{"id":65429,"name":"Koesan","native":null,"lat":"36.81083000","lon":"127.79472000"},{"id":65463,"name":"Okcheon","native":null,"lat":"36.30120000","lon":"127.56800000"},{"id":65464,"name":"Okcheon-gun","native":null,"lat":"36.26642000","lon":"127.58324000"},{"id":65553,"name":"Yeongdong","native":null,"lat":"36.17500000","lon":"127.77639000"},{"id":65554,"name":"Yeongdong-gun","native":null,"lat":"36.21658000","lon":"127.79374000"}]},{"id":3855,"name":"North Gyeongsang Province","native":null,"cities":[{"id":65260,"name":"Andong","native":null,"lat":"36.56636000","lon":"128.72275000"},{"id":65261,"name":"Andong-si","native":null,"lat":"36.56667000","lon":"128.71667000"},{"id":65269,"name":"Bonghwa-gun","native":null,"lat":"36.88951000","lon":"128.73573000"},{"id":65288,"name":"Cheongdo-gun","native":null,"lat":"35.67166000","lon":"128.78509000"},{"id":65290,"name":"Cheongsong gun","native":null,"lat":"36.43351000","lon":"129.05700000"},{"id":65291,"name":"Cheongsong-gun","native":null,"lat":"36.43288000","lon":"129.05159000"},{"id":65294,"name":"Chilgok-gun","native":null,"lat":"36.01512000","lon":"128.46138000"},{"id":65314,"name":"Eisen","native":null,"lat":"36.82167000","lon":"128.63083000"},{"id":65335,"name":"Gimcheon","native":null,"lat":"36.12176000","lon":"128.11981000"},{"id":65336,"name":"Gimcheon-si","native":null,"lat":"36.14481000","lon":"128.11157000"},{"id":65346,"name":"Goryeong-gun","native":null,"lat":"35.74959000","lon":"128.29707000"},{"id":65351,"name":"Gumi-si","native":null,"lat":"36.21009000","lon":"128.35442000"},{"id":65355,"name":"Gunwi-gun","native":null,"lat":"36.16995000","lon":"128.64705000"},{"id":65369,"name":"Gyeongju","native":null,"lat":"35.84278000","lon":"129.21167000"},{"id":65370,"name":"Gyeongsan-si","native":null,"lat":"35.83333000","lon":"128.80000000"},{"id":65381,"name":"Hayang","native":null,"lat":"35.91333000","lon":"128.82000000"},{"id":65382,"name":"Heunghae","native":null,"lat":"36.10945000","lon":"129.34517000"},{"id":65408,"name":"Jenzan","native":null,"lat":"36.24083000","lon":"128.29750000"},{"id":65431,"name":"Kunwi","native":null,"lat":"36.23472000","lon":"128.57278000"},{"id":65446,"name":"Mungyeong","native":null,"lat":"36.59458000","lon":"128.19946000"},{"id":65447,"name":"Mungyeong-si","native":null,"lat":"36.58755000","lon":"128.18624000"},{"id":65469,"name":"Pohang","native":null,"lat":"36.02917000","lon":"129.36481000"},{"id":65470,"name":"Pohang-si","native":null,"lat":"36.08333000","lon":"129.36667000"},{"id":65480,"name":"Sangju","native":null,"lat":"36.41528000","lon":"128.16056000"},{"id":65494,"name":"Seongju-gun","native":null,"lat":"35.91888000","lon":"128.28838000"},{"id":65522,"name":"Uiseong-gun","native":null,"lat":"36.36122000","lon":"128.61517000"},{"id":65524,"name":"Uljin-gun","native":null,"lat":"36.91968000","lon":"129.31966000"},{"id":65526,"name":"Ulleung-gun","native":null,"lat":"37.50442000","lon":"130.86084000"},{"id":65530,"name":"Waegwan","native":null,"lat":"35.99251000","lon":"128.39785000"},{"id":65544,"name":"Yecheon-gun","native":null,"lat":"36.65272000","lon":"128.43007000"},{"id":65549,"name":"Yeongcheon-si","native":null,"lat":"36.00000000","lon":"129.00000000"},{"id":65550,"name":"Yeongdeok-gun","native":null,"lat":"36.48125000","lon":"129.31078000"},{"id":65557,"name":"Yeongju-si","native":null,"lat":"36.87459000","lon":"128.58631000"},{"id":65558,"name":"Yeongyang-gun","native":null,"lat":"36.69592000","lon":"129.14196000"},{"id":65559,"name":"Yeonil","native":null,"lat":"35.99526000","lon":"129.35162000"}]},{"id":3851,"name":"North Jeolla Province","native":null,"cities":[{"id":65273,"name":"Buan-gun","native":null,"lat":"35.70000000","lon":"126.66667000"},{"id":65283,"name":"Changsu","native":null,"lat":"35.64842000","lon":"127.51523000"},{"id":65338,"name":"Gimje-si","native":null,"lat":"35.80701000","lon":"126.90755000"},{"id":65340,"name":"Gochang-gun","native":null,"lat":"35.43483000","lon":"126.70047000"},{"id":65353,"name":"Gunsan","native":null,"lat":"35.97861000","lon":"126.71139000"},{"id":65354,"name":"Gunsan-si","native":null,"lat":"35.93583000","lon":"126.68338000"},{"id":65396,"name":"Iksan","native":null,"lat":"35.94389000","lon":"126.95444000"},{"id":65397,"name":"Iksan-si","native":null,"lat":"36.03718000","lon":"126.98897000"},{"id":65398,"name":"Imsil","native":null,"lat":"35.61306000","lon":"127.27944000"},{"id":65399,"name":"Imsil-gun","native":null,"lat":"35.62160000","lon":"127.23187000"},{"id":65404,"name":"Jangsu-gun","native":null,"lat":"35.62504000","lon":"127.56358000"},{"id":65409,"name":"Jeongeup","native":null,"lat":"35.60004000","lon":"126.91699000"},{"id":65410,"name":"Jeongeup-si","native":null,"lat":"35.60000000","lon":"126.91667000"},{"id":65412,"name":"Jeonju","native":null,"lat":"35.82194000","lon":"127.14889000"},{"id":65413,"name":"Jeonju-si","native":null,"lat":"35.83333000","lon":"127.15000000"},{"id":65415,"name":"Jinan-gun","native":null,"lat":"35.80472000","lon":"127.47579000"},{"id":65426,"name":"Kimje","native":null,"lat":"35.80167000","lon":"126.88889000"},{"id":65428,"name":"Koch'ang","native":null,"lat":"35.43333000","lon":"126.70000000"},{"id":65445,"name":"Muju-gun","native":null,"lat":"35.93172000","lon":"127.71118000"},{"id":65455,"name":"Namwon","native":null,"lat":"35.44821000","lon":"127.38007000"},{"id":65458,"name":"Nangen","native":null,"lat":"35.41000000","lon":"127.38583000"},{"id":65471,"name":"Puan","native":null,"lat":"35.72806000","lon":"126.73194000"},{"id":65508,"name":"Sunchang-gun","native":null,"lat":"35.37651000","lon":"127.14967000"},{"id":65532,"name":"Wanju","native":null,"lat":"35.84509000","lon":"127.14752000"}]},{"id":3861,"name":"Sejong City","native":null,"cities":[{"id":65483,"name":"Sejong","native":null,"lat":"36.59245000","lon":"127.29223000"}]},{"id":3849,"name":"Seoul","native":null,"cities":[{"id":65306,"name":"Dobong-gu","native":null,"lat":"37.65066000","lon":"127.03011000"},{"id":65309,"name":"Dongdaemun-gu","native":null,"lat":"37.58189000","lon":"127.05408000"},{"id":65312,"name":"Dongjak-gu","native":null,"lat":"37.50056000","lon":"126.95149000"},{"id":65316,"name":"Eunpyeong-gu","native":null,"lat":"37.61846000","lon":"126.92780000"},{"id":65318,"name":"Gangbuk-gu","native":null,"lat":"37.63490000","lon":"127.02015000"},{"id":65319,"name":"Gangdong-gu","native":null,"lat":"37.55274000","lon":"127.14546000"},{"id":65321,"name":"Gangnam-gu","native":null,"lat":"37.49510000","lon":"127.06278000"},{"id":65324,"name":"Gangseo-gu","native":null,"lat":"37.56227000","lon":"126.81622000"},{"id":65330,"name":"Geumcheon-gu","native":null,"lat":"37.47486000","lon":"126.89106000"},{"id":65357,"name":"Guro-gu","native":null,"lat":"37.49447000","lon":"126.85020000"},{"id":65360,"name":"Gwanak-gu","native":null,"lat":"37.47876000","lon":"126.95235000"},{"id":65361,"name":"Gwangjin-gu","native":null,"lat":"37.53913000","lon":"127.08366000"},{"id":65419,"name":"Jongno-gu","native":null,"lat":"37.57290000","lon":"126.97928000"},{"id":65420,"name":"Jung-gu","native":null,"lat":"37.55986000","lon":"126.99398000"},{"id":65424,"name":"Jungnang-gu","native":null,"lat":"37.60199000","lon":"127.10461000"},{"id":65436,"name":"Mapo-gu","native":null,"lat":"37.55438000","lon":"126.90926000"},{"id":65462,"name":"Nowon-gu","native":null,"lat":"37.66045000","lon":"127.06718000"},{"id":65488,"name":"Seocho-gu","native":null,"lat":"37.49447000","lon":"127.01088000"},{"id":65489,"name":"Seodaemun-gu","native":null,"lat":"37.57809000","lon":"126.93506000"},{"id":65491,"name":"Seongbuk-gu","native":null,"lat":"37.60267000","lon":"127.01448000"},{"id":65492,"name":"Seongdong-gu","native":null,"lat":"37.54784000","lon":"127.02461000"},{"id":65498,"name":"Seoul","native":null,"lat":"37.56600000","lon":"126.97840000"},{"id":65507,"name":"Songpa-gu","native":null,"lat":"37.50210000","lon":"127.11113000"},{"id":65535,"name":"Yangcheon-gu","native":null,"lat":"37.52157000","lon":"126.85827000"},{"id":65551,"name":"Yeongdeungpo-gu","native":null,"lat":"37.52606000","lon":"126.90308000"},{"id":65565,"name":"Yongsan-dong","native":null,"lat":"37.54450000","lon":"126.98370000"},{"id":65566,"name":"Yongsan-gu","native":null,"lat":"37.53391000","lon":"126.97750000"}]},{"id":3859,"name":"South Chungcheong Province","native":null,"cities":[{"id":65265,"name":"Asan","native":null,"lat":"36.78361000","lon":"127.00417000"},{"id":65266,"name":"Asan-si","native":null,"lat":"36.80791000","lon":"126.97769000"},{"id":65270,"name":"Boryeong","native":null,"lat":"36.34931000","lon":"126.59772000"},{"id":65271,"name":"Boryeong-si","native":null,"lat":"36.35649000","lon":"126.59444000"},{"id":65279,"name":"Buyeo","native":null,"lat":"36.27472000","lon":"126.90906000"},{"id":65280,"name":"Buyeo-gun","native":null,"lat":"36.26257000","lon":"126.85802000"},{"id":65286,"name":"Cheonan","native":null,"lat":"36.80650000","lon":"127.15220000"},{"id":65287,"name":"Cheonan-si","native":null,"lat":"36.80488000","lon":"127.19431000"},{"id":65292,"name":"Cheongyang-gun","native":null,"lat":"36.41676000","lon":"126.79419000"},{"id":65332,"name":"Geumsan-gun","native":null,"lat":"36.13381000","lon":"127.48062000"},{"id":65344,"name":"Gongju","native":null,"lat":"36.45556000","lon":"127.12472000"},{"id":65345,"name":"Gongju-si","native":null,"lat":"36.50000000","lon":"127.08333000"},{"id":65371,"name":"Gyeryong-si","native":null,"lat":"36.29304000","lon":"127.22575000"},{"id":65386,"name":"Hongseong","native":null,"lat":"36.60090000","lon":"126.66500000"},{"id":65387,"name":"Hongseong-gun","native":null,"lat":"36.56705000","lon":"126.62626000"},{"id":65427,"name":"Kinzan","native":null,"lat":"36.10306000","lon":"127.48889000"},{"id":65460,"name":"Nonsan","native":null,"lat":"36.20389000","lon":"127.08472000"},{"id":65461,"name":"Nonsan-si","native":null,"lat":"36.19774000","lon":"127.12143000"},{"id":65487,"name":"Seocheon-gun","native":null,"lat":"36.10600000","lon":"126.69716000"},{"id":65493,"name":"Seonghwan","native":null,"lat":"36.91556000","lon":"127.13139000"},{"id":65496,"name":"Seosan","native":null,"lat":"36.78167000","lon":"126.45222000"},{"id":65497,"name":"Seosan-si","native":null,"lat":"36.78518000","lon":"126.46568000"},{"id":65514,"name":"Taean-gun","native":null,"lat":"36.70036000","lon":"126.28391000"},{"id":65516,"name":"Taesal-li","native":null,"lat":"36.97140000","lon":"126.45420000"},{"id":65517,"name":"Tangjin","native":null,"lat":"36.89444000","lon":"126.62972000"},{"id":65562,"name":"Yesan","native":null,"lat":"36.67756000","lon":"126.84272000"},{"id":65563,"name":"Yesan-gun","native":null,"lat":"36.68218000","lon":"126.79592000"},{"id":65568,"name":"Yŏnmu","native":null,"lat":"36.12944000","lon":"127.10000000"}]},{"id":3857,"name":"South Gyeongsang Province","native":null,"cities":[{"id":65281,"name":"Changnyeong","native":null,"lat":"35.54145000","lon":"128.49506000"},{"id":65282,"name":"Changnyeong-gun","native":null,"lat":"35.50822000","lon":"128.49020000"},{"id":65284,"name":"Changwon","native":null,"lat":"35.22806000","lon":"128.68111000"},{"id":65285,"name":"Changwon-si","native":null,"lat":"35.27533000","lon":"128.65152000"},{"id":65296,"name":"Chinju","native":null,"lat":"35.19278000","lon":"128.08472000"},{"id":65328,"name":"Geochang-gun","native":null,"lat":"35.73034000","lon":"127.90149000"},{"id":65329,"name":"Geoje-si","native":null,"lat":"34.90000000","lon":"128.66666000"},{"id":65337,"name":"Gimhae-si","native":null,"lat":"35.25000000","lon":"128.86667000"},{"id":65347,"name":"Goseong","native":null,"lat":"34.97631000","lon":"128.32361000"},{"id":65348,"name":"Goseong-gun","native":null,"lat":"35.01478000","lon":"128.28244000"},{"id":65372,"name":"Hadong-gun","native":null,"lat":"35.13628000","lon":"127.77291000"},{"id":65376,"name":"Haman-gun","native":null,"lat":"35.29117000","lon":"128.42970000"},{"id":65380,"name":"Hapcheon-gun","native":null,"lat":"35.57410000","lon":"128.13841000"},{"id":65418,"name":"Jinju-si","native":null,"lat":"35.20445000","lon":"128.12408000"},{"id":65425,"name":"Kimhae","native":null,"lat":"35.23417000","lon":"128.88111000"},{"id":65435,"name":"Kyosai","native":null,"lat":"34.85028000","lon":"128.58861000"},{"id":65439,"name":"Miryang","native":null,"lat":"35.49333000","lon":"128.74889000"},{"id":65440,"name":"Miryang-si","native":null,"lat":"35.49750000","lon":"128.78690000"},{"id":65449,"name":"Naesŏ","native":null,"lat":"35.24972000","lon":"128.52000000"},{"id":65454,"name":"Namhae-gun","native":null,"lat":"34.80433000","lon":"127.92708000"},{"id":65476,"name":"Sacheon-si","native":null,"lat":"35.00385000","lon":"128.06857000"},{"id":65479,"name":"Sancheong-gun","native":null,"lat":"35.36625000","lon":"127.87065000"},{"id":65502,"name":"Sinhyeon","native":null,"lat":"34.88250000","lon":"128.62667000"},{"id":65521,"name":"Uiryeong-gun","native":null,"lat":"35.39230000","lon":"128.26917000"},{"id":65528,"name":"Ungsang","native":null,"lat":"35.40611000","lon":"129.16861000"},{"id":65542,"name":"Yangsan","native":null,"lat":"35.34199000","lon":"129.03358000"}]},{"id":3856,"name":"South Jeolla Province","native":null,"cities":[{"id":65267,"name":"Beolgyo","native":null,"lat":"34.84897000","lon":"127.34052000"},{"id":65272,"name":"Boseong-gun","native":null,"lat":"34.84622000","lon":"127.22189000"},{"id":65304,"name":"Damyang-gun","native":null,"lat":"35.33976000","lon":"126.99125000"},{"id":65320,"name":"Gangjin-gun","native":null,"lat":"34.61787000","lon":"126.76758000"},{"id":65342,"name":"Goheung-gun","native":null,"lat":"34.58333000","lon":"127.33333000"},{"id":65343,"name":"Gokseong-gun","native":null,"lat":"35.21449000","lon":"127.26280000"},{"id":65358,"name":"Gurye-gun","native":null,"lat":"35.23616000","lon":"127.50129000"},{"id":65367,"name":"Gwangyang","native":null,"lat":"34.94140000","lon":"127.69569000"},{"id":65368,"name":"Gwangyang-si","native":null,"lat":"35.04007000","lon":"127.60949000"},{"id":65373,"name":"Haenam","native":null,"lat":"34.57111000","lon":"126.59889000"},{"id":65374,"name":"Haenam-gun","native":null,"lat":"34.54047000","lon":"126.51870000"},{"id":65377,"name":"Hampyeong-gun","native":null,"lat":"35.14988000","lon":"126.53337000"},{"id":65392,"name":"Hwasun","native":null,"lat":"35.06125000","lon":"126.98746000"},{"id":65393,"name":"Hwasun-gun","native":null,"lat":"35.00468000","lon":"127.02648000"},{"id":65402,"name":"Jangheung-gun","native":null,"lat":"34.70555000","lon":"126.94905000"},{"id":65403,"name":"Jangseong-gun","native":null,"lat":"35.32734000","lon":"126.76817000"},{"id":65417,"name":"Jindo-gun","native":null,"lat":"34.41958000","lon":"126.22599000"},{"id":65432,"name":"Kurye","native":null,"lat":"35.20944000","lon":"127.46444000"},{"id":65434,"name":"Kwangyang","native":null,"lat":"34.97528000","lon":"127.58917000"},{"id":65441,"name":"Mokpo","native":null,"lat":"34.81282000","lon":"126.39181000"},{"id":65442,"name":"Mokpo-si","native":null,"lat":"34.81226000","lon":"126.39179000"},{"id":65443,"name":"Muan","native":null,"lat":"34.99014000","lon":"126.47899000"},{"id":65444,"name":"Muan-gun","native":null,"lat":"34.95642000","lon":"126.44041000"},{"id":65450,"name":"Naju","native":null,"lat":"35.02920000","lon":"126.71750000"},{"id":65451,"name":"Naju-si","native":null,"lat":"35.05683000","lon":"126.67362000"},{"id":65500,"name":"Sinan","native":null,"lat":"34.82620000","lon":"126.10863000"},{"id":65501,"name":"Sinan-gun","native":null,"lat":"34.83107000","lon":"126.09872000"},{"id":65509,"name":"Suncheon","native":null,"lat":"34.95050000","lon":"127.48784000"},{"id":65510,"name":"Suncheon-si","native":null,"lat":"34.97162000","lon":"127.46096000"},{"id":65531,"name":"Wando-gun","native":null,"lat":"34.31182000","lon":"126.73845000"},{"id":65547,"name":"Yeongam","native":null,"lat":"34.80059000","lon":"126.69669000"},{"id":65548,"name":"Yeongam-gun","native":null,"lat":"34.79790000","lon":"126.62651000"},{"id":65555,"name":"Yeonggwang","native":null,"lat":"35.27814000","lon":"126.51181000"},{"id":65556,"name":"Yeonggwang-gun","native":null,"lat":"35.28711000","lon":"126.43616000"},{"id":65561,"name":"Yeosu","native":null,"lat":"34.76062000","lon":"127.66215000"}]},{"id":3852,"name":"Ulsan","native":null,"cities":[{"id":65275,"name":"Buk-gu","native":null,"lat":"35.58243000","lon":"129.36049000"},{"id":65308,"name":"Dong-gu","native":null,"lat":"35.50470000","lon":"129.41860000"},{"id":65423,"name":"Jung-gu","native":null,"lat":"35.56840000","lon":"129.33226000"},{"id":65453,"name":"Nam-gu","native":null,"lat":"35.54382000","lon":"129.32917000"},{"id":65525,"name":"Ulju-gun","native":null,"lat":"35.56233000","lon":"129.12690000"},{"id":65527,"name":"Ulsan","native":null,"lat":"35.53722000","lon":"129.31667000"}]}]