[{"id":458,"name":"Balzers","native":null,"cities":[{"id":66437,"name":"Balzers","native":null,"lat":"47.06665000","lon":"9.50251000"}]},{"id":451,"name":"Eschen","native":null,"cities":[{"id":66438,"name":"Eschen","native":null,"lat":"47.21071000","lon":"9.52223000"}]},{"id":457,"name":"Gamprin","native":null,"cities":[{"id":66439,"name":"Gamprin","native":null,"lat":"47.22038000","lon":"9.50935000"}]},{"id":455,"name":"Mauren","native":null,"cities":[{"id":66440,"name":"Mauren","native":null,"lat":"47.21805000","lon":"9.54420000"}]},{"id":454,"name":"Planken","native":null,"cities":[{"id":66441,"name":"Planken","native":null,"lat":"47.18516000","lon":"9.54437000"}]},{"id":453,"name":"Ruggell","native":null,"cities":[{"id":66442,"name":"Ruggell","native":null,"lat":"47.23799000","lon":"9.52540000"}]},{"id":450,"name":"Schaan","native":null,"cities":[{"id":66443,"name":"Schaan","native":null,"lat":"47.16498000","lon":"9.50867000"}]},{"id":449,"name":"Schellenberg","native":null,"cities":[{"id":66444,"name":"Schellenberg","native":null,"lat":"47.23123000","lon":"9.54678000"}]},{"id":459,"name":"Triesen","native":null,"cities":[{"id":66445,"name":"Triesen","native":null,"lat":"47.10752000","lon":"9.52815000"}]},{"id":456,"name":"Triesenberg","native":null,"cities":[{"id":66446,"name":"Triesenberg","native":null,"lat":"47.11815000","lon":"9.54197000"}]},{"id":452,"name":"Vaduz","native":null,"cities":[{"id":66447,"name":"Vaduz","native":null,"lat":"47.14151000","lon":"9.52154000"}]}]