[{"id":1561,"name":"Akmenė District Municipality","native":null,"cities":[]},{"id":1605,"name":"Alytus City Municipality","native":null,"cities":[{"id":66581,"name":"Alytus","native":null,"lat":"54.39635000","lon":"24.04142000"},{"id":66592,"name":"Daugai","native":null,"lat":"54.36667000","lon":"24.33333000"},{"id":66593,"name":"Druskininkai","native":null,"lat":"54.01573000","lon":"23.98703000"},{"id":66630,"name":"Lazdijai","native":null,"lat":"54.23333000","lon":"23.51667000"},{"id":66678,"name":"Simnas","native":null,"lat":"54.38200000","lon":"23.64600000"},{"id":66694,"name":"Varėna","native":null,"lat":"54.21667000","lon":"24.56667000"},{"id":66695,"name":"Veisiejai","native":null,"lat":"54.10110000","lon":"23.69614000"}]},{"id":1574,"name":"Alytus County","native":null,"cities":[]},{"id":1599,"name":"Alytus District Municipality","native":null,"cities":[]},{"id":1603,"name":"Birštonas Municipality","native":null,"cities":[]},{"id":1566,"name":"Biržai District Municipality","native":null,"cities":[]},{"id":1579,"name":"Druskininkai municipality","native":null,"cities":[]},{"id":1559,"name":"Elektrėnai municipality","native":null,"cities":[]},{"id":1562,"name":"Ignalina District Municipality","native":null,"cities":[]},{"id":1567,"name":"Jonava District Municipality","native":null,"cities":[]},{"id":1581,"name":"Joniškis District Municipality","native":null,"cities":[]},{"id":1555,"name":"Jurbarkas District Municipality","native":null,"cities":[]},{"id":1583,"name":"Kaišiadorys District Municipality","native":null,"cities":[]},{"id":1591,"name":"Kalvarija municipality","native":null,"cities":[]},{"id":1580,"name":"Kaunas City Municipality","native":null,"cities":[{"id":66576,"name":"Akademija (Kaunas)","native":null,"lat":"54.89640000","lon":"23.82411000"},{"id":66579,"name":"Aleksotas","native":null,"lat":"54.88037000","lon":"23.90842000"},{"id":66584,"name":"Ariogala","native":null,"lat":"55.26200000","lon":"23.47700000"},{"id":66588,"name":"Birštonas","native":null,"lat":"54.61667000","lon":"24.03333000"},{"id":66591,"name":"Dainava (Kaunas)","native":null,"lat":"54.91525000","lon":"23.96831000"},{"id":66595,"name":"Eiguliai","native":null,"lat":"54.93133000","lon":"23.93243000"},{"id":66598,"name":"Ežerėlis","native":null,"lat":"54.88315000","lon":"23.60396000"},{"id":66601,"name":"Garliava","native":null,"lat":"54.82139000","lon":"23.87130000"},{"id":66605,"name":"Jieznas","native":null,"lat":"54.59937000","lon":"24.17593000"},{"id":66606,"name":"Jonava","native":null,"lat":"55.08333000","lon":"24.28333000"},{"id":66611,"name":"Kaišiadorys","native":null,"lat":"54.86667000","lon":"24.45000000"},{"id":66614,"name":"Karmėlava","native":null,"lat":"54.97055000","lon":"24.06182000"},{"id":66615,"name":"Kaunas","native":null,"lat":"54.90272000","lon":"23.90961000"},{"id":66629,"name":"Kėdainiai","native":null,"lat":"55.28333000","lon":"23.96667000"},{"id":66624,"name":"Kulautuva","native":null,"lat":"54.94212000","lon":"23.64218000"},{"id":66636,"name":"Mastaiciai","native":null,"lat":"54.81998000","lon":"23.84462000"},{"id":66661,"name":"Prienai","native":null,"lat":"54.63333000","lon":"23.95000000"},{"id":66664,"name":"Ramučiai","native":null,"lat":"54.94830000","lon":"24.03050000"},{"id":66666,"name":"Raseiniai","native":null,"lat":"55.36667000","lon":"23.11667000"},{"id":66674,"name":"Sargėnai","native":null,"lat":"54.94933000","lon":"23.88316000"},{"id":66714,"name":"Šilainiai","native":null,"lat":"54.92911000","lon":"23.88599000"},{"id":66701,"name":"Vilkija","native":null,"lat":"55.04609000","lon":"23.58552000"},{"id":66723,"name":"Žiežmariai","native":null,"lat":"54.80725000","lon":"24.44073000"}]},{"id":1556,"name":"Kaunas County","native":null,"cities":[]},{"id":1565,"name":"Kaunas District Municipality","native":null,"cities":[]},{"id":1575,"name":"Kazlų Rūda municipality","native":null,"cities":[]},{"id":1584,"name":"Kėdainiai District Municipality","native":null,"cities":[]},{"id":1618,"name":"Kelmė District Municipality","native":null,"cities":[]},{"id":1597,"name":"Klaipeda City Municipality","native":null,"cities":[]},{"id":1600,"name":"Klaipėda County","native":null,"cities":[]},{"id":1604,"name":"Klaipėda District Municipality","native":null,"cities":[{"id":66600,"name":"Gargždai","native":null,"lat":"55.70951000","lon":"21.39441000"},{"id":66620,"name":"Klaipėda","native":null,"lat":"55.71667000","lon":"21.11667000"},{"id":66622,"name":"Kretinga","native":null,"lat":"55.88880000","lon":"21.24448000"},{"id":66644,"name":"Neringa","native":null,"lat":"55.36667000","lon":"21.06667000"},{"id":66645,"name":"Nida","native":null,"lat":"55.30860000","lon":"20.99651000"},{"id":66650,"name":"Palanga","native":null,"lat":"55.91750000","lon":"21.06861000"},{"id":66660,"name":"Priekulė","native":null,"lat":"55.55427000","lon":"21.31903000"},{"id":66670,"name":"Rusnė","native":null,"lat":"55.29820000","lon":"21.37120000"},{"id":66673,"name":"Salantai","native":null,"lat":"56.05650000","lon":"21.56890000"},{"id":66677,"name":"Silute","native":null,"lat":"55.34889000","lon":"21.48306000"},{"id":66681,"name":"Skuodas","native":null,"lat":"56.26667000","lon":"21.53333000"},{"id":66718,"name":"Šventoji","native":null,"lat":"56.02610000","lon":"21.08411000"},{"id":66722,"name":"Žemaičių Naumiestis","native":null,"lat":"55.35941000","lon":"21.70364000"}]},{"id":1571,"name":"Kretinga District Municipality","native":null,"cities":[]},{"id":1585,"name":"Kupiškis District Municipality","native":null,"cities":[]},{"id":1611,"name":"Lazdijai District Municipality","native":null,"cities":[]},{"id":1570,"name":"Marijampolė County","native":null,"cities":[]},{"id":1610,"name":"Marijampolė Municipality","native":null,"cities":[{"id":66602,"name":"Gelgaudiškis","native":null,"lat":"55.07688000","lon":"22.97699000"},{"id":66612,"name":"Kalvarija","native":null,"lat":"54.41700000","lon":"23.22300000"},{"id":66613,"name":"Kalvarija Municipality","native":null,"lat":"54.41468000","lon":"23.22484000"},{"id":66617,"name":"Kazlų Rūda","native":null,"lat":"54.74900000","lon":"23.49000000"},{"id":66618,"name":"Kazlų Rūda Municipality","native":null,"lat":"54.74751000","lon":"23.49272000"},{"id":66623,"name":"Kudirkos Naumiestis","native":null,"lat":"54.77353000","lon":"22.86138000"},{"id":66628,"name":"Kybartai","native":null,"lat":"54.63858000","lon":"22.76316000"},{"id":66634,"name":"Marijampolė","native":null,"lat":"54.55991000","lon":"23.35412000"},{"id":66635,"name":"Marijampolė Municipality","native":null,"lat":"54.56667000","lon":"23.35000000"},{"id":66672,"name":"Sakiai","native":null,"lat":"54.95000000","lon":"23.05000000"},{"id":66699,"name":"Vilkaviskis","native":null,"lat":"54.65167000","lon":"23.03222000"},{"id":66700,"name":"Vilkaviškis District Municipality","native":null,"lat":"54.65000000","lon":"23.03333000"},{"id":66705,"name":"Virbalis","native":null,"lat":"54.62858000","lon":"22.82272000"}]},{"id":1557,"name":"Mažeikiai District Municipality","native":null,"cities":[]},{"id":1582,"name":"Molėtai District Municipality","native":null,"cities":[]},{"id":1563,"name":"Neringa Municipality","native":null,"cities":[]},{"id":1612,"name":"Pagėgiai municipality","native":null,"cities":[]},{"id":1595,"name":"Pakruojis District Municipality","native":null,"cities":[]},{"id":1588,"name":"Palanga City Municipality","native":null,"cities":[]},{"id":1589,"name":"Panevėžys City Municipality","native":null,"cities":[]},{"id":1558,"name":"Panevėžys County","native":null,"cities":[]},{"id":1614,"name":"Panevėžys District Municipality","native":null,"cities":[{"id":66587,"name":"Birzai","native":null,"lat":"56.20000000","lon":"24.75000000"},{"id":66608,"name":"Juodupė","native":null,"lat":"56.08700000","lon":"25.60700000"},{"id":66625,"name":"Kupiskis","native":null,"lat":"55.84027000","lon":"24.97976000"},{"id":66646,"name":"Obeliai","native":null,"lat":"55.96895000","lon":"25.15648000"},{"id":66651,"name":"Panevėžys","native":null,"lat":"55.73333000","lon":"24.35000000"},{"id":66652,"name":"Panevėžys City","native":null,"lat":"55.73600000","lon":"24.34347000"},{"id":66653,"name":"Panevėžys District Municipality","native":null,"lat":"55.73301000","lon":"24.37609000"},{"id":66654,"name":"Pasvalys","native":null,"lat":"56.06667000","lon":"24.40000000"},{"id":66665,"name":"Ramygala","native":null,"lat":"55.51400000","lon":"24.30000000"},{"id":66669,"name":"Rokiškis","native":null,"lat":"55.96667000","lon":"25.58333000"},{"id":66692,"name":"Vabalninkas","native":null,"lat":"55.98151000","lon":"24.74828000"}]},{"id":1616,"name":"Pasvalys District Municipality","native":null,"cities":[]},{"id":1553,"name":"Plungė District Municipality","native":null,"cities":[]},{"id":1578,"name":"Prienai District Municipality","native":null,"cities":[]},{"id":1568,"name":"Radviliškis District Municipality","native":null,"cities":[]},{"id":1587,"name":"Raseiniai District Municipality","native":null,"cities":[]},{"id":1590,"name":"Rietavas municipality","native":null,"cities":[]},{"id":1615,"name":"Rokiškis District Municipality","native":null,"cities":[]},{"id":1576,"name":"Šakiai District Municipality","native":null,"cities":[]},{"id":1577,"name":"Šalčininkai District Municipality","native":null,"cities":[]},{"id":1609,"name":"Šiauliai City Municipality","native":null,"cities":[{"id":66577,"name":"Akmenė","native":null,"lat":"56.25000000","lon":"22.75000000"},{"id":66607,"name":"Joniškis","native":null,"lat":"56.23333000","lon":"23.61667000"},{"id":66619,"name":"Kelmė","native":null,"lat":"55.63333000","lon":"22.93333000"},{"id":66627,"name":"Kuršėnai","native":null,"lat":"56.00318000","lon":"22.93662000"},{"id":66633,"name":"Linkuva","native":null,"lat":"56.08596000","lon":"23.97061000"},{"id":66642,"name":"Naujoji Akmene","native":null,"lat":"56.31667000","lon":"22.90000000"},{"id":66649,"name":"Pakruojis","native":null,"lat":"55.96667000","lon":"23.86667000"},{"id":66662,"name":"Radviliskis","native":null,"lat":"55.81667000","lon":"23.53333000"},{"id":66710,"name":"Šeduva","native":null,"lat":"55.74930000","lon":"23.75610000"},{"id":66712,"name":"Šiauliai","native":null,"lat":"55.93333000","lon":"23.31667000"},{"id":66688,"name":"Tytuvėnėliai","native":null,"lat":"55.62345000","lon":"23.17162000"},{"id":66696,"name":"Venta","native":null,"lat":"56.19162000","lon":"22.69528000"},{"id":66721,"name":"Žagarė","native":null,"lat":"56.36149000","lon":"23.25094000"}]},{"id":1586,"name":"Šiauliai County","native":null,"cities":[]},{"id":1554,"name":"Šiauliai District Municipality","native":null,"cities":[]},{"id":1613,"name":"Šilalė District Municipality","native":null,"cities":[]},{"id":1607,"name":"Šilutė District Municipality","native":null,"cities":[]},{"id":1594,"name":"Širvintos District Municipality","native":null,"cities":[]},{"id":1617,"name":"Skuodas District Municipality","native":null,"cities":[]},{"id":1560,"name":"Švenčionys District Municipality","native":null,"cities":[]},{"id":1573,"name":"Tauragė County","native":null,"cities":[{"id":66590,"name":"Būgai","native":null,"lat":"55.41387000","lon":"22.60894000"},{"id":66609,"name":"Jurbarkas","native":null,"lat":"55.10859000","lon":"22.79885000"},{"id":66648,"name":"Pagėgiai","native":null,"lat":"55.13400000","lon":"21.90446000"},{"id":66715,"name":"Šilalė","native":null,"lat":"55.46667000","lon":"22.20000000"},{"id":66683,"name":"Taurage","native":null,"lat":"55.25222000","lon":"22.28972000"}]},{"id":1572,"name":"Tauragė District Municipality","native":null,"cities":[]},{"id":1569,"name":"Telšiai County","native":null,"cities":[]},{"id":1608,"name":"Telšiai District Municipality","native":null,"cities":[{"id":66637,"name":"Mazeikiai","native":null,"lat":"56.31667000","lon":"22.33333000"},{"id":66657,"name":"Plateliai","native":null,"lat":"56.04657000","lon":"21.81615000"},{"id":66658,"name":"Plunge","native":null,"lat":"55.91139000","lon":"21.84417000"},{"id":66668,"name":"Rietavas","native":null,"lat":"55.72375000","lon":"21.93266000"},{"id":66675,"name":"Seda","native":null,"lat":"56.16854000","lon":"22.09071000"},{"id":66685,"name":"Telsiai","native":null,"lat":"55.98139000","lon":"22.24722000"},{"id":66693,"name":"Varniai","native":null,"lat":"55.74435000","lon":"22.37251000"},{"id":66697,"name":"Viekšniai","native":null,"lat":"56.23598000","lon":"22.51667000"}]},{"id":1593,"name":"Trakai District Municipality","native":null,"cities":[]},{"id":1596,"name":"Ukmergė District Municipality","native":null,"cities":[]},{"id":1621,"name":"Utena County","native":null,"cities":[{"id":66582,"name":"Anyksciai","native":null,"lat":"55.52557000","lon":"25.10264000"},{"id":66594,"name":"Dūkštas","native":null,"lat":"55.52200000","lon":"26.32100000"},{"id":66604,"name":"Ignalina","native":null,"lat":"55.35000000","lon":"26.16667000"},{"id":66639,"name":"Moletai","native":null,"lat":"55.23333000","lon":"25.41667000"},{"id":66691,"name":"Utena","native":null,"lat":"55.49764000","lon":"25.59918000"},{"id":66706,"name":"Visaginas","native":null,"lat":"55.60000000","lon":"26.41667000"},{"id":66707,"name":"Zarasai","native":null,"lat":"55.73333000","lon":"26.25000000"}]},{"id":1598,"name":"Utena District Municipality","native":null,"cities":[]},{"id":1602,"name":"Varėna District Municipality","native":null,"cities":[]},{"id":1620,"name":"Vilkaviškis District Municipality","native":null,"cities":[]},{"id":1606,"name":"Vilnius City Municipality","native":null,"cities":[{"id":66585,"name":"Aukstadvaris","native":null,"lat":"54.57946000","lon":"24.52683000"},{"id":66586,"name":"Baltoji Vokė","native":null,"lat":"54.60002000","lon":"25.19318000"},{"id":66596,"name":"Eišiškės","native":null,"lat":"54.17414000","lon":"24.99917000"},{"id":66597,"name":"Elektrėnai","native":null,"lat":"54.78544000","lon":"24.66302000"},{"id":66599,"name":"Fabijoniškės","native":null,"lat":"54.73333000","lon":"25.24167000"},{"id":66603,"name":"Grigiškės","native":null,"lat":"54.68333000","lon":"25.08333000"},{"id":66610,"name":"Justiniškės","native":null,"lat":"54.71664000","lon":"25.21740000"},{"id":66631,"name":"Lazdynai","native":null,"lat":"54.66815000","lon":"25.20684000"},{"id":66632,"name":"Lentvaris","native":null,"lat":"54.64364000","lon":"25.05162000"},{"id":66641,"name":"Naujamiestis","native":null,"lat":"54.67951000","lon":"25.26855000"},{"id":66643,"name":"Nemenčinė","native":null,"lat":"54.84776000","lon":"25.46992000"},{"id":66647,"name":"Pabradė","native":null,"lat":"54.98100000","lon":"25.76100000"},{"id":66655,"name":"Pašilaičiai","native":null,"lat":"54.73429000","lon":"25.21912000"},{"id":66656,"name":"Pilaitė","native":null,"lat":"54.69981000","lon":"25.18393000"},{"id":66667,"name":"Rasos","native":null,"lat":"54.67877000","lon":"25.31173000"},{"id":66671,"name":"Rūdiškės","native":null,"lat":"54.51609000","lon":"24.83084000"},{"id":66709,"name":"Šalčininkai","native":null,"lat":"54.30000000","lon":"25.38333000"},{"id":66676,"name":"Senieji Trakai","native":null,"lat":"54.60900000","lon":"24.98000000"},{"id":66711,"name":"Šeškinė","native":null,"lat":"54.70972000","lon":"25.25053000"},{"id":66679,"name":"Sirvintos","native":null,"lat":"55.05000000","lon":"24.95000000"},{"id":66680,"name":"Skaidiškės","native":null,"lat":"54.61398000","lon":"25.39573000"},{"id":66720,"name":"Švenčionėliai","native":null,"lat":"55.16163000","lon":"26.00177000"},{"id":66682,"name":"Svencionys","native":null,"lat":"55.15000000","lon":"26.16667000"},{"id":66687,"name":"Trakai","native":null,"lat":"54.63783000","lon":"24.93433000"},{"id":66689,"name":"Ukmerge","native":null,"lat":"55.25000000","lon":"24.75000000"},{"id":66698,"name":"Vievis","native":null,"lat":"54.76667000","lon":"24.80000000"},{"id":66702,"name":"Vilkpėdė","native":null,"lat":"54.66969000","lon":"25.24770000"},{"id":66703,"name":"Vilnius","native":null,"lat":"54.68916000","lon":"25.27980000"},{"id":66704,"name":"Vilnius District Municipality","native":null,"lat":"54.73333000","lon":"25.38333000"}]},{"id":1601,"name":"Vilnius County","native":null,"cities":[]},{"id":1592,"name":"Vilnius District Municipality","native":null,"cities":[]},{"id":1564,"name":"Visaginas Municipality","native":null,"cities":[]},{"id":1619,"name":"Zarasai District Municipality","native":null,"cities":[]}]