[{"name":"Akmenė District Municipality","native":null,"cities":[]},{"name":"Alytus City Municipality","native":null,"cities":[{"name":"Alytus","native":null,"lat":"54.39635000","lon":"24.04142000"},{"name":"Daugai","native":null,"lat":"54.36667000","lon":"24.33333000"},{"name":"Druskininkai","native":null,"lat":"54.01573000","lon":"23.98703000"},{"name":"Lazdijai","native":null,"lat":"54.23333000","lon":"23.51667000"},{"name":"Simnas","native":null,"lat":"54.38200000","lon":"23.64600000"},{"name":"Varėna","native":null,"lat":"54.21667000","lon":"24.56667000"},{"name":"Veisiejai","native":null,"lat":"54.10110000","lon":"23.69614000"}]},{"name":"Alytus County","native":null,"cities":[]},{"name":"Alytus District Municipality","native":null,"cities":[]},{"name":"Birštonas Municipality","native":null,"cities":[]},{"name":"Biržai District Municipality","native":null,"cities":[]},{"name":"Druskininkai municipality","native":null,"cities":[]},{"name":"Elektrėnai municipality","native":null,"cities":[]},{"name":"Ignalina District Municipality","native":null,"cities":[]},{"name":"Jonava District Municipality","native":null,"cities":[]},{"name":"Joniškis District Municipality","native":null,"cities":[]},{"name":"Jurbarkas District Municipality","native":null,"cities":[]},{"name":"Kaišiadorys District Municipality","native":null,"cities":[]},{"name":"Kalvarija municipality","native":null,"cities":[]},{"name":"Kaunas City Municipality","native":null,"cities":[{"name":"Akademija (Kaunas)","native":null,"lat":"54.89640000","lon":"23.82411000"},{"name":"Aleksotas","native":null,"lat":"54.88037000","lon":"23.90842000"},{"name":"Ariogala","native":null,"lat":"55.26200000","lon":"23.47700000"},{"name":"Birštonas","native":null,"lat":"54.61667000","lon":"24.03333000"},{"name":"Dainava (Kaunas)","native":null,"lat":"54.91525000","lon":"23.96831000"},{"name":"Eiguliai","native":null,"lat":"54.93133000","lon":"23.93243000"},{"name":"Ežerėlis","native":null,"lat":"54.88315000","lon":"23.60396000"},{"name":"Garliava","native":null,"lat":"54.82139000","lon":"23.87130000"},{"name":"Jieznas","native":null,"lat":"54.59937000","lon":"24.17593000"},{"name":"Jonava","native":null,"lat":"55.08333000","lon":"24.28333000"},{"name":"Kaišiadorys","native":null,"lat":"54.86667000","lon":"24.45000000"},{"name":"Karmėlava","native":null,"lat":"54.97055000","lon":"24.06182000"},{"name":"Kaunas","native":null,"lat":"54.90272000","lon":"23.90961000"},{"name":"Kėdainiai","native":null,"lat":"55.28333000","lon":"23.96667000"},{"name":"Kulautuva","native":null,"lat":"54.94212000","lon":"23.64218000"},{"name":"Mastaiciai","native":null,"lat":"54.81998000","lon":"23.84462000"},{"name":"Prienai","native":null,"lat":"54.63333000","lon":"23.95000000"},{"name":"Ramučiai","native":null,"lat":"54.94830000","lon":"24.03050000"},{"name":"Raseiniai","native":null,"lat":"55.36667000","lon":"23.11667000"},{"name":"Sargėnai","native":null,"lat":"54.94933000","lon":"23.88316000"},{"name":"Šilainiai","native":null,"lat":"54.92911000","lon":"23.88599000"},{"name":"Vilkija","native":null,"lat":"55.04609000","lon":"23.58552000"},{"name":"Žiežmariai","native":null,"lat":"54.80725000","lon":"24.44073000"}]},{"name":"Kaunas County","native":null,"cities":[]},{"name":"Kaunas District Municipality","native":null,"cities":[]},{"name":"Kazlų Rūda municipality","native":null,"cities":[]},{"name":"Kėdainiai District Municipality","native":null,"cities":[]},{"name":"Kelmė District Municipality","native":null,"cities":[]},{"name":"Klaipeda City Municipality","native":null,"cities":[]},{"name":"Klaipėda County","native":null,"cities":[]},{"name":"Klaipėda District Municipality","native":null,"cities":[{"name":"Gargždai","native":null,"lat":"55.70951000","lon":"21.39441000"},{"name":"Klaipėda","native":null,"lat":"55.71667000","lon":"21.11667000"},{"name":"Kretinga","native":null,"lat":"55.88880000","lon":"21.24448000"},{"name":"Neringa","native":null,"lat":"55.36667000","lon":"21.06667000"},{"name":"Nida","native":null,"lat":"55.30860000","lon":"20.99651000"},{"name":"Palanga","native":null,"lat":"55.91750000","lon":"21.06861000"},{"name":"Priekulė","native":null,"lat":"55.55427000","lon":"21.31903000"},{"name":"Rusnė","native":null,"lat":"55.29820000","lon":"21.37120000"},{"name":"Salantai","native":null,"lat":"56.05650000","lon":"21.56890000"},{"name":"Silute","native":null,"lat":"55.34889000","lon":"21.48306000"},{"name":"Skuodas","native":null,"lat":"56.26667000","lon":"21.53333000"},{"name":"Šventoji","native":null,"lat":"56.02610000","lon":"21.08411000"},{"name":"Žemaičių Naumiestis","native":null,"lat":"55.35941000","lon":"21.70364000"}]},{"name":"Kretinga District Municipality","native":null,"cities":[]},{"name":"Kupiškis District Municipality","native":null,"cities":[]},{"name":"Lazdijai District Municipality","native":null,"cities":[]},{"name":"Marijampolė County","native":null,"cities":[]},{"name":"Marijampolė Municipality","native":null,"cities":[{"name":"Gelgaudiškis","native":null,"lat":"55.07688000","lon":"22.97699000"},{"name":"Kalvarija","native":null,"lat":"54.41700000","lon":"23.22300000"},{"name":"Kalvarija Municipality","native":null,"lat":"54.41468000","lon":"23.22484000"},{"name":"Kazlų Rūda","native":null,"lat":"54.74900000","lon":"23.49000000"},{"name":"Kazlų Rūda Municipality","native":null,"lat":"54.74751000","lon":"23.49272000"},{"name":"Kudirkos Naumiestis","native":null,"lat":"54.77353000","lon":"22.86138000"},{"name":"Kybartai","native":null,"lat":"54.63858000","lon":"22.76316000"},{"name":"Marijampolė","native":null,"lat":"54.55991000","lon":"23.35412000"},{"name":"Marijampolė Municipality","native":null,"lat":"54.56667000","lon":"23.35000000"},{"name":"Sakiai","native":null,"lat":"54.95000000","lon":"23.05000000"},{"name":"Vilkaviskis","native":null,"lat":"54.65167000","lon":"23.03222000"},{"name":"Vilkaviškis District Municipality","native":null,"lat":"54.65000000","lon":"23.03333000"},{"name":"Virbalis","native":null,"lat":"54.62858000","lon":"22.82272000"}]},{"name":"Mažeikiai District Municipality","native":null,"cities":[]},{"name":"Molėtai District Municipality","native":null,"cities":[]},{"name":"Neringa Municipality","native":null,"cities":[]},{"name":"Pagėgiai municipality","native":null,"cities":[]},{"name":"Pakruojis District Municipality","native":null,"cities":[]},{"name":"Palanga City Municipality","native":null,"cities":[]},{"name":"Panevėžys City Municipality","native":null,"cities":[]},{"name":"Panevėžys County","native":null,"cities":[]},{"name":"Panevėžys District Municipality","native":null,"cities":[{"name":"Birzai","native":null,"lat":"56.20000000","lon":"24.75000000"},{"name":"Juodupė","native":null,"lat":"56.08700000","lon":"25.60700000"},{"name":"Kupiskis","native":null,"lat":"55.84027000","lon":"24.97976000"},{"name":"Obeliai","native":null,"lat":"55.96895000","lon":"25.15648000"},{"name":"Panevėžys","native":null,"lat":"55.73333000","lon":"24.35000000"},{"name":"Panevėžys City","native":null,"lat":"55.73600000","lon":"24.34347000"},{"name":"Panevėžys District Municipality","native":null,"lat":"55.73301000","lon":"24.37609000"},{"name":"Pasvalys","native":null,"lat":"56.06667000","lon":"24.40000000"},{"name":"Ramygala","native":null,"lat":"55.51400000","lon":"24.30000000"},{"name":"Rokiškis","native":null,"lat":"55.96667000","lon":"25.58333000"},{"name":"Vabalninkas","native":null,"lat":"55.98151000","lon":"24.74828000"}]},{"name":"Pasvalys District Municipality","native":null,"cities":[]},{"name":"Plungė District Municipality","native":null,"cities":[]},{"name":"Prienai District Municipality","native":null,"cities":[]},{"name":"Radviliškis District Municipality","native":null,"cities":[]},{"name":"Raseiniai District Municipality","native":null,"cities":[]},{"name":"Rietavas municipality","native":null,"cities":[]},{"name":"Rokiškis District Municipality","native":null,"cities":[]},{"name":"Šakiai District Municipality","native":null,"cities":[]},{"name":"Šalčininkai District Municipality","native":null,"cities":[]},{"name":"Šiauliai City Municipality","native":null,"cities":[{"name":"Akmenė","native":null,"lat":"56.25000000","lon":"22.75000000"},{"name":"Joniškis","native":null,"lat":"56.23333000","lon":"23.61667000"},{"name":"Kelmė","native":null,"lat":"55.63333000","lon":"22.93333000"},{"name":"Kuršėnai","native":null,"lat":"56.00318000","lon":"22.93662000"},{"name":"Linkuva","native":null,"lat":"56.08596000","lon":"23.97061000"},{"name":"Naujoji Akmene","native":null,"lat":"56.31667000","lon":"22.90000000"},{"name":"Pakruojis","native":null,"lat":"55.96667000","lon":"23.86667000"},{"name":"Radviliskis","native":null,"lat":"55.81667000","lon":"23.53333000"},{"name":"Šeduva","native":null,"lat":"55.74930000","lon":"23.75610000"},{"name":"Šiauliai","native":null,"lat":"55.93333000","lon":"23.31667000"},{"name":"Tytuvėnėliai","native":null,"lat":"55.62345000","lon":"23.17162000"},{"name":"Venta","native":null,"lat":"56.19162000","lon":"22.69528000"},{"name":"Žagarė","native":null,"lat":"56.36149000","lon":"23.25094000"}]},{"name":"Šiauliai County","native":null,"cities":[]},{"name":"Šiauliai District Municipality","native":null,"cities":[]},{"name":"Šilalė District Municipality","native":null,"cities":[]},{"name":"Šilutė District Municipality","native":null,"cities":[]},{"name":"Širvintos District Municipality","native":null,"cities":[]},{"name":"Skuodas District Municipality","native":null,"cities":[]},{"name":"Švenčionys District Municipality","native":null,"cities":[]},{"name":"Tauragė County","native":null,"cities":[{"name":"Būgai","native":null,"lat":"55.41387000","lon":"22.60894000"},{"name":"Jurbarkas","native":null,"lat":"55.10859000","lon":"22.79885000"},{"name":"Pagėgiai","native":null,"lat":"55.13400000","lon":"21.90446000"},{"name":"Šilalė","native":null,"lat":"55.46667000","lon":"22.20000000"},{"name":"Taurage","native":null,"lat":"55.25222000","lon":"22.28972000"}]},{"name":"Tauragė District Municipality","native":null,"cities":[]},{"name":"Telšiai County","native":null,"cities":[]},{"name":"Telšiai District Municipality","native":null,"cities":[{"name":"Mazeikiai","native":null,"lat":"56.31667000","lon":"22.33333000"},{"name":"Plateliai","native":null,"lat":"56.04657000","lon":"21.81615000"},{"name":"Plunge","native":null,"lat":"55.91139000","lon":"21.84417000"},{"name":"Rietavas","native":null,"lat":"55.72375000","lon":"21.93266000"},{"name":"Seda","native":null,"lat":"56.16854000","lon":"22.09071000"},{"name":"Telsiai","native":null,"lat":"55.98139000","lon":"22.24722000"},{"name":"Varniai","native":null,"lat":"55.74435000","lon":"22.37251000"},{"name":"Viekšniai","native":null,"lat":"56.23598000","lon":"22.51667000"}]},{"name":"Trakai District Municipality","native":null,"cities":[]},{"name":"Ukmergė District Municipality","native":null,"cities":[]},{"name":"Utena County","native":null,"cities":[{"name":"Anyksciai","native":null,"lat":"55.52557000","lon":"25.10264000"},{"name":"Dūkštas","native":null,"lat":"55.52200000","lon":"26.32100000"},{"name":"Ignalina","native":null,"lat":"55.35000000","lon":"26.16667000"},{"name":"Moletai","native":null,"lat":"55.23333000","lon":"25.41667000"},{"name":"Utena","native":null,"lat":"55.49764000","lon":"25.59918000"},{"name":"Visaginas","native":null,"lat":"55.60000000","lon":"26.41667000"},{"name":"Zarasai","native":null,"lat":"55.73333000","lon":"26.25000000"}]},{"name":"Utena District Municipality","native":null,"cities":[]},{"name":"Varėna District Municipality","native":null,"cities":[]},{"name":"Vilkaviškis District Municipality","native":null,"cities":[]},{"name":"Vilnius City Municipality","native":null,"cities":[{"name":"Aukstadvaris","native":null,"lat":"54.57946000","lon":"24.52683000"},{"name":"Baltoji Vokė","native":null,"lat":"54.60002000","lon":"25.19318000"},{"name":"Eišiškės","native":null,"lat":"54.17414000","lon":"24.99917000"},{"name":"Elektrėnai","native":null,"lat":"54.78544000","lon":"24.66302000"},{"name":"Fabijoniškės","native":null,"lat":"54.73333000","lon":"25.24167000"},{"name":"Grigiškės","native":null,"lat":"54.68333000","lon":"25.08333000"},{"name":"Justiniškės","native":null,"lat":"54.71664000","lon":"25.21740000"},{"name":"Lazdynai","native":null,"lat":"54.66815000","lon":"25.20684000"},{"name":"Lentvaris","native":null,"lat":"54.64364000","lon":"25.05162000"},{"name":"Naujamiestis","native":null,"lat":"54.67951000","lon":"25.26855000"},{"name":"Nemenčinė","native":null,"lat":"54.84776000","lon":"25.46992000"},{"name":"Pabradė","native":null,"lat":"54.98100000","lon":"25.76100000"},{"name":"Pašilaičiai","native":null,"lat":"54.73429000","lon":"25.21912000"},{"name":"Pilaitė","native":null,"lat":"54.69981000","lon":"25.18393000"},{"name":"Rasos","native":null,"lat":"54.67877000","lon":"25.31173000"},{"name":"Rūdiškės","native":null,"lat":"54.51609000","lon":"24.83084000"},{"name":"Šalčininkai","native":null,"lat":"54.30000000","lon":"25.38333000"},{"name":"Senieji Trakai","native":null,"lat":"54.60900000","lon":"24.98000000"},{"name":"Šeškinė","native":null,"lat":"54.70972000","lon":"25.25053000"},{"name":"Sirvintos","native":null,"lat":"55.05000000","lon":"24.95000000"},{"name":"Skaidiškės","native":null,"lat":"54.61398000","lon":"25.39573000"},{"name":"Švenčionėliai","native":null,"lat":"55.16163000","lon":"26.00177000"},{"name":"Svencionys","native":null,"lat":"55.15000000","lon":"26.16667000"},{"name":"Trakai","native":null,"lat":"54.63783000","lon":"24.93433000"},{"name":"Ukmerge","native":null,"lat":"55.25000000","lon":"24.75000000"},{"name":"Vievis","native":null,"lat":"54.76667000","lon":"24.80000000"},{"name":"Vilkpėdė","native":null,"lat":"54.66969000","lon":"25.24770000"},{"name":"Vilnius","native":null,"lat":"54.68916000","lon":"25.27980000"},{"name":"Vilnius District Municipality","native":null,"lat":"54.73333000","lon":"25.38333000"}]},{"name":"Vilnius County","native":null,"cities":[]},{"name":"Vilnius District Municipality","native":null,"cities":[]},{"name":"Visaginas Municipality","native":null,"cities":[]},{"name":"Zarasai District Municipality","native":null,"cities":[]}]