[{"id":1518,"name":"Canton of Capellen","native":null,"cities":[{"id":66726,"name":"Bascharage","native":null,"lat":"49.56727000","lon":"5.90730000"},{"id":66745,"name":"Bridel","native":null,"lat":"49.65579000","lon":"6.07999000"},{"id":66747,"name":"Capellen","native":null,"lat":"49.64500000","lon":"5.99083000"},{"id":66748,"name":"Clemency","native":null,"lat":"49.59667000","lon":"5.87583000"},{"id":66759,"name":"Dippach","native":null,"lat":"49.58701000","lon":"5.98330000"},{"id":66762,"name":"Eischen","native":null,"lat":"49.68556000","lon":"5.87861000"},{"id":66773,"name":"Garnich","native":null,"lat":"49.61667000","lon":"5.95250000"},{"id":66778,"name":"Hautcharage","native":null,"lat":"49.57499000","lon":"5.90970000"},{"id":66783,"name":"Hobscheid","native":null,"lat":"49.68861000","lon":"5.91472000"},{"id":66793,"name":"Käerjeng","native":null,"lat":"49.58311000","lon":"5.89892000"},{"id":66788,"name":"Kehlen","native":null,"lat":"49.66833000","lon":"6.03583000"},{"id":66791,"name":"Koerich","native":null,"lat":"49.67000000","lon":"5.95000000"},{"id":66792,"name":"Kopstal","native":null,"lat":"49.66444000","lon":"6.07306000"},{"id":66802,"name":"Mamer","native":null,"lat":"49.62750000","lon":"6.02333000"},{"id":66839,"name":"Schouweiler","native":null,"lat":"49.58250000","lon":"5.95639000"},{"id":66842,"name":"Septfontaines","native":null,"lat":"49.70111000","lon":"5.96722000"},{"id":66845,"name":"Steinfort","native":null,"lat":"49.66139000","lon":"5.91917000"}]},{"id":1521,"name":"Canton of Clervaux","native":null,"cities":[{"id":66749,"name":"Clervaux","native":null,"lat":"50.05472000","lon":"6.03139000"},{"id":66784,"name":"Hosingen","native":null,"lat":"50.01218000","lon":"6.09089000"},{"id":66819,"name":"Parc Hosingen","native":null,"lat":"49.99744000","lon":"6.09067000"},{"id":66849,"name":"Troisvierges","native":null,"lat":"50.12111000","lon":"6.00028000"},{"id":66862,"name":"Weiswampach","native":null,"lat":"50.13722000","lon":"6.07500000"},{"id":66865,"name":"Wincrange","native":null,"lat":"50.05333000","lon":"5.91917000"}]},{"id":1513,"name":"Canton of Diekirch","native":null,"cities":[{"id":66737,"name":"Bettendorf","native":null,"lat":"49.87667000","lon":"6.21806000"},{"id":66743,"name":"Bourscheid","native":null,"lat":"49.90862000","lon":"6.06750000"},{"id":66752,"name":"Commune de la Vallée de l’Ernz","native":null,"lat":"49.82149000","lon":"6.21746000"},{"id":66757,"name":"Diekirch","native":null,"lat":"49.86778000","lon":"6.15583000"},{"id":66764,"name":"Erpeldange","native":null,"lat":"49.86472000","lon":"6.11472000"},{"id":66767,"name":"Ettelbruck","native":null,"lat":"49.84750000","lon":"6.10417000"},{"id":66769,"name":"Feulen","native":null,"lat":"49.85000000","lon":"6.01667000"},{"id":66804,"name":"Medernach","native":null,"lat":"49.80955000","lon":"6.21521000"},{"id":66807,"name":"Mertzig","native":null,"lat":"49.83389000","lon":"6.00750000"},{"id":66815,"name":"Niederfeulen","native":null,"lat":"49.85556000","lon":"6.04722000"},{"id":66826,"name":"Reisdorf","native":null,"lat":"49.86861000","lon":"6.26778000"},{"id":66837,"name":"Schieren","native":null,"lat":"49.83056000","lon":"6.09861000"},{"id":66859,"name":"Warken","native":null,"lat":"49.85918000","lon":"6.08415000"}]},{"id":1515,"name":"Canton of Echternach","native":null,"cities":[{"id":66728,"name":"Beaufort","native":null,"lat":"49.83583000","lon":"6.29167000"},{"id":66729,"name":"Bech","native":null,"lat":"49.75260000","lon":"6.36379000"},{"id":66732,"name":"Berdorf","native":null,"lat":"49.82051000","lon":"6.34945000"},{"id":66753,"name":"Consdorf","native":null,"lat":"49.78018000","lon":"6.33950000"},{"id":66761,"name":"Echternach","native":null,"lat":"49.81212000","lon":"6.41846000"},{"id":66808,"name":"Mompach","native":null,"lat":"49.74611000","lon":"6.46500000"},{"id":66831,"name":"Rosport","native":null,"lat":"49.80470000","lon":"6.50532000"},{"id":66856,"name":"Waldbillig","native":null,"lat":"49.79636000","lon":"6.28431000"}]},{"id":1517,"name":"Canton of Esch-sur-Alzette","native":null,"cities":[{"id":66725,"name":"Aspelt","native":null,"lat":"49.52278000","lon":"6.22472000"},{"id":66731,"name":"Belvaux","native":null,"lat":"49.51014000","lon":"5.92414000"},{"id":66733,"name":"Bergem","native":null,"lat":"49.52500000","lon":"6.04222000"},{"id":66736,"name":"Bettembourg","native":null,"lat":"49.51861000","lon":"6.10278000"},{"id":66755,"name":"Crauthem","native":null,"lat":"49.53556000","lon":"6.14694000"},{"id":66758,"name":"Differdange","native":null,"lat":"49.52417000","lon":"5.89139000"},{"id":66760,"name":"Dudelange","native":null,"lat":"49.48056000","lon":"6.08750000"},{"id":66765,"name":"Esch-sur-Alzette","native":null,"lat":"49.49583000","lon":"5.98056000"},{"id":66772,"name":"Frisange","native":null,"lat":"49.51616000","lon":"6.18858000"},{"id":66787,"name":"Kayl","native":null,"lat":"49.48917000","lon":"6.03972000"},{"id":66795,"name":"Lamadelaine","native":null,"lat":"49.54639000","lon":"5.85639000"},{"id":66798,"name":"Leudelange","native":null,"lat":"49.56833000","lon":"6.06528000"},{"id":66809,"name":"Mondercange","native":null,"lat":"49.53306000","lon":"5.98833000"},{"id":66814,"name":"Niedercorn","native":null,"lat":"49.53611000","lon":"5.89306000"},{"id":66817,"name":"Obercorn","native":null,"lat":"49.51361000","lon":"5.89611000"},{"id":66822,"name":"Pétange","native":null,"lat":"49.55833000","lon":"5.88056000"},{"id":66820,"name":"Pontpierre","native":null,"lat":"49.53639000","lon":"6.02944000"},{"id":66824,"name":"Reckange-sur-Mess","native":null,"lat":"49.56250000","lon":"6.00889000"},{"id":66828,"name":"Rodange","native":null,"lat":"49.54639000","lon":"5.84083000"},{"id":66829,"name":"Roeser","native":null,"lat":"49.53721000","lon":"6.14629000"},{"id":66832,"name":"Rumelange","native":null,"lat":"49.45964000","lon":"6.03089000"},{"id":66835,"name":"Sanem","native":null,"lat":"49.54806000","lon":"5.92889000"},{"id":66838,"name":"Schifflange","native":null,"lat":"49.50639000","lon":"6.01278000"},{"id":66843,"name":"Soleuvre","native":null,"lat":"49.52148000","lon":"5.93781000"},{"id":66851,"name":"Tétange","native":null,"lat":"49.47583000","lon":"6.04222000"}]},{"id":1525,"name":"Canton of Grevenmacher","native":null,"cities":[{"id":66738,"name":"Betzdorf","native":null,"lat":"49.68333000","lon":"6.35000000"},{"id":66740,"name":"Biwer","native":null,"lat":"49.70605000","lon":"6.37201000"},{"id":66771,"name":"Flaxweiler","native":null,"lat":"49.66602000","lon":"6.34321000"},{"id":66775,"name":"Gonderange","native":null,"lat":"49.69537000","lon":"6.24577000"},{"id":66776,"name":"Grevenmacher","native":null,"lat":"49.67751000","lon":"6.44022000"},{"id":66786,"name":"Junglinster","native":null,"lat":"49.70722000","lon":"6.25306000"},{"id":66803,"name":"Manternach","native":null,"lat":"49.70278000","lon":"6.42639000"},{"id":66806,"name":"Mertert","native":null,"lat":"49.70261000","lon":"6.47966000"},{"id":66860,"name":"Wasserbillig","native":null,"lat":"49.71534000","lon":"6.49861000"},{"id":66867,"name":"Wormeldange","native":null,"lat":"49.61114000","lon":"6.40546000"}]},{"id":1527,"name":"Canton of Luxembourg","native":null,"cities":[{"id":66724,"name":"Alzingen","native":null,"lat":"49.56500000","lon":"6.16361000"},{"id":66746,"name":"Béreldange","native":null,"lat":"49.65507000","lon":"6.11874000"},{"id":66734,"name":"Bertrange","native":null,"lat":"49.61111000","lon":"6.05000000"},{"id":66754,"name":"Contern","native":null,"lat":"49.58194000","lon":"6.22667000"},{"id":66768,"name":"Fentange","native":null,"lat":"49.56278000","lon":"6.15389000"},{"id":66780,"name":"Heisdorf","native":null,"lat":"49.67207000","lon":"6.14202000"},{"id":66781,"name":"Helmsange","native":null,"lat":"49.65278000","lon":"6.14139000"},{"id":66782,"name":"Hesperange","native":null,"lat":"49.56806000","lon":"6.15139000"},{"id":66785,"name":"Itzig","native":null,"lat":"49.58769000","lon":"6.17065000"},{"id":66790,"name":"Kirchberg","native":null,"lat":"49.62389000","lon":"6.14944000"},{"id":66801,"name":"Luxembourg","native":null,"lat":"49.61167000","lon":"6.13000000"},{"id":66811,"name":"Moutfort","native":null,"lat":"49.58528000","lon":"6.25556000"},{"id":66812,"name":"Müllendorf","native":null,"lat":"49.68028000","lon":"6.13000000"},{"id":66813,"name":"Niederanven","native":null,"lat":"49.65196000","lon":"6.26199000"},{"id":66818,"name":"Olm","native":null,"lat":"49.65722000","lon":"6.00028000"},{"id":66834,"name":"Sandweiler","native":null,"lat":"49.61471000","lon":"6.22221000"},{"id":66840,"name":"Schrassig","native":null,"lat":"49.61014000","lon":"6.25903000"},{"id":66841,"name":"Schuttrange","native":null,"lat":"49.62056000","lon":"6.26861000"},{"id":66846,"name":"Steinsel","native":null,"lat":"49.67694000","lon":"6.12389000"},{"id":66847,"name":"Strassen","native":null,"lat":"49.62056000","lon":"6.07333000"},{"id":66858,"name":"Walferdange","native":null,"lat":"49.66321000","lon":"6.13224000"},{"id":66861,"name":"Weiler-la-Tour","native":null,"lat":"49.54083000","lon":"6.20083000"}]},{"id":1522,"name":"Canton of Mersch","native":null,"cities":[{"id":66739,"name":"Bissen","native":null,"lat":"49.78733000","lon":"6.06540000"},{"id":66741,"name":"Boevange-sur-Attert","native":null,"lat":"49.77256000","lon":"6.01532000"},{"id":66750,"name":"Colmar","native":null,"lat":"49.81028000","lon":"6.09722000"},{"id":66770,"name":"Fischbach","native":null,"lat":"49.74600000","lon":"6.18702000"},{"id":66779,"name":"Heffingen","native":null,"lat":"49.76907000","lon":"6.24049000"},{"id":66796,"name":"Larochette","native":null,"lat":"49.78362000","lon":"6.21891000"},{"id":66799,"name":"Lintgen","native":null,"lat":"49.72243000","lon":"6.13016000"},{"id":66800,"name":"Lorentzweiler","native":null,"lat":"49.70131000","lon":"6.14234000"},{"id":66805,"name":"Mersch","native":null,"lat":"49.74889000","lon":"6.10611000"},{"id":66816,"name":"Nommern","native":null,"lat":"49.78694000","lon":"6.17472000"},{"id":66830,"name":"Rollingen","native":null,"lat":"49.74167000","lon":"6.11444000"},{"id":66850,"name":"Tuntange","native":null,"lat":"49.71778000","lon":"6.01028000"}]},{"id":1516,"name":"Canton of Redange","native":null,"cities":[{"id":66730,"name":"Beckerich","native":null,"lat":"49.73056000","lon":"5.88722000"},{"id":66735,"name":"Bettborn","native":null,"lat":"49.79528000","lon":"5.94111000"},{"id":66751,"name":"Commune de Préizerdaul","native":null,"lat":"49.80114000","lon":"5.93299000"},{"id":66763,"name":"Ell","native":null,"lat":"49.76389000","lon":"5.85722000"},{"id":66777,"name":"Grosbous","native":null,"lat":"49.82778000","lon":"5.96722000"},{"id":66823,"name":"Rambrouch","native":null,"lat":"49.83083000","lon":"5.84500000"},{"id":66825,"name":"Redange-sur-Attert","native":null,"lat":"49.76437000","lon":"5.88997000"},{"id":66833,"name":"Saeul","native":null,"lat":"49.72722000","lon":"5.98639000"},{"id":66852,"name":"Useldange","native":null,"lat":"49.76972000","lon":"5.98222000"},{"id":66854,"name":"Vichten","native":null,"lat":"49.80306000","lon":"6.00000000"},{"id":66855,"name":"Wahl","native":null,"lat":"49.83667000","lon":"5.90639000"}]},{"id":1519,"name":"Canton of Remich","native":null,"cities":[{"id":66744,"name":"Bous","native":null,"lat":"49.55389000","lon":"6.32917000"},{"id":66756,"name":"Dalheim","native":null,"lat":"49.54083000","lon":"6.25972000"},{"id":66797,"name":"Lenningen","native":null,"lat":"49.59861000","lon":"6.36806000"},{"id":66810,"name":"Mondorf-les-Bains","native":null,"lat":"49.50500000","lon":"6.28111000"},{"id":66827,"name":"Remich","native":null,"lat":"49.54500000","lon":"6.36694000"},{"id":66836,"name":"Schengen","native":null,"lat":"49.47000000","lon":"6.36200000"},{"id":66844,"name":"Stadtbredimus","native":null,"lat":"49.56278000","lon":"6.36444000"},{"id":66857,"name":"Waldbredimus","native":null,"lat":"49.55676000","lon":"6.28789000"}]},{"id":1523,"name":"Canton of Vianden","native":null,"cities":[{"id":66821,"name":"Putscheid","native":null,"lat":"49.96083000","lon":"6.14306000"},{"id":66848,"name":"Tandel","native":null,"lat":"49.89750000","lon":"6.18333000"},{"id":66853,"name":"Vianden","native":null,"lat":"49.93500000","lon":"6.20889000"}]},{"id":1526,"name":"Canton of Wiltz","native":null,"cities":[{"id":66727,"name":"Bavigne","native":null,"lat":"49.92194000","lon":"5.84944000"},{"id":66742,"name":"Boulaide","native":null,"lat":"49.88778000","lon":"5.81639000"},{"id":66766,"name":"Esch-sur-Sûre","native":null,"lat":"49.91139000","lon":"5.93639000"},{"id":66774,"name":"Goesdorf","native":null,"lat":"49.92131000","lon":"5.96601000"},{"id":66789,"name":"Kiischpelt","native":null,"lat":"49.97835000","lon":"6.00760000"},{"id":66794,"name":"Lac de la Haute-Sûre","native":null,"lat":"49.91667000","lon":"5.83333000"},{"id":66863,"name":"Wiltz","native":null,"lat":"49.96547000","lon":"5.93390000"},{"id":66864,"name":"Wilwerwiltz","native":null,"lat":"49.98889000","lon":"5.99917000"},{"id":66866,"name":"Winseler","native":null,"lat":"49.96778000","lon":"5.89028000"}]},{"id":1524,"name":"Diekirch District","native":null,"cities":[]},{"id":1520,"name":"Grevenmacher District","native":null,"cities":[]},{"id":1514,"name":"Luxembourg District","native":null,"cities":[]}]