[{"id":4445,"name":"Aglona Municipality","native":null,"cities":[{"id":66868,"name":"Aglona","native":null,"lat":"56.13274000","lon":"27.00682000"}]},{"id":4472,"name":"Aizkraukle Municipality","native":null,"cities":[{"id":66870,"name":"Aizkraukle","native":null,"lat":"56.60477000","lon":"25.25534000"}]},{"id":4496,"name":"Aizpute Municipality","native":null,"cities":[{"id":66871,"name":"Aizpute","native":null,"lat":"56.72108000","lon":"21.60156000"}]},{"id":4499,"name":"Aknīste Municipality","native":null,"cities":[{"id":66872,"name":"Aknīste","native":null,"lat":"56.16152000","lon":"25.74783000"}]},{"id":4484,"name":"Aloja Municipality","native":null,"cities":[{"id":66873,"name":"Aloja","native":null,"lat":"57.76723000","lon":"24.87743000"},{"id":66966,"name":"Staicele","native":null,"lat":"57.83579000","lon":"24.74706000"}]},{"id":4485,"name":"Alsunga Municipality","native":null,"cities":[{"id":66874,"name":"Alsunga","native":null,"lat":"56.98194000","lon":"21.55938000"}]},{"id":4487,"name":"Alūksne Municipality","native":null,"cities":[{"id":66875,"name":"Alūksne","native":null,"lat":"57.42162000","lon":"27.04662000"}]},{"id":4497,"name":"Amata Municipality","native":null,"cities":[]},{"id":4457,"name":"Ape Municipality","native":null,"cities":[{"id":66876,"name":"Ape","native":null,"lat":"57.53928000","lon":"26.69291000"}]},{"id":4481,"name":"Auce Municipality","native":null,"cities":[{"id":66877,"name":"Auce","native":null,"lat":"56.45981000","lon":"22.90169000"}]},{"id":4427,"name":"Babīte Municipality","native":null,"cities":[{"id":66940,"name":"Piņķi","native":null,"lat":"56.94189000","lon":"23.91365000"}]},{"id":4482,"name":"Baldone Municipality","native":null,"cities":[{"id":66878,"name":"Baldone","native":null,"lat":"56.74451000","lon":"24.40078000"}]},{"id":4498,"name":"Baltinava Municipality","native":null,"cities":[{"id":66880,"name":"Baltinava","native":null,"lat":"56.94394000","lon":"27.64401000"}]},{"id":4505,"name":"Balvi Municipality","native":null,"cities":[{"id":66881,"name":"Balvi","native":null,"lat":"57.13130000","lon":"27.26583000"}]},{"id":4465,"name":"Bauska Municipality","native":null,"cities":[{"id":66882,"name":"Bauska","native":null,"lat":"56.40794000","lon":"24.19443000"}]},{"id":4471,"name":"Beverīna Municipality","native":null,"cities":[{"id":66931,"name":"Mūrmuiža","native":null,"lat":"57.47312000","lon":"25.49174000"}]},{"id":4468,"name":"Brocēni Municipality","native":null,"cities":[{"id":66884,"name":"Brocēni","native":null,"lat":"56.67890000","lon":"22.56945000"}]},{"id":4411,"name":"Burtnieki Municipality","native":null,"cities":[]},{"id":4454,"name":"Carnikava Municipality","native":null,"cities":[{"id":66885,"name":"Carnikava","native":null,"lat":"57.12935000","lon":"24.28423000"}]},{"id":4469,"name":"Cēsis Municipality","native":null,"cities":[{"id":66888,"name":"Cēsis","native":null,"lat":"57.31188000","lon":"25.27456000"}]},{"id":4414,"name":"Cesvaine Municipality","native":null,"cities":[{"id":66886,"name":"Cesvaine","native":null,"lat":"56.96754000","lon":"26.30764000"}]},{"id":4410,"name":"Cibla Municipality","native":null,"cities":[{"id":66887,"name":"Cibla","native":null,"lat":"56.54980000","lon":"27.88370000"}]},{"id":4504,"name":"Dagda Municipality","native":null,"cities":[{"id":66889,"name":"Dagda","native":null,"lat":"56.09512000","lon":"27.53723000"}]},{"id":4463,"name":"Daugavpils","native":null,"cities":[]},{"id":4492,"name":"Daugavpils Municipality","native":null,"cities":[{"id":66891,"name":"Daugavpils","native":null,"lat":"55.88333000","lon":"26.53333000"}]},{"id":4437,"name":"Dobele Municipality","native":null,"cities":[{"id":66892,"name":"Dobele","native":null,"lat":"56.62372000","lon":"23.27510000"}]},{"id":4428,"name":"Dundaga Municipality","native":null,"cities":[{"id":66893,"name":"Dundaga","native":null,"lat":"57.50498000","lon":"22.35041000"}]},{"id":4458,"name":"Durbe Municipality","native":null,"cities":[{"id":66920,"name":"Lieģi","native":null,"lat":"56.58173000","lon":"21.33399000"}]},{"id":4448,"name":"Engure Municipality","native":null,"cities":[{"id":66965,"name":"Smārde","native":null,"lat":"56.95420000","lon":"23.33736000"}]},{"id":4444,"name":"Ērgļi Municipality","native":null,"cities":[{"id":66990,"name":"Ērgļi","native":null,"lat":"56.89752000","lon":"25.63668000"}]},{"id":4510,"name":"Garkalne Municipality","native":null,"cities":[{"id":66895,"name":"Garkalne","native":null,"lat":"57.04486000","lon":"24.41951000"}]},{"id":4470,"name":"Grobiņa Municipality","native":null,"cities":[{"id":66896,"name":"Grobiņa","native":null,"lat":"56.53521000","lon":"21.16782000"}]},{"id":4400,"name":"Gulbene Municipality","native":null,"cities":[{"id":66897,"name":"Gulbene","native":null,"lat":"57.17767000","lon":"26.75291000"}]},{"id":4441,"name":"Iecava Municipality","native":null,"cities":[{"id":66898,"name":"Iecava","native":null,"lat":"56.59766000","lon":"24.20763000"}]},{"id":4511,"name":"Ikšķile Municipality","native":null,"cities":[{"id":66899,"name":"Ikšķile","native":null,"lat":"56.83399000","lon":"24.49679000"}]},{"id":4399,"name":"Ilūkste Municipality","native":null,"cities":[{"id":66900,"name":"Ilūkste","native":null,"lat":"55.97754000","lon":"26.29655000"}]},{"id":4449,"name":"Inčukalns Municipality","native":null,"cities":[{"id":66901,"name":"Inčukalns","native":null,"lat":"57.09867000","lon":"24.68630000"},{"id":66979,"name":"Vangaži","native":null,"lat":"57.09358000","lon":"24.54468000"}]},{"id":4475,"name":"Jaunjelgava Municipality","native":null,"cities":[{"id":66904,"name":"Jaunjelgava","native":null,"lat":"56.61319000","lon":"25.08316000"}]},{"id":4407,"name":"Jaunpiebalga Municipality","native":null,"cities":[]},{"id":4489,"name":"Jaunpils Municipality","native":null,"cities":[{"id":66905,"name":"Jaunpils","native":null,"lat":"56.73137000","lon":"23.01247000"}]},{"id":4464,"name":"Jēkabpils","native":null,"cities":[]},{"id":4438,"name":"Jēkabpils Municipality","native":null,"cities":[{"id":66908,"name":"Jēkabpils","native":null,"lat":"56.49903000","lon":"25.85735000"},{"id":66914,"name":"Krustpils","native":null,"lat":"56.51068000","lon":"25.86117000"}]},{"id":4500,"name":"Jelgava","native":null,"cities":[{"id":66906,"name":"Jelgava","native":null,"lat":"56.65000000","lon":"23.71278000"}]},{"id":4424,"name":"Jelgava Municipality","native":null,"cities":[{"id":66973,"name":"Tīreļi","native":null,"lat":"56.83991000","lon":"23.58902000"}]},{"id":4446,"name":"Jūrmala","native":null,"cities":[{"id":66909,"name":"Jūrmala","native":null,"lat":"56.96800000","lon":"23.77038000"}]},{"id":4420,"name":"Kandava Municipality","native":null,"cities":[{"id":66910,"name":"Kandava","native":null,"lat":"57.04087000","lon":"22.77466000"}]},{"id":4453,"name":"Kārsava Municipality","native":null,"cities":[{"id":66917,"name":"Kārsava","native":null,"lat":"56.78405000","lon":"27.68829000"}]},{"id":4412,"name":"Ķegums Municipality","native":null,"cities":[{"id":66991,"name":"Ķegums","native":null,"lat":"56.74510000","lon":"24.72439000"}]},{"id":4435,"name":"Ķekava Municipality","native":null,"cities":[{"id":66879,"name":"Baloži","native":null,"lat":"56.87643000","lon":"24.11825000"},{"id":66992,"name":"Ķekava","native":null,"lat":"56.82662000","lon":"24.23000000"}]},{"id":4495,"name":"Kocēni Municipality","native":null,"cities":[{"id":66912,"name":"Kocēni","native":null,"lat":"57.52057000","lon":"25.33821000"}]},{"id":4452,"name":"Koknese Municipality","native":null,"cities":[{"id":66913,"name":"Koknese","native":null,"lat":"56.65163000","lon":"25.43637000"}]},{"id":4474,"name":"Krāslava Municipality","native":null,"cities":[{"id":66915,"name":"Krāslava","native":null,"lat":"55.89514000","lon":"27.16799000"}]},{"id":4422,"name":"Krimulda Municipality","native":null,"cities":[]},{"id":4413,"name":"Krustpils Municipality","native":null,"cities":[]},{"id":4490,"name":"Kuldīga Municipality","native":null,"cities":[{"id":66916,"name":"Kuldīga","native":null,"lat":"56.97399000","lon":"21.95721000"}]},{"id":4512,"name":"Lielvārde Municipality","native":null,"cities":[{"id":66918,"name":"Lielvārde","native":null,"lat":"56.72066000","lon":"24.80743000"}]},{"id":4460,"name":"Liepāja","native":null,"cities":[{"id":66911,"name":"Karosta","native":null,"lat":"56.55128000","lon":"21.01287000"},{"id":66919,"name":"Liepāja","native":null,"lat":"56.50474000","lon":"21.01085000"}]},{"id":4488,"name":"Līgatne Municipality","native":null,"cities":[{"id":66924,"name":"Līgatne","native":null,"lat":"57.23429000","lon":"25.04059000"}]},{"id":4418,"name":"Limbaži Municipality","native":null,"cities":[{"id":66921,"name":"Limbaži","native":null,"lat":"57.51287000","lon":"24.71941000"}]},{"id":4401,"name":"Līvāni Municipality","native":null,"cities":[{"id":66925,"name":"Līvāni","native":null,"lat":"56.35431000","lon":"26.17579000"}]},{"id":4419,"name":"Lubāna Municipality","native":null,"cities":[{"id":66922,"name":"Lubāna","native":null,"lat":"56.90425000","lon":"26.71606000"}]},{"id":4501,"name":"Ludza Municipality","native":null,"cities":[{"id":66923,"name":"Ludza","native":null,"lat":"56.53958000","lon":"27.71891000"}]},{"id":4433,"name":"Madona Municipality","native":null,"cities":[{"id":66926,"name":"Madona","native":null,"lat":"56.85329000","lon":"26.21698000"}]},{"id":4461,"name":"Mālpils Municipality","native":null,"cities":[{"id":66929,"name":"Mālpils","native":null,"lat":"57.01010000","lon":"24.95783000"}]},{"id":4450,"name":"Mārupe Municipality","native":null,"cities":[{"id":66930,"name":"Mārupe","native":null,"lat":"56.90544000","lon":"24.05113000"}]},{"id":4513,"name":"Mazsalaca Municipality","native":null,"cities":[{"id":66927,"name":"Mazsalaca","native":null,"lat":"57.86329000","lon":"25.05475000"}]},{"id":4451,"name":"Mērsrags Municipality","native":null,"cities":[]},{"id":4398,"name":"Naukšēni Municipality","native":null,"cities":[{"id":66932,"name":"Naukšēni","native":null,"lat":"57.88349000","lon":"25.45609000"}]},{"id":4432,"name":"Nereta Municipality","native":null,"cities":[{"id":66933,"name":"Nereta","native":null,"lat":"56.20279000","lon":"25.30752000"}]},{"id":4436,"name":"Nīca Municipality","native":null,"cities":[{"id":66934,"name":"Nīca","native":null,"lat":"56.34601000","lon":"21.06401000"}]},{"id":4416,"name":"Ogre Municipality","native":null,"cities":[{"id":66907,"name":"Jumprava","native":null,"lat":"56.67613000","lon":"24.97210000"},{"id":66935,"name":"Ogre","native":null,"lat":"56.81620000","lon":"24.61401000"}]},{"id":4417,"name":"Olaine Municipality","native":null,"cities":[{"id":66936,"name":"Olaine","native":null,"lat":"56.79472000","lon":"23.93580000"}]},{"id":4442,"name":"Ozolnieki Municipality","native":null,"cities":[{"id":66937,"name":"Ozolnieki","native":null,"lat":"56.68986000","lon":"23.77610000"}]},{"id":4507,"name":"Pārgauja Municipality","native":null,"cities":[{"id":66967,"name":"Stalbe","native":null,"lat":"57.37065000","lon":"25.03106000"}]},{"id":4467,"name":"Pāvilosta Municipality","native":null,"cities":[{"id":66944,"name":"Pāvilosta","native":null,"lat":"56.88791000","lon":"21.18593000"}]},{"id":4405,"name":"Pļaviņas Municipality","native":null,"cities":[{"id":66945,"name":"Pļaviņas","native":null,"lat":"56.61780000","lon":"25.72552000"}]},{"id":4483,"name":"Preiļi Municipality","native":null,"cities":[{"id":66902,"name":"Jaunaglona","native":null,"lat":"56.16066000","lon":"27.00714000"},{"id":66941,"name":"Preiļi","native":null,"lat":"56.29444000","lon":"26.72459000"}]},{"id":4429,"name":"Priekule Municipality","native":null,"cities":[{"id":66942,"name":"Priekule","native":null,"lat":"56.44679000","lon":"21.58968000"}]},{"id":4506,"name":"Priekuļi Municipality","native":null,"cities":[{"id":66943,"name":"Priekuļi","native":null,"lat":"57.31500000","lon":"25.36147000"}]},{"id":4479,"name":"Rauna Municipality","native":null,"cities":[{"id":66946,"name":"Rauna","native":null,"lat":"57.33173000","lon":"25.60947000"}]},{"id":4509,"name":"Rēzekne","native":null,"cities":[{"id":66953,"name":"Rēzekne","native":null,"lat":"56.51028000","lon":"27.34000000"}]},{"id":4455,"name":"Rēzekne Municipality","native":null,"cities":[]},{"id":4502,"name":"Riebiņi Municipality","native":null,"cities":[{"id":66947,"name":"Riebiņi","native":null,"lat":"56.34280000","lon":"26.79995000"}]},{"id":4491,"name":"Riga","native":null,"cities":[{"id":66883,"name":"Bolderaja","native":null,"lat":"57.03132000","lon":"24.05571000"},{"id":66890,"name":"Daugavgrīva","native":null,"lat":"57.04315000","lon":"24.03613000"},{"id":66903,"name":"Jaunciems","native":null,"lat":"57.03910000","lon":"24.17413000"},{"id":66928,"name":"Mežaparks","native":null,"lat":"57.00008000","lon":"24.15997000"},{"id":66948,"name":"Riga","native":null,"lat":"56.94600000","lon":"24.10589000"}]},{"id":4440,"name":"Roja Municipality","native":null,"cities":[{"id":66949,"name":"Roja","native":null,"lat":"57.50146000","lon":"22.80881000"}]},{"id":4493,"name":"Ropaži Municipality","native":null,"cities":[{"id":66950,"name":"Ropaži","native":null,"lat":"56.97470000","lon":"24.63295000"}]},{"id":4503,"name":"Rucava Municipality","native":null,"cities":[{"id":66951,"name":"Rucava","native":null,"lat":"56.16314000","lon":"21.16156000"}]},{"id":4423,"name":"Rugāji Municipality","native":null,"cities":[{"id":66952,"name":"Rugāji","native":null,"lat":"57.00325000","lon":"27.13371000"}]},{"id":4426,"name":"Rūjiena Municipality","native":null,"cities":[{"id":66954,"name":"Rūjiena","native":null,"lat":"57.89752000","lon":"25.33155000"}]},{"id":4404,"name":"Rundāle Municipality","native":null,"cities":[{"id":66938,"name":"Pilsrundāle","native":null,"lat":"56.41812000","lon":"24.01625000"}]},{"id":4434,"name":"Sala Municipality","native":null,"cities":[]},{"id":4396,"name":"Salacgrīva Municipality","native":null,"cities":[{"id":66869,"name":"Ainaži","native":null,"lat":"57.86348000","lon":"24.35853000"},{"id":66956,"name":"Salacgrīva","native":null,"lat":"57.75312000","lon":"24.35895000"}]},{"id":4402,"name":"Salaspils Municipality","native":null,"cities":[{"id":66957,"name":"Salaspils","native":null,"lat":"56.86014000","lon":"24.36544000"}]},{"id":4439,"name":"Saldus Municipality","native":null,"cities":[{"id":66958,"name":"Saldus","native":null,"lat":"56.66363000","lon":"22.48807000"}]},{"id":4443,"name":"Saulkrasti Municipality","native":null,"cities":[{"id":66959,"name":"Saulkrasti","native":null,"lat":"57.26224000","lon":"24.41471000"}]},{"id":4408,"name":"Sēja Municipality","native":null,"cities":[{"id":66894,"name":"Engure","native":null,"lat":"57.16061000","lon":"23.22527000"},{"id":66971,"name":"Tukums","native":null,"lat":"56.96764000","lon":"23.15554000"}]},{"id":4476,"name":"Sigulda Municipality","native":null,"cities":[{"id":66961,"name":"Sigulda","native":null,"lat":"57.15375000","lon":"24.85953000"}]},{"id":4415,"name":"Skrīveri Municipality","native":null,"cities":[{"id":66963,"name":"Skrīveri","native":null,"lat":"56.64500000","lon":"25.12058000"}]},{"id":4447,"name":"Skrunda Municipality","native":null,"cities":[{"id":66962,"name":"Skrunda","native":null,"lat":"56.67749000","lon":"22.01649000"}]},{"id":4462,"name":"Smiltene Municipality","native":null,"cities":[{"id":66964,"name":"Smiltene","native":null,"lat":"57.42444000","lon":"25.90164000"}]},{"id":4478,"name":"Stopiņi Municipality","native":null,"cities":[{"id":66974,"name":"Ulbroka","native":null,"lat":"56.93630000","lon":"24.30387000"}]},{"id":4494,"name":"Strenči Municipality","native":null,"cities":[{"id":66960,"name":"Seda","native":null,"lat":"57.65042000","lon":"25.75089000"},{"id":66969,"name":"Strenči","native":null,"lat":"57.62574000","lon":"25.68535000"}]},{"id":4459,"name":"Talsi Municipality","native":null,"cities":[{"id":66955,"name":"Sabile","native":null,"lat":"57.04577000","lon":"22.57261000"},{"id":66968,"name":"Stende","native":null,"lat":"57.14497000","lon":"22.53482000"},{"id":66970,"name":"Talsi","native":null,"lat":"57.24562000","lon":"22.58137000"},{"id":66976,"name":"Valdemārpils","native":null,"lat":"57.37068000","lon":"22.59188000"}]},{"id":4480,"name":"Tērvete Municipality","native":null,"cities":[{"id":66972,"name":"Tērvete","native":null,"lat":"56.47989000","lon":"23.38895000"},{"id":66988,"name":"Zelmeņi","native":null,"lat":"56.45167000","lon":"23.35194000"}]},{"id":4409,"name":"Tukums Municipality","native":null,"cities":[]},{"id":4508,"name":"Vaiņode Municipality","native":null,"cities":[{"id":66975,"name":"Vaiņode","native":null,"lat":"56.41848000","lon":"21.85405000"}]},{"id":4425,"name":"Valka Municipality","native":null,"cities":[{"id":66977,"name":"Valka","native":null,"lat":"57.77520000","lon":"26.01013000"}]},{"id":4473,"name":"Valmiera","native":null,"cities":[{"id":66978,"name":"Valmiera","native":null,"lat":"57.54108000","lon":"25.42751000"}]},{"id":4431,"name":"Varakļāni Municipality","native":null,"cities":[{"id":66980,"name":"Varakļāni","native":null,"lat":"56.60826000","lon":"26.75377000"}]},{"id":4406,"name":"Vārkava Municipality","native":null,"cities":[{"id":66983,"name":"Vecvārkava","native":null,"lat":"56.19838000","lon":"26.50811000"}]},{"id":4466,"name":"Vecpiebalga Municipality","native":null,"cities":[{"id":66981,"name":"Vecpiebalga","native":null,"lat":"57.06090000","lon":"25.81624000"}]},{"id":4397,"name":"Vecumnieki Municipality","native":null,"cities":[{"id":66982,"name":"Vecumnieki","native":null,"lat":"56.60608000","lon":"24.52232000"}]},{"id":4421,"name":"Ventspils","native":null,"cities":[{"id":66984,"name":"Ventspils","native":null,"lat":"57.38988000","lon":"21.57288000"}]},{"id":4403,"name":"Ventspils Municipality","native":null,"cities":[{"id":66939,"name":"Piltene","native":null,"lat":"57.22426000","lon":"21.67439000"}]},{"id":4456,"name":"Viesīte Municipality","native":null,"cities":[{"id":66985,"name":"Viesīte","native":null,"lat":"56.34751000","lon":"25.55514000"}]},{"id":4477,"name":"Viļaka Municipality","native":null,"cities":[{"id":66986,"name":"Viļaka","native":null,"lat":"57.18458000","lon":"27.67220000"}]},{"id":4486,"name":"Viļāni Municipality","native":null,"cities":[{"id":66987,"name":"Viļāni","native":null,"lat":"56.55253000","lon":"26.92449000"}]},{"id":4430,"name":"Zilupe Municipality","native":null,"cities":[{"id":66989,"name":"Zilupe","native":null,"lat":"56.38616000","lon":"28.12165000"}]}]