[{"id":2964,"name":"Al Wahat District","native":null,"cities":[{"id":66993,"name":"Ajdabiya","native":null,"lat":"30.75545000","lon":"20.22625000"},{"id":66997,"name":"Al Burayqah","native":null,"lat":"30.40624000","lon":"19.57386000"},{"id":67006,"name":"Awjilah","native":null,"lat":"29.10806000","lon":"21.28694000"},{"id":67007,"name":"Az Zuwaytīnah","native":null,"lat":"30.95220000","lon":"20.12022000"},{"id":67017,"name":"Gialo","native":null,"lat":"29.03333000","lon":"21.55000000"},{"id":67020,"name":"Marādah","native":null,"lat":"29.22054000","lon":"19.20454000"}]},{"id":2981,"name":"Benghazi","native":null,"cities":[{"id":67010,"name":"Benghazi","native":null,"lat":"32.11486000","lon":"20.06859000"},{"id":67026,"name":"Qaryat Sulūq","native":null,"lat":"31.66818000","lon":"20.25205000"}]},{"id":2966,"name":"Derna District","native":null,"cities":[{"id":67003,"name":"Al Qubbah","native":null,"lat":"32.75684000","lon":"22.24106000"},{"id":67012,"name":"Darnah","native":null,"lat":"32.76704000","lon":"22.63669000"}]},{"id":2969,"name":"Ghat District","native":null,"cities":[{"id":67015,"name":"Ghat","native":null,"lat":"24.96334000","lon":"10.18003000"}]},{"id":2980,"name":"Jabal al Akhdar","native":null,"cities":[{"id":66996,"name":"Al Bayḑā’","native":null,"lat":"32.76272000","lon":"21.75506000"}]},{"id":2974,"name":"Jabal al Gharbi District","native":null,"cities":[{"id":67014,"name":"Gharyan","native":null,"lat":"32.17222000","lon":"13.02028000"},{"id":67016,"name":"Giado","native":null,"lat":"31.95506000","lon":"12.02901000"},{"id":67022,"name":"Mizdah","native":null,"lat":"31.44934000","lon":"12.98530000"},{"id":67036,"name":"Yafran","native":null,"lat":"32.06329000","lon":"12.52859000"},{"id":67039,"name":"Zintan","native":null,"lat":"31.93155000","lon":"12.25291000"}]},{"id":2979,"name":"Jafara","native":null,"cities":[{"id":67004,"name":"Al ‘Azīzīyah","native":null,"lat":"32.53194000","lon":"13.01750000"}]},{"id":2970,"name":"Jufra","native":null,"cities":[{"id":67018,"name":"Hūn","native":null,"lat":"29.12684000","lon":"15.94772000"},{"id":67035,"name":"Waddān","native":null,"lat":"29.16140000","lon":"16.13904000"}]},{"id":2972,"name":"Kufra District","native":null,"cities":[{"id":66999,"name":"Al Jawf","native":null,"lat":"24.19890000","lon":"23.29093000"},{"id":67005,"name":"At Tāj","native":null,"lat":"24.20487000","lon":"23.28570000"}]},{"id":2968,"name":"Marj District","native":null,"cities":[{"id":66994,"name":"Al Abyār","native":null,"lat":"32.19000000","lon":"20.59653000"},{"id":67001,"name":"Al Marj","native":null,"lat":"32.49257000","lon":"20.82909000"},{"id":67033,"name":"Tūkrah","native":null,"lat":"32.53414000","lon":"20.57911000"}]},{"id":2978,"name":"Misrata District","native":null,"cities":[{"id":67009,"name":"Bani Walid","native":null,"lat":"31.74554000","lon":"13.98354000"},{"id":67023,"name":"Mişrātah","native":null,"lat":"32.37535000","lon":"15.09254000"},{"id":67040,"name":"Zliten","native":null,"lat":"32.46739000","lon":"14.56874000"}]},{"id":2961,"name":"Murqub","native":null,"cities":[{"id":67000,"name":"Al Khums","native":null,"lat":"32.64861000","lon":"14.26191000"},{"id":67021,"name":"Masallātah","native":null,"lat":"32.61667000","lon":"14.00000000"},{"id":67031,"name":"Tarhuna","native":null,"lat":"32.43501000","lon":"13.63320000"}]},{"id":2967,"name":"Murzuq District","native":null,"cities":[{"id":67002,"name":"Al Qaţrūn","native":null,"lat":"24.95139000","lon":"14.64861000"},{"id":67024,"name":"Murzuq","native":null,"lat":"25.91552000","lon":"13.91839000"}]},{"id":2976,"name":"Nalut District","native":null,"cities":[{"id":67013,"name":"Ghadāmis","native":null,"lat":"30.13366000","lon":"9.50072000"},{"id":67025,"name":"Nālūt","native":null,"lat":"31.86848000","lon":"10.98120000"}]},{"id":2962,"name":"Nuqat al Khams","native":null,"cities":[{"id":66995,"name":"Al Ajaylat","native":null,"lat":"32.75718000","lon":"12.37633000"},{"id":67037,"name":"Zalţan","native":null,"lat":"32.94699000","lon":"11.86668000"},{"id":67041,"name":"Zuwārah","native":null,"lat":"32.93120000","lon":"12.08199000"}]},{"id":2965,"name":"Sabha District","native":null,"cities":[{"id":66998,"name":"Al Jadīd","native":null,"lat":"27.05000000","lon":"14.40000000"},{"id":67028,"name":"Sabhā","native":null,"lat":"27.03766000","lon":"14.42832000"}]},{"id":2977,"name":"Sirte District","native":null,"cities":[{"id":67027,"name":"Qasr Abu Hadi","native":null,"lat":"31.05926000","lon":"16.65905000"},{"id":67029,"name":"Sirte","native":null,"lat":"31.20892000","lon":"16.58866000"}]},{"id":2971,"name":"Tripoli District","native":null,"cities":[{"id":67030,"name":"Tagiura","native":null,"lat":"32.88167000","lon":"13.35056000"},{"id":67032,"name":"Tripoli","native":null,"lat":"32.88743000","lon":"13.18733000"}]},{"id":2973,"name":"Wadi al Hayaa District","native":null,"cities":[{"id":67034,"name":"Ubari","native":null,"lat":"26.59034000","lon":"12.77511000"}]},{"id":2975,"name":"Wadi al Shatii District","native":null,"cities":[{"id":67011,"name":"Brak","native":null,"lat":"27.54956000","lon":"14.27139000"},{"id":67019,"name":"Idrī","native":null,"lat":"27.44707000","lon":"13.05173000"}]},{"id":2963,"name":"Zawiya District","native":null,"cities":[{"id":67008,"name":"Az Zāwīyah","native":null,"lat":"32.75710000","lon":"12.72764000"},{"id":67042,"name":"Şabrātah","native":null,"lat":"32.79335000","lon":"12.48845000"},{"id":67043,"name":"Şurmān","native":null,"lat":"32.75668000","lon":"12.57159000"},{"id":67038,"name":"Zawiya","native":null,"lat":"32.75222000","lon":"12.72778000"}]}]