[{"name":"Agalega Islands","native":null,"cities":[{"name":"Vingt Cinq","native":null,"lat":"-10.38803000","lon":"56.61795000"}]},{"name":"Black River","native":null,"cities":[{"name":"Albion","native":null,"lat":"-20.20814000","lon":"57.40766000"},{"name":"Bambous","native":null,"lat":"-20.25667000","lon":"57.40611000"},{"name":"Cascavelle","native":null,"lat":"-20.28694000","lon":"57.40722000"},{"name":"Flic en Flac","native":null,"lat":"-20.27417000","lon":"57.36306000"},{"name":"Grande Rivière Noire","native":null,"lat":"-20.36028000","lon":"57.36611000"},{"name":"Gros Cailloux","native":null,"lat":"-20.20722000","lon":"57.43000000"},{"name":"Petite Case Noyale","native":null,"lat":"-20.39306000","lon":"57.36500000"},{"name":"Petite Rivière","native":null,"lat":"-20.19551000","lon":"57.44592000"},{"name":"Tamarin","native":null,"lat":"-20.32556000","lon":"57.37056000"}]},{"name":"Flacq","native":null,"cities":[{"name":"Bel Air Rivière Sèche","native":null,"lat":"-20.25777000","lon":"57.74976000"},{"name":"Bon Accueil","native":null,"lat":"-20.17083000","lon":"57.65639000"},{"name":"Brisée Verdière","native":null,"lat":"-20.16389000","lon":"57.64667000"},{"name":"Camp de Masque","native":null,"lat":"-20.23694000","lon":"57.66333000"},{"name":"Camp Ithier","native":null,"lat":"-20.21583000","lon":"57.74556000"},{"name":"Centre de Flacq","native":null,"lat":"-20.18972000","lon":"57.71444000"},{"name":"Clémencia","native":null,"lat":"-20.26389000","lon":"57.70611000"},{"name":"Ecroignard","native":null,"lat":"-20.22611000","lon":"57.73611000"},{"name":"Grande Rivière Sud Est","native":null,"lat":"-20.28611000","lon":"57.77583000"},{"name":"Lalmatie","native":null,"lat":"-20.18972000","lon":"57.66111000"},{"name":"Laventure","native":null,"lat":"-20.14583000","lon":"57.67667000"},{"name":"Mare La Chaux","native":null,"lat":"-20.19806000","lon":"57.74944000"},{"name":"Olivia","native":null,"lat":"-20.28778000","lon":"57.73097000"},{"name":"Poste de Flacq","native":null,"lat":"-20.16306000","lon":"57.73056000"},{"name":"Quatre Cocos","native":null,"lat":"-20.20151000","lon":"57.77448000"},{"name":"Quatre Soeurs","native":null,"lat":"-20.29917000","lon":"57.77056000"},{"name":"Queen Victoria","native":null,"lat":"-20.22000000","lon":"57.70750000"},{"name":"Saint Julien","native":null,"lat":"-20.22639000","lon":"57.63639000"},{"name":"Sebastopol","native":null,"lat":"-20.29070000","lon":"57.68779000"}]},{"name":"Grand Port","native":null,"cities":[{"name":"Bambous Virieux","native":null,"lat":"-20.34278000","lon":"57.75750000"},{"name":"Beau Vallon","native":null,"lat":"-20.41889000","lon":"57.69528000"},{"name":"Bois des Amourettes","native":null,"lat":"-20.36306000","lon":"57.73111000"},{"name":"Cluny","native":null,"lat":"-20.36694000","lon":"57.60389000"},{"name":"Grand Sable","native":null,"lat":"-20.31417000","lon":"57.76444000"},{"name":"Mahébourg","native":null,"lat":"-20.40806000","lon":"57.70000000"},{"name":"New Grove","native":null,"lat":"-20.40861000","lon":"57.61361000"},{"name":"Nouvelle France","native":null,"lat":"-20.37056000","lon":"57.56111000"},{"name":"Plaine Magnien","native":null,"lat":"-20.42967000","lon":"57.66968000"},{"name":"Rose Belle","native":null,"lat":"-20.40028000","lon":"57.59667000"},{"name":"Saint Hubert","native":null,"lat":"-20.36417000","lon":"57.63833000"}]},{"name":"Moka","native":null,"cities":[{"name":"Camp Thorel","native":null,"lat":"-20.21472000","lon":"57.61611000"},{"name":"Dagotière","native":null,"lat":"-20.24476000","lon":"57.56188000"},{"name":"Dubreuil","native":null,"lat":"-20.30132000","lon":"57.59861000"},{"name":"Melrose","native":null,"lat":"-20.26972000","lon":"57.63194000"},{"name":"Moka","native":null,"lat":"-20.21889000","lon":"57.49583000"},{"name":"Pailles","native":null,"lat":"-20.19271000","lon":"57.48826000"},{"name":"Providence","native":null,"lat":"-20.24472000","lon":"57.61222000"},{"name":"Quartier Militaire","native":null,"lat":"-20.24790000","lon":"57.59737000"},{"name":"Saint Pierre","native":null,"lat":"-20.21750000","lon":"57.52083000"},{"name":"Verdun","native":null,"lat":"-20.23417000","lon":"57.55476000"}]},{"name":"Pamplemousses","native":null,"cities":[{"name":"Arsenal","native":null,"lat":"-20.10556000","lon":"57.53528000"},{"name":"Calebasses","native":null,"lat":"-20.11167000","lon":"57.55389000"},{"name":"Congomah","native":null,"lat":"-20.14889000","lon":"57.59083000"},{"name":"Crève Coeur","native":null,"lat":"-20.19111000","lon":"57.55722000"},{"name":"Fond du Sac","native":null,"lat":"-20.04732000","lon":"57.58400000"},{"name":"Le Hochet","native":null,"lat":"-20.13500000","lon":"57.52111000"},{"name":"Long Mountain","native":null,"lat":"-20.14306000","lon":"57.56222000"},{"name":"Morcellement Saint André","native":null,"lat":"-20.07199000","lon":"57.56833000"},{"name":"Notre Dame","native":null,"lat":"-20.14056000","lon":"57.55306000"},{"name":"Pamplemousses","native":null,"lat":"-20.10389000","lon":"57.57028000"},{"name":"Plaine des Papayes","native":null,"lat":"-20.06500000","lon":"57.57250000"},{"name":"Pointe aux Piments","native":null,"lat":"-20.06494000","lon":"57.52347000"},{"name":"Terre Rouge","native":null,"lat":"-20.12611000","lon":"57.52444000"},{"name":"Triolet","native":null,"lat":"-20.05760000","lon":"57.55025000"}]},{"name":"Plaines Wilhems","native":null,"cities":[{"name":"Beau Bassin-Rose Hill","native":null,"lat":"-20.23325000","lon":"57.46609000"},{"name":"Curepipe","native":null,"lat":"-20.31628000","lon":"57.52594000"},{"name":"Ebene","native":null,"lat":"-20.24494000","lon":"57.49163000"},{"name":"Midlands","native":null,"lat":"-20.31907000","lon":"57.57016000"},{"name":"Quatre Bornes","native":null,"lat":"-20.26381000","lon":"57.47910000"},{"name":"Vacoas","native":null,"lat":"-20.29806000","lon":"57.47833000"}]},{"name":"Port Louis","native":null,"cities":[{"name":"Port Louis","native":null,"lat":"-20.16194000","lon":"57.49889000"}]},{"name":"Rivière du Rempart","native":null,"cities":[{"name":"Amaury","native":null,"lat":"-20.13083000","lon":"57.65917000"},{"name":"Cap Malheureux","native":null,"lat":"-19.98417000","lon":"57.61417000"},{"name":"Cottage","native":null,"lat":"-20.05972000","lon":"57.62917000"},{"name":"Espérance Trébuchet","native":null,"lat":"-20.06972000","lon":"57.64194000"},{"name":"Goodlands","native":null,"lat":"-20.03841000","lon":"57.65055000"},{"name":"Grand Baie","native":null,"lat":"-20.01816000","lon":"57.58015000"},{"name":"Grand Gaube","native":null,"lat":"-20.00639000","lon":"57.66083000"},{"name":"Mapou","native":null,"lat":"-20.07583000","lon":"57.60139000"},{"name":"Petit Raffray","native":null,"lat":"-20.02022000","lon":"57.62296000"},{"name":"Piton","native":null,"lat":"-20.09028000","lon":"57.63028000"},{"name":"Plaines des Roches","native":null,"lat":"-20.11167000","lon":"57.69083000"},{"name":"Rivière du Rempart","native":null,"lat":"-20.10306000","lon":"57.68472000"},{"name":"Roche Terre","native":null,"lat":"-20.01861000","lon":"57.64472000"},{"name":"Roches Noire","native":null,"lat":"-20.11111000","lon":"57.71222000"},{"name":"The Vale","native":null,"lat":"-20.03018000","lon":"57.60219000"}]},{"name":"Rodrigues Island","native":null,"cities":[{"name":"Baie aux Huîtres","native":null,"lat":"-19.69444000","lon":"63.40833000"},{"name":"Port Mathurin","native":null,"lat":"-19.68333000","lon":"63.41667000"}]},{"name":"Saint Brandon Islands","native":null,"cities":[{"name":"Cargados Carajos","native":null,"lat":"-16.60329000","lon":"59.65851000"}]},{"name":"Savanne","native":null,"cities":[{"name":"Camp Diable","native":null,"lat":"-20.46278000","lon":"57.57889000"},{"name":"Chamouny","native":null,"lat":"-20.48222000","lon":"57.46611000"},{"name":"Chemin Grenier","native":null,"lat":"-20.48722000","lon":"57.46556000"},{"name":"Grand Bois","native":null,"lat":"-20.41889000","lon":"57.54417000"},{"name":"Rivière des Anguilles","native":null,"lat":"-20.48528000","lon":"57.55083000"},{"name":"Saint Aubin","native":null,"lat":"-20.49600000","lon":"57.55000000"},{"name":"Souillac","native":null,"lat":"-20.51667000","lon":"57.51667000"},{"name":"Surinam","native":null,"lat":"-20.50972000","lon":"57.50528000"}]}]