[{"id":3248,"name":"Agalega Islands","native":null,"cities":[{"id":67922,"name":"Vingt Cinq","native":null,"lat":"-10.38803000","lon":"56.61795000"}]},{"id":3259,"name":"Black River","native":null,"cities":[{"id":67826,"name":"Albion","native":null,"lat":"-20.20814000","lon":"57.40766000"},{"id":67830,"name":"Bambous","native":null,"lat":"-20.25667000","lon":"57.40611000"},{"id":67845,"name":"Cascavelle","native":null,"lat":"-20.28694000","lon":"57.40722000"},{"id":67860,"name":"Flic en Flac","native":null,"lat":"-20.27417000","lon":"57.36306000"},{"id":67867,"name":"Grande Rivière Noire","native":null,"lat":"-20.36028000","lon":"57.36611000"},{"id":67869,"name":"Gros Cailloux","native":null,"lat":"-20.20722000","lon":"57.43000000"},{"id":67888,"name":"Petite Case Noyale","native":null,"lat":"-20.39306000","lon":"57.36500000"},{"id":67889,"name":"Petite Rivière","native":null,"lat":"-20.19551000","lon":"57.44592000"},{"id":67916,"name":"Tamarin","native":null,"lat":"-20.32556000","lon":"57.37056000"}]},{"id":3254,"name":"Flacq","native":null,"cities":[{"id":67834,"name":"Bel Air Rivière Sèche","native":null,"lat":"-20.25777000","lon":"57.74976000"},{"id":67836,"name":"Bon Accueil","native":null,"lat":"-20.17083000","lon":"57.65639000"},{"id":67837,"name":"Brisée Verdière","native":null,"lat":"-20.16389000","lon":"57.64667000"},{"id":67842,"name":"Camp de Masque","native":null,"lat":"-20.23694000","lon":"57.66333000"},{"id":67840,"name":"Camp Ithier","native":null,"lat":"-20.21583000","lon":"57.74556000"},{"id":67846,"name":"Centre de Flacq","native":null,"lat":"-20.18972000","lon":"57.71444000"},{"id":67850,"name":"Clémencia","native":null,"lat":"-20.26389000","lon":"57.70611000"},{"id":67858,"name":"Ecroignard","native":null,"lat":"-20.22611000","lon":"57.73611000"},{"id":67868,"name":"Grande Rivière Sud Est","native":null,"lat":"-20.28611000","lon":"57.77583000"},{"id":67870,"name":"Lalmatie","native":null,"lat":"-20.18972000","lon":"57.66111000"},{"id":67871,"name":"Laventure","native":null,"lat":"-20.14583000","lon":"57.67667000"},{"id":67876,"name":"Mare La Chaux","native":null,"lat":"-20.19806000","lon":"57.74944000"},{"id":67884,"name":"Olivia","native":null,"lat":"-20.28778000","lon":"57.73097000"},{"id":67897,"name":"Poste de Flacq","native":null,"lat":"-20.16306000","lon":"57.73056000"},{"id":67901,"name":"Quatre Cocos","native":null,"lat":"-20.20151000","lon":"57.77448000"},{"id":67902,"name":"Quatre Soeurs","native":null,"lat":"-20.29917000","lon":"57.77056000"},{"id":67903,"name":"Queen Victoria","native":null,"lat":"-20.22000000","lon":"57.70750000"},{"id":67911,"name":"Saint Julien","native":null,"lat":"-20.22639000","lon":"57.63639000"},{"id":67913,"name":"Sebastopol","native":null,"lat":"-20.29070000","lon":"57.68779000"}]},{"id":3264,"name":"Grand Port","native":null,"cities":[{"id":67831,"name":"Bambous Virieux","native":null,"lat":"-20.34278000","lon":"57.75750000"},{"id":67833,"name":"Beau Vallon","native":null,"lat":"-20.41889000","lon":"57.69528000"},{"id":67835,"name":"Bois des Amourettes","native":null,"lat":"-20.36306000","lon":"57.73111000"},{"id":67849,"name":"Cluny","native":null,"lat":"-20.36694000","lon":"57.60389000"},{"id":67866,"name":"Grand Sable","native":null,"lat":"-20.31417000","lon":"57.76444000"},{"id":67874,"name":"Mahébourg","native":null,"lat":"-20.40806000","lon":"57.70000000"},{"id":67881,"name":"New Grove","native":null,"lat":"-20.40861000","lon":"57.61361000"},{"id":67883,"name":"Nouvelle France","native":null,"lat":"-20.37056000","lon":"57.56111000"},{"id":67891,"name":"Plaine Magnien","native":null,"lat":"-20.42967000","lon":"57.66968000"},{"id":67908,"name":"Rose Belle","native":null,"lat":"-20.40028000","lon":"57.59667000"},{"id":67910,"name":"Saint Hubert","native":null,"lat":"-20.36417000","lon":"57.63833000"}]},{"id":3253,"name":"Moka","native":null,"cities":[{"id":67841,"name":"Camp Thorel","native":null,"lat":"-20.21472000","lon":"57.61611000"},{"id":67855,"name":"Dagotière","native":null,"lat":"-20.24476000","lon":"57.56188000"},{"id":67856,"name":"Dubreuil","native":null,"lat":"-20.30132000","lon":"57.59861000"},{"id":67877,"name":"Melrose","native":null,"lat":"-20.26972000","lon":"57.63194000"},{"id":67879,"name":"Moka","native":null,"lat":"-20.21889000","lon":"57.49583000"},{"id":67885,"name":"Pailles","native":null,"lat":"-20.19271000","lon":"57.48826000"},{"id":67898,"name":"Providence","native":null,"lat":"-20.24472000","lon":"57.61222000"},{"id":67899,"name":"Quartier Militaire","native":null,"lat":"-20.24790000","lon":"57.59737000"},{"id":67912,"name":"Saint Pierre","native":null,"lat":"-20.21750000","lon":"57.52083000"},{"id":67921,"name":"Verdun","native":null,"lat":"-20.23417000","lon":"57.55476000"}]},{"id":3250,"name":"Pamplemousses","native":null,"cities":[{"id":67828,"name":"Arsenal","native":null,"lat":"-20.10556000","lon":"57.53528000"},{"id":67838,"name":"Calebasses","native":null,"lat":"-20.11167000","lon":"57.55389000"},{"id":67851,"name":"Congomah","native":null,"lat":"-20.14889000","lon":"57.59083000"},{"id":67853,"name":"Crève Coeur","native":null,"lat":"-20.19111000","lon":"57.55722000"},{"id":67861,"name":"Fond du Sac","native":null,"lat":"-20.04732000","lon":"57.58400000"},{"id":67872,"name":"Le Hochet","native":null,"lat":"-20.13500000","lon":"57.52111000"},{"id":67873,"name":"Long Mountain","native":null,"lat":"-20.14306000","lon":"57.56222000"},{"id":67880,"name":"Morcellement Saint André","native":null,"lat":"-20.07199000","lon":"57.56833000"},{"id":67882,"name":"Notre Dame","native":null,"lat":"-20.14056000","lon":"57.55306000"},{"id":67886,"name":"Pamplemousses","native":null,"lat":"-20.10389000","lon":"57.57028000"},{"id":67892,"name":"Plaine des Papayes","native":null,"lat":"-20.06500000","lon":"57.57250000"},{"id":67894,"name":"Pointe aux Piments","native":null,"lat":"-20.06494000","lon":"57.52347000"},{"id":67917,"name":"Terre Rouge","native":null,"lat":"-20.12611000","lon":"57.52444000"},{"id":67919,"name":"Triolet","native":null,"lat":"-20.05760000","lon":"57.55025000"}]},{"id":3263,"name":"Plaines Wilhems","native":null,"cities":[{"id":67832,"name":"Beau Bassin-Rose Hill","native":null,"lat":"-20.23325000","lon":"57.46609000"},{"id":67854,"name":"Curepipe","native":null,"lat":"-20.31628000","lon":"57.52594000"},{"id":67857,"name":"Ebene","native":null,"lat":"-20.24494000","lon":"57.49163000"},{"id":67878,"name":"Midlands","native":null,"lat":"-20.31907000","lon":"57.57016000"},{"id":67900,"name":"Quatre Bornes","native":null,"lat":"-20.26381000","lon":"57.47910000"},{"id":67920,"name":"Vacoas","native":null,"lat":"-20.29806000","lon":"57.47833000"}]},{"id":3260,"name":"Port Louis","native":null,"cities":[{"id":67895,"name":"Port Louis","native":null,"lat":"-20.16194000","lon":"57.49889000"}]},{"id":3261,"name":"Rivière du Rempart","native":null,"cities":[{"id":67827,"name":"Amaury","native":null,"lat":"-20.13083000","lon":"57.65917000"},{"id":67843,"name":"Cap Malheureux","native":null,"lat":"-19.98417000","lon":"57.61417000"},{"id":67852,"name":"Cottage","native":null,"lat":"-20.05972000","lon":"57.62917000"},{"id":67859,"name":"Espérance Trébuchet","native":null,"lat":"-20.06972000","lon":"57.64194000"},{"id":67862,"name":"Goodlands","native":null,"lat":"-20.03841000","lon":"57.65055000"},{"id":67863,"name":"Grand Baie","native":null,"lat":"-20.01816000","lon":"57.58015000"},{"id":67865,"name":"Grand Gaube","native":null,"lat":"-20.00639000","lon":"57.66083000"},{"id":67875,"name":"Mapou","native":null,"lat":"-20.07583000","lon":"57.60139000"},{"id":67887,"name":"Petit Raffray","native":null,"lat":"-20.02022000","lon":"57.62296000"},{"id":67890,"name":"Piton","native":null,"lat":"-20.09028000","lon":"57.63028000"},{"id":67893,"name":"Plaines des Roches","native":null,"lat":"-20.11167000","lon":"57.69083000"},{"id":67905,"name":"Rivière du Rempart","native":null,"lat":"-20.10306000","lon":"57.68472000"},{"id":67906,"name":"Roche Terre","native":null,"lat":"-20.01861000","lon":"57.64472000"},{"id":67907,"name":"Roches Noire","native":null,"lat":"-20.11111000","lon":"57.71222000"},{"id":67918,"name":"The Vale","native":null,"lat":"-20.03018000","lon":"57.60219000"}]},{"id":3249,"name":"Rodrigues Island","native":null,"cities":[{"id":67829,"name":"Baie aux Huîtres","native":null,"lat":"-19.69444000","lon":"63.40833000"},{"id":67896,"name":"Port Mathurin","native":null,"lat":"-19.68333000","lon":"63.41667000"}]},{"id":3251,"name":"Saint Brandon Islands","native":null,"cities":[{"id":67844,"name":"Cargados Carajos","native":null,"lat":"-16.60329000","lon":"59.65851000"}]},{"id":3257,"name":"Savanne","native":null,"cities":[{"id":67839,"name":"Camp Diable","native":null,"lat":"-20.46278000","lon":"57.57889000"},{"id":67847,"name":"Chamouny","native":null,"lat":"-20.48222000","lon":"57.46611000"},{"id":67848,"name":"Chemin Grenier","native":null,"lat":"-20.48722000","lon":"57.46556000"},{"id":67864,"name":"Grand Bois","native":null,"lat":"-20.41889000","lon":"57.54417000"},{"id":67904,"name":"Rivière des Anguilles","native":null,"lat":"-20.48528000","lon":"57.55083000"},{"id":67909,"name":"Saint Aubin","native":null,"lat":"-20.49600000","lon":"57.55000000"},{"id":67914,"name":"Souillac","native":null,"lat":"-20.51667000","lon":"57.51667000"},{"id":67915,"name":"Surinam","native":null,"lat":"-20.50972000","lon":"57.50528000"}]}]