[{"id":3096,"name":"Balaka District","native":null,"cities":[]},{"id":3102,"name":"Blantyre District","native":null,"cities":[]},{"id":3092,"name":"Central Region","native":null,"cities":[{"id":67950,"name":"Chipoka","native":null,"lat":"-13.99329000","lon":"34.51566000"},{"id":67955,"name":"Dedza","native":null,"lat":"-14.37790000","lon":"34.33322000"},{"id":67956,"name":"Dedza District","native":null,"lat":"-14.26273000","lon":"34.18559000"},{"id":67957,"name":"Dowa","native":null,"lat":"-13.65399000","lon":"33.93754000"},{"id":67958,"name":"Dowa District","native":null,"lat":"-13.60098000","lon":"33.82378000"},{"id":67961,"name":"Kasungu","native":null,"lat":"-13.03333000","lon":"33.48333000"},{"id":67962,"name":"Kasungu District","native":null,"lat":"-13.00000000","lon":"33.41667000"},{"id":67964,"name":"Lilongwe","native":null,"lat":"-13.96692000","lon":"33.78725000"},{"id":67965,"name":"Lilongwe District","native":null,"lat":"-14.01962000","lon":"33.68407000"},{"id":67973,"name":"Mchinji","native":null,"lat":"-13.79841000","lon":"32.88019000"},{"id":67974,"name":"Mchinji District","native":null,"lat":"-13.76230000","lon":"33.07998000"},{"id":67976,"name":"Mponela","native":null,"lat":"-13.53194000","lon":"33.74008000"},{"id":67987,"name":"Nkhotakota","native":null,"lat":"-12.92744000","lon":"34.29614000"},{"id":67988,"name":"Nkhotakota District","native":null,"lat":"-12.80417000","lon":"34.08298000"},{"id":67991,"name":"Ntcheu","native":null,"lat":"-14.82027000","lon":"34.63586000"},{"id":67992,"name":"Ntcheu District","native":null,"lat":"-14.75000000","lon":"34.75000000"},{"id":67993,"name":"Ntchisi","native":null,"lat":"-13.52775000","lon":"33.91490000"},{"id":67994,"name":"Ntchisi District","native":null,"lat":"-13.29574000","lon":"33.90798000"},{"id":67999,"name":"Salima","native":null,"lat":"-13.78040000","lon":"34.45870000"},{"id":68000,"name":"Salima District","native":null,"lat":"-13.71959000","lon":"34.40184000"}]},{"id":3107,"name":"Chikwawa District","native":null,"cities":[]},{"id":3109,"name":"Chiradzulu District","native":null,"cities":[]},{"id":3087,"name":"Chitipa district","native":null,"cities":[]},{"id":3097,"name":"Dedza District","native":null,"cities":[]},{"id":3090,"name":"Dowa District","native":null,"cities":[]},{"id":3091,"name":"Karonga District","native":null,"cities":[]},{"id":3094,"name":"Kasungu District","native":null,"cities":[]},{"id":3093,"name":"Likoma District","native":null,"cities":[]},{"id":3101,"name":"Lilongwe District","native":null,"cities":[]},{"id":3082,"name":"Machinga District","native":null,"cities":[]},{"id":3110,"name":"Mangochi District","native":null,"cities":[]},{"id":3099,"name":"Mchinji District","native":null,"cities":[]},{"id":3103,"name":"Mulanje District","native":null,"cities":[]},{"id":3084,"name":"Mwanza District","native":null,"cities":[]},{"id":3104,"name":"Mzimba District","native":null,"cities":[]},{"id":3095,"name":"Nkhata Bay District","native":null,"cities":[]},{"id":3100,"name":"Nkhotakota District","native":null,"cities":[]},{"id":3105,"name":"Northern Region","native":null,"cities":[{"id":67953,"name":"Chitipa","native":null,"lat":"-9.70237000","lon":"33.26969000"},{"id":67954,"name":"Chitipa District","native":null,"lat":"-9.92727000","lon":"33.42541000"},{"id":67959,"name":"Karonga","native":null,"lat":"-9.93333000","lon":"33.93333000"},{"id":67960,"name":"Karonga District","native":null,"lat":"-10.11153000","lon":"33.88151000"},{"id":67963,"name":"Likoma District","native":null,"lat":"-12.06065000","lon":"34.73608000"},{"id":67966,"name":"Livingstonia","native":null,"lat":"-10.60602000","lon":"34.10628000"},{"id":67981,"name":"Mzimba","native":null,"lat":"-11.90000000","lon":"33.60000000"},{"id":67982,"name":"Mzimba District","native":null,"lat":"-11.85428000","lon":"33.60778000"},{"id":67983,"name":"Mzuzu","native":null,"lat":"-11.46556000","lon":"34.02071000"},{"id":67985,"name":"Nkhata Bay","native":null,"lat":"-11.60659000","lon":"34.29073000"},{"id":67986,"name":"Nkhata Bay District","native":null,"lat":"-11.65304000","lon":"34.05322000"},{"id":67997,"name":"Rumphi","native":null,"lat":"-11.01863000","lon":"33.85746000"},{"id":67998,"name":"Rumphi District","native":null,"lat":"-10.80292000","lon":"33.80524000"}]},{"id":3085,"name":"Nsanje District","native":null,"cities":[]},{"id":3088,"name":"Ntcheu District","native":null,"cities":[]},{"id":3111,"name":"Ntchisi District","native":null,"cities":[]},{"id":3108,"name":"Phalombe District","native":null,"cities":[]},{"id":3089,"name":"Rumphi District","native":null,"cities":[]},{"id":3086,"name":"Salima District","native":null,"cities":[]},{"id":3106,"name":"Southern Region","native":null,"cities":[{"id":67944,"name":"Balaka","native":null,"lat":"-14.97928000","lon":"34.95575000"},{"id":67945,"name":"Balaka District","native":null,"lat":"-15.04839000","lon":"35.05910000"},{"id":67946,"name":"Blantyre","native":null,"lat":"-15.78499000","lon":"35.00854000"},{"id":67947,"name":"Blantyre District","native":null,"lat":"-15.64732000","lon":"34.93956000"},{"id":67948,"name":"Chikwawa","native":null,"lat":"-16.03352000","lon":"34.80091000"},{"id":67949,"name":"Chikwawa District","native":null,"lat":"-16.16667000","lon":"34.75000000"},{"id":67951,"name":"Chiradzulu","native":null,"lat":"-15.67461000","lon":"35.14071000"},{"id":67952,"name":"Chiradzulu District","native":null,"lat":"-15.75268000","lon":"35.21576000"},{"id":67967,"name":"Liwonde","native":null,"lat":"-15.06665000","lon":"35.22543000"},{"id":67968,"name":"Luchenza","native":null,"lat":"-16.00693000","lon":"35.30947000"},{"id":67969,"name":"Machinga","native":null,"lat":"-15.16849000","lon":"35.30002000"},{"id":67970,"name":"Machinga District","native":null,"lat":"-14.94583000","lon":"35.57367000"},{"id":67971,"name":"Mangochi","native":null,"lat":"-14.47815000","lon":"35.26448000"},{"id":67972,"name":"Mangochi District","native":null,"lat":"-14.39296000","lon":"35.34658000"},{"id":67975,"name":"Monkey Bay","native":null,"lat":"-14.08239000","lon":"34.91652000"},{"id":67977,"name":"Mulanje","native":null,"lat":"-16.03163000","lon":"35.50000000"},{"id":67978,"name":"Mulanje District","native":null,"lat":"-15.93440000","lon":"35.49990000"},{"id":67979,"name":"Mwanza","native":null,"lat":"-15.60262000","lon":"34.52479000"},{"id":67980,"name":"Mwanza District","native":null,"lat":"-15.63337000","lon":"34.51682000"},{"id":67984,"name":"Neno District","native":null,"lat":"-15.45051000","lon":"34.70034000"},{"id":67989,"name":"Nsanje","native":null,"lat":"-16.91995000","lon":"35.26199000"},{"id":67990,"name":"Nsanje District","native":null,"lat":"-16.75000000","lon":"35.16667000"},{"id":67995,"name":"Phalombe","native":null,"lat":"-15.80635000","lon":"35.65067000"},{"id":67996,"name":"Phalombe District","native":null,"lat":"-15.66667000","lon":"35.66667000"},{"id":68001,"name":"Thyolo","native":null,"lat":"-16.06775000","lon":"35.14046000"},{"id":68002,"name":"Thyolo District","native":null,"lat":"-16.10583000","lon":"35.15060000"},{"id":68003,"name":"Zomba","native":null,"lat":"-15.38596000","lon":"35.31880000"},{"id":68004,"name":"Zomba District","native":null,"lat":"-15.43007000","lon":"35.41829000"}]},{"id":3098,"name":"Thyolo District","native":null,"cities":[]},{"id":3083,"name":"Zomba District","native":null,"cities":[]}]