[{"name":"Aguascalientes","native":null,"cities":[{"name":"Aguascalientes","native":null,"lat":"21.88333000","lon":"-102.30000000"},{"name":"Arboledas Paso Blanco [Fraccionamiento]","native":null,"lat":"21.96361000","lon":"-102.30194000"},{"name":"Arellano","native":null,"lat":"21.80106000","lon":"-102.27384000"},{"name":"Asientos","native":null,"lat":"22.23333000","lon":"-102.08333000"},{"name":"Bimbaletes Aguascalientes (El Álamo)","native":null,"lat":"22.23444000","lon":"-102.01917000"},{"name":"Calvillo","native":null,"lat":"21.85000000","lon":"-102.71666000"},{"name":"Carboneras","native":null,"lat":"22.18311000","lon":"-102.24601000"},{"name":"Cartagena [Fraccionamiento]","native":null,"lat":"21.95639000","lon":"-102.27639000"},{"name":"Centro de Arriba","native":null,"lat":"21.73123000","lon":"-102.49888000"},{"name":"Ciénega Grande","native":null,"lat":"22.19434000","lon":"-102.01940000"},{"name":"Corral de Barrancos","native":null,"lat":"21.95028000","lon":"-102.33222000"},{"name":"Cosío","native":null,"lat":"22.36667000","lon":"-102.30000000"},{"name":"Cotorina","native":null,"lat":"21.75154000","lon":"-102.26832000"},{"name":"Crucero Las Pilas","native":null,"lat":"21.82722000","lon":"-102.76033000"},{"name":"Cumbres III","native":null,"lat":"21.92222000","lon":"-102.23750000"},{"name":"Ejido la Guayana (Rancho Seco)","native":null,"lat":"21.98028000","lon":"-102.27306000"},{"name":"El Bajío","native":null,"lat":"22.24558000","lon":"-102.30825000"},{"name":"El Chayote","native":null,"lat":"22.28667000","lon":"-102.23900000"},{"name":"El Cuervero (Cuerveros)","native":null,"lat":"21.86056000","lon":"-102.68389000"},{"name":"El Llano","native":null,"lat":"21.91667000","lon":"-101.96666000"},{"name":"El Refugio de Peñuelas","native":null,"lat":"21.71635000","lon":"-102.28941000"},{"name":"El Refugio de Providencia (Providencia)","native":null,"lat":"22.34667000","lon":"-102.25778000"},{"name":"El Salero","native":null,"lat":"22.38706000","lon":"-102.32323000"},{"name":"El Tule","native":null,"lat":"22.08438000","lon":"-102.09100000"},{"name":"Emiliano Zapata","native":null,"lat":"22.10635000","lon":"-102.30056000"},{"name":"Escaleras","native":null,"lat":"22.25054000","lon":"-102.33377000"},{"name":"Ex-Viñedos Guadalupe","native":null,"lat":"21.95944000","lon":"-102.27417000"},{"name":"General Ignacio Zaragoza","native":null,"lat":"21.88136000","lon":"-102.46454000"},{"name":"Guadalupe de Atlas","native":null,"lat":"22.26653000","lon":"-102.03118000"},{"name":"Jaltiche de Arriba","native":null,"lat":"21.77525000","lon":"-102.78849000"},{"name":"Jaltomate","native":null,"lat":"22.01528000","lon":"-102.14583000"},{"name":"Jarillas","native":null,"lat":"22.29611000","lon":"-102.06333000"},{"name":"Jesús Gómez Portugal","native":null,"lat":"21.99607000","lon":"-102.29095000"},{"name":"Jesús Gómez Portugal (Margaritas)","native":null,"lat":"21.99917000","lon":"-102.29139000"},{"name":"Jesús María","native":null,"lat":"21.96667000","lon":"-102.35000000"},{"name":"La Concepción","native":null,"lat":"22.03537000","lon":"-102.29989000"},{"name":"La Escondida","native":null,"lat":"22.03573000","lon":"-102.25931000"},{"name":"La Labor","native":null,"lat":"21.96207000","lon":"-102.69626000"},{"name":"La Loma de los Negritos","native":null,"lat":"21.87056000","lon":"-102.35000000"},{"name":"La Panadera","native":null,"lat":"21.86398000","lon":"-102.69832000"},{"name":"La Punta","native":null,"lat":"22.32411000","lon":"-102.29212000"},{"name":"Las Ánimas","native":null,"lat":"22.09057000","lon":"-102.26684000"},{"name":"Las Norias de Ojocaliente","native":null,"lat":"21.88944000","lon":"-102.21738000"},{"name":"Lázaro Cárdenas","native":null,"lat":"22.17137000","lon":"-102.02704000"},{"name":"Los Arquitos","native":null,"lat":"21.92299000","lon":"-102.38554000"},{"name":"Los Caños","native":null,"lat":"21.78167000","lon":"-102.46750000"},{"name":"Los Conos","native":null,"lat":"21.89739000","lon":"-101.99487000"},{"name":"Macario J. Gómez [Colonia]","native":null,"lat":"21.98056000","lon":"-102.25139000"},{"name":"Malpaso","native":null,"lat":"21.85896000","lon":"-102.66441000"},{"name":"Maravillas","native":null,"lat":"21.95408000","lon":"-102.32982000"},{"name":"Mesa Grande","native":null,"lat":"21.80529000","lon":"-102.72181000"},{"name":"Miravalle","native":null,"lat":"21.97250000","lon":"-102.31139000"},{"name":"Molinos","native":null,"lat":"22.16278000","lon":"-102.09472000"},{"name":"Montoro","native":null,"lat":"21.75603000","lon":"-102.30219000"},{"name":"Noria del Borrego (Norias)","native":null,"lat":"22.28722000","lon":"-102.04194000"},{"name":"Norias del Paso Hondo","native":null,"lat":"21.86177000","lon":"-102.20681000"},{"name":"Ojo de Agua de Crucitas","native":null,"lat":"21.96426000","lon":"-101.95202000"},{"name":"Ojocaliente","native":null,"lat":"21.87390000","lon":"-102.67684000"},{"name":"Pabellón de Arteaga","native":null,"lat":"22.15000000","lon":"-102.26666000"},{"name":"Pabellón de Hidalgo","native":null,"lat":"22.17871000","lon":"-102.34014000"},{"name":"Palo Alto","native":null,"lat":"21.91801000","lon":"-101.96453000"},{"name":"Paredes","native":null,"lat":"22.14958000","lon":"-102.48232000"},{"name":"Paseos de la Providencia [Fraccionamiento]","native":null,"lat":"22.02425000","lon":"-102.27711000"},{"name":"Paseos de las Haciendas [Fraccionamiento]","native":null,"lat":"21.99222000","lon":"-102.34361000"},{"name":"Paso Blanco","native":null,"lat":"21.97361000","lon":"-102.31694000"},{"name":"Peñuelas (El Cienegal)","native":null,"lat":"21.72250000","lon":"-102.27583000"},{"name":"Pilotos","native":null,"lat":"22.03722000","lon":"-101.95917000"},{"name":"Pocitos","native":null,"lat":"21.92167000","lon":"-102.33472000"},{"name":"Puertecito de la Virgen","native":null,"lat":"21.96028000","lon":"-102.26889000"},{"name":"Rincón de Romos","native":null,"lat":"22.23333000","lon":"-102.31666000"},{"name":"San Antonio","native":null,"lat":"22.22823000","lon":"-102.25034000"},{"name":"San Antonio de los Horcones","native":null,"lat":"21.99832000","lon":"-102.32663000"},{"name":"San Antonio de los Ríos","native":null,"lat":"22.16104000","lon":"-102.47118000"},{"name":"San Antonio de Peñuelas","native":null,"lat":"21.67471000","lon":"-102.30010000"},{"name":"San Francisco de los Romo","native":null,"lat":"22.03307000","lon":"-102.22902000"},{"name":"San Ignacio","native":null,"lat":"21.89269000","lon":"-102.33974000"},{"name":"San Jacinto","native":null,"lat":"22.34861000","lon":"-102.23361000"},{"name":"San José de Gracia","native":null,"lat":"22.15000000","lon":"-102.41666000"},{"name":"San Luis de Letras","native":null,"lat":"22.13551000","lon":"-102.29729000"},{"name":"San Sebastián [Fraccionamiento]","native":null,"lat":"21.82139000","lon":"-102.27111000"},{"name":"San Tadeo","native":null,"lat":"21.91954000","lon":"-102.70043000"},{"name":"Santa Isabel [Fraccionamiento]","native":null,"lat":"22.08111000","lon":"-102.26778000"},{"name":"Santa María de la Paz","native":null,"lat":"22.38786000","lon":"-102.25697000"},{"name":"Santa Rosa (El Huizache)","native":null,"lat":"21.93500000","lon":"-102.02194000"},{"name":"Santiago","native":null,"lat":"22.11948000","lon":"-102.33769000"},{"name":"Tepetates","native":null,"lat":"21.95667000","lon":"-102.32167000"},{"name":"Tepezalá","native":null,"lat":"22.21667000","lon":"-102.16666000"},{"name":"Valladolid","native":null,"lat":"22.02111000","lon":"-102.31500000"},{"name":"Valle Huejúcar (Fraccionamiento Popular) [Fraccionamiento]","native":null,"lat":"21.83111000","lon":"-102.75028000"},{"name":"Villa Juárez","native":null,"lat":"22.09447000","lon":"-102.06930000"},{"name":"Villa Licenciado Jesús Terán (Calvillito)","native":null,"lat":"21.82528000","lon":"-102.18778000"}]},{"name":"Baja California","native":null,"cities":[{"name":"Alfonso Garzón [Granjas Familiares]","native":null,"lat":"32.54667000","lon":"-116.61722000"},{"name":"Benito García (El Zorrillo)","native":null,"lat":"31.67111000","lon":"-116.51139000"},{"name":"Benito Juárez","native":null,"lat":"32.56852000","lon":"-114.99422000"},{"name":"Buenos Aires","native":null,"lat":"32.42278000","lon":"-116.94111000"},{"name":"Camalú","native":null,"lat":"30.84222000","lon":"-116.06328000"},{"name":"Cereso del Hongo","native":null,"lat":"32.48417000","lon":"-116.25056000"},{"name":"Ciudad Coahuila (Kilómetro Cincuenta y Siete)","native":null,"lat":"32.19556000","lon":"-115.00250000"},{"name":"Ciudad Morelos","native":null,"lat":"32.34389000","lon":"-117.01056000"},{"name":"Colinas del Sol","native":null,"lat":"32.40306000","lon":"-117.03056000"},{"name":"Colonia Gómez Morín","native":null,"lat":"31.88167000","lon":"-116.54389000"},{"name":"Colonia Lomas de San Ramón (Triquis)","native":null,"lat":"30.70167000","lon":"-116.00278000"},{"name":"Colonia Nueva Era","native":null,"lat":"30.50667000","lon":"-115.92250000"},{"name":"Colonia Venustiano Carranza","native":null,"lat":"32.23700000","lon":"-115.16656000"},{"name":"Delta","native":null,"lat":"32.35497000","lon":"-115.19617000"},{"name":"Doctor Alberto Oviedo Mota","native":null,"lat":"32.22756000","lon":"-115.16792000"},{"name":"Durango","native":null,"lat":"32.24865000","lon":"-115.25227000"},{"name":"Ejido Doctor Alberto Oviedo Mota (El Indiviso)","native":null,"lat":"32.02444000","lon":"-114.98361000"},{"name":"Ejido General Leandro Valle","native":null,"lat":"30.62167000","lon":"-115.96583000"},{"name":"Ejido Javier Rojo Gómez","native":null,"lat":"32.49389000","lon":"-116.82222000"},{"name":"Ejido Jiquilpan","native":null,"lat":"32.50131000","lon":"-115.06382000"},{"name":"Ejido Lázaro Cárdenas","native":null,"lat":"32.60794000","lon":"-115.02076000"},{"name":"Ejido Michoacán de Ocampo","native":null,"lat":"32.46512000","lon":"-115.31003000"},{"name":"Ejido Netzahualcóyotl","native":null,"lat":"32.62444000","lon":"-115.06222000"},{"name":"Ejido Nuevo León","native":null,"lat":"32.41103000","lon":"-115.18827000"},{"name":"Ejido Ojo de Agua","native":null,"lat":"32.47556000","lon":"-116.78917000"},{"name":"Ejido Pátzcuaro","native":null,"lat":"32.35139000","lon":"-115.06583000"},{"name":"Ejido Plan de Ayala","native":null,"lat":"32.22023000","lon":"-115.03158000"},{"name":"Ejido Quintana Roo","native":null,"lat":"32.46844000","lon":"-115.08250000"},{"name":"Ejido Saltillo","native":null,"lat":"32.42430000","lon":"-115.12480000"},{"name":"Ejido Sinaloa","native":null,"lat":"32.54734000","lon":"-115.27041000"},{"name":"Ejido Sonora","native":null,"lat":"32.28749000","lon":"-115.23134000"},{"name":"Ejido Tabasco","native":null,"lat":"32.56187000","lon":"-114.92659000"},{"name":"Ejido Toluca","native":null,"lat":"32.43050000","lon":"-115.08316000"},{"name":"Ejido Vicente Guerrero","native":null,"lat":"32.39593000","lon":"-115.14026000"},{"name":"Ejido Yucatán","native":null,"lat":"32.60435000","lon":"-115.09380000"},{"name":"El Niño","native":null,"lat":"32.50750000","lon":"-116.79194000"},{"name":"El Porvenir","native":null,"lat":"32.07606000","lon":"-116.62473000"},{"name":"El Rosario de Arriba","native":null,"lat":"30.05984000","lon":"-115.72448000"},{"name":"El Sauzal de Rodríguez","native":null,"lat":"31.89329000","lon":"-116.69256000"},{"name":"Emiliano Zapata","native":null,"lat":"30.75417000","lon":"-116.00306000"},{"name":"Ensenada","native":null,"lat":"31.86667000","lon":"-116.61666000"},{"name":"Estación Coahuila","native":null,"lat":"32.19304000","lon":"-114.99933000"},{"name":"Estación Pescaderos","native":null,"lat":"32.31196000","lon":"-115.13823000"},{"name":"Fraccionamiento del Valle","native":null,"lat":"31.91139000","lon":"-116.26056000"},{"name":"Francisco Zarco","native":null,"lat":"32.09872000","lon":"-116.56863000"},{"name":"Guadalupe Victoria","native":null,"lat":"32.28924000","lon":"-115.10534000"},{"name":"Guerrero Negro","native":null,"lat":"27.96891000","lon":"-114.04427000"},{"name":"Hacienda Tecate","native":null,"lat":"32.56500000","lon":"-116.52500000"},{"name":"Hermosillo","native":null,"lat":"32.51097000","lon":"-114.92278000"},{"name":"Islas Agrarias Grupo A","native":null,"lat":"32.61096000","lon":"-115.33151000"},{"name":"Islas Agrarias Grupo B","native":null,"lat":"32.60034000","lon":"-115.27172000"},{"name":"La Esperanza [Granjas Familiares]","native":null,"lat":"32.46278000","lon":"-117.10500000"},{"name":"La Providencia","native":null,"lat":"30.96889000","lon":"-116.15861000"},{"name":"Las Brisas","native":null,"lat":"30.96056000","lon":"-116.16444000"},{"name":"Las Delicias","native":null,"lat":"32.40889000","lon":"-116.94361000"},{"name":"Lázaro Cárdenas","native":null,"lat":"30.52815000","lon":"-115.92617000"},{"name":"Licenciado Gustavo Díaz Ordaz","native":null,"lat":"30.97506000","lon":"-116.15565000"},{"name":"Lomas de Santa Anita","native":null,"lat":"32.54278000","lon":"-116.65139000"},{"name":"Lomas de Tlatelolco","native":null,"lat":"32.48306000","lon":"-116.80167000"},{"name":"Los Algodones","native":null,"lat":"32.70000000","lon":"-114.73333000"},{"name":"Los Valles","native":null,"lat":"32.39250000","lon":"-116.95500000"},{"name":"Luis Rodríguez (El Vergel)","native":null,"lat":"30.40722000","lon":"-115.88722000"},{"name":"Maclovio Herrera (Colonia Aviación)","native":null,"lat":"32.54194000","lon":"-116.63611000"},{"name":"Maclovio Rojas","native":null,"lat":"32.47306000","lon":"-116.80278000"},{"name":"Mexicali","native":null,"lat":"32.50513000","lon":"-115.14771000"},{"name":"Playas de Rosarito","native":null,"lat":"32.34342000","lon":"-117.03186000"},{"name":"Poblado Chulavista (El Chorizo)","native":null,"lat":"30.74722000","lon":"-116.00306000"},{"name":"Poblado Lázaro Cárdenas (La Veintiocho)","native":null,"lat":"32.37333000","lon":"-115.06528000"},{"name":"Pórticos de San Antonio","native":null,"lat":"32.44250000","lon":"-117.03417000"},{"name":"Primo Tapia","native":null,"lat":"32.22226000","lon":"-116.91390000"},{"name":"Progreso","native":null,"lat":"32.58039000","lon":"-115.58479000"},{"name":"Puebla","native":null,"lat":"32.56654000","lon":"-115.35340000"},{"name":"Pueblo Benito García","native":null,"lat":"30.51583000","lon":"-115.93278000"},{"name":"Quinta del Cedro","native":null,"lat":"32.43750000","lon":"-117.06583000"},{"name":"Rancho La Gloria","native":null,"lat":"32.44619000","lon":"-117.00103000"},{"name":"Rancho Verde","native":null,"lat":"31.91611000","lon":"-116.58833000"},{"name":"Rodolfo Sánchez Taboada","native":null,"lat":"31.72099000","lon":"-116.57184000"},{"name":"Rosarito","native":null,"lat":"32.36044000","lon":"-117.04645000"},{"name":"Rumorosa","native":null,"lat":"32.52396000","lon":"-116.05397000"},{"name":"Salvador Rosas Magallón","native":null,"lat":"31.90139000","lon":"-116.54778000"},{"name":"San Felipe","native":null,"lat":"31.02468000","lon":"-114.83919000"},{"name":"San Luis","native":null,"lat":"32.43167000","lon":"-116.95361000"},{"name":"San Quintín","native":null,"lat":"30.57228000","lon":"-115.94607000"},{"name":"San Vicente","native":null,"lat":"31.32518000","lon":"-116.24662000"},{"name":"Santa Anita","native":null,"lat":"32.10083000","lon":"-116.86917000"},{"name":"Santa Fé","native":null,"lat":"30.67984000","lon":"-115.97653000"},{"name":"Santa Isabel","native":null,"lat":"32.63330000","lon":"-115.57605000"},{"name":"Tecate","native":null,"lat":"32.55029000","lon":"-116.63223000"},{"name":"Tecolots","native":null,"lat":"32.56667000","lon":"-114.98333000"},{"name":"Terrazas del Valle","native":null,"lat":"32.48750000","lon":"-116.82667000"},{"name":"Tijuana","native":null,"lat":"32.50223000","lon":"-116.97212000"},{"name":"Vicente Guerrero","native":null,"lat":"30.73097000","lon":"-115.99071000"},{"name":"Villa del Campo","native":null,"lat":"32.50750000","lon":"-116.73833000"},{"name":"Villa del Prado 2da Sección","native":null,"lat":"32.42389000","lon":"-116.97167000"},{"name":"Viñas del Sol","native":null,"lat":"32.62694000","lon":"-115.54667000"}]},{"name":"Baja California Sur","native":null,"cities":[{"name":"Bahía Asunción","native":null,"lat":"27.14231000","lon":"-114.29582000"},{"name":"Bahía Tortugas","native":null,"lat":"27.69056000","lon":"-114.89660000"},{"name":"Cabo San Lucas","native":null,"lat":"22.89088000","lon":"-109.91238000"},{"name":"Chametla","native":null,"lat":"24.09926000","lon":"-110.37395000"},{"name":"Ciudad Constitución","native":null,"lat":"25.03210000","lon":"-111.66256000"},{"name":"Ciudad Insurgentes","native":null,"lat":"25.26345000","lon":"-111.77444000"},{"name":"Colonia del Sol","native":null,"lat":"22.91273000","lon":"-109.92655000"},{"name":"Comondú","native":null,"lat":"26.06667000","lon":"-111.81666000"},{"name":"El Centenario","native":null,"lat":"24.10250000","lon":"-110.41444000"},{"name":"El Pescadero","native":null,"lat":"23.36417000","lon":"-110.16833000"},{"name":"El Silencio","native":null,"lat":"27.46801000","lon":"-113.29987000"},{"name":"La Paz","native":null,"lat":"24.14437000","lon":"-110.30050000"},{"name":"La Playa","native":null,"lat":"23.06417000","lon":"-109.66833000"},{"name":"La Rivera","native":null,"lat":"23.59458000","lon":"-109.58523000"},{"name":"Las Margaritas","native":null,"lat":"27.61833000","lon":"-113.45361000"},{"name":"Las Palmas","native":null,"lat":"22.93672000","lon":"-109.94235000"},{"name":"Las Veredas","native":null,"lat":"23.15028000","lon":"-109.70611000"},{"name":"Loreto","native":null,"lat":"26.01217000","lon":"-111.34888000"},{"name":"Los Barriles","native":null,"lat":"23.68273000","lon":"-109.69953000"},{"name":"Los Cabos","native":null,"lat":"23.27663000","lon":"-109.75322000"},{"name":"Melitón Albáñez Domínguez","native":null,"lat":"23.66139000","lon":"-110.42083000"},{"name":"Miraflores","native":null,"lat":"23.36975000","lon":"-109.77436000"},{"name":"Mulegé","native":null,"lat":"26.60000000","lon":"-112.33333000"},{"name":"Puerto Adolfo Lopez Mateos","native":null,"lat":"25.19224000","lon":"-112.11680000"},{"name":"Puerto San Carlos","native":null,"lat":"24.78874000","lon":"-112.10504000"},{"name":"San Francisco","native":null,"lat":"27.64500000","lon":"-113.41917000"},{"name":"San José del Cabo","native":null,"lat":"23.05888000","lon":"-109.69771000"},{"name":"Santa Rosalía","native":null,"lat":"27.34045000","lon":"-112.26761000"},{"name":"Todos Santos","native":null,"lat":"23.44688000","lon":"-110.22308000"},{"name":"Villa Alberto Andrés Alvarado Arámburo","native":null,"lat":"27.64444000","lon":"-113.38472000"},{"name":"Villa Morelos","native":null,"lat":"24.93000000","lon":"-111.62806000"}]},{"name":"Campeche","native":null,"cities":[{"name":"Abelardo L. Rodríguez","native":null,"lat":"18.72842000","lon":"-90.90456000"},{"name":"Alfredo V. Bonfil","native":null,"lat":"19.53032000","lon":"-90.18214000"},{"name":"Altamira de Zináparo","native":null,"lat":"18.58208000","lon":"-90.25610000"},{"name":"Atasta","native":null,"lat":"18.61954000","lon":"-92.10326000"},{"name":"Bacabchén","native":null,"lat":"20.28903000","lon":"-90.05602000"},{"name":"Bécal","native":null,"lat":"20.44172000","lon":"-90.02738000"},{"name":"Benito Juárez Uno","native":null,"lat":"18.27695000","lon":"-91.09914000"},{"name":"Bolonchén de Rejón","native":null,"lat":"20.00386000","lon":"-89.74663000"},{"name":"Calakmul","native":null,"lat":"18.00000000","lon":"-89.75000000"},{"name":"Calkiní","native":null,"lat":"20.38583000","lon":"-89.98764000"},{"name":"Campeche","native":null,"lat":"19.84386000","lon":"-90.52554000"},{"name":"Candelaria","native":null,"lat":"18.00000000","lon":"-90.75000000"},{"name":"Carmen","native":null,"lat":"18.63000000","lon":"-91.83000000"},{"name":"Carrillo Puerto","native":null,"lat":"19.09400000","lon":"-90.52279000"},{"name":"Castamay","native":null,"lat":"19.83782000","lon":"-90.43181000"},{"name":"Champotón","native":null,"lat":"19.35042000","lon":"-90.70991000"},{"name":"Chicbul","native":null,"lat":"18.77558000","lon":"-90.92429000"},{"name":"Chiná","native":null,"lat":"19.76993000","lon":"-90.49595000"},{"name":"Chunchintok","native":null,"lat":"19.36145000","lon":"-89.58218000"},{"name":"Ciudad del Carmen","native":null,"lat":"18.64592000","lon":"-91.82991000"},{"name":"Colonia Emiliano Zapata","native":null,"lat":"18.66504000","lon":"-92.31088000"},{"name":"Constitución","native":null,"lat":"18.62675000","lon":"-90.13584000"},{"name":"Cumpich","native":null,"lat":"20.18612000","lon":"-89.97081000"},{"name":"División del Norte","native":null,"lat":"18.52946000","lon":"-90.76416000"},{"name":"Don Samuel","native":null,"lat":"18.36000000","lon":"-90.85722000"},{"name":"Dzibalchén","native":null,"lat":"19.45847000","lon":"-89.73111000"},{"name":"Dzitbalché","native":null,"lat":"20.31857000","lon":"-90.05611000"},{"name":"El Aguacatal","native":null,"lat":"18.21361000","lon":"-91.51095000"},{"name":"El Naranjo","native":null,"lat":"18.02193000","lon":"-91.12654000"},{"name":"Escárcega","native":null,"lat":"18.61404000","lon":"-90.72870000"},{"name":"Hampolol","native":null,"lat":"19.92716000","lon":"-90.38924000"},{"name":"Haro","native":null,"lat":"18.44418000","lon":"-90.79153000"},{"name":"Hecelchakán","native":null,"lat":"20.16667000","lon":"-90.13333000"},{"name":"Hool","native":null,"lat":"19.51294000","lon":"-90.44631000"},{"name":"Hopelchén","native":null,"lat":"19.74671000","lon":"-89.84437000"},{"name":"Isla Aguada","native":null,"lat":"18.78714000","lon":"-91.49277000"},{"name":"Iturbide","native":null,"lat":"19.57903000","lon":"-89.60222000"},{"name":"La Joya","native":null,"lat":"19.48028000","lon":"-90.67333000"},{"name":"La Libertad","native":null,"lat":"18.57042000","lon":"-90.51399000"},{"name":"Lerma","native":null,"lat":"19.80404000","lon":"-90.60088000"},{"name":"Licenciado Gustavo Díaz Ordaz (18 de Marzo)","native":null,"lat":"18.63222000","lon":"-91.00278000"},{"name":"Los Laureles","native":null,"lat":"19.48778000","lon":"-89.99444000"},{"name":"Mamantel","native":null,"lat":"18.52512000","lon":"-91.08885000"},{"name":"Matamoros","native":null,"lat":"18.58414000","lon":"-90.64669000"},{"name":"Maya Tecún I","native":null,"lat":"19.15292000","lon":"-90.50641000"},{"name":"Nuevo Progreso","native":null,"lat":"18.62294000","lon":"-92.29124000"},{"name":"Nunkiní","native":null,"lat":"20.40046000","lon":"-90.14803000"},{"name":"Palizada","native":null,"lat":"18.25261000","lon":"-92.07779000"},{"name":"Pich","native":null,"lat":"19.48568000","lon":"-90.11795000"},{"name":"Pocboc","native":null,"lat":"20.23541000","lon":"-90.10219000"},{"name":"Pomuch","native":null,"lat":"20.13727000","lon":"-90.17488000"},{"name":"Sabancuy","native":null,"lat":"18.97270000","lon":"-91.17783000"},{"name":"San Antonio Cárdenas","native":null,"lat":"18.61399000","lon":"-92.22341000"},{"name":"San Antonio Sahcabchén","native":null,"lat":"20.30696000","lon":"-90.13778000"},{"name":"San Francisco Kobén","native":null,"lat":"19.91516000","lon":"-90.41709000"},{"name":"San Pablo Pixtún","native":null,"lat":"19.13361000","lon":"-90.73194000"},{"name":"Santa Cruz","native":null,"lat":"20.20339000","lon":"-90.11771000"},{"name":"Santa Cruz Ex-Hacienda","native":null,"lat":"20.39684000","lon":"-90.24068000"},{"name":"Santa Cruz Pueblo","native":null,"lat":"20.33359000","lon":"-90.10342000"},{"name":"Santo Domingo Kesté","native":null,"lat":"19.49972000","lon":"-90.51139000"},{"name":"Seybaplaya","native":null,"lat":"19.63994000","lon":"-90.68706000"},{"name":"Sihochac","native":null,"lat":"19.50120000","lon":"-90.58472000"},{"name":"Suc-Tuc","native":null,"lat":"19.71259000","lon":"-90.03768000"},{"name":"Tankuché","native":null,"lat":"20.50743000","lon":"-90.24164000"},{"name":"Tenabo","native":null,"lat":"19.83333000","lon":"-90.00000000"},{"name":"Tepakán","native":null,"lat":"20.39716000","lon":"-90.04075000"},{"name":"Tikinmul","native":null,"lat":"19.76611000","lon":"-90.22306000"},{"name":"Ukúm","native":null,"lat":"19.24197000","lon":"-89.33529000"},{"name":"Villa Madero","native":null,"lat":"19.52833000","lon":"-90.69917000"},{"name":"Xbacab","native":null,"lat":"18.94139000","lon":"-90.72194000"},{"name":"Xmabén","native":null,"lat":"19.23530000","lon":"-89.31426000"},{"name":"Xpujil","native":null,"lat":"18.50760000","lon":"-89.39437000"},{"name":"Zoh-Laguna","native":null,"lat":"18.59306000","lon":"-89.41714000"}]},{"name":"Chiapas","native":null,"cities":[{"name":"1ra. Sección de Izapa","native":null,"lat":"14.92083000","lon":"-92.17083000"},{"name":"2da. Sección de Medio Monte","native":null,"lat":"14.88194000","lon":"-92.18444000"},{"name":"Abasolo","native":null,"lat":"16.82140000","lon":"-92.21611000"},{"name":"Acacoyagua","native":null,"lat":"15.41414000","lon":"-92.68169000"},{"name":"Acala","native":null,"lat":"16.55625000","lon":"-92.80449000"},{"name":"Acapetahua","native":null,"lat":"15.28189000","lon":"-92.68987000"},{"name":"Adolfo López Mateos","native":null,"lat":"17.21600000","lon":"-93.47895000"},{"name":"Agrónomos Mexicanos","native":null,"lat":"16.35000000","lon":"-93.53000000"},{"name":"Agua Azul","native":null,"lat":"16.81432000","lon":"-91.52391000"},{"name":"Agua Blanca Serranía","native":null,"lat":"17.26781000","lon":"-91.83564000"},{"name":"Agua Zarca","native":null,"lat":"15.63417000","lon":"-92.14472000"},{"name":"Aguacatenango","native":null,"lat":"16.47388000","lon":"-92.40875000"},{"name":"Agustín de Iturbide","native":null,"lat":"15.07523000","lon":"-92.19858000"},{"name":"Ahuacatlán","native":null,"lat":"15.04030000","lon":"-92.18036000"},{"name":"Ajilhó","native":null,"lat":"16.98376000","lon":"-92.93804000"},{"name":"Aldama","native":null,"lat":"16.91667000","lon":"-92.68333000"},{"name":"Alfonso Moguel","native":null,"lat":"16.66750000","lon":"-93.50639000"},{"name":"Altamirano","native":null,"lat":"16.88333000","lon":"-92.15000000"},{"name":"Álvaro Obregón","native":null,"lat":"14.92231000","lon":"-92.37813000"},{"name":"Amado Nervo","native":null,"lat":"17.23107000","lon":"-92.24581000"},{"name":"Amatán","native":null,"lat":"17.36667000","lon":"-92.81667000"},{"name":"Amatenango de la Frontera","native":null,"lat":"15.43333000","lon":"-92.11667000"},{"name":"Amatenango del Valle","native":null,"lat":"16.52722000","lon":"-92.43472000"},{"name":"América Libre","native":null,"lat":"16.61462000","lon":"-92.99185000"},{"name":"Ángel Albino Corzo","native":null,"lat":"15.86624000","lon":"-92.72324000"},{"name":"Ángel Albino Corzo (Guadalupe)","native":null,"lat":"17.12639000","lon":"-93.27500000"},{"name":"Apas","native":null,"lat":"16.71066000","lon":"-92.79335000"},{"name":"Aquiles Serdán","native":null,"lat":"14.93980000","lon":"-92.51444000"},{"name":"Arimatea","native":null,"lat":"17.34139000","lon":"-91.87639000"},{"name":"Arriaga","native":null,"lat":"16.23589000","lon":"-93.89995000"},{"name":"Arroyo Grande","native":null,"lat":"17.19122000","lon":"-92.87207000"},{"name":"Arroyo Granizo","native":null,"lat":"17.03716000","lon":"-91.42563000"},{"name":"Arroyo Palenque","native":null,"lat":"17.39167000","lon":"-92.10444000"},{"name":"Arvenza Uno","native":null,"lat":"16.77972000","lon":"-92.72028000"},{"name":"Aurora Ermita","native":null,"lat":"17.23583000","lon":"-92.87389000"},{"name":"Aurora Esquipulas","native":null,"lat":"17.11704000","lon":"-92.47626000"},{"name":"Azteca","native":null,"lat":"16.21775000","lon":"-93.94557000"},{"name":"Aztlán","native":null,"lat":"16.76919000","lon":"-92.92316000"},{"name":"Bachajón","native":null,"lat":"17.03963000","lon":"-92.18986000"},{"name":"Bajucu","native":null,"lat":"16.47520000","lon":"-92.06471000"},{"name":"Bautista Chico","native":null,"lat":"16.79972000","lon":"-92.71194000"},{"name":"Bejucal de Ocampo","native":null,"lat":"15.45535000","lon":"-92.15835000"},{"name":"Belisario Domínguez","native":null,"lat":"15.29944000","lon":"-92.38056000"},{"name":"Bella Vista","native":null,"lat":"15.58333000","lon":"-92.21667000"},{"name":"Benemérito de las Américas","native":null,"lat":"16.51599000","lon":"-90.65371000"},{"name":"Benito Juárez","native":null,"lat":"15.05500000","lon":"-92.19111000"},{"name":"Berriozábal","native":null,"lat":"16.80000000","lon":"-93.26667000"},{"name":"Betania","native":null,"lat":"16.60639000","lon":"-92.52194000"},{"name":"Bochil","native":null,"lat":"16.99625000","lon":"-92.89218000"},{"name":"Bochojbo Alto","native":null,"lat":"16.73583000","lon":"-92.71694000"},{"name":"Brisas Barra de Suchiate","native":null,"lat":"14.53588000","lon":"-92.22414000"},{"name":"Buenavista","native":null,"lat":"16.24278000","lon":"-91.98778000"},{"name":"Buenavista (Matasanos)","native":null,"lat":"17.10778000","lon":"-93.06694000"},{"name":"Buenos Aires","native":null,"lat":"14.88980000","lon":"-92.48121000"},{"name":"Cabeza de Toro","native":null,"lat":"15.93698000","lon":"-93.78256000"},{"name":"Cacahoatán","native":null,"lat":"14.99201000","lon":"-92.16376000"},{"name":"Cacaté","native":null,"lat":"16.84534000","lon":"-92.83485000"},{"name":"Cálido","native":null,"lat":"17.09889000","lon":"-92.78750000"},{"name":"Calzada Larga","native":null,"lat":"16.35115000","lon":"-93.31518000"},{"name":"Cancuc","native":null,"lat":"16.91667000","lon":"-92.48333000"},{"name":"Cantioc","native":null,"lat":"17.26222000","lon":"-92.40694000"},{"name":"Cantón las Delicias","native":null,"lat":"15.10245000","lon":"-92.50002000"},{"name":"Cantón Rancho Nuevo","native":null,"lat":"15.06742000","lon":"-92.52565000"},{"name":"Cantón Villaflor","native":null,"lat":"15.11424000","lon":"-92.35261000"},{"name":"Carmen Yalchuch","native":null,"lat":"16.64482000","lon":"-92.36245000"},{"name":"Carmen Zacatal","native":null,"lat":"17.08083000","lon":"-92.80250000"},{"name":"Carrillo Puerto","native":null,"lat":"15.01120000","lon":"-92.19552000"},{"name":"Cash","native":null,"lat":"16.26426000","lon":"-92.09775000"},{"name":"Catazajá","native":null,"lat":"17.73333000","lon":"-92.01667000"},{"name":"Catishtic","native":null,"lat":"16.78028000","lon":"-92.73778000"},{"name":"Cebadilla 1ra. Sección","native":null,"lat":"14.86381000","lon":"-92.27969000"},{"name":"Cenobio Aguilar (La Trinidad)","native":null,"lat":"17.40472000","lon":"-92.31944000"},{"name":"Cereso 14 (El Amate)","native":null,"lat":"16.59472000","lon":"-93.80278000"},{"name":"Chacaljocóm","native":null,"lat":"16.29919000","lon":"-92.18345000"},{"name":"Chacoma","native":null,"lat":"16.87611000","lon":"-92.49139000"},{"name":"Chalam","native":null,"lat":"16.88771000","lon":"-92.55009000"},{"name":"Chalchihuitán","native":null,"lat":"16.96667000","lon":"-92.65000000"},{"name":"Chamula","native":null,"lat":"16.78416000","lon":"-92.68959000"},{"name":"Chamulapita","native":null,"lat":"15.06892000","lon":"-92.36942000"},{"name":"Chanal","native":null,"lat":"16.65750000","lon":"-92.25750000"},{"name":"Chapallal Grande","native":null,"lat":"17.29631000","lon":"-92.94519000"},{"name":"Chapultenango","native":null,"lat":"17.33333000","lon":"-93.13333000"},{"name":"Chiapa de Corzo","native":null,"lat":"16.70770000","lon":"-93.01184000"},{"name":"Chiapilla","native":null,"lat":"16.55397000","lon":"-92.72594000"},{"name":"Chicoasén","native":null,"lat":"16.96528000","lon":"-93.10472000"},{"name":"Chicomuselo","native":null,"lat":"15.74420000","lon":"-92.28330000"},{"name":"Chicumtantic","native":null,"lat":"16.86556000","lon":"-92.60528000"},{"name":"Chihuahua","native":null,"lat":"16.02966000","lon":"-91.97331000"},{"name":"Chiloljá","native":null,"lat":"16.88528000","lon":"-92.42472000"},{"name":"Chilón","native":null,"lat":"17.11667000","lon":"-92.28333000"},{"name":"Chimhucum","native":null,"lat":"16.89000000","lon":"-92.53139000"},{"name":"Chiquinival","native":null,"lat":"16.99111000","lon":"-91.96028000"},{"name":"Chiquinshulum","native":null,"lat":"17.07194000","lon":"-92.59806000"},{"name":"Chixtontic","native":null,"lat":"16.89080000","lon":"-92.45793000"},{"name":"Chulum Cárdenas","native":null,"lat":"17.38417000","lon":"-92.57389000"},{"name":"Chulum Juárez","native":null,"lat":"17.33194000","lon":"-92.53389000"},{"name":"Cintalapa","native":null,"lat":"16.68778000","lon":"-93.71083000"},{"name":"Cintalapa de Figueroa","native":null,"lat":"16.68393000","lon":"-93.71814000"},{"name":"Ciudad Cuauhtémoc","native":null,"lat":"15.66587000","lon":"-92.00388000"},{"name":"Ciudad Hidalgo","native":null,"lat":"14.68148000","lon":"-92.15217000"},{"name":"Coapilla","native":null,"lat":"17.13137000","lon":"-93.15946000"},{"name":"Colonia Obrera","native":null,"lat":"15.09806000","lon":"-92.49806000"},{"name":"Comalapa","native":null,"lat":"15.65924000","lon":"-92.14237000"},{"name":"Comitán","native":null,"lat":"16.24710000","lon":"-92.13515000"},{"name":"Concepción","native":null,"lat":"16.80908000","lon":"-92.96526000"},{"name":"Congregación Reforma","native":null,"lat":"14.78208000","lon":"-92.31424000"},{"name":"Constitución","native":null,"lat":"17.07556000","lon":"-92.52417000"},{"name":"Copainalá","native":null,"lat":"17.09366000","lon":"-93.21059000"},{"name":"Copoya","native":null,"lat":"16.71191000","lon":"-93.12089000"},{"name":"Cristóbal Colón","native":null,"lat":"17.19194000","lon":"-91.62917000"},{"name":"Cristóbal Obregón","native":null,"lat":"16.43246000","lon":"-93.45689000"},{"name":"Cruztón","native":null,"lat":"16.76167000","lon":"-92.57917000"},{"name":"Cuauhtémoc","native":null,"lat":"16.55000000","lon":"-93.71611000"},{"name":"Cuchulumtic","native":null,"lat":"16.77722000","lon":"-92.70417000"},{"name":"Damasco","native":null,"lat":"17.16161000","lon":"-91.60058000"},{"name":"Diamante de Echeverría","native":null,"lat":"16.11181000","lon":"-92.87931000"},{"name":"Dieciséis de Septiembre","native":null,"lat":"16.29715000","lon":"-93.17490000"},{"name":"Doctor Belisario Domínguez (La Barra)","native":null,"lat":"15.88947000","lon":"-93.70404000"},{"name":"Doctor Domingo Chanona","native":null,"lat":"16.34611000","lon":"-93.41667000"},{"name":"Doctor Rodulfo Figueroa (Tierra Blanca)","native":null,"lat":"15.85083000","lon":"-92.06222000"},{"name":"Doctor Samuel León Brindis","native":null,"lat":"17.43528000","lon":"-91.93194000"},{"name":"Dolores Jaltenango","native":null,"lat":"15.89694000","lon":"-92.77777000"},{"name":"Efraín A. Gutiérrez","native":null,"lat":"16.34442000","lon":"-92.19927000"},{"name":"Egipto","native":null,"lat":"17.26207000","lon":"-91.97150000"},{"name":"El Águila","native":null,"lat":"15.09334000","lon":"-92.18512000"},{"name":"El Ámbar","native":null,"lat":"17.02500000","lon":"-92.83417000"},{"name":"El Ámbar (El Ámbar de Echeverría)","native":null,"lat":"16.09639000","lon":"-92.83333000"},{"name":"El Arenal","native":null,"lat":"15.17273000","lon":"-92.69923000"},{"name":"El Bosque","native":null,"lat":"17.06273000","lon":"-92.72147000"},{"name":"El Calvario","native":null,"lat":"17.21750000","lon":"-92.55694000"},{"name":"El Carmen","native":null,"lat":"15.57549000","lon":"-93.12865000"},{"name":"El Carmen (El Limón)","native":null,"lat":"17.89056000","lon":"-93.16528000"},{"name":"El Censo","native":null,"lat":"16.86287000","lon":"-91.55988000"},{"name":"El Consuelo Ulapa","native":null,"lat":"15.38662000","lon":"-92.79228000"},{"name":"El Copal","native":null,"lat":"16.96729000","lon":"-92.92625000"},{"name":"El Copalar","native":null,"lat":"16.87694000","lon":"-93.21389000"},{"name":"El Edén","native":null,"lat":"16.29191000","lon":"-91.63755000"},{"name":"El Encanto","native":null,"lat":"14.73083000","lon":"-92.41028000"},{"name":"El Espinal","native":null,"lat":"16.36862000","lon":"-94.10449000"},{"name":"El Jardín","native":null,"lat":"17.16657000","lon":"-92.59933000"},{"name":"El Jobo","native":null,"lat":"16.70369000","lon":"-93.10569000"},{"name":"El Limar","native":null,"lat":"17.41491000","lon":"-92.40293000"},{"name":"El Limonar","native":null,"lat":"16.97026000","lon":"-91.37820000"},{"name":"El Mango","native":null,"lat":"17.16236000","lon":"-92.05985000"},{"name":"El Nopal","native":null,"lat":"16.91161000","lon":"-92.84471000"},{"name":"El Pacayal","native":null,"lat":"15.59849000","lon":"-92.04254000"},{"name":"El Palmar (San Gabriel)","native":null,"lat":"16.84556000","lon":"-93.01639000"},{"name":"El Palmar Grande","native":null,"lat":"15.49858000","lon":"-92.25518000"},{"name":"El Palmarcito","native":null,"lat":"15.49728000","lon":"-93.21387000"},{"name":"El Paraíso","native":null,"lat":"17.24639000","lon":"-92.55694000"},{"name":"El Parral","native":null,"lat":"16.37035000","lon":"-93.00567000"},{"name":"El Portal","native":null,"lat":"15.67726000","lon":"-92.09588000"},{"name":"El Porvenir","native":null,"lat":"15.43092000","lon":"-92.26447000"},{"name":"El Porvenir Agrarista","native":null,"lat":"16.16465000","lon":"-91.83575000"},{"name":"El Porvenir de Velasco Suárez","native":null,"lat":"15.45695000","lon":"-92.27987000"},{"name":"El Pozo","native":null,"lat":"16.92034000","lon":"-92.41166000"},{"name":"El Progreso","native":null,"lat":"16.87694000","lon":"-93.22222000"},{"name":"El Puerto","native":null,"lat":"16.42575000","lon":"-92.43059000"},{"name":"El Ramal (Porvenir)","native":null,"lat":"15.86583000","lon":"-92.94556000"},{"name":"El Sacrificio","native":null,"lat":"14.87283000","lon":"-92.22782000"},{"name":"El Sibal","native":null,"lat":"16.98000000","lon":"-91.49111000"},{"name":"El Triunfo","native":null,"lat":"16.20200000","lon":"-91.85916000"},{"name":"El Triunfo 1ra. Sección (Cardona)","native":null,"lat":"17.60778000","lon":"-93.23306000"},{"name":"El Triunfo de las Tres Maravillas","native":null,"lat":"15.64694000","lon":"-92.15639000"},{"name":"El Tumbo","native":null,"lat":"17.07779000","lon":"-91.62595000"},{"name":"El Tzay","native":null,"lat":"16.86361000","lon":"-92.31222000"},{"name":"El Vergel","native":null,"lat":"16.57951000","lon":"-92.08148000"},{"name":"El Zapotal","native":null,"lat":"16.74991000","lon":"-91.44192000"},{"name":"El Zapotillo","native":null,"lat":"16.83700000","lon":"-92.95152000"},{"name":"Emiliano Zapata","native":null,"lat":"17.74058000","lon":"-91.76635000"},{"name":"Escuintla","native":null,"lat":"15.33333000","lon":"-92.63333000"},{"name":"Estación Huehuetán","native":null,"lat":"15.01091000","lon":"-92.40662000"},{"name":"Estación San Manuel","native":null,"lat":"17.65256000","lon":"-93.38427000"},{"name":"Estación Tuzantán","native":null,"lat":"15.10643000","lon":"-92.45092000"},{"name":"Estrella de Belén","native":null,"lat":"17.38722000","lon":"-91.95861000"},{"name":"Faja de Oro","native":null,"lat":"15.03244000","lon":"-92.15634000"},{"name":"Flor de Cacao","native":null,"lat":"16.12889000","lon":"-90.45111000"},{"name":"Francisco I. Madero","native":null,"lat":"16.87427000","lon":"-93.21678000"},{"name":"Francisco León","native":null,"lat":"17.31667000","lon":"-93.25000000"},{"name":"Francisco Sarabia","native":null,"lat":"16.94583000","lon":"-93.01306000"},{"name":"Francisco Villa","native":null,"lat":"16.21426000","lon":"-93.33697000"},{"name":"Frontera Corozal","native":null,"lat":"16.81473000","lon":"-90.88351000"},{"name":"Frontera Hidalgo","native":null,"lat":"14.77744000","lon":"-92.17741000"},{"name":"Gabriel Esquinca","native":null,"lat":"16.94056000","lon":"-93.17555000"},{"name":"Galecio Narcia","native":null,"lat":"16.58820000","lon":"-93.02052000"},{"name":"Guadalupe","native":null,"lat":"14.98033000","lon":"-92.33938000"},{"name":"Guadalupe Grijalva","native":null,"lat":"15.69899000","lon":"-92.16414000"},{"name":"Guadalupe Victoria","native":null,"lat":"16.40500000","lon":"-92.55250000"},{"name":"Guaquitepec","native":null,"lat":"16.98017000","lon":"-92.28795000"},{"name":"Hermenegildo Galeana","native":null,"lat":"16.57722000","lon":"-93.35944000"},{"name":"Héroes de Chapultepec","native":null,"lat":"16.06920000","lon":"-92.28621000"},{"name":"Hidalgo","native":null,"lat":"15.16249000","lon":"-92.63030000"},{"name":"Hidalgo Joshil","native":null,"lat":"17.22743000","lon":"-92.34719000"},{"name":"Huehuetán","native":null,"lat":"15.01981000","lon":"-92.38249000"},{"name":"Huitiupán","native":null,"lat":"17.17240000","lon":"-92.68621000"},{"name":"Huixtla","native":null,"lat":"15.13915000","lon":"-92.46410000"},{"name":"Huizachal","native":null,"lat":"16.05184000","lon":"-93.80011000"},{"name":"Ignacio Allende","native":null,"lat":"16.52556000","lon":"-92.99222000"},{"name":"Ignacio López Rayón","native":null,"lat":"14.62164000","lon":"-92.18678000"},{"name":"Ignacio Ramírez","native":null,"lat":"16.11091000","lon":"-93.87323000"},{"name":"Ignacio Zaragoza","native":null,"lat":"17.29000000","lon":"-92.93806000"},{"name":"Ignacio Zaragoza (El Morro)","native":null,"lat":"16.59944000","lon":"-93.35083000"},{"name":"Independencia","native":null,"lat":"16.08611000","lon":"-92.83824000"},{"name":"Ixhuatán","native":null,"lat":"17.29341000","lon":"-93.00829000"},{"name":"Ixtacomitán","native":null,"lat":"17.43093000","lon":"-93.09704000"},{"name":"Ixtapa","native":null,"lat":"16.80320000","lon":"-92.90532000"},{"name":"Ixtapangajoya","native":null,"lat":"17.49849000","lon":"-93.00155000"},{"name":"Jalisco","native":null,"lat":"16.43033000","lon":"-91.97499000"},{"name":"Jaltenango de la Paz","native":null,"lat":"15.87314000","lon":"-92.72437000"},{"name":"Jardínes del Grijalva","native":null,"lat":"16.72847000","lon":"-93.03463000"},{"name":"Jericó","native":null,"lat":"16.28713000","lon":"-92.96630000"},{"name":"Jerusalén","native":null,"lat":"17.36806000","lon":"-92.06083000"},{"name":"Jesús María Garza","native":null,"lat":"16.39669000","lon":"-93.29368000"},{"name":"Jiquilpan (Estación Bonanza)","native":null,"lat":"15.34194000","lon":"-92.74750000"},{"name":"Jiquipilas","native":null,"lat":"16.66806000","lon":"-93.64667000"},{"name":"Jitotol","native":null,"lat":"17.06723000","lon":"-92.86111000"},{"name":"Joaquín Miguel Gutiérrez","native":null,"lat":"16.37000000","lon":"-93.36556000"},{"name":"Joaquín Miguel Gutiérrez (Margaritas)","native":null,"lat":"15.55028000","lon":"-93.09306000"},{"name":"Joljá","native":null,"lat":"17.20459000","lon":"-92.49946000"},{"name":"Jolsibaquil","native":null,"lat":"17.25972000","lon":"-92.48167000"},{"name":"Joltealal","native":null,"lat":"17.07683000","lon":"-92.62163000"},{"name":"Jomanichim","native":null,"lat":"16.90056000","lon":"-92.47222000"},{"name":"José María Morelos","native":null,"lat":"16.04189000","lon":"-91.83201000"},{"name":"José María Morelos y Pavón","native":null,"lat":"17.24105000","lon":"-92.70231000"},{"name":"José María Pino Suárez","native":null,"lat":"16.50571000","lon":"-93.73910000"},{"name":"Joshil","native":null,"lat":"17.24667000","lon":"-92.36278000"},{"name":"Juan Aldama","native":null,"lat":"17.60939000","lon":"-93.02826000"},{"name":"Juan del Grijalva","native":null,"lat":"16.72806000","lon":"-92.97750000"},{"name":"Juárez","native":null,"lat":"17.60572000","lon":"-93.19433000"},{"name":"Julián Grajales","native":null,"lat":"16.42917000","lon":"-93.71417000"},{"name":"Justo Sierra","native":null,"lat":"16.54248000","lon":"-92.05737000"},{"name":"Kotolte","native":null,"lat":"16.86444000","lon":"-92.46111000"},{"name":"La Candelaria","native":null,"lat":"16.74289000","lon":"-92.52156000"},{"name":"La Ceiba","native":null,"lat":"17.13371000","lon":"-92.51887000"},{"name":"La Competencia","native":null,"lat":"17.23588000","lon":"-92.75718000"},{"name":"La Concordia","native":null,"lat":"16.11774000","lon":"-92.69018000"},{"name":"La Esperanza","native":null,"lat":"16.15191000","lon":"-91.86874000"},{"name":"La Esperanza (El Zapotal)","native":null,"lat":"15.44917000","lon":"-93.16417000"},{"name":"La Floresta","native":null,"lat":"16.50915000","lon":"-92.31251000"},{"name":"La Gloria","native":null,"lat":"15.96389000","lon":"-91.96500000"},{"name":"La Grandeza","native":null,"lat":"15.51033000","lon":"-92.22603000"},{"name":"La Independencia","native":null,"lat":"16.25263000","lon":"-92.02371000"},{"name":"La Independencia (Las Pilas)","native":null,"lat":"16.67750000","lon":"-93.24944000"},{"name":"La Laguna","native":null,"lat":"16.69357000","lon":"-91.94929000"},{"name":"La Libertad","native":null,"lat":"14.59167000","lon":"-92.19315000"},{"name":"La Línea","native":null,"lat":"16.13078000","lon":"-94.03563000"},{"name":"La Patria","native":null,"lat":"16.22975000","lon":"-91.91148000"},{"name":"La Pimienta","native":null,"lat":"17.14111000","lon":"-92.76222000"},{"name":"La Rinconada","native":null,"lat":"15.59333000","lon":"-92.26806000"},{"name":"La Tigrilla","native":null,"lat":"15.98769000","lon":"-92.85220000"},{"name":"La Trinitaria","native":null,"lat":"16.11859000","lon":"-92.05201000"},{"name":"Lacandón","native":null,"lat":"17.02141000","lon":"-91.59523000"},{"name":"Laguna del Cofre","native":null,"lat":"15.62751000","lon":"-92.64143000"},{"name":"Larráinzar","native":null,"lat":"16.88392000","lon":"-92.71329000"},{"name":"Las Brisas","native":null,"lat":"15.51681000","lon":"-93.11763000"},{"name":"Las Chicharras","native":null,"lat":"15.67089000","lon":"-92.21070000"},{"name":"Las Delicias","native":null,"lat":"15.96932000","lon":"-91.86315000"},{"name":"Las Flechas","native":null,"lat":"16.70028000","lon":"-93.02639000"},{"name":"Las Maravillas","native":null,"lat":"16.95951000","lon":"-93.32012000"},{"name":"Las Margaritas","native":null,"lat":"16.31265000","lon":"-91.98107000"},{"name":"Las Ollas","native":null,"lat":"16.78146000","lon":"-92.55278000"},{"name":"Las Rosas","native":null,"lat":"16.36574000","lon":"-92.37040000"},{"name":"Las Tazas","native":null,"lat":"16.75722000","lon":"-91.61500000"},{"name":"Lázaro Cárdenas","native":null,"lat":"16.60417000","lon":"-93.79139000"},{"name":"Lázaro Cárdenas (Chilil)","native":null,"lat":"16.67611000","lon":"-92.48917000"},{"name":"Libertad Melchor Ocampo","native":null,"lat":"16.37389000","lon":"-93.47500000"},{"name":"Libertad Ventanas","native":null,"lat":"15.53954000","lon":"-92.27576000"},{"name":"Llano de la Lima","native":null,"lat":"14.86596000","lon":"-92.29714000"},{"name":"Loma Bonita","native":null,"lat":"17.78697000","lon":"-92.07651000"},{"name":"Lomantán","native":null,"lat":"16.43999000","lon":"-92.06445000"},{"name":"Los Cafetales","native":null,"lat":"14.86745000","lon":"-92.30200000"},{"name":"Los Corazones","native":null,"lat":"16.21026000","lon":"-94.07391000"},{"name":"Los Naranjos","native":null,"lat":"17.26446000","lon":"-92.61972000"},{"name":"Los Palacios","native":null,"lat":"14.85718000","lon":"-92.25821000"},{"name":"Los Pinos","native":null,"lat":"16.92083000","lon":"-92.10861000"},{"name":"Los Plátanos","native":null,"lat":"17.00556000","lon":"-92.74264000"},{"name":"Los Pozos","native":null,"lat":"16.64770000","lon":"-92.40726000"},{"name":"Los Riegos","native":null,"lat":"16.30457000","lon":"-92.12425000"},{"name":"Luis Espinoza","native":null,"lat":"17.03167000","lon":"-93.02694000"},{"name":"Macvilhó","native":null,"lat":"16.85760000","lon":"-92.69419000"},{"name":"Majastic","native":null,"lat":"17.28944000","lon":"-92.62833000"},{"name":"Majomut","native":null,"lat":"16.84917000","lon":"-92.65944000"},{"name":"Manuel Ávila Camacho","native":null,"lat":"16.14647000","lon":"-93.01701000"},{"name":"Manuel Ávila Camacho (Ponte Duro)","native":null,"lat":"15.80973000","lon":"-93.58933000"},{"name":"Manuel Lazos","native":null,"lat":"14.97159000","lon":"-92.18726000"},{"name":"Mapastepec","native":null,"lat":"15.43358000","lon":"-92.90039000"},{"name":"Maravilla Tenejapa","native":null,"lat":"16.20391000","lon":"-91.26093000"},{"name":"Maravillas","native":null,"lat":"17.09693000","lon":"-92.89107000"},{"name":"Mariano Matamoros","native":null,"lat":"16.48119000","lon":"-92.58472000"},{"name":"Mariscal Subikuski","native":null,"lat":"17.33250000","lon":"-92.38083000"},{"name":"Marqués de Comillas","native":null,"lat":"16.21471000","lon":"-90.75917000"},{"name":"Marte R. Gómez","native":null,"lat":"14.92653000","lon":"-92.44389000"},{"name":"Matzam","native":null,"lat":"16.78917000","lon":"-92.47694000"},{"name":"Mazapa","native":null,"lat":"15.38773000","lon":"-92.18780000"},{"name":"Mazapa de Madero","native":null,"lat":"15.36461000","lon":"-92.18762000"},{"name":"Mazatán","native":null,"lat":"14.86319000","lon":"-92.45030000"},{"name":"Mérida","native":null,"lat":"16.56750000","lon":"-93.81722000"},{"name":"Metapa","native":null,"lat":"14.83624000","lon":"-92.19186000"},{"name":"Miguel Hidalgo","native":null,"lat":"16.35060000","lon":"-92.62852000"},{"name":"Miguel Utrilla (Los Chorros)","native":null,"lat":"16.94278000","lon":"-92.47972000"},{"name":"Misija","native":null,"lat":"17.26611000","lon":"-92.38167000"},{"name":"Mitontic","native":null,"lat":"16.87540000","lon":"-92.57130000"},{"name":"Mitzitón","native":null,"lat":"16.64639000","lon":"-92.54333000"},{"name":"Mixcum","native":null,"lat":"15.02560000","lon":"-92.14080000"},{"name":"Monte Redondo","native":null,"lat":"15.65217000","lon":"-92.05045000"},{"name":"Montecristo","native":null,"lat":"15.69263000","lon":"-92.61999000"},{"name":"Montecristo de Guerrero","native":null,"lat":"15.67526000","lon":"-92.64399000"},{"name":"Monterrey","native":null,"lat":"16.06191000","lon":"-93.36928000"},{"name":"Morelia (Victórico Rodolfo Grajales)","native":null,"lat":"16.72306000","lon":"-91.96778000"},{"name":"Motozintla","native":null,"lat":"15.36694000","lon":"-92.24605000"},{"name":"Moyos","native":null,"lat":"17.35889000","lon":"-92.64134000"},{"name":"Muquén","native":null,"lat":"16.80641000","lon":"-92.61006000"},{"name":"Nachig","native":null,"lat":"16.73056000","lon":"-92.72528000"},{"name":"Narciso Mendoza","native":null,"lat":"16.57996000","lon":"-92.98911000"},{"name":"Navenchauc","native":null,"lat":"16.73501000","lon":"-92.77900000"},{"name":"Nicolás Bravo","native":null,"lat":"16.51058000","lon":"-92.99222000"},{"name":"Nicolás Ruiz","native":null,"lat":"16.43714000","lon":"-92.58522000"},{"name":"Nueva América","native":null,"lat":"15.92281000","lon":"-92.30587000"},{"name":"Nueva Colombia","native":null,"lat":"15.69670000","lon":"-92.72111000"},{"name":"Nueva Esperanza","native":null,"lat":"17.24746000","lon":"-92.45524000"},{"name":"Nueva Independencia","native":null,"lat":"15.78259000","lon":"-92.20883000"},{"name":"Nueva Libertad","native":null,"lat":"16.09038000","lon":"-92.80813000"},{"name":"Nueva Libertad (El Colorado)","native":null,"lat":"15.89861000","lon":"-92.05917000"},{"name":"Nueva Morelia","native":null,"lat":"15.61784000","lon":"-92.14517000"},{"name":"Nueva Palestina","native":null,"lat":"16.81722000","lon":"-91.26000000"},{"name":"Nueva Sesecapa","native":null,"lat":"15.40205000","lon":"-92.82239000"},{"name":"Nueva Tenochtitlán (Rizo de Oro)","native":null,"lat":"16.47639000","lon":"-94.08056000"},{"name":"Nuevo Amatenango","native":null,"lat":"15.50852000","lon":"-92.10958000"},{"name":"Nuevo Carmen Tonapac","native":null,"lat":"16.69667000","lon":"-92.95556000"},{"name":"Nuevo Francisco León","native":null,"lat":"17.03031000","lon":"-91.32216000"},{"name":"Nuevo Juan del Grijalva","native":null,"lat":"17.42722000","lon":"-93.37222000"},{"name":"Nuevo León","native":null,"lat":"16.48629000","lon":"-92.57140000"},{"name":"Nuevo Limar","native":null,"lat":"17.45514000","lon":"-92.39890000"},{"name":"Nuevo México","native":null,"lat":"16.46944000","lon":"-93.43806000"},{"name":"Nuevo Milenio Valdivia","native":null,"lat":"15.50306000","lon":"-92.94861000"},{"name":"Nuevo Naranjo","native":null,"lat":"17.15444000","lon":"-93.43333000"},{"name":"Nuevo Nicapa","native":null,"lat":"17.63464000","lon":"-93.07238000"},{"name":"Nuevo Pacayal","native":null,"lat":"15.66010000","lon":"-92.31538000"},{"name":"Nuevo Pumpuapa (Cereso)","native":null,"lat":"14.92562000","lon":"-92.36533000"},{"name":"Nuevo San Juan Chamula","native":null,"lat":"16.14426000","lon":"-91.44379000"},{"name":"Nuevo Sitalá","native":null,"lat":"17.13936000","lon":"-92.48287000"},{"name":"Nuevo Vicente Guerrero","native":null,"lat":"16.03860000","lon":"-92.97542000"},{"name":"Nuevo Vicente Guerrero (El Chichonal)","native":null,"lat":"16.48528000","lon":"-92.87139000"},{"name":"Nuevo Volcán Chichonal","native":null,"lat":"17.77263000","lon":"-93.10955000"},{"name":"Nuevo Xochimilco","native":null,"lat":"17.45442000","lon":"-93.36904000"},{"name":"Ochusjob","native":null,"lat":"16.22482000","lon":"-92.25201000"},{"name":"Ococh","native":null,"lat":"16.83806000","lon":"-92.47528000"},{"name":"Ocosingo","native":null,"lat":"16.90639000","lon":"-92.09374000"},{"name":"Ocotepec","native":null,"lat":"17.22620000","lon":"-93.16440000"},{"name":"Ocozocoautla de Espinosa","native":null,"lat":"16.76231000","lon":"-93.37476000"},{"name":"Octavio Paz","native":null,"lat":"14.85778000","lon":"-92.26389000"},{"name":"Ojo de Agua","native":null,"lat":"16.15773000","lon":"-91.75794000"},{"name":"Omoa","native":null,"lat":"14.83292000","lon":"-92.23279000"},{"name":"Once de Abril","native":null,"lat":"15.05199000","lon":"-92.14224000"},{"name":"Ostuacán","native":null,"lat":"17.40664000","lon":"-93.33643000"},{"name":"Osumacinta","native":null,"lat":"16.93611000","lon":"-93.09028000"},{"name":"Oxchuc","native":null,"lat":"16.78588000","lon":"-92.34455000"},{"name":"Oxinam","native":null,"lat":"16.86306000","lon":"-92.54917000"},{"name":"Pablo L. Sidar","native":null,"lat":"15.83053000","lon":"-92.27977000"},{"name":"Pacú","native":null,"lat":"16.63584000","lon":"-93.13437000"},{"name":"Palenque","native":null,"lat":"17.50953000","lon":"-91.98248000"},{"name":"Pantelhó","native":null,"lat":"17.00563000","lon":"-92.47165000"},{"name":"Pantepec","native":null,"lat":"17.18842000","lon":"-93.04998000"},{"name":"Paraíso del Grijalva","native":null,"lat":"16.22576000","lon":"-92.64318000"},{"name":"Paredón","native":null,"lat":"16.05083000","lon":"-93.86667000"},{"name":"Paso Hondo","native":null,"lat":"15.68390000","lon":"-92.01860000"},{"name":"Pasté","native":null,"lat":"16.70420000","lon":"-92.74111000"},{"name":"Patosil","native":null,"lat":"16.75210000","lon":"-92.74133000"},{"name":"Patria Nueva (San José el Contento)","native":null,"lat":"16.92778000","lon":"-92.11361000"},{"name":"Pavencul","native":null,"lat":"15.20249000","lon":"-92.17993000"},{"name":"Perla de Acapulco","native":null,"lat":"16.79570000","lon":"-91.47793000"},{"name":"Petalcingo","native":null,"lat":"17.22715000","lon":"-92.41511000"},{"name":"Pichucalco","native":null,"lat":"17.51000000","lon":"-93.11591000"},{"name":"Piedra Labrada","native":null,"lat":"15.68226000","lon":"-92.30538000"},{"name":"Pijijiapan","native":null,"lat":"15.68618000","lon":"-93.20938000"},{"name":"Plan de Agua Prieta","native":null,"lat":"16.13111000","lon":"-92.79139000"},{"name":"Plan de Ayala","native":null,"lat":"16.47152000","lon":"-92.02735000"},{"name":"Pomposo Castellanos","native":null,"lat":"16.59033000","lon":"-93.86688000"},{"name":"Potrerillo","native":null,"lat":"15.63096000","lon":"-92.02059000"},{"name":"Presidente Echeverría (Laja Tendida)","native":null,"lat":"16.33583000","lon":"-92.66861000"},{"name":"Primer Cantón","native":null,"lat":"15.12056000","lon":"-92.44000000"},{"name":"Profresor Roberto Barrios","native":null,"lat":"17.32583000","lon":"-91.92639000"},{"name":"Puebla","native":null,"lat":"16.91583000","lon":"-92.50389000"},{"name":"Pueblo Nuevo","native":null,"lat":"17.16027000","lon":"-92.89977000"},{"name":"Puerto Madero","native":null,"lat":"14.72076000","lon":"-92.42146000"},{"name":"Pugchén Mumuntic","native":null,"lat":"16.86389000","lon":"-92.82361000"},{"name":"Punta Arena","native":null,"lat":"17.74601000","lon":"-92.05871000"},{"name":"Querétaro","native":null,"lat":"15.83752000","lon":"-92.75774000"},{"name":"Quintana Roo","native":null,"lat":"16.60667000","lon":"-93.56194000"},{"name":"Rafael Pascacio Gamboa","native":null,"lat":"17.91818000","lon":"-93.26833000"},{"name":"Rafael Ramírez","native":null,"lat":"16.46199000","lon":"-91.94523000"},{"name":"Ramón F. Balboa","native":null,"lat":"16.47427000","lon":"-91.40318000"},{"name":"Raudales Malpaso","native":null,"lat":"17.18833000","lon":"-93.60583000"},{"name":"Raymundo Enríquez","native":null,"lat":"14.86722000","lon":"-92.31466000"},{"name":"Rayón","native":null,"lat":"17.20137000","lon":"-93.01110000"},{"name":"Reforma","native":null,"lat":"17.86876000","lon":"-93.22673000"},{"name":"Reforma y Planada","native":null,"lat":"17.38694000","lon":"-92.86583000"},{"name":"Revolución Mexicana","native":null,"lat":"16.17156000","lon":"-93.07666000"},{"name":"Ricardo Flores Magón","native":null,"lat":"16.39397000","lon":"-92.69618000"},{"name":"Rincón Chamula","native":null,"lat":"17.20718000","lon":"-92.93912000"},{"name":"Río Blanco","native":null,"lat":"16.20501000","lon":"-91.63429000"},{"name":"Río Chancalá","native":null,"lat":"17.33454000","lon":"-91.68430000"},{"name":"Río Jordán","native":null,"lat":"17.24611000","lon":"-91.93306000"},{"name":"Rizo de Oro","native":null,"lat":"15.97088000","lon":"-92.48316000"},{"name":"Roblada Grande","native":null,"lat":"16.48909000","lon":"-93.19499000"},{"name":"Rodulfo Figueroa","native":null,"lat":"15.92006000","lon":"-91.90370000"},{"name":"Romerillo","native":null,"lat":"16.76528000","lon":"-92.56750000"},{"name":"Sabanilla","native":null,"lat":"17.30308000","lon":"-92.58368000"},{"name":"Sabinalito","native":null,"lat":"15.70186000","lon":"-91.98636000"},{"name":"Saclamantón","native":null,"lat":"16.78833000","lon":"-92.63500000"},{"name":"Saltillo","native":null,"lat":"16.39359000","lon":"-91.94890000"},{"name":"Salto de Agua","native":null,"lat":"17.55435000","lon":"-92.33941000"},{"name":"Salvador Urbina","native":null,"lat":"15.03535000","lon":"-92.20805000"},{"name":"San Andrés Duraznal","native":null,"lat":"17.15653000","lon":"-92.79606000"},{"name":"San Antonio Buenavista","native":null,"lat":"16.15234000","lon":"-91.65020000"},{"name":"San Antonio Bulujib","native":null,"lat":"16.99667000","lon":"-92.29667000"},{"name":"San Antonio del Monte","native":null,"lat":"16.76028000","lon":"-92.65306000"},{"name":"San Caralampio","native":null,"lat":"15.82935000","lon":"-92.03555000"},{"name":"San Cayetano","native":null,"lat":"16.96119000","lon":"-92.76016000"},{"name":"San Cristóbal de las Casas","native":null,"lat":"16.73176000","lon":"-92.64126000"},{"name":"San Felipe Tizapa","native":null,"lat":"15.27616000","lon":"-92.61300000"},{"name":"San Fernando","native":null,"lat":"16.87153000","lon":"-93.20759000"},{"name":"San Francisco (El Calvito)","native":null,"lat":"16.32167000","lon":"-92.56194000"},{"name":"San Francisco Jaconá","native":null,"lat":"17.26278000","lon":"-93.03250000"},{"name":"San Francisco Pujiltic","native":null,"lat":"16.27922000","lon":"-92.45319000"},{"name":"San Isidro","native":null,"lat":"15.74373000","lon":"-93.35276000"},{"name":"San Isidro las Banderas","native":null,"lat":"17.23028000","lon":"-93.06028000"},{"name":"San Jerónimo Tulijá","native":null,"lat":"17.22361000","lon":"-91.78972000"},{"name":"San José Chapayal","native":null,"lat":"17.30056000","lon":"-92.89028000"},{"name":"San José las Chicharras","native":null,"lat":"15.64363000","lon":"-92.20659000"},{"name":"San José Yashitinín","native":null,"lat":"16.65472000","lon":"-92.44500000"},{"name":"San José Yocnajab","native":null,"lat":"16.25383000","lon":"-92.08698000"},{"name":"San Lucas","native":null,"lat":"16.61167000","lon":"-92.71806000"},{"name":"San Luqueño","native":null,"lat":"16.01278000","lon":"-93.84583000"},{"name":"San Miguel","native":null,"lat":"17.36324000","lon":"-92.00762000"},{"name":"San Miguel la Sardina","native":null,"lat":"17.29417000","lon":"-93.35250000"},{"name":"San Pablo Huacano","native":null,"lat":"17.19583000","lon":"-93.20750000"},{"name":"San Pedro Buenavista","native":null,"lat":"16.08333000","lon":"-93.11667000"},{"name":"San Pedro Nichtalucum","native":null,"lat":"17.03444000","lon":"-92.72694000"},{"name":"San Quintín","native":null,"lat":"16.40672000","lon":"-91.34575000"},{"name":"San Vicente la Mesilla","native":null,"lat":"16.17861000","lon":"-92.29333000"},{"name":"Santa Elena","native":null,"lat":"16.89267000","lon":"-91.58987000"},{"name":"Santa María","native":null,"lat":"17.35230000","lon":"-92.07679000"},{"name":"Santa Rita","native":null,"lat":"16.13167000","lon":"-91.97500000"},{"name":"Santiago el Pinar","native":null,"lat":"16.94838000","lon":"-92.72074000"},{"name":"Santiago Pojcol","native":null,"lat":"16.99148000","lon":"-91.98071000"},{"name":"Santo Domingo","native":null,"lat":"15.03067000","lon":"-92.10361000"},{"name":"Santo Domingo de las Palmas","native":null,"lat":"16.13667000","lon":"-91.32194000"},{"name":"Señor del Pozo","native":null,"lat":"16.29625000","lon":"-92.11165000"},{"name":"Shoctic","native":null,"lat":"17.22361000","lon":"-92.48806000"},{"name":"Sibacá","native":null,"lat":"16.93093000","lon":"-92.14006000"},{"name":"Sibaniljá Pocolum","native":null,"lat":"16.87639000","lon":"-92.46111000"},{"name":"Siltepec","native":null,"lat":"15.55717000","lon":"-92.32314000"},{"name":"Simojovel","native":null,"lat":"17.14736000","lon":"-92.67154000"},{"name":"Simojovel de Allende","native":null,"lat":"17.14036000","lon":"-92.71394000"},{"name":"Sinaloa","native":null,"lat":"15.89261000","lon":"-92.12896000"},{"name":"Sitalá","native":null,"lat":"17.02417000","lon":"-92.30694000"},{"name":"Socoltenango","native":null,"lat":"16.17412000","lon":"-92.36658000"},{"name":"Soconusco","native":null,"lat":"15.31502000","lon":"-92.72645000"},{"name":"Solosuchiapa","native":null,"lat":"17.39364000","lon":"-93.01301000"},{"name":"Soyaló","native":null,"lat":"16.91352000","lon":"-92.96579000"},{"name":"Soyatitán","native":null,"lat":"16.29427000","lon":"-92.42402000"},{"name":"Suchiapa","native":null,"lat":"16.60775000","lon":"-93.10003000"},{"name":"Suchiate","native":null,"lat":"14.64138000","lon":"-92.22252000"},{"name":"Tacuba Nueva","native":null,"lat":"17.09028000","lon":"-92.37028000"},{"name":"Talismán","native":null,"lat":"14.96333000","lon":"-92.14722000"},{"name":"Tamaulipas","native":null,"lat":"15.77189000","lon":"-93.40718000"},{"name":"Taniperla","native":null,"lat":"16.82222000","lon":"-91.52333000"},{"name":"Tapachula","native":null,"lat":"14.90385000","lon":"-92.25749000"},{"name":"Tapalapa","native":null,"lat":"17.22618000","lon":"-93.11552000"},{"name":"Tapilula","native":null,"lat":"17.25355000","lon":"-93.00933000"},{"name":"Tecpatán","native":null,"lat":"17.13676000","lon":"-93.31133000"},{"name":"Tenango","native":null,"lat":"16.96667000","lon":"-92.41667000"},{"name":"Tentic","native":null,"lat":"16.86333000","lon":"-92.68222000"},{"name":"Teopisca","native":null,"lat":"16.54182000","lon":"-92.47405000"},{"name":"Texcaltic","native":null,"lat":"14.79550000","lon":"-92.18737000"},{"name":"Tierra y Libertad","native":null,"lat":"16.37889000","lon":"-93.86056000"},{"name":"Tila","native":null,"lat":"17.30054000","lon":"-92.42730000"},{"name":"Tiltepec","native":null,"lat":"16.39389000","lon":"-93.86972000"},{"name":"Tinajas 1ra. Sección","native":null,"lat":"14.71750000","lon":"-92.32861000"},{"name":"Tocob Leglemal","native":null,"lat":"17.23389000","lon":"-92.37833000"},{"name":"Tonalá","native":null,"lat":"16.08977000","lon":"-93.75489000"},{"name":"Totolapa","native":null,"lat":"16.54357000","lon":"-92.68019000"},{"name":"Tres Cerros","native":null,"lat":"16.91556000","lon":"-92.47278000"},{"name":"Tres Picos","native":null,"lat":"15.88209000","lon":"-93.52867000"},{"name":"Tumbala","native":null,"lat":"17.27746000","lon":"-92.31700000"},{"name":"Tuxtla","native":null,"lat":"16.75973000","lon":"-93.11308000"},{"name":"Tuxtla Chico","native":null,"lat":"14.93945000","lon":"-92.16730000"},{"name":"Tuzantán","native":null,"lat":"15.14711000","lon":"-92.42237000"},{"name":"Tz'Aquiviljok","native":null,"lat":"16.85528000","lon":"-92.45972000"},{"name":"Tzajalá","native":null,"lat":"17.13559000","lon":"-92.39328000"},{"name":"Tzajalchén","native":null,"lat":"16.84165000","lon":"-92.46014000"},{"name":"Tzeltal","native":null,"lat":"16.93944000","lon":"-92.47778000"},{"name":"Tzimol","native":null,"lat":"16.18356000","lon":"-92.18934000"},{"name":"Tzinil","native":null,"lat":"16.25778000","lon":"-92.32222000"},{"name":"Tziscao","native":null,"lat":"16.08155000","lon":"-91.66641000"},{"name":"Tzoeptic","native":null,"lat":"16.88278000","lon":"-92.56806000"},{"name":"Tzontehuitz","native":null,"lat":"16.83314000","lon":"-92.57965000"},{"name":"Tzopilja","native":null,"lat":"16.73972000","lon":"-92.30917000"},{"name":"Ubilio García","native":null,"lat":"17.08405000","lon":"-91.47241000"},{"name":"Unión Buena Vista","native":null,"lat":"16.48582000","lon":"-92.81823000"},{"name":"Unión Buenavista","native":null,"lat":"15.79527000","lon":"-92.54417000"},{"name":"Unión Juárez","native":null,"lat":"17.28083000","lon":"-92.39972000"},{"name":"Unión Roja","native":null,"lat":"15.04658000","lon":"-92.21653000"},{"name":"Usipa","native":null,"lat":"17.50028000","lon":"-92.43806000"},{"name":"Vega del Rosario","native":null,"lat":"15.52083000","lon":"-92.30720000"},{"name":"Veinte de Noviembre","native":null,"lat":"14.97730000","lon":"-92.26509000"},{"name":"Venustiano Carranza","native":null,"lat":"16.32314000","lon":"-92.55844000"},{"name":"Veracruz","native":null,"lat":"16.40417000","lon":"-91.99944000"},{"name":"Verapaz","native":null,"lat":"15.71166000","lon":"-92.06199000"},{"name":"Vicente Guerrero","native":null,"lat":"16.66028000","lon":"-93.58306000"},{"name":"Vida Mejor I","native":null,"lat":"14.86972000","lon":"-92.30778000"},{"name":"Villa Comaltitlán","native":null,"lat":"15.18645000","lon":"-92.59053000"},{"name":"Villa Corzo","native":null,"lat":"16.18510000","lon":"-93.26881000"},{"name":"Villa Hidalgo","native":null,"lat":"16.30457000","lon":"-93.15466000"},{"name":"Villaflores","native":null,"lat":"16.34149000","lon":"-93.33191000"},{"name":"Villahermosa Yaluma","native":null,"lat":"16.33366000","lon":"-92.07771000"},{"name":"Villamorelos","native":null,"lat":"16.48000000","lon":"-93.92778000"},{"name":"Viva Cárdenas","native":null,"lat":"16.83570000","lon":"-93.19333000"},{"name":"Viva México","native":null,"lat":"14.91008000","lon":"-92.32609000"},{"name":"Xochiltepec","native":null,"lat":"15.12780000","lon":"-92.43388000"},{"name":"Yajalón","native":null,"lat":"17.18519000","lon":"-92.32715000"},{"name":"Yaltem","native":null,"lat":"16.84402000","lon":"-92.79057000"},{"name":"Yasha","native":null,"lat":"16.39141000","lon":"-92.06878000"},{"name":"Yashanal","native":null,"lat":"16.82889000","lon":"-92.45194000"},{"name":"Yibeljoj","native":null,"lat":"16.95750000","lon":"-92.50361000"},{"name":"Yoshib","native":null,"lat":"16.84528000","lon":"-92.44611000"},{"name":"Zacatonal de Juárez","native":null,"lat":"17.27097000","lon":"-92.79936000"},{"name":"Zacualpa","native":null,"lat":"15.16820000","lon":"-92.62705000"},{"name":"Zamora Pico de Oro","native":null,"lat":"16.33205000","lon":"-90.76560000"},{"name":"Zaragoza","native":null,"lat":"17.00906000","lon":"-91.64033000"},{"name":"Zaragoza la Montaña","native":null,"lat":"16.41653000","lon":"-92.20512000"},{"name":"Zequentic","native":null,"lat":"16.71694000","lon":"-92.82667000"},{"name":"Zinacantán","native":null,"lat":"16.76020000","lon":"-92.72257000"}]},{"name":"Chihuahua","native":null,"cities":[{"name":"Abdenago C. García","native":null,"lat":"29.98937000","lon":"-107.55210000"},{"name":"Adolfo López Mateos","native":null,"lat":"28.46667000","lon":"-107.30000000"},{"name":"Ahumada","native":null,"lat":"30.48174000","lon":"-106.48832000"},{"name":"Aldama","native":null,"lat":"28.93636000","lon":"-105.71098000"},{"name":"Allende","native":null,"lat":"27.07787000","lon":"-105.28789000"},{"name":"Ampliación Colonia Lázaro Cárdenas","native":null,"lat":"28.38333000","lon":"-105.61667000"},{"name":"Anáhuac","native":null,"lat":"28.48396000","lon":"-106.74720000"},{"name":"Aquiles Serdán","native":null,"lat":"28.58454000","lon":"-105.88108000"},{"name":"Ascensión","native":null,"lat":"31.27914000","lon":"-107.73149000"},{"name":"Baborigame","native":null,"lat":"26.42962000","lon":"-107.26857000"},{"name":"Bachíniva","native":null,"lat":"28.76801000","lon":"-107.25559000"},{"name":"Bahuichivo","native":null,"lat":"27.40950000","lon":"-108.06740000"},{"name":"Balleza","native":null,"lat":"26.95154000","lon":"-106.34921000"},{"name":"Basaseachic","native":null,"lat":"28.20626000","lon":"-108.21270000"},{"name":"Basúchil","native":null,"lat":"28.52479000","lon":"-107.40172000"},{"name":"Batopilas","native":null,"lat":"27.02846000","lon":"-107.74125000"},{"name":"Benito Juárez","native":null,"lat":"29.74624000","lon":"-107.93966000"},{"name":"Bocoyna","native":null,"lat":"27.84133000","lon":"-107.58918000"},{"name":"Boquilla de Babisas (La Boquilla de Conchos)","native":null,"lat":"27.54861000","lon":"-105.40361000"},{"name":"Buenaventura","native":null,"lat":"30.02116000","lon":"-107.19308000"},{"name":"Camargo","native":null,"lat":"27.82905000","lon":"-104.78012000"},{"name":"Carichí","native":null,"lat":"27.74601000","lon":"-107.07795000"},{"name":"Carretas","native":null,"lat":"28.24920000","lon":"-106.51062000"},{"name":"Casas Grandes","native":null,"lat":"30.38269000","lon":"-107.95628000"},{"name":"Cerocahui","native":null,"lat":"27.29906000","lon":"-108.05500000"},{"name":"Chihuahua","native":null,"lat":"28.82669000","lon":"-106.19876000"},{"name":"Chínipas","native":null,"lat":"27.39502000","lon":"-108.53730000"},{"name":"Ciudad Delicias","native":null,"lat":"28.19013000","lon":"-105.47012000"},{"name":"Colonia Abraham González (La Quemada)","native":null,"lat":"28.20667000","lon":"-105.40750000"},{"name":"Colonia Campesina","native":null,"lat":"28.14028000","lon":"-105.52667000"},{"name":"Colonia Felipe Ángeles","native":null,"lat":"28.38550000","lon":"-105.51184000"},{"name":"Colonia Nicolás Bravo (Kilómetro Noventa y Dos)","native":null,"lat":"28.09222000","lon":"-105.52778000"},{"name":"Colonia Revolución","native":null,"lat":"28.24167000","lon":"-105.44361000"},{"name":"Colonia Terrazas","native":null,"lat":"28.23795000","lon":"-105.46527000"},{"name":"Conchos","native":null,"lat":"27.58745000","lon":"-105.33358000"},{"name":"Congregación Ortíz","native":null,"lat":"28.25375000","lon":"-105.51922000"},{"name":"Coyame","native":null,"lat":"29.46141000","lon":"-105.09404000"},{"name":"Coyame del Sotol","native":null,"lat":"29.68793000","lon":"-105.13855000"},{"name":"Creel","native":null,"lat":"27.75054000","lon":"-107.63520000"},{"name":"Cuauhtémoc","native":null,"lat":"28.40884000","lon":"-106.86319000"},{"name":"Cusihuiriachi","native":null,"lat":"28.23980000","lon":"-106.83477000"},{"name":"Delicias","native":null,"lat":"28.16948000","lon":"-105.44913000"},{"name":"Dr. Belisario Domínguez","native":null,"lat":"27.98462000","lon":"-106.45234000"},{"name":"Ejido Benito Juárez","native":null,"lat":"30.14937000","lon":"-106.88362000"},{"name":"Ejido El Largo","native":null,"lat":"29.68333000","lon":"-108.26667000"},{"name":"Ejido El Vergel","native":null,"lat":"26.47133000","lon":"-106.38320000"},{"name":"Ejido La Quemada","native":null,"lat":"28.84761000","lon":"-107.02152000"},{"name":"El Molino","native":null,"lat":"28.16608000","lon":"-105.53783000"},{"name":"El Oro","native":null,"lat":"26.86320000","lon":"-105.84838000"},{"name":"El Sauz","native":null,"lat":"29.05056000","lon":"-106.25280000"},{"name":"El Terrero","native":null,"lat":"29.18152000","lon":"-107.38740000"},{"name":"El Tule","native":null,"lat":"27.07325000","lon":"-106.31735000"},{"name":"Estación Conchos","native":null,"lat":"27.97326000","lon":"-105.28843000"},{"name":"Estación Consuelo","native":null,"lat":"28.33118000","lon":"-105.59471000"},{"name":"Galeana","native":null,"lat":"30.10916000","lon":"-107.63167000"},{"name":"Gómez Farías","native":null,"lat":"29.35981000","lon":"-107.73960000"},{"name":"Gran Morelos","native":null,"lat":"28.24841000","lon":"-106.49357000"},{"name":"Guachochi","native":null,"lat":"27.17004000","lon":"-107.29404000"},{"name":"Guadalupe","native":null,"lat":"30.82737000","lon":"-105.64057000"},{"name":"Guadalupe Victoria","native":null,"lat":"31.53396000","lon":"-107.73835000"},{"name":"Guadalupe y Calvo","native":null,"lat":"26.09117000","lon":"-106.96260000"},{"name":"Guazapares","native":null,"lat":"27.44005000","lon":"-108.23338000"},{"name":"Guerrero","native":null,"lat":"28.42888000","lon":"-107.50377000"},{"name":"Hidalgo del Parral","native":null,"lat":"27.07964000","lon":"-105.70722000"},{"name":"Huejotitán","native":null,"lat":"27.05623000","lon":"-106.17819000"},{"name":"Ignacio Zaragoza","native":null,"lat":"29.64248000","lon":"-107.76375000"},{"name":"Independencia","native":null,"lat":"29.09231000","lon":"-107.54322000"},{"name":"Janos","native":null,"lat":"30.88909000","lon":"-108.19431000"},{"name":"Jiménez","native":null,"lat":"28.33333000","lon":"-105.40000000"},{"name":"José Esteban Coronado","native":null,"lat":"26.73722000","lon":"-105.15833000"},{"name":"José Mariano Jiménez","native":null,"lat":"27.13076000","lon":"-104.92391000"},{"name":"Juárez","native":null,"lat":"31.72024000","lon":"-106.46084000"},{"name":"Julimes","native":null,"lat":"28.42376000","lon":"-105.42727000"},{"name":"Kilómetro Noventa y Nueve","native":null,"lat":"28.12668000","lon":"-105.58018000"},{"name":"La Constitución","native":null,"lat":"29.92077000","lon":"-106.79620000"},{"name":"La Cruz","native":null,"lat":"27.86359000","lon":"-105.19596000"},{"name":"La Junta","native":null,"lat":"28.48003000","lon":"-107.32948000"},{"name":"Las Cruces","native":null,"lat":"29.43278000","lon":"-107.38958000"},{"name":"Las Varas","native":null,"lat":"28.15659000","lon":"-105.34058000"},{"name":"Las Varas (Estación Babícora)","native":null,"lat":"29.48083000","lon":"-108.02556000"},{"name":"Las Yerbitas [Aserradero]","native":null,"lat":"26.08025000","lon":"-106.77969000"},{"name":"Lázaro Cárdenas","native":null,"lat":"28.39051000","lon":"-105.62346000"},{"name":"Loma Blanca","native":null,"lat":"31.57996000","lon":"-106.29604000"},{"name":"Madera","native":null,"lat":"29.19366000","lon":"-108.14684000"},{"name":"Maguarichi","native":null,"lat":"27.81655000","lon":"-107.96866000"},{"name":"Manuel Benavides","native":null,"lat":"28.94431000","lon":"-103.91889000"},{"name":"Manuel Ojinaga","native":null,"lat":"29.56444000","lon":"-104.41639000"},{"name":"Mariano Balleza","native":null,"lat":"26.95389000","lon":"-106.34611000"},{"name":"Matachí","native":null,"lat":"28.84287000","lon":"-107.75503000"},{"name":"Matamoros","native":null,"lat":"26.76209000","lon":"-105.58523000"},{"name":"Meoqui","native":null,"lat":"28.27226000","lon":"-105.48046000"},{"name":"Mesa del Huracán","native":null,"lat":"29.67045000","lon":"-108.25182000"},{"name":"Miguel Ahumada","native":null,"lat":"30.61861000","lon":"-106.51222000"},{"name":"Miguel Hidalgo","native":null,"lat":"28.15361000","lon":"-105.39389000"},{"name":"Monte Verde","native":null,"lat":"30.91401000","lon":"-108.71573000"},{"name":"Morelos","native":null,"lat":"26.67289000","lon":"-107.67665000"},{"name":"Moris","native":null,"lat":"28.14888000","lon":"-108.52325000"},{"name":"Naica","native":null,"lat":"27.85736000","lon":"-105.49233000"},{"name":"Namiquipa","native":null,"lat":"29.25173000","lon":"-107.41400000"},{"name":"Nicolas Bravo","native":null,"lat":"29.35306000","lon":"-107.93440000"},{"name":"Ninguno [CERESO]","native":null,"lat":"28.60972000","lon":"-105.94028000"},{"name":"Nonoava","native":null,"lat":"27.43854000","lon":"-106.73285000"},{"name":"Nuevo Casas Grandes","native":null,"lat":"30.41552000","lon":"-107.91166000"},{"name":"Ocampo","native":null,"lat":"28.19367000","lon":"-108.36760000"},{"name":"Octaviano López","native":null,"lat":"27.00250000","lon":"-105.03306000"},{"name":"Ojinaga","native":null,"lat":"29.31371000","lon":"-104.44840000"},{"name":"Orranteño","native":null,"lat":"28.18272000","lon":"-105.33774000"},{"name":"Oscar Soto Maynez","native":null,"lat":"29.02963000","lon":"-107.47242000"},{"name":"Parral","native":null,"lat":"26.93022000","lon":"-105.66640000"},{"name":"Peña Blanca","native":null,"lat":"29.28984000","lon":"-107.71130000"},{"name":"Porvenir","native":null,"lat":"31.24038000","lon":"-105.87664000"},{"name":"Praxedis G. Guerrero","native":null,"lat":"31.37061000","lon":"-106.00616000"},{"name":"Praxédis Guerrero","native":null,"lat":"31.36667000","lon":"-106.01667000"},{"name":"Pueblito de Allende","native":null,"lat":"26.99065000","lon":"-105.32686000"},{"name":"Puerto Palomas","native":null,"lat":"31.77718000","lon":"-107.63439000"},{"name":"Riva Palacio","native":null,"lat":"28.81462000","lon":"-106.64990000"},{"name":"Rodrígo M. Quevedo","native":null,"lat":"29.91982000","lon":"-107.52079000"},{"name":"Rosales","native":null,"lat":"28.18753000","lon":"-105.55717000"},{"name":"Rosario","native":null,"lat":"27.25616000","lon":"-106.29878000"},{"name":"Samachique","native":null,"lat":"27.30156000","lon":"-107.53897000"},{"name":"Samalayuca","native":null,"lat":"31.34242000","lon":"-106.47981000"},{"name":"San Agustín","native":null,"lat":"31.51674000","lon":"-106.25548000"},{"name":"San Andrés","native":null,"lat":"28.54726000","lon":"-106.50350000"},{"name":"San Buenaventura","native":null,"lat":"29.84320000","lon":"-107.46067000"},{"name":"San Carlos","native":null,"lat":"29.10665000","lon":"-103.90722000"},{"name":"San Francisco de Borja","native":null,"lat":"27.90171000","lon":"-106.68562000"},{"name":"San Francisco de Conchos","native":null,"lat":"27.57356000","lon":"-105.37779000"},{"name":"San Francisco del Oro","native":null,"lat":"26.89417000","lon":"-105.90594000"},{"name":"San Isidro","native":null,"lat":"31.54683000","lon":"-106.27868000"},{"name":"San Juanito","native":null,"lat":"27.97295000","lon":"-107.60199000"},{"name":"San Lorenzo","native":null,"lat":"28.15352000","lon":"-106.47695000"},{"name":"San Rafael","native":null,"lat":"27.49750000","lon":"-107.89099000"},{"name":"Santa Bárbara","native":null,"lat":"26.80381000","lon":"-105.82024000"},{"name":"Santa Eulalia","native":null,"lat":"28.59450000","lon":"-105.88796000"},{"name":"Santa Isabel","native":null,"lat":"28.34166000","lon":"-106.37220000"},{"name":"Saucillo","native":null,"lat":"28.03055000","lon":"-105.29376000"},{"name":"Sisoguichi","native":null,"lat":"27.78304000","lon":"-107.49517000"},{"name":"Témoris","native":null,"lat":"27.27569000","lon":"-108.27946000"},{"name":"Temósachic","native":null,"lat":"28.95469000","lon":"-107.82957000"},{"name":"Tomochic","native":null,"lat":"28.35273000","lon":"-107.84576000"},{"name":"Turuachi","native":null,"lat":"26.13139000","lon":"-106.70417000"},{"name":"Urique","native":null,"lat":"27.21122000","lon":"-107.91415000"},{"name":"Uruachi","native":null,"lat":"27.84669000","lon":"-108.36712000"},{"name":"Valentín Gómez Farías","native":null,"lat":"28.21667000","lon":"-106.58333000"},{"name":"Valle de Allende","native":null,"lat":"26.93527000","lon":"-105.39271000"},{"name":"Valle de Zaragoza","native":null,"lat":"27.45066000","lon":"-105.80847000"},{"name":"Valle del Rosario","native":null,"lat":"27.31881000","lon":"-106.29551000"},{"name":"Yécora","native":null,"lat":"28.37154000","lon":"-108.92781000"}]},{"name":"Ciudad de México","native":null,"cities":[{"name":"Álvaro Obregón","native":null,"lat":"19.37496000","lon":"-99.21976000"},{"name":"Azcapotzalco","native":null,"lat":"19.48698000","lon":"-99.18594000"},{"name":"Benito Juarez","native":null,"lat":"19.39840000","lon":"-99.15766000"},{"name":"Ciudad de México","native":null,"lat":"19.42847000","lon":"-99.12766000"},{"name":"Col. Bosques de las Lomas","native":null,"lat":"19.37893000","lon":"-99.26587000"},{"name":"Colonia del Valle","native":null,"lat":"19.38611000","lon":"-99.16204000"},{"name":"Colonia Nativitas","native":null,"lat":"19.38119000","lon":"-99.13685000"},{"name":"Coyoacán","native":null,"lat":"19.34670000","lon":"-99.16174000"},{"name":"Cuauhtémoc","native":null,"lat":"19.44506000","lon":"-99.14612000"},{"name":"Delegación Cuajimalpa de Morelos","native":null,"lat":"19.36920000","lon":"-99.29089000"},{"name":"Gustavo A. Madero","native":null,"lat":"19.48407000","lon":"-99.11144000"},{"name":"Gustavo Adolfo Madero","native":null,"lat":"19.49392000","lon":"-99.11075000"},{"name":"Iztacalco","native":null,"lat":"19.39528000","lon":"-99.09778000"},{"name":"Iztapalapa","native":null,"lat":"19.35529000","lon":"-99.06224000"},{"name":"Lomas de Tepemecatl","native":null,"lat":"19.23861000","lon":"-99.23944000"},{"name":"Magdalena Contreras","native":null,"lat":"19.33212000","lon":"-99.21118000"},{"name":"Miguel Hidalgo","native":null,"lat":"19.43411000","lon":"-99.20024000"},{"name":"Milpa Alta","native":null,"lat":"19.19251000","lon":"-99.02317000"},{"name":"Polanco","native":null,"lat":"19.43332000","lon":"-99.19919000"},{"name":"San Andrés Mixquic","native":null,"lat":"19.22512000","lon":"-98.96408000"},{"name":"San Antonio Tecómitl","native":null,"lat":"19.21778000","lon":"-98.98806000"},{"name":"San Bartolome Xicomulco","native":null,"lat":"19.20607000","lon":"-99.06820000"},{"name":"San Francisco Tecoxpa","native":null,"lat":"19.19167000","lon":"-99.00639000"},{"name":"San Juan Ixtayopan","native":null,"lat":"19.23187000","lon":"-98.99867000"},{"name":"San Lorenzo Acopilco","native":null,"lat":"19.33002000","lon":"-99.32721000"},{"name":"San Lorenzo Tlacoyucan","native":null,"lat":"19.17605000","lon":"-99.03219000"},{"name":"San Miguel Ajusco","native":null,"lat":"19.22201000","lon":"-99.20242000"},{"name":"San Miguel Topilejo","native":null,"lat":"19.20264000","lon":"-99.14193000"},{"name":"San Pablo Oztotepec","native":null,"lat":"19.18652000","lon":"-99.07361000"},{"name":"San Pedro Atocpan","native":null,"lat":"19.20160000","lon":"-99.04963000"},{"name":"San Salvador Cuauhtenco","native":null,"lat":"19.19276000","lon":"-99.08983000"},{"name":"Santa Ana Tlacotenco","native":null,"lat":"19.17569000","lon":"-98.99788000"},{"name":"Santa Catarina Yecahuizotl","native":null,"lat":"19.31205000","lon":"-98.96461000"},{"name":"Tetelco","native":null,"lat":"19.21673000","lon":"-98.97295000"},{"name":"Tláhuac","native":null,"lat":"19.28689000","lon":"-99.00507000"},{"name":"Tlalpan","native":null,"lat":"19.29513000","lon":"-99.16206000"},{"name":"Venustiano Carranza","native":null,"lat":"19.44361000","lon":"-99.10499000"},{"name":"Xochimilco","native":null,"lat":"19.25465000","lon":"-99.10356000"}]},{"name":"Coahuila de Zaragoza","native":null,"cities":[{"name":"Abasolo","native":null,"lat":"27.18219000","lon":"-101.42757000"},{"name":"Agua Nueva","native":null,"lat":"25.18934000","lon":"-101.08840000"},{"name":"Albia","native":null,"lat":"25.66537000","lon":"-103.36253000"},{"name":"Alejo González (Bilbao)","native":null,"lat":"25.82194000","lon":"-103.19472000"},{"name":"Arteaga","native":null,"lat":"25.44528000","lon":"-100.84667000"},{"name":"Boquilla de las Perlas","native":null,"lat":"25.32803000","lon":"-103.28870000"},{"name":"Candela","native":null,"lat":"26.83840000","lon":"-100.66630000"},{"name":"Castaños","native":null,"lat":"26.78932000","lon":"-101.43211000"},{"name":"Chula Vista","native":null,"lat":"27.04083000","lon":"-103.36611000"},{"name":"Ciudad Acuña","native":null,"lat":"29.32322000","lon":"-100.95217000"},{"name":"Ciudad Melchor Múzquiz","native":null,"lat":"27.87933000","lon":"-101.51615000"},{"name":"Cloete","native":null,"lat":"27.92097000","lon":"-101.17576000"},{"name":"Colonia Diana Laura Riojas de Colosio","native":null,"lat":"26.97722000","lon":"-101.48083000"},{"name":"Colonia Venustiano Carranza","native":null,"lat":"28.63861000","lon":"-100.55667000"},{"name":"Compuertas","native":null,"lat":"25.74681000","lon":"-103.30250000"},{"name":"Concordia","native":null,"lat":"25.77982000","lon":"-103.11696000"},{"name":"Coyote","native":null,"lat":"25.69510000","lon":"-103.28420000"},{"name":"Cuatro Ciénegas de Carranza","native":null,"lat":"26.98542000","lon":"-102.06386000"},{"name":"Ejido Venustiano Carranza","native":null,"lat":"25.35091000","lon":"-102.95698000"},{"name":"El Cambio","native":null,"lat":"25.64048000","lon":"-103.32710000"},{"name":"El Consuelo","native":null,"lat":"25.57131000","lon":"-103.27620000"},{"name":"El Cuije","native":null,"lat":"25.69670000","lon":"-103.34107000"},{"name":"El Lequeitio","native":null,"lat":"25.84673000","lon":"-103.27890000"},{"name":"El Nilo","native":null,"lat":"25.73363000","lon":"-102.94297000"},{"name":"El Perú","native":null,"lat":"25.60290000","lon":"-103.34423000"},{"name":"El Porvenir (El Porvenir de Arriba)","native":null,"lat":"25.77444000","lon":"-103.32528000"},{"name":"El Retiro","native":null,"lat":"25.82758000","lon":"-103.13004000"},{"name":"Escuadrón Doscientos Uno","native":null,"lat":"25.67433000","lon":"-103.34829000"},{"name":"Fraccionamiento la Noria","native":null,"lat":"25.55722000","lon":"-103.34361000"},{"name":"Frontera","native":null,"lat":"26.92814000","lon":"-101.45212000"},{"name":"General Cepeda","native":null,"lat":"25.37767000","lon":"-101.47571000"},{"name":"Gilita","native":null,"lat":"25.39314000","lon":"-103.19976000"},{"name":"Granada","native":null,"lat":"25.64127000","lon":"-103.26710000"},{"name":"Guerrero","native":null,"lat":"28.30992000","lon":"-100.38048000"},{"name":"Hércules","native":null,"lat":"28.04306000","lon":"-103.79111000"},{"name":"Hidalgo","native":null,"lat":"27.78994000","lon":"-99.87699000"},{"name":"Hormiguero","native":null,"lat":"25.68386000","lon":"-103.34121000"},{"name":"Huachichil","native":null,"lat":"25.21114000","lon":"-100.82570000"},{"name":"Huitrón","native":null,"lat":"25.85748000","lon":"-103.34825000"},{"name":"Jaboncillo","native":null,"lat":"25.74809000","lon":"-103.26550000"},{"name":"Jiménez","native":null,"lat":"29.06975000","lon":"-100.67895000"},{"name":"La Concha","native":null,"lat":"25.63524000","lon":"-103.38136000"},{"name":"La Cruz","native":null,"lat":"26.99339000","lon":"-101.49580000"},{"name":"La Esmeralda","native":null,"lat":"27.28735000","lon":"-103.66283000"},{"name":"La Esperanza","native":null,"lat":"25.56631000","lon":"-103.28123000"},{"name":"La Fe","native":null,"lat":"25.84743000","lon":"-103.20117000"},{"name":"La Florida","native":null,"lat":"25.76811000","lon":"-103.32424000"},{"name":"La Luz","native":null,"lat":"25.72621000","lon":"-103.24540000"},{"name":"La Palma","native":null,"lat":"25.60830000","lon":"-103.32228000"},{"name":"La Partida","native":null,"lat":"25.59181000","lon":"-103.29994000"},{"name":"La Paz","native":null,"lat":"25.59390000","lon":"-103.35852000"},{"name":"La Perla","native":null,"lat":"25.49696000","lon":"-103.35088000"},{"name":"La Pinta","native":null,"lat":"25.90281000","lon":"-103.26476000"},{"name":"Laguna del Rey (Químicas del Rey)","native":null,"lat":"27.03056000","lon":"-103.36667000"},{"name":"Lamadrid","native":null,"lat":"27.05087000","lon":"-101.79552000"},{"name":"Las Mieleras","native":null,"lat":"25.39948000","lon":"-103.26740000"},{"name":"Los Álamos","native":null,"lat":"28.35645000","lon":"-100.94564000"},{"name":"Luchanas","native":null,"lat":"25.79091000","lon":"-103.19384000"},{"name":"Maravillas","native":null,"lat":"25.65872000","lon":"-103.34079000"},{"name":"Matamoros","native":null,"lat":"25.52699000","lon":"-103.22850000"},{"name":"Mayran","native":null,"lat":"25.67296000","lon":"-102.84288000"},{"name":"Minas de Barroterán","native":null,"lat":"27.65144000","lon":"-101.28212000"},{"name":"Monclova","native":null,"lat":"26.90687000","lon":"-101.42056000"},{"name":"Nadadores","native":null,"lat":"27.02819000","lon":"-101.59420000"},{"name":"Nava","native":null,"lat":"28.42071000","lon":"-100.76565000"},{"name":"Nueva Rosita","native":null,"lat":"27.94028000","lon":"-101.21812000"},{"name":"Nuevo León","native":null,"lat":"25.71863000","lon":"-103.29471000"},{"name":"Ocampo","native":null,"lat":"27.31477000","lon":"-102.39660000"},{"name":"Ocho de Enero","native":null,"lat":"26.99733000","lon":"-101.49598000"},{"name":"Palau","native":null,"lat":"27.89232000","lon":"-101.42319000"},{"name":"Paredón","native":null,"lat":"25.94580000","lon":"-100.93449000"},{"name":"Parras de la Fuente","native":null,"lat":"25.44185000","lon":"-102.17808000"},{"name":"Piedras Negras","native":null,"lat":"28.70007000","lon":"-100.52353000"},{"name":"Primero de Mayo","native":null,"lat":"27.23675000","lon":"-101.22360000"},{"name":"Progreso","native":null,"lat":"27.42841000","lon":"-100.98892000"},{"name":"Purísima","native":null,"lat":"25.68038000","lon":"-103.32218000"},{"name":"Ramos Arizpe","native":null,"lat":"25.53928000","lon":"-100.94742000"},{"name":"Rancho Alegre","native":null,"lat":"25.50237000","lon":"-103.32789000"},{"name":"Río Bravo","native":null,"lat":"28.31254000","lon":"-100.91668000"},{"name":"Sabinas","native":null,"lat":"27.85591000","lon":"-101.11738000"},{"name":"Sacramento","native":null,"lat":"27.00264000","lon":"-101.72463000"},{"name":"Saltillo","native":null,"lat":"25.42321000","lon":"-101.00530000"},{"name":"San Antonio de las Alazanas","native":null,"lat":"25.27166000","lon":"-100.57835000"},{"name":"San Antonio del Coyote","native":null,"lat":"25.69444000","lon":"-103.28556000"},{"name":"San Buenaventura","native":null,"lat":"27.06193000","lon":"-101.54891000"},{"name":"San Carlos","native":null,"lat":"29.02844000","lon":"-100.90217000"},{"name":"San Esteban de Abajo","native":null,"lat":"25.70903000","lon":"-103.00047000"},{"name":"San Francisco de Arriba","native":null,"lat":"25.75028000","lon":"-103.15631000"},{"name":"San Ignacio","native":null,"lat":"25.73643000","lon":"-103.09049000"},{"name":"San José de Aura","native":null,"lat":"27.58778000","lon":"-101.37250000"},{"name":"San Juan de la Vaquería","native":null,"lat":"25.25275000","lon":"-101.22011000"},{"name":"San Juan de Sabinas","native":null,"lat":"27.92942000","lon":"-101.30495000"},{"name":"San Lorenzo","native":null,"lat":"25.72272000","lon":"-103.15350000"},{"name":"San Marcos","native":null,"lat":"25.66667000","lon":"-103.00910000"},{"name":"San Miguel","native":null,"lat":"25.69924000","lon":"-102.95072000"},{"name":"Santa Ana del Pilar","native":null,"lat":"25.70938000","lon":"-103.30840000"},{"name":"Santa Fé","native":null,"lat":"25.56665000","lon":"-103.33200000"},{"name":"Santo Niño Aguanaval","native":null,"lat":"25.43118000","lon":"-103.27909000"},{"name":"Seis de Octubre (Santo Niño)","native":null,"lat":"25.76389000","lon":"-103.23889000"},{"name":"Sierra Mojada","native":null,"lat":"27.28861000","lon":"-103.70124000"},{"name":"Solima","native":null,"lat":"25.66249000","lon":"-103.27560000"},{"name":"Tacubaya","native":null,"lat":"25.68361000","lon":"-103.06861000"},{"name":"Torreón","native":null,"lat":"25.54389000","lon":"-103.41898000"},{"name":"Veinte de Noviembre","native":null,"lat":"25.71193000","lon":"-103.32960000"},{"name":"Veinte de Noviembre (Santa Lucía)","native":null,"lat":"25.78923000","lon":"-103.15127000"},{"name":"Ventana","native":null,"lat":"25.32695000","lon":"-103.47772000"},{"name":"Viesca","native":null,"lat":"25.33923000","lon":"-102.80493000"},{"name":"Villa Las Esperanzas","native":null,"lat":"27.74274000","lon":"-101.35295000"},{"name":"Villa Union","native":null,"lat":"28.21667000","lon":"-100.71667000"},{"name":"Virginias","native":null,"lat":"25.80083000","lon":"-103.27235000"},{"name":"Zaragoza","native":null,"lat":"28.49320000","lon":"-100.92230000"}]},{"name":"Colima","native":null,"cities":[{"name":"Alcaraces","native":null,"lat":"19.36433000","lon":"-103.57676000"},{"name":"Armería","native":null,"lat":"18.95554000","lon":"-103.98357000"},{"name":"Augusto Gómez Villanueva","native":null,"lat":"19.02154000","lon":"-104.00156000"},{"name":"Caleras","native":null,"lat":"18.99687000","lon":"-103.87898000"},{"name":"Camotlán de Miraflores","native":null,"lat":"19.22033000","lon":"-104.23491000"},{"name":"Cerro de Ortega","native":null,"lat":"18.75080000","lon":"-103.72155000"},{"name":"Ciudad de Armería","native":null,"lat":"18.93780000","lon":"-103.96417000"},{"name":"Ciudad de Villa de Álvarez","native":null,"lat":"19.26722000","lon":"-103.73778000"},{"name":"Cofradía","native":null,"lat":"19.43333000","lon":"-103.55000000"},{"name":"Cofradía de Juárez","native":null,"lat":"18.96261000","lon":"-103.95549000"},{"name":"Cofradía de Morelos","native":null,"lat":"18.86785000","lon":"-103.83668000"},{"name":"Cofradía de Suchitlán","native":null,"lat":"19.40954000","lon":"-103.70043000"},{"name":"Comala","native":null,"lat":"19.32717000","lon":"-103.75926000"},{"name":"Coquimatlán","native":null,"lat":"19.20625000","lon":"-103.80952000"},{"name":"Cuauhtémoc","native":null,"lat":"19.32861000","lon":"-103.60284000"},{"name":"Cuyutlán","native":null,"lat":"18.91937000","lon":"-104.06873000"},{"name":"El Colomo","native":null,"lat":"19.06101000","lon":"-104.25853000"},{"name":"El Naranjo","native":null,"lat":"19.13016000","lon":"-104.41821000"},{"name":"El Trapiche","native":null,"lat":"19.27787000","lon":"-103.66090000"},{"name":"Ixtlahuacán","native":null,"lat":"19.00119000","lon":"-103.73638000"},{"name":"Jalipa","native":null,"lat":"19.12275000","lon":"-104.26737000"},{"name":"La Central","native":null,"lat":"19.14276000","lon":"-104.43819000"},{"name":"Los Tepames","native":null,"lat":"19.09389000","lon":"-103.62250000"},{"name":"Madrid","native":null,"lat":"19.08459000","lon":"-103.87123000"},{"name":"Minatitlán","native":null,"lat":"19.36667000","lon":"-104.06667000"},{"name":"Piscila","native":null,"lat":"19.15889000","lon":"-103.70105000"},{"name":"Pueblo Juárez (La Magdalena)","native":null,"lat":"19.16722000","lon":"-103.93111000"},{"name":"Quesería","native":null,"lat":"19.38708000","lon":"-103.57243000"},{"name":"Rincón de López","native":null,"lat":"19.05308000","lon":"-103.93241000"},{"name":"Suchitlán","native":null,"lat":"19.37541000","lon":"-103.71141000"},{"name":"Tecomán","native":null,"lat":"18.89473000","lon":"-103.87345000"},{"name":"Venustiano Carranza","native":null,"lat":"19.01112000","lon":"-104.11033000"},{"name":"Zacualpan","native":null,"lat":"19.36318000","lon":"-103.82433000"}]},{"name":"Durango","native":null,"cities":[{"name":"Abasolo","native":null,"lat":"25.31145000","lon":"-104.65580000"},{"name":"Álvaro Obregón","native":null,"lat":"25.51417000","lon":"-103.50500000"},{"name":"Antonio Amaro","native":null,"lat":"24.27684000","lon":"-104.01873000"},{"name":"Arcinas","native":null,"lat":"25.77556000","lon":"-103.40913000"},{"name":"Arturo Martínez Adame","native":null,"lat":"25.83157000","lon":"-103.38291000"},{"name":"Banco Nacional","native":null,"lat":"25.87139000","lon":"-103.35667000"},{"name":"Banderas del Águila","native":null,"lat":"23.92596000","lon":"-105.33950000"},{"name":"Bermejillo","native":null,"lat":"25.88682000","lon":"-103.62069000"},{"name":"California","native":null,"lat":"25.76090000","lon":"-103.37556000"},{"name":"Canatlán","native":null,"lat":"24.52576000","lon":"-104.77327000"},{"name":"Ceballos","native":null,"lat":"26.52580000","lon":"-104.12950000"},{"name":"Ciénega de Nuestra Señora de Guadalupe","native":null,"lat":"25.06223000","lon":"-106.32900000"},{"name":"Cieneguillas","native":null,"lat":"24.05472000","lon":"-104.05186000"},{"name":"Cinco de Febrero","native":null,"lat":"24.07657000","lon":"-104.50467000"},{"name":"Cinco de Mayo","native":null,"lat":"24.10181000","lon":"-104.57449000"},{"name":"Ciudad Guadalupe Victoria","native":null,"lat":"24.44401000","lon":"-104.12156000"},{"name":"Ciudad Lerdo","native":null,"lat":"25.53718000","lon":"-103.52456000"},{"name":"Cuauhtemoc","native":null,"lat":"24.29037000","lon":"-103.80913000"},{"name":"Cuencamé","native":null,"lat":"24.64123000","lon":"-103.73772000"},{"name":"Cuencamé de Ceniceros","native":null,"lat":"24.87116000","lon":"-103.69731000"},{"name":"Diez de Octubre","native":null,"lat":"24.72849000","lon":"-104.63626000"},{"name":"El Arenal","native":null,"lat":"24.06527000","lon":"-104.43387000"},{"name":"El Durazno","native":null,"lat":"25.47042000","lon":"-106.92742000"},{"name":"El Huarache (El Guarache)","native":null,"lat":"25.52000000","lon":"-103.48667000"},{"name":"El Lucero","native":null,"lat":"25.87830000","lon":"-103.40209000"},{"name":"El Nayar","native":null,"lat":"23.96422000","lon":"-104.69541000"},{"name":"El Rayo","native":null,"lat":"25.52112000","lon":"-103.60821000"},{"name":"El Salto","native":null,"lat":"23.77781000","lon":"-105.36192000"},{"name":"El Vergel","native":null,"lat":"25.63965000","lon":"-103.52139000"},{"name":"Emiliano Zapata","native":null,"lat":"24.44218000","lon":"-103.88784000"},{"name":"Esfuerzos Unidos","native":null,"lat":"24.82214000","lon":"-104.99000000"},{"name":"Esmeralda","native":null,"lat":"25.74326000","lon":"-103.43097000"},{"name":"Eureka de Media Luna (Eureka)","native":null,"lat":"25.79889000","lon":"-103.37361000"},{"name":"Felipe Carrillo Puerto","native":null,"lat":"24.33305000","lon":"-104.01105000"},{"name":"Francisco I. Madero","native":null,"lat":"24.40091000","lon":"-104.31980000"},{"name":"Gabriel Hernández (Mancinas)","native":null,"lat":"23.81167000","lon":"-104.02444000"},{"name":"General Calixto Contreras","native":null,"lat":"24.42916000","lon":"-104.04592000"},{"name":"General Lázaro Cárdenas","native":null,"lat":"25.29372000","lon":"-103.99800000"},{"name":"Gómez Palacio","native":null,"lat":"25.56985000","lon":"-103.49588000"},{"name":"Guanaceví","native":null,"lat":"25.99610000","lon":"-106.10898000"},{"name":"Guatimapé","native":null,"lat":"24.80733000","lon":"-104.91994000"},{"name":"Hidalgo","native":null,"lat":"26.02409000","lon":"-104.82823000"},{"name":"Ignacio Allende","native":null,"lat":"24.47432000","lon":"-103.99710000"},{"name":"Ignacio Ramírez","native":null,"lat":"24.50796000","lon":"-104.08751000"},{"name":"Ignacio Zaragoza","native":null,"lat":"25.13643000","lon":"-103.38430000"},{"name":"Indé","native":null,"lat":"25.91248000","lon":"-105.22319000"},{"name":"Jauja","native":null,"lat":"25.92894000","lon":"-103.37382000"},{"name":"Jiménez","native":null,"lat":"25.83051000","lon":"-103.35733000"},{"name":"José Guadalupe Aguilera (Santa Lucía)","native":null,"lat":"24.45420000","lon":"-104.70888000"},{"name":"José Guadalupe Rodríguez","native":null,"lat":"24.31912000","lon":"-104.08002000"},{"name":"José María Morelos","native":null,"lat":"25.01270000","lon":"-105.20882000"},{"name":"José María Pino Suárez","native":null,"lat":"23.87733000","lon":"-104.49104000"},{"name":"José Refugio Salcido","native":null,"lat":"23.96444000","lon":"-104.51806000"},{"name":"Juan E. García","native":null,"lat":"25.49206000","lon":"-103.69170000"},{"name":"La Ciudad","native":null,"lat":"23.73052000","lon":"-105.68882000"},{"name":"La Flor","native":null,"lat":"25.68138000","lon":"-103.36837000"},{"name":"La Goma","native":null,"lat":"25.48460000","lon":"-103.68884000"},{"name":"La Joya","native":null,"lat":"23.83750000","lon":"-103.99861000"},{"name":"La Loma","native":null,"lat":"25.46401000","lon":"-103.67351000"},{"name":"La Luz","native":null,"lat":"25.63481000","lon":"-103.61093000"},{"name":"La Popular","native":null,"lat":"25.67951000","lon":"-103.46621000"},{"name":"Las Cuevas","native":null,"lat":"25.49815000","lon":"-103.54950000"},{"name":"León Guzmán","native":null,"lat":"25.49986000","lon":"-103.65924000"},{"name":"Llano Grande","native":null,"lat":"23.86367000","lon":"-105.20558000"},{"name":"Los Angeles","native":null,"lat":"25.52206000","lon":"-103.56757000"},{"name":"Mapimí","native":null,"lat":"26.19095000","lon":"-104.05463000"},{"name":"Mezquital","native":null,"lat":"22.88401000","lon":"-104.55350000"},{"name":"Narciso Mendoza","native":null,"lat":"24.01310000","lon":"-103.96620000"},{"name":"Nazareno","native":null,"lat":"25.39916000","lon":"-103.42065000"},{"name":"Nazas","native":null,"lat":"25.22462000","lon":"-104.11458000"},{"name":"Nicolás Bravo","native":null,"lat":"24.39010000","lon":"-104.74374000"},{"name":"Nogales","native":null,"lat":"24.98130000","lon":"-104.72229000"},