[{"id":3456,"name":"Aguascalientes","native":null,"cities":[{"id":68127,"name":"Aguascalientes","native":null,"lat":"21.88333000","lon":"-102.30000000"},{"id":68336,"name":"Arboledas Paso Blanco [Fraccionamiento]","native":null,"lat":"21.96361000","lon":"-102.30194000"},{"id":68342,"name":"Arellano","native":null,"lat":"21.80106000","lon":"-102.27384000"},{"id":68380,"name":"Asientos","native":null,"lat":"22.23333000","lon":"-102.08333000"},{"id":68616,"name":"Bimbaletes Aguascalientes (El Álamo)","native":null,"lat":"22.23444000","lon":"-102.01917000"},{"id":68752,"name":"Calvillo","native":null,"lat":"21.85000000","lon":"-102.71666000"},{"id":68820,"name":"Carboneras","native":null,"lat":"22.18311000","lon":"-102.24601000"},{"id":68844,"name":"Cartagena [Fraccionamiento]","native":null,"lat":"21.95639000","lon":"-102.27639000"},{"id":68900,"name":"Centro de Arriba","native":null,"lat":"21.73123000","lon":"-102.49888000"},{"id":69197,"name":"Ciénega Grande","native":null,"lat":"22.19434000","lon":"-102.01940000"},{"id":69486,"name":"Corral de Barrancos","native":null,"lat":"21.95028000","lon":"-102.33222000"},{"id":69507,"name":"Cosío","native":null,"lat":"22.36667000","lon":"-102.30000000"},{"id":69510,"name":"Cotorina","native":null,"lat":"21.75154000","lon":"-102.26832000"},{"id":69539,"name":"Crucero Las Pilas","native":null,"lat":"21.82722000","lon":"-102.76033000"},{"id":69634,"name":"Cumbres III","native":null,"lat":"21.92222000","lon":"-102.23750000"},{"id":69813,"name":"Ejido la Guayana (Rancho Seco)","native":null,"lat":"21.98028000","lon":"-102.27306000"},{"id":69837,"name":"El Bajío","native":null,"lat":"22.24558000","lon":"-102.30825000"},{"id":69899,"name":"El Chayote","native":null,"lat":"22.28667000","lon":"-102.23900000"},{"id":69935,"name":"El Cuervero (Cuerveros)","native":null,"lat":"21.86056000","lon":"-102.68389000"},{"id":70023,"name":"El Llano","native":null,"lat":"21.91667000","lon":"-101.96666000"},{"id":70154,"name":"El Refugio de Peñuelas","native":null,"lat":"21.71635000","lon":"-102.28941000"},{"id":70155,"name":"El Refugio de Providencia (Providencia)","native":null,"lat":"22.34667000","lon":"-102.25778000"},{"id":70185,"name":"El Salero","native":null,"lat":"22.38706000","lon":"-102.32323000"},{"id":70240,"name":"El Tule","native":null,"lat":"22.08438000","lon":"-102.09100000"},{"id":70285,"name":"Emiliano Zapata","native":null,"lat":"22.10635000","lon":"-102.30056000"},{"id":70315,"name":"Escaleras","native":null,"lat":"22.25054000","lon":"-102.33377000"},{"id":70387,"name":"Ex-Viñedos Guadalupe","native":null,"lat":"21.95944000","lon":"-102.27417000"},{"id":70535,"name":"General Ignacio Zaragoza","native":null,"lat":"21.88136000","lon":"-102.46454000"},{"id":70608,"name":"Guadalupe de Atlas","native":null,"lat":"22.26653000","lon":"-102.03118000"},{"id":70989,"name":"Jaltiche de Arriba","native":null,"lat":"21.77525000","lon":"-102.78849000"},{"id":70993,"name":"Jaltomate","native":null,"lat":"22.01528000","lon":"-102.14583000"},{"id":71007,"name":"Jarillas","native":null,"lat":"22.29611000","lon":"-102.06333000"},{"id":71024,"name":"Jesús Gómez Portugal","native":null,"lat":"21.99607000","lon":"-102.29095000"},{"id":71025,"name":"Jesús Gómez Portugal (Margaritas)","native":null,"lat":"21.99917000","lon":"-102.29139000"},{"id":71032,"name":"Jesús María","native":null,"lat":"21.96667000","lon":"-102.35000000"},{"id":71232,"name":"La Concepción","native":null,"lat":"22.03537000","lon":"-102.29989000"},{"id":71267,"name":"La Escondida","native":null,"lat":"22.03573000","lon":"-102.25931000"},{"id":71340,"name":"La Labor","native":null,"lat":"21.96207000","lon":"-102.69626000"},{"id":71369,"name":"La Loma de los Negritos","native":null,"lat":"21.87056000","lon":"-102.35000000"},{"id":71431,"name":"La Panadera","native":null,"lat":"21.86398000","lon":"-102.69832000"},{"id":71467,"name":"La Punta","native":null,"lat":"22.32411000","lon":"-102.29212000"},{"id":71656,"name":"Las Ánimas","native":null,"lat":"22.09057000","lon":"-102.26684000"},{"id":71627,"name":"Las Norias de Ojocaliente","native":null,"lat":"21.88944000","lon":"-102.21738000"},{"id":71893,"name":"Lázaro Cárdenas","native":null,"lat":"22.17137000","lon":"-102.02704000"},{"id":71774,"name":"Los Arquitos","native":null,"lat":"21.92299000","lon":"-102.38554000"},{"id":71785,"name":"Los Caños","native":null,"lat":"21.78167000","lon":"-102.46750000"},{"id":71792,"name":"Los Conos","native":null,"lat":"21.89739000","lon":"-101.99487000"},{"id":71903,"name":"Macario J. Gómez [Colonia]","native":null,"lat":"21.98056000","lon":"-102.25139000"},{"id":71948,"name":"Malpaso","native":null,"lat":"21.85896000","lon":"-102.66441000"},{"id":71986,"name":"Maravillas","native":null,"lat":"21.95408000","lon":"-102.32982000"},{"id":72079,"name":"Mesa Grande","native":null,"lat":"21.80529000","lon":"-102.72181000"},{"id":72155,"name":"Miravalle","native":null,"lat":"21.97250000","lon":"-102.31139000"},{"id":72187,"name":"Molinos","native":null,"lat":"22.16278000","lon":"-102.09472000"},{"id":72221,"name":"Montoro","native":null,"lat":"21.75603000","lon":"-102.30219000"},{"id":72353,"name":"Noria del Borrego (Norias)","native":null,"lat":"22.28722000","lon":"-102.04194000"},{"id":72354,"name":"Norias del Paso Hondo","native":null,"lat":"21.86177000","lon":"-102.20681000"},{"id":72491,"name":"Ojo de Agua de Crucitas","native":null,"lat":"21.96426000","lon":"-101.95202000"},{"id":72498,"name":"Ojocaliente","native":null,"lat":"21.87390000","lon":"-102.67684000"},{"id":72562,"name":"Pabellón de Arteaga","native":null,"lat":"22.15000000","lon":"-102.26666000"},{"id":72563,"name":"Pabellón de Hidalgo","native":null,"lat":"22.17871000","lon":"-102.34014000"},{"id":72604,"name":"Palo Alto","native":null,"lat":"21.91801000","lon":"-101.96453000"},{"id":72652,"name":"Paredes","native":null,"lat":"22.14958000","lon":"-102.48232000"},{"id":72671,"name":"Paseos de la Providencia [Fraccionamiento]","native":null,"lat":"22.02425000","lon":"-102.27711000"},{"id":72672,"name":"Paseos de las Haciendas [Fraccionamiento]","native":null,"lat":"21.99222000","lon":"-102.34361000"},{"id":72675,"name":"Paso Blanco","native":null,"lat":"21.97361000","lon":"-102.31694000"},{"id":72755,"name":"Peñuelas (El Cienegal)","native":null,"lat":"21.72250000","lon":"-102.27583000"},{"id":72777,"name":"Pilotos","native":null,"lat":"22.03722000","lon":"-101.95917000"},{"id":72835,"name":"Pocitos","native":null,"lat":"21.92167000","lon":"-102.33472000"},{"id":72964,"name":"Puertecito de la Virgen","native":null,"lat":"21.96028000","lon":"-102.26889000"},{"id":73133,"name":"Rincón de Romos","native":null,"lat":"22.23333000","lon":"-102.31666000"},{"id":73315,"name":"San Antonio","native":null,"lat":"22.22823000","lon":"-102.25034000"},{"id":73374,"name":"San Antonio de los Horcones","native":null,"lat":"21.99832000","lon":"-102.32663000"},{"id":73376,"name":"San Antonio de los Ríos","native":null,"lat":"22.16104000","lon":"-102.47118000"},{"id":73365,"name":"San Antonio de Peñuelas","native":null,"lat":"21.67471000","lon":"-102.30010000"},{"id":73616,"name":"San Francisco de los Romo","native":null,"lat":"22.03307000","lon":"-102.22902000"},{"id":73650,"name":"San Ignacio","native":null,"lat":"21.89269000","lon":"-102.33974000"},{"id":73693,"name":"San Jacinto","native":null,"lat":"22.34861000","lon":"-102.23361000"},{"id":73819,"name":"San José de Gracia","native":null,"lat":"22.15000000","lon":"-102.41666000"},{"id":74058,"name":"San Luis de Letras","native":null,"lat":"22.13551000","lon":"-102.29729000"},{"id":74475,"name":"San Sebastián [Fraccionamiento]","native":null,"lat":"21.82139000","lon":"-102.27111000"},{"id":74490,"name":"San Tadeo","native":null,"lat":"21.91954000","lon":"-102.70043000"},{"id":74680,"name":"Santa Isabel [Fraccionamiento]","native":null,"lat":"22.08111000","lon":"-102.26778000"},{"id":74807,"name":"Santa María de la Paz","native":null,"lat":"22.38786000","lon":"-102.25697000"},{"id":74839,"name":"Santa Rosa (El Huizache)","native":null,"lat":"21.93500000","lon":"-102.02194000"},{"id":74869,"name":"Santiago","native":null,"lat":"22.11948000","lon":"-102.33769000"},{"id":75415,"name":"Tepetates","native":null,"lat":"21.95667000","lon":"-102.32167000"},{"id":75446,"name":"Tepezalá","native":null,"lat":"22.21667000","lon":"-102.16666000"},{"id":75913,"name":"Valladolid","native":null,"lat":"22.02111000","lon":"-102.31500000"},{"id":75915,"name":"Valle Huejúcar (Fraccionamiento Popular) [Fraccionamiento]","native":null,"lat":"21.83111000","lon":"-102.75028000"},{"id":76024,"name":"Villa Juárez","native":null,"lat":"22.09447000","lon":"-102.06930000"},{"id":76026,"name":"Villa Licenciado Jesús Terán (Calvillito)","native":null,"lat":"21.82528000","lon":"-102.18778000"}]},{"id":3457,"name":"Baja California","native":null,"cities":[{"id":68194,"name":"Alfonso Garzón [Granjas Familiares]","native":null,"lat":"32.54667000","lon":"-116.61722000"},{"id":68586,"name":"Benito García (El Zorrillo)","native":null,"lat":"31.67111000","lon":"-116.51139000"},{"id":68596,"name":"Benito Juárez","native":null,"lat":"32.56852000","lon":"-114.99422000"},{"id":68689,"name":"Buenos Aires","native":null,"lat":"32.42278000","lon":"-116.94111000"},{"id":68757,"name":"Camalú","native":null,"lat":"30.84222000","lon":"-116.06328000"},{"id":68906,"name":"Cereso del Hongo","native":null,"lat":"32.48417000","lon":"-116.25056000"},{"id":69150,"name":"Ciudad Coahuila (Kilómetro Cincuenta y Siete)","native":null,"lat":"32.19556000","lon":"-115.00250000"},{"id":69172,"name":"Ciudad Morelos","native":null,"lat":"32.34389000","lon":"-117.01056000"},{"id":69260,"name":"Colinas del Sol","native":null,"lat":"32.40306000","lon":"-117.03056000"},{"id":69310,"name":"Colonia Gómez Morín","native":null,"lat":"31.88167000","lon":"-116.54389000"},{"id":69323,"name":"Colonia Lomas de San Ramón (Triquis)","native":null,"lat":"30.70167000","lon":"-116.00278000"},{"id":69339,"name":"Colonia Nueva Era","native":null,"lat":"30.50667000","lon":"-115.92250000"},{"id":69376,"name":"Colonia Venustiano Carranza","native":null,"lat":"32.23700000","lon":"-115.16656000"},{"id":69677,"name":"Delta","native":null,"lat":"32.35497000","lon":"-115.19617000"},{"id":69691,"name":"Doctor Alberto Oviedo Mota","native":null,"lat":"32.22756000","lon":"-115.16792000"},{"id":69732,"name":"Durango","native":null,"lat":"32.24865000","lon":"-115.25227000"},{"id":69762,"name":"Ejido Doctor Alberto Oviedo Mota (El Indiviso)","native":null,"lat":"32.02444000","lon":"-114.98361000"},{"id":69765,"name":"Ejido General Leandro Valle","native":null,"lat":"30.62167000","lon":"-115.96583000"},{"id":69768,"name":"Ejido Javier Rojo Gómez","native":null,"lat":"32.49389000","lon":"-116.82222000"},{"id":69770,"name":"Ejido Jiquilpan","native":null,"lat":"32.50131000","lon":"-115.06382000"},{"id":69774,"name":"Ejido Lázaro Cárdenas","native":null,"lat":"32.60794000","lon":"-115.02076000"},{"id":69776,"name":"Ejido Michoacán de Ocampo","native":null,"lat":"32.46512000","lon":"-115.31003000"},{"id":69778,"name":"Ejido Netzahualcóyotl","native":null,"lat":"32.62444000","lon":"-115.06222000"},{"id":69780,"name":"Ejido Nuevo León","native":null,"lat":"32.41103000","lon":"-115.18827000"},{"id":69782,"name":"Ejido Ojo de Agua","native":null,"lat":"32.47556000","lon":"-116.78917000"},{"id":69785,"name":"Ejido Pátzcuaro","native":null,"lat":"32.35139000","lon":"-115.06583000"},{"id":69784,"name":"Ejido Plan de Ayala","native":null,"lat":"32.22023000","lon":"-115.03158000"},{"id":69786,"name":"Ejido Quintana Roo","native":null,"lat":"32.46844000","lon":"-115.08250000"},{"id":69787,"name":"Ejido Saltillo","native":null,"lat":"32.42430000","lon":"-115.12480000"},{"id":69792,"name":"Ejido Sinaloa","native":null,"lat":"32.54734000","lon":"-115.27041000"},{"id":69793,"name":"Ejido Sonora","native":null,"lat":"32.28749000","lon":"-115.23134000"},{"id":69794,"name":"Ejido Tabasco","native":null,"lat":"32.56187000","lon":"-114.92659000"},{"id":69795,"name":"Ejido Toluca","native":null,"lat":"32.43050000","lon":"-115.08316000"},{"id":69798,"name":"Ejido Vicente Guerrero","native":null,"lat":"32.39593000","lon":"-115.14026000"},{"id":69800,"name":"Ejido Yucatán","native":null,"lat":"32.60435000","lon":"-115.09380000"},{"id":70066,"name":"El Niño","native":null,"lat":"32.50750000","lon":"-116.79194000"},{"id":70116,"name":"El Porvenir","native":null,"lat":"32.07606000","lon":"-116.62473000"},{"id":70178,"name":"El Rosario de Arriba","native":null,"lat":"30.05984000","lon":"-115.72448000"},{"id":70203,"name":"El Sauzal de Rodríguez","native":null,"lat":"31.89329000","lon":"-116.69256000"},{"id":70289,"name":"Emiliano Zapata","native":null,"lat":"30.75417000","lon":"-116.00306000"},{"id":70305,"name":"Ensenada","native":null,"lat":"31.86667000","lon":"-116.61666000"},{"id":70337,"name":"Estación Coahuila","native":null,"lat":"32.19304000","lon":"-114.99933000"},{"id":70349,"name":"Estación Pescaderos","native":null,"lat":"32.31196000","lon":"-115.13823000"},{"id":70449,"name":"Fraccionamiento del Valle","native":null,"lat":"31.91139000","lon":"-116.26056000"},{"id":70484,"name":"Francisco Zarco","native":null,"lat":"32.09872000","lon":"-116.56863000"},{"id":70599,"name":"Guadalupe Victoria","native":null,"lat":"32.28924000","lon":"-115.10534000"},{"id":70633,"name":"Guerrero Negro","native":null,"lat":"27.96891000","lon":"-114.04427000"},{"id":70655,"name":"Hacienda Tecate","native":null,"lat":"32.56500000","lon":"-116.52500000"},{"id":70673,"name":"Hermosillo","native":null,"lat":"32.51097000","lon":"-114.92278000"},{"id":70888,"name":"Islas Agrarias Grupo A","native":null,"lat":"32.61096000","lon":"-115.33151000"},{"id":70889,"name":"Islas Agrarias Grupo B","native":null,"lat":"32.60034000","lon":"-115.27172000"},{"id":71277,"name":"La Esperanza [Granjas Familiares]","native":null,"lat":"32.46278000","lon":"-117.10500000"},{"id":71463,"name":"La Providencia","native":null,"lat":"30.96889000","lon":"-116.15861000"},{"id":71581,"name":"Las Brisas","native":null,"lat":"30.96056000","lon":"-116.16444000"},{"id":71597,"name":"Las Delicias","native":null,"lat":"32.40889000","lon":"-116.94361000"},{"id":71891,"name":"Lázaro Cárdenas","native":null,"lat":"30.52815000","lon":"-115.92617000"},{"id":71676,"name":"Licenciado Gustavo Díaz Ordaz","native":null,"lat":"30.97506000","lon":"-116.15565000"},{"id":71753,"name":"Lomas de Santa Anita","native":null,"lat":"32.54278000","lon":"-116.65139000"},{"id":71757,"name":"Lomas de Tlatelolco","native":null,"lat":"32.48306000","lon":"-116.80167000"},{"id":71766,"name":"Los Algodones","native":null,"lat":"32.70000000","lon":"-114.73333000"},{"id":71867,"name":"Los Valles","native":null,"lat":"32.39250000","lon":"-116.95500000"},{"id":71883,"name":"Luis Rodríguez (El Vergel)","native":null,"lat":"30.40722000","lon":"-115.88722000"},{"id":71908,"name":"Maclovio Herrera (Colonia Aviación)","native":null,"lat":"32.54194000","lon":"-116.63611000"},{"id":71909,"name":"Maclovio Rojas","native":null,"lat":"32.47306000","lon":"-116.80278000"},{"id":72099,"name":"Mexicali","native":null,"lat":"32.50513000","lon":"-115.14771000"},{"id":72815,"name":"Playas de Rosarito","native":null,"lat":"32.34342000","lon":"-117.03186000"},{"id":72824,"name":"Poblado Chulavista (El Chorizo)","native":null,"lat":"30.74722000","lon":"-116.00306000"},{"id":72827,"name":"Poblado Lázaro Cárdenas (La Veintiocho)","native":null,"lat":"32.37333000","lon":"-115.06528000"},{"id":73014,"name":"Pórticos de San Antonio","native":null,"lat":"32.44250000","lon":"-117.03417000"},{"id":72904,"name":"Primo Tapia","native":null,"lat":"32.22226000","lon":"-116.91390000"},{"id":72910,"name":"Progreso","native":null,"lat":"32.58039000","lon":"-115.58479000"},{"id":72926,"name":"Puebla","native":null,"lat":"32.56654000","lon":"-115.35340000"},{"id":72930,"name":"Pueblo Benito García","native":null,"lat":"30.51583000","lon":"-115.93278000"},{"id":73035,"name":"Quinta del Cedro","native":null,"lat":"32.43750000","lon":"-117.06583000"},{"id":73061,"name":"Rancho La Gloria","native":null,"lat":"32.44619000","lon":"-117.00103000"},{"id":73071,"name":"Rancho Verde","native":null,"lat":"31.91611000","lon":"-116.58833000"},{"id":73147,"name":"Rodolfo Sánchez Taboada","native":null,"lat":"31.72099000","lon":"-116.57184000"},{"id":73164,"name":"Rosarito","native":null,"lat":"32.36044000","lon":"-117.04645000"},{"id":73165,"name":"Rumorosa","native":null,"lat":"32.52396000","lon":"-116.05397000"},{"id":73229,"name":"Salvador Rosas Magallón","native":null,"lat":"31.90139000","lon":"-116.54778000"},{"id":73510,"name":"San Felipe","native":null,"lat":"31.02468000","lon":"-114.83919000"},{"id":74042,"name":"San Luis","native":null,"lat":"32.43167000","lon":"-116.95361000"},{"id":74421,"name":"San Quintín","native":null,"lat":"30.57228000","lon":"-115.94607000"},{"id":74492,"name":"San Vicente","native":null,"lat":"31.32518000","lon":"-116.24662000"},{"id":74560,"name":"Santa Anita","native":null,"lat":"32.10083000","lon":"-116.86917000"},{"id":74663,"name":"Santa Fé","native":null,"lat":"30.67984000","lon":"-115.97653000"},{"id":74673,"name":"Santa Isabel","native":null,"lat":"32.63330000","lon":"-115.57605000"},{"id":75267,"name":"Tecate","native":null,"lat":"32.55029000","lon":"-116.63223000"},{"id":75276,"name":"Tecolots","native":null,"lat":"32.56667000","lon":"-114.98333000"},{"id":75469,"name":"Terrazas del Valle","native":null,"lat":"32.48750000","lon":"-116.82667000"},{"id":75562,"name":"Tijuana","native":null,"lat":"32.50223000","lon":"-116.97212000"},{"id":75976,"name":"Vicente Guerrero","native":null,"lat":"30.73097000","lon":"-115.99071000"},{"id":76072,"name":"Villa del Campo","native":null,"lat":"32.50750000","lon":"-116.73833000"},{"id":76074,"name":"Villa del Prado 2da Sección","native":null,"lat":"32.42389000","lon":"-116.97167000"},{"id":76103,"name":"Viñas del Sol","native":null,"lat":"32.62694000","lon":"-115.54667000"}]},{"id":3460,"name":"Baja California Sur","native":null,"cities":[{"id":68498,"name":"Bahía Asunción","native":null,"lat":"27.14231000","lon":"-114.29582000"},{"id":68499,"name":"Bahía Tortugas","native":null,"lat":"27.69056000","lon":"-114.89660000"},{"id":68704,"name":"Cabo San Lucas","native":null,"lat":"22.89088000","lon":"-109.91238000"},{"id":68967,"name":"Chametla","native":null,"lat":"24.09926000","lon":"-110.37395000"},{"id":69151,"name":"Ciudad Constitución","native":null,"lat":"25.03210000","lon":"-111.66256000"},{"id":69162,"name":"Ciudad Insurgentes","native":null,"lat":"25.26345000","lon":"-111.77444000"},{"id":69382,"name":"Colonia del Sol","native":null,"lat":"22.91273000","lon":"-109.92655000"},{"id":69427,"name":"Comondú","native":null,"lat":"26.06667000","lon":"-111.81666000"},{"id":69893,"name":"El Centenario","native":null,"lat":"24.10250000","lon":"-110.41444000"},{"id":70100,"name":"El Pescadero","native":null,"lat":"23.36417000","lon":"-110.16833000"},{"id":70206,"name":"El Silencio","native":null,"lat":"27.46801000","lon":"-113.29987000"},{"id":71436,"name":"La Paz","native":null,"lat":"24.14437000","lon":"-110.30050000"},{"id":71453,"name":"La Playa","native":null,"lat":"23.06417000","lon":"-109.66833000"},{"id":71479,"name":"La Rivera","native":null,"lat":"23.59458000","lon":"-109.58523000"},{"id":71619,"name":"Las Margaritas","native":null,"lat":"27.61833000","lon":"-113.45361000"},{"id":71630,"name":"Las Palmas","native":null,"lat":"22.93672000","lon":"-109.94235000"},{"id":71651,"name":"Las Veredas","native":null,"lat":"23.15028000","lon":"-109.70611000"},{"id":71762,"name":"Loreto","native":null,"lat":"26.01217000","lon":"-111.34888000"},{"id":71777,"name":"Los Barriles","native":null,"lat":"23.68273000","lon":"-109.69953000"},{"id":71781,"name":"Los Cabos","native":null,"lat":"23.27663000","lon":"-109.75322000"},{"id":72073,"name":"Melitón Albáñez Domínguez","native":null,"lat":"23.66139000","lon":"-110.42083000"},{"id":72153,"name":"Miraflores","native":null,"lat":"23.36975000","lon":"-109.77436000"},{"id":72251,"name":"Mulegé","native":null,"lat":"26.60000000","lon":"-112.33333000"},{"id":72965,"name":"Puerto Adolfo Lopez Mateos","native":null,"lat":"25.19224000","lon":"-112.11680000"},{"id":72974,"name":"Puerto San Carlos","native":null,"lat":"24.78874000","lon":"-112.10504000"},{"id":73543,"name":"San Francisco","native":null,"lat":"27.64500000","lon":"-113.41917000"},{"id":73834,"name":"San José del Cabo","native":null,"lat":"23.05888000","lon":"-109.69771000"},{"id":74855,"name":"Santa Rosalía","native":null,"lat":"27.34045000","lon":"-112.26761000"},{"id":75719,"name":"Todos Santos","native":null,"lat":"23.44688000","lon":"-110.22308000"},{"id":75988,"name":"Villa Alberto Andrés Alvarado Arámburo","native":null,"lat":"27.64444000","lon":"-113.38472000"},{"id":76037,"name":"Villa Morelos","native":null,"lat":"24.93000000","lon":"-111.62806000"}]},{"id":3475,"name":"Campeche","native":null,"cities":[{"id":68019,"name":"Abelardo L. Rodríguez","native":null,"lat":"18.72842000","lon":"-90.90456000"},{"id":68197,"name":"Alfredo V. Bonfil","native":null,"lat":"19.53032000","lon":"-90.18214000"},{"id":68223,"name":"Altamira de Zináparo","native":null,"lat":"18.58208000","lon":"-90.25610000"},{"id":68393,"name":"Atasta","native":null,"lat":"18.61954000","lon":"-92.10326000"},{"id":68481,"name":"Bacabchén","native":null,"lat":"20.28903000","lon":"-90.05602000"},{"id":68696,"name":"Bécal","native":null,"lat":"20.44172000","lon":"-90.02738000"},{"id":68606,"name":"Benito Juárez Uno","native":null,"lat":"18.27695000","lon":"-91.09914000"},{"id":68630,"name":"Bolonchén de Rejón","native":null,"lat":"20.00386000","lon":"-89.74663000"},{"id":68726,"name":"Calakmul","native":null,"lat":"18.00000000","lon":"-89.75000000"},{"id":68741,"name":"Calkiní","native":null,"lat":"20.38583000","lon":"-89.98764000"},{"id":68770,"name":"Campeche","native":null,"lat":"19.84386000","lon":"-90.52554000"},{"id":68789,"name":"Candelaria","native":null,"lat":"18.00000000","lon":"-90.75000000"},{"id":68827,"name":"Carmen","native":null,"lat":"18.63000000","lon":"-91.83000000"},{"id":68838,"name":"Carrillo Puerto","native":null,"lat":"19.09400000","lon":"-90.52279000"},{"id":68858,"name":"Castamay","native":null,"lat":"19.83782000","lon":"-90.43181000"},{"id":68968,"name":"Champotón","native":null,"lat":"19.35042000","lon":"-90.70991000"},{"id":69019,"name":"Chicbul","native":null,"lat":"18.77558000","lon":"-90.92429000"},{"id":69087,"name":"Chiná","native":null,"lat":"19.76993000","lon":"-90.49595000"},{"id":69117,"name":"Chunchintok","native":null,"lat":"19.36145000","lon":"-89.58218000"},{"id":69195,"name":"Ciudad del Carmen","native":null,"lat":"18.64592000","lon":"-91.82991000"},{"id":69294,"name":"Colonia Emiliano Zapata","native":null,"lat":"18.66504000","lon":"-92.31088000"},{"id":69463,"name":"Constitución","native":null,"lat":"18.62675000","lon":"-90.13584000"},{"id":69636,"name":"Cumpich","native":null,"lat":"20.18612000","lon":"-89.97081000"},{"id":69689,"name":"División del Norte","native":null,"lat":"18.52946000","lon":"-90.76416000"},{"id":69712,"name":"Don Samuel","native":null,"lat":"18.36000000","lon":"-90.85722000"},{"id":69735,"name":"Dzibalchén","native":null,"lat":"19.45847000","lon":"-89.73111000"},{"id":69741,"name":"Dzitbalché","native":null,"lat":"20.31857000","lon":"-90.05611000"},{"id":69824,"name":"El Aguacatal","native":null,"lat":"18.21361000","lon":"-91.51095000"},{"id":70058,"name":"El Naranjo","native":null,"lat":"18.02193000","lon":"-91.12654000"},{"id":70324,"name":"Escárcega","native":null,"lat":"18.61404000","lon":"-90.72870000"},{"id":70662,"name":"Hampolol","native":null,"lat":"19.92716000","lon":"-90.38924000"},{"id":70663,"name":"Haro","native":null,"lat":"18.44418000","lon":"-90.79153000"},{"id":70664,"name":"Hecelchakán","native":null,"lat":"20.16667000","lon":"-90.13333000"},{"id":70707,"name":"Hool","native":null,"lat":"19.51294000","lon":"-90.44631000"},{"id":70708,"name":"Hopelchén","native":null,"lat":"19.74671000","lon":"-89.84437000"},{"id":70883,"name":"Isla Aguada","native":null,"lat":"18.78714000","lon":"-91.49277000"},{"id":70892,"name":"Iturbide","native":null,"lat":"19.57903000","lon":"-89.60222000"},{"id":71331,"name":"La Joya","native":null,"lat":"19.48028000","lon":"-90.67333000"},{"id":71354,"name":"La Libertad","native":null,"lat":"18.57042000","lon":"-90.51399000"},{"id":71663,"name":"Lerma","native":null,"lat":"19.80404000","lon":"-90.60088000"},{"id":71677,"name":"Licenciado Gustavo Díaz Ordaz (18 de Marzo)","native":null,"lat":"18.63222000","lon":"-91.00278000"},{"id":71808,"name":"Los Laureles","native":null,"lat":"19.48778000","lon":"-89.99444000"},{"id":71951,"name":"Mamantel","native":null,"lat":"18.52512000","lon":"-91.08885000"},{"id":72016,"name":"Matamoros","native":null,"lat":"18.58414000","lon":"-90.64669000"},{"id":72030,"name":"Maya Tecún I","native":null,"lat":"19.15292000","lon":"-90.50641000"},{"id":72405,"name":"Nuevo Progreso","native":null,"lat":"18.62294000","lon":"-92.29124000"},{"id":72426,"name":"Nunkiní","native":null,"lat":"20.40046000","lon":"-90.14803000"},{"id":72584,"name":"Palizada","native":null,"lat":"18.25261000","lon":"-92.07779000"},{"id":72759,"name":"Pich","native":null,"lat":"19.48568000","lon":"-90.11795000"},{"id":72830,"name":"Pocboc","native":null,"lat":"20.23541000","lon":"-90.10219000"},{"id":72847,"name":"Pomuch","native":null,"lat":"20.13727000","lon":"-90.17488000"},{"id":73190,"name":"Sabancuy","native":null,"lat":"18.97270000","lon":"-91.17783000"},{"id":73331,"name":"San Antonio Cárdenas","native":null,"lat":"18.61399000","lon":"-92.22341000"},{"id":73347,"name":"San Antonio Sahcabchén","native":null,"lat":"20.30696000","lon":"-90.13778000"},{"id":73573,"name":"San Francisco Kobén","native":null,"lat":"19.91516000","lon":"-90.41709000"},{"id":74299,"name":"San Pablo Pixtún","native":null,"lat":"19.13361000","lon":"-90.73194000"},{"id":74608,"name":"Santa Cruz","native":null,"lat":"20.20339000","lon":"-90.11771000"},{"id":74624,"name":"Santa Cruz Ex-Hacienda","native":null,"lat":"20.39684000","lon":"-90.24068000"},{"id":74636,"name":"Santa Cruz Pueblo","native":null,"lat":"20.33359000","lon":"-90.10342000"},{"id":75003,"name":"Santo Domingo Kesté","native":null,"lat":"19.49972000","lon":"-90.51139000"},{"id":75065,"name":"Seybaplaya","native":null,"lat":"19.63994000","lon":"-90.68706000"},{"id":75076,"name":"Sihochac","native":null,"lat":"19.50120000","lon":"-90.58472000"},{"id":75137,"name":"Suc-Tuc","native":null,"lat":"19.71259000","lon":"-90.03768000"},{"id":75215,"name":"Tankuché","native":null,"lat":"20.50743000","lon":"-90.24164000"},{"id":75345,"name":"Tenabo","native":null,"lat":"19.83333000","lon":"-90.00000000"},{"id":75390,"name":"Tepakán","native":null,"lat":"20.39716000","lon":"-90.04075000"},{"id":75563,"name":"Tikinmul","native":null,"lat":"19.76611000","lon":"-90.22306000"},{"id":75865,"name":"Ukúm","native":null,"lat":"19.24197000","lon":"-89.33529000"},{"id":76029,"name":"Villa Madero","native":null,"lat":"19.52833000","lon":"-90.69917000"},{"id":76130,"name":"Xbacab","native":null,"lat":"18.94139000","lon":"-90.72194000"},{"id":76151,"name":"Xmabén","native":null,"lat":"19.23530000","lon":"-89.31426000"},{"id":76204,"name":"Xpujil","native":null,"lat":"18.50760000","lon":"-89.39437000"},{"id":76358,"name":"Zoh-Laguna","native":null,"lat":"18.59306000","lon":"-89.41714000"}]},{"id":3451,"name":"Chiapas","native":null,"cities":[{"id":68007,"name":"1ra. Sección de Izapa","native":null,"lat":"14.92083000","lon":"-92.17083000"},{"id":68008,"name":"2da. Sección de Medio Monte","native":null,"lat":"14.88194000","lon":"-92.18444000"},{"id":68013,"name":"Abasolo","native":null,"lat":"16.82140000","lon":"-92.21611000"},{"id":68024,"name":"Acacoyagua","native":null,"lat":"15.41414000","lon":"-92.68169000"},{"id":68029,"name":"Acala","native":null,"lat":"16.55625000","lon":"-92.80449000"},{"id":68036,"name":"Acapetahua","native":null,"lat":"15.28189000","lon":"-92.68987000"},{"id":68089,"name":"Adolfo López Mateos","native":null,"lat":"17.21600000","lon":"-93.47895000"},{"id":68101,"name":"Agrónomos Mexicanos","native":null,"lat":"16.35000000","lon":"-93.53000000"},{"id":68102,"name":"Agua Azul","native":null,"lat":"16.81432000","lon":"-91.52391000"},{"id":68105,"name":"Agua Blanca Serranía","native":null,"lat":"17.26781000","lon":"-91.83564000"},{"id":68120,"name":"Agua Zarca","native":null,"lat":"15.63417000","lon":"-92.14472000"},{"id":68122,"name":"Aguacatenango","native":null,"lat":"16.47388000","lon":"-92.40875000"},{"id":68130,"name":"Agustín de Iturbide","native":null,"lat":"15.07523000","lon":"-92.19858000"},{"id":68135,"name":"Ahuacatlán","native":null,"lat":"15.04030000","lon":"-92.18036000"},{"id":68165,"name":"Ajilhó","native":null,"lat":"16.98376000","lon":"-92.93804000"},{"id":68186,"name":"Aldama","native":null,"lat":"16.91667000","lon":"-92.68333000"},{"id":68195,"name":"Alfonso Moguel","native":null,"lat":"16.66750000","lon":"-93.50639000"},{"id":68224,"name":"Altamirano","native":null,"lat":"16.88333000","lon":"-92.15000000"},{"id":76395,"name":"Álvaro Obregón","native":null,"lat":"14.92231000","lon":"-92.37813000"},{"id":68234,"name":"Amado Nervo","native":null,"lat":"17.23107000","lon":"-92.24581000"},{"id":68247,"name":"Amatán","native":null,"lat":"17.36667000","lon":"-92.81667000"},{"id":68237,"name":"Amatenango de la Frontera","native":null,"lat":"15.43333000","lon":"-92.11667000"},{"id":68238,"name":"Amatenango del Valle","native":null,"lat":"16.52722000","lon":"-92.43472000"},{"id":68264,"name":"América Libre","native":null,"lat":"16.61462000","lon":"-92.99185000"},{"id":76404,"name":"Ángel Albino Corzo","native":null,"lat":"15.86624000","lon":"-92.72324000"},{"id":76405,"name":"Ángel Albino Corzo (Guadalupe)","native":null,"lat":"17.12639000","lon":"-93.27500000"},{"id":68295,"name":"Apas","native":null,"lat":"16.71066000","lon":"-92.79335000"},{"id":68320,"name":"Aquiles Serdán","native":null,"lat":"14.93980000","lon":"-92.51444000"},{"id":68349,"name":"Arimatea","native":null,"lat":"17.34139000","lon":"-91.87639000"},{"id":68355,"name":"Arriaga","native":null,"lat":"16.23589000","lon":"-93.89995000"},{"id":68358,"name":"Arroyo Grande","native":null,"lat":"17.19122000","lon":"-92.87207000"},{"id":68359,"name":"Arroyo Granizo","native":null,"lat":"17.03716000","lon":"-91.42563000"},{"id":68363,"name":"Arroyo Palenque","native":null,"lat":"17.39167000","lon":"-92.10444000"},{"id":68378,"name":"Arvenza Uno","native":null,"lat":"16.77972000","lon":"-92.72028000"},{"id":68445,"name":"Aurora Ermita","native":null,"lat":"17.23583000","lon":"-92.87389000"},{"id":68446,"name":"Aurora Esquipulas","native":null,"lat":"17.11704000","lon":"-92.47626000"},{"id":68474,"name":"Azteca","native":null,"lat":"16.21775000","lon":"-93.94557000"},{"id":68475,"name":"Aztlán","native":null,"lat":"16.76919000","lon":"-92.92316000"},{"id":68487,"name":"Bachajón","native":null,"lat":"17.03963000","lon":"-92.18986000"},{"id":68504,"name":"Bajucu","native":null,"lat":"16.47520000","lon":"-92.06471000"},{"id":68567,"name":"Bautista Chico","native":null,"lat":"16.79972000","lon":"-92.71194000"},{"id":68570,"name":"Bejucal de Ocampo","native":null,"lat":"15.45535000","lon":"-92.15835000"},{"id":68574,"name":"Belisario Domínguez","native":null,"lat":"15.29944000","lon":"-92.38056000"},{"id":68576,"name":"Bella Vista","native":null,"lat":"15.58333000","lon":"-92.21667000"},{"id":68585,"name":"Benemérito de las Américas","native":null,"lat":"16.51599000","lon":"-90.65371000"},{"id":68601,"name":"Benito Juárez","native":null,"lat":"15.05500000","lon":"-92.19111000"},{"id":68611,"name":"Berriozábal","native":null,"lat":"16.80000000","lon":"-93.26667000"},{"id":68612,"name":"Betania","native":null,"lat":"16.60639000","lon":"-92.52194000"},{"id":68625,"name":"Bochil","native":null,"lat":"16.99625000","lon":"-92.89218000"},{"id":68626,"name":"Bochojbo Alto","native":null,"lat":"16.73583000","lon":"-92.71694000"},{"id":68649,"name":"Brisas Barra de Suchiate","native":null,"lat":"14.53588000","lon":"-92.22414000"},{"id":68673,"name":"Buenavista","native":null,"lat":"16.24278000","lon":"-91.98778000"},{"id":68676,"name":"Buenavista (Matasanos)","native":null,"lat":"17.10778000","lon":"-93.06694000"},{"id":68686,"name":"Buenos Aires","native":null,"lat":"14.88980000","lon":"-92.48121000"},{"id":68702,"name":"Cabeza de Toro","native":null,"lat":"15.93698000","lon":"-93.78256000"},{"id":68705,"name":"Cacahoatán","native":null,"lat":"14.99201000","lon":"-92.16376000"},{"id":68715,"name":"Cacaté","native":null,"lat":"16.84534000","lon":"-92.83485000"},{"id":69657,"name":"Cálido","native":null,"lat":"17.09889000","lon":"-92.78750000"},{"id":68753,"name":"Calzada Larga","native":null,"lat":"16.35115000","lon":"-93.31518000"},{"id":68786,"name":"Cancuc","native":null,"lat":"16.91667000","lon":"-92.48333000"},{"id":68797,"name":"Cantioc","native":null,"lat":"17.26222000","lon":"-92.40694000"},{"id":68801,"name":"Cantón las Delicias","native":null,"lat":"15.10245000","lon":"-92.50002000"},{"id":68799,"name":"Cantón Rancho Nuevo","native":null,"lat":"15.06742000","lon":"-92.52565000"},{"id":68800,"name":"Cantón Villaflor","native":null,"lat":"15.11424000","lon":"-92.35261000"},{"id":68829,"name":"Carmen Yalchuch","native":null,"lat":"16.64482000","lon":"-92.36245000"},{"id":68830,"name":"Carmen Zacatal","native":null,"lat":"17.08083000","lon":"-92.80250000"},{"id":68837,"name":"Carrillo Puerto","native":null,"lat":"15.01120000","lon":"-92.19552000"},{"id":68856,"name":"Cash","native":null,"lat":"16.26426000","lon":"-92.09775000"},{"id":68862,"name":"Catazajá","native":null,"lat":"17.73333000","lon":"-92.01667000"},{"id":68864,"name":"Catishtic","native":null,"lat":"16.78028000","lon":"-92.73778000"},{"id":68884,"name":"Cebadilla 1ra. Sección","native":null,"lat":"14.86381000","lon":"-92.27969000"},{"id":68895,"name":"Cenobio Aguilar (La Trinidad)","native":null,"lat":"17.40472000","lon":"-92.31944000"},{"id":68905,"name":"Cereso 14 (El Amate)","native":null,"lat":"16.59472000","lon":"-93.80278000"},{"id":68946,"name":"Chacaljocóm","native":null,"lat":"16.29919000","lon":"-92.18345000"},{"id":68949,"name":"Chacoma","native":null,"lat":"16.87611000","lon":"-92.49139000"},{"id":68955,"name":"Chalam","native":null,"lat":"16.88771000","lon":"-92.55009000"},{"id":68960,"name":"Chalchihuitán","native":null,"lat":"16.96667000","lon":"-92.65000000"},{"id":68969,"name":"Chamula","native":null,"lat":"16.78416000","lon":"-92.68959000"},{"id":68970,"name":"Chamulapita","native":null,"lat":"15.06892000","lon":"-92.36942000"},{"id":68973,"name":"Chanal","native":null,"lat":"16.65750000","lon":"-92.25750000"},{"id":68980,"name":"Chapallal Grande","native":null,"lat":"17.29631000","lon":"-92.94519000"},{"id":68989,"name":"Chapultenango","native":null,"lat":"17.33333000","lon":"-93.13333000"},{"id":69010,"name":"Chiapa de Corzo","native":null,"lat":"16.70770000","lon":"-93.01184000"},{"id":69011,"name":"Chiapilla","native":null,"lat":"16.55397000","lon":"-92.72594000"},{"id":69034,"name":"Chicoasén","native":null,"lat":"16.96528000","lon":"-93.10472000"},{"id":69037,"name":"Chicomuselo","native":null,"lat":"15.74420000","lon":"-92.28330000"},{"id":69048,"name":"Chicumtantic","native":null,"lat":"16.86556000","lon":"-92.60528000"},{"id":69055,"name":"Chihuahua","native":null,"lat":"16.02966000","lon":"-91.97331000"},{"id":69071,"name":"Chiloljá","native":null,"lat":"16.88528000","lon":"-92.42472000"},{"id":69075,"name":"Chilón","native":null,"lat":"17.11667000","lon":"-92.28333000"},{"id":69079,"name":"Chimhucum","native":null,"lat":"16.89000000","lon":"-92.53139000"},{"id":69092,"name":"Chiquinival","native":null,"lat":"16.99111000","lon":"-91.96028000"},{"id":69093,"name":"Chiquinshulum","native":null,"lat":"17.07194000","lon":"-92.59806000"},{"id":69096,"name":"Chixtontic","native":null,"lat":"16.89080000","lon":"-92.45793000"},{"id":69113,"name":"Chulum Cárdenas","native":null,"lat":"17.38417000","lon":"-92.57389000"},{"id":69114,"name":"Chulum Juárez","native":null,"lat":"17.33194000","lon":"-92.53389000"},{"id":69136,"name":"Cintalapa","native":null,"lat":"16.68778000","lon":"-93.71083000"},{"id":69137,"name":"Cintalapa de Figueroa","native":null,"lat":"16.68393000","lon":"-93.71814000"},{"id":69153,"name":"Ciudad Cuauhtémoc","native":null,"lat":"15.66587000","lon":"-92.00388000"},{"id":69160,"name":"Ciudad Hidalgo","native":null,"lat":"14.68148000","lon":"-92.15217000"},{"id":69222,"name":"Coapilla","native":null,"lat":"17.13137000","lon":"-93.15946000"},{"id":69342,"name":"Colonia Obrera","native":null,"lat":"15.09806000","lon":"-92.49806000"},{"id":69417,"name":"Comalapa","native":null,"lat":"15.65924000","lon":"-92.14237000"},{"id":69425,"name":"Comitán","native":null,"lat":"16.24710000","lon":"-92.13515000"},{"id":69432,"name":"Concepción","native":null,"lat":"16.80908000","lon":"-92.96526000"},{"id":69453,"name":"Congregación Reforma","native":null,"lat":"14.78208000","lon":"-92.31424000"},{"id":69465,"name":"Constitución","native":null,"lat":"17.07556000","lon":"-92.52417000"},{"id":69469,"name":"Copainalá","native":null,"lat":"17.09366000","lon":"-93.21059000"},{"id":69474,"name":"Copoya","native":null,"lat":"16.71191000","lon":"-93.12089000"},{"id":69535,"name":"Cristóbal Colón","native":null,"lat":"17.19194000","lon":"-91.62917000"},{"id":69536,"name":"Cristóbal Obregón","native":null,"lat":"16.43246000","lon":"-93.45689000"},{"id":69548,"name":"Cruztón","native":null,"lat":"16.76167000","lon":"-92.57917000"},{"id":69580,"name":"Cuauhtémoc","native":null,"lat":"16.55000000","lon":"-93.71611000"},{"id":69606,"name":"Cuchulumtic","native":null,"lat":"16.77722000","lon":"-92.70417000"},{"id":69665,"name":"Damasco","native":null,"lat":"17.16161000","lon":"-91.60058000"},{"id":69683,"name":"Diamante de Echeverría","native":null,"lat":"16.11181000","lon":"-92.87931000"},{"id":69685,"name":"Dieciséis de Septiembre","native":null,"lat":"16.29715000","lon":"-93.17490000"},{"id":69693,"name":"Doctor Belisario Domínguez (La Barra)","native":null,"lat":"15.88947000","lon":"-93.70404000"},{"id":69695,"name":"Doctor Domingo Chanona","native":null,"lat":"16.34611000","lon":"-93.41667000"},{"id":69700,"name":"Doctor Rodulfo Figueroa (Tierra Blanca)","native":null,"lat":"15.85083000","lon":"-92.06222000"},{"id":69701,"name":"Doctor Samuel León Brindis","native":null,"lat":"17.43528000","lon":"-91.93194000"},{"id":69707,"name":"Dolores Jaltenango","native":null,"lat":"15.89694000","lon":"-92.77777000"},{"id":69755,"name":"Efraín A. Gutiérrez","native":null,"lat":"16.34442000","lon":"-92.19927000"},{"id":69756,"name":"Egipto","native":null,"lat":"17.26207000","lon":"-91.97150000"},{"id":70264,"name":"El Águila","native":null,"lat":"15.09334000","lon":"-92.18512000"},{"id":70267,"name":"El Ámbar","native":null,"lat":"17.02500000","lon":"-92.83417000"},{"id":70268,"name":"El Ámbar (El Ámbar de Echeverría)","native":null,"lat":"16.09639000","lon":"-92.83333000"},{"id":69832,"name":"El Arenal","native":null,"lat":"15.17273000","lon":"-92.69923000"},{"id":69848,"name":"El Bosque","native":null,"lat":"17.06273000","lon":"-92.72147000"},{"id":69855,"name":"El Calvario","native":null,"lat":"17.21750000","lon":"-92.55694000"},{"id":69870,"name":"El Carmen","native":null,"lat":"15.57549000","lon":"-93.12865000"},{"id":69876,"name":"El Carmen (El Limón)","native":null,"lat":"17.89056000","lon":"-93.16528000"},{"id":69892,"name":"El Censo","native":null,"lat":"16.86287000","lon":"-91.55988000"},{"id":69920,"name":"El Consuelo Ulapa","native":null,"lat":"15.38662000","lon":"-92.79228000"},{"id":69923,"name":"El Copal","native":null,"lat":"16.96729000","lon":"-92.92625000"},{"id":69924,"name":"El Copalar","native":null,"lat":"16.87694000","lon":"-93.21389000"},{"id":69950,"name":"El Edén","native":null,"lat":"16.29191000","lon":"-91.63755000"},{"id":69952,"name":"El Encanto","native":null,"lat":"14.73083000","lon":"-92.41028000"},{"id":69960,"name":"El Espinal","native":null,"lat":"16.36862000","lon":"-94.10449000"},{"id":70001,"name":"El Jardín","native":null,"lat":"17.16657000","lon":"-92.59933000"},{"id":70007,"name":"El Jobo","native":null,"lat":"16.70369000","lon":"-93.10569000"},{"id":70014,"name":"El Limar","native":null,"lat":"17.41491000","lon":"-92.40293000"},{"id":70015,"name":"El Limonar","native":null,"lat":"16.97026000","lon":"-91.37820000"},{"id":70032,"name":"El Mango","native":null,"lat":"17.16236000","lon":"-92.05985000"},{"id":70067,"name":"El Nopal","native":null,"lat":"16.91161000","lon":"-92.84471000"},{"id":70076,"name":"El Pacayal","native":null,"lat":"15.59849000","lon":"-92.04254000"},{"id":70081,"name":"El Palmar (San Gabriel)","native":null,"lat":"16.84556000","lon":"-93.01639000"},{"id":70082,"name":"El Palmar Grande","native":null,"lat":"15.49858000","lon":"-92.25518000"},{"id":70083,"name":"El Palmarcito","native":null,"lat":"15.49728000","lon":"-93.21387000"},{"id":70091,"name":"El Paraíso","native":null,"lat":"17.24639000","lon":"-92.55694000"},{"id":70095,"name":"El Parral","native":null,"lat":"16.37035000","lon":"-93.00567000"},{"id":70114,"name":"El Portal","native":null,"lat":"15.67726000","lon":"-92.09588000"},{"id":70118,"name":"El Porvenir","native":null,"lat":"15.43092000","lon":"-92.26447000"},{"id":70120,"name":"El Porvenir Agrarista","native":null,"lat":"16.16465000","lon":"-91.83575000"},{"id":70122,"name":"El Porvenir de Velasco Suárez","native":null,"lat":"15.45695000","lon":"-92.27987000"},{"id":70128,"name":"El Pozo","native":null,"lat":"16.92034000","lon":"-92.41166000"},{"id":70133,"name":"El Progreso","native":null,"lat":"16.87694000","lon":"-93.22222000"},{"id":70139,"name":"El Puerto","native":null,"lat":"16.42575000","lon":"-92.43059000"},{"id":70143,"name":"El Ramal (Porvenir)","native":null,"lat":"15.86583000","lon":"-92.94556000"},{"id":70182,"name":"El Sacrificio","native":null,"lat":"14.87283000","lon":"-92.22782000"},{"id":70205,"name":"El Sibal","native":null,"lat":"16.98000000","lon":"-91.49111000"},{"id":70235,"name":"El Triunfo","native":null,"lat":"16.20200000","lon":"-91.85916000"},{"id":70237,"name":"El Triunfo 1ra. Sección (Cardona)","native":null,"lat":"17.60778000","lon":"-93.23306000"},{"id":70238,"name":"El Triunfo de las Tres Maravillas","native":null,"lat":"15.64694000","lon":"-92.15639000"},{"id":70244,"name":"El Tumbo","native":null,"lat":"17.07779000","lon":"-91.62595000"},{"id":70246,"name":"El Tzay","native":null,"lat":"16.86361000","lon":"-92.31222000"},{"id":70255,"name":"El Vergel","native":null,"lat":"16.57951000","lon":"-92.08148000"},{"id":70260,"name":"El Zapotal","native":null,"lat":"16.74991000","lon":"-91.44192000"},{"id":70263,"name":"El Zapotillo","native":null,"lat":"16.83700000","lon":"-92.95152000"},{"id":70276,"name":"Emiliano Zapata","native":null,"lat":"17.74058000","lon":"-91.76635000"},{"id":70323,"name":"Escuintla","native":null,"lat":"15.33333000","lon":"-92.63333000"},{"id":70343,"name":"Estación Huehuetán","native":null,"lat":"15.01091000","lon":"-92.40662000"},{"id":70354,"name":"Estación San Manuel","native":null,"lat":"17.65256000","lon":"-93.38427000"},{"id":70357,"name":"Estación Tuzantán","native":null,"lat":"15.10643000","lon":"-92.45092000"},{"id":70373,"name":"Estrella de Belén","native":null,"lat":"17.38722000","lon":"-91.95861000"},{"id":70392,"name":"Faja de Oro","native":null,"lat":"15.03244000","lon":"-92.15634000"},{"id":70405,"name":"Flor de Cacao","native":null,"lat":"16.12889000","lon":"-90.45111000"},{"id":70469,"name":"Francisco I. Madero","native":null,"lat":"16.87427000","lon":"-93.21678000"},{"id":70473,"name":"Francisco León","native":null,"lat":"17.31667000","lon":"-93.25000000"},{"id":70475,"name":"Francisco Sarabia","native":null,"lat":"16.94583000","lon":"-93.01306000"},{"id":70480,"name":"Francisco Villa","native":null,"lat":"16.21426000","lon":"-93.33697000"},{"id":70492,"name":"Frontera Corozal","native":null,"lat":"16.81473000","lon":"-90.88351000"},{"id":70493,"name":"Frontera Hidalgo","native":null,"lat":"14.77744000","lon":"-92.17741000"},{"id":70501,"name":"Gabriel Esquinca","native":null,"lat":"16.94056000","lon":"-93.17555000"},{"id":70512,"name":"Galecio Narcia","native":null,"lat":"16.58820000","lon":"-93.02052000"},{"id":70571,"name":"Guadalupe","native":null,"lat":"14.98033000","lon":"-92.33938000"},{"id":70583,"name":"Guadalupe Grijalva","native":null,"lat":"15.69899000","lon":"-92.16414000"},{"id":70605,"name":"Guadalupe Victoria","native":null,"lat":"16.40500000","lon":"-92.55250000"},{"id":70619,"name":"Guaquitepec","native":null,"lat":"16.98017000","lon":"-92.28795000"},{"id":70669,"name":"Hermenegildo Galeana","native":null,"lat":"16.57722000","lon":"-93.35944000"},{"id":70829,"name":"Héroes de Chapultepec","native":null,"lat":"16.06920000","lon":"-92.28621000"},{"id":70682,"name":"Hidalgo","native":null,"lat":"15.16249000","lon":"-92.63030000"},{"id":70688,"name":"Hidalgo Joshil","native":null,"lat":"17.22743000","lon":"-92.34719000"},{"id":70762,"name":"Huehuetán","native":null,"lat":"15.01981000","lon":"-92.38249000"},{"id":70801,"name":"Huitiupán","native":null,"lat":"17.17240000","lon":"-92.68621000"},{"id":70821,"name":"Huixtla","native":null,"lat":"15.13915000","lon":"-92.46410000"},{"id":70822,"name":"Huizachal","native":null,"lat":"16.05184000","lon":"-93.80011000"},{"id":70838,"name":"Ignacio Allende","native":null,"lat":"16.52556000","lon":"-92.99222000"},{"id":70842,"name":"Ignacio López Rayón","native":null,"lat":"14.62164000","lon":"-92.18678000"},{"id":70845,"name":"Ignacio Ramírez","native":null,"lat":"16.11091000","lon":"-93.87323000"},{"id":70857,"name":"Ignacio Zaragoza","native":null,"lat":"17.29000000","lon":"-92.93806000"},{"id":70858,"name":"Ignacio Zaragoza (El Morro)","native":null,"lat":"16.59944000","lon":"-93.35083000"},{"id":70869,"name":"Independencia","native":null,"lat":"16.08611000","lon":"-92.83824000"},{"id":70916,"name":"Ixhuatán","native":null,"lat":"17.29341000","lon":"-93.00829000"},{"id":70923,"name":"Ixtacomitán","native":null,"lat":"17.43093000","lon":"-93.09704000"},{"id":70926,"name":"Ixtapa","native":null,"lat":"16.80320000","lon":"-92.90532000"},{"id":70933,"name":"Ixtapangajoya","native":null,"lat":"17.49849000","lon":"-93.00155000"},{"id":70973,"name":"Jalisco","native":null,"lat":"16.43033000","lon":"-91.97499000"},{"id":70983,"name":"Jaltenango de la Paz","native":null,"lat":"15.87314000","lon":"-92.72437000"},{"id":71006,"name":"Jardínes del Grijalva","native":null,"lat":"16.72847000","lon":"-93.03463000"},{"id":71019,"name":"Jericó","native":null,"lat":"16.28713000","lon":"-92.96630000"},{"id":71020,"name":"Jerusalén","native":null,"lat":"17.36806000","lon":"-92.06083000"},{"id":71033,"name":"Jesús María Garza","native":null,"lat":"16.39669000","lon":"-93.29368000"},{"id":71054,"name":"Jiquilpan (Estación Bonanza)","native":null,"lat":"15.34194000","lon":"-92.74750000"},{"id":71055,"name":"Jiquipilas","native":null,"lat":"16.66806000","lon":"-93.64667000"},{"id":71059,"name":"Jitotol","native":null,"lat":"17.06723000","lon":"-92.86111000"},{"id":71064,"name":"Joaquín Miguel Gutiérrez","native":null,"lat":"16.37000000","lon":"-93.36556000"},{"id":71065,"name":"Joaquín Miguel Gutiérrez (Margaritas)","native":null,"lat":"15.55028000","lon":"-93.09306000"},{"id":71071,"name":"Joljá","native":null,"lat":"17.20459000","lon":"-92.49946000"},{"id":71074,"name":"Jolsibaquil","native":null,"lat":"17.25972000","lon":"-92.48167000"},{"id":71075,"name":"Joltealal","native":null,"lat":"17.07683000","lon":"-92.62163000"},{"id":71076,"name":"Jomanichim","native":null,"lat":"16.90056000","lon":"-92.47222000"},{"id":71097,"name":"José María Morelos","native":null,"lat":"16.04189000","lon":"-91.83201000"},{"id":71105,"name":"José María Morelos y Pavón","native":null,"lat":"17.24105000","lon":"-92.70231000"},{"id":71108,"name":"José María Pino Suárez","native":null,"lat":"16.50571000","lon":"-93.73910000"},{"id":71087,"name":"Joshil","native":null,"lat":"17.24667000","lon":"-92.36278000"},{"id":71112,"name":"Juan Aldama","native":null,"lat":"17.60939000","lon":"-93.02826000"},{"id":71129,"name":"Juan del Grijalva","native":null,"lat":"16.72806000","lon":"-92.97750000"},{"id":71145,"name":"Juárez","native":null,"lat":"17.60572000","lon":"-93.19433000"},{"id":71137,"name":"Julián Grajales","native":null,"lat":"16.42917000","lon":"-93.71417000"},{"id":71143,"name":"Justo Sierra","native":null,"lat":"16.54248000","lon":"-92.05737000"},{"id":71168,"name":"Kotolte","native":null,"lat":"16.86444000","lon":"-92.46111000"},{"id":71195,"name":"La Candelaria","native":null,"lat":"16.74289000","lon":"-92.52156000"},{"id":71210,"name":"La Ceiba","native":null,"lat":"17.13371000","lon":"-92.51887000"},{"id":71226,"name":"La Competencia","native":null,"lat":"17.23588000","lon":"-92.75718000"},{"id":71242,"name":"La Concordia","native":null,"lat":"16.11774000","lon":"-92.69018000"},{"id":71271,"name":"La Esperanza","native":null,"lat":"16.15191000","lon":"-91.86874000"},{"id":71276,"name":"La Esperanza (El Zapotal)","native":null,"lat":"15.44917000","lon":"-93.16417000"},{"id":71292,"name":"La Floresta","native":null,"lat":"16.50915000","lon":"-92.31251000"},{"id":71302,"name":"La Gloria","native":null,"lat":"15.96389000","lon":"-91.96500000"},{"id":71307,"name":"La Grandeza","native":null,"lat":"15.51033000","lon":"-92.22603000"},{"id":71323,"name":"La Independencia","native":null,"lat":"16.25263000","lon":"-92.02371000"},{"id":71324,"name":"La Independencia (Las Pilas)","native":null,"lat":"16.67750000","lon":"-93.24944000"},{"id":71343,"name":"La Laguna","native":null,"lat":"16.69357000","lon":"-91.94929000"},{"id":71351,"name":"La Libertad","native":null,"lat":"14.59167000","lon":"-92.19315000"},{"id":71379,"name":"La Línea","native":null,"lat":"16.13078000","lon":"-94.03563000"},{"id":71434,"name":"La Patria","native":null,"lat":"16.22975000","lon":"-91.91148000"},{"id":71448,"name":"La Pimienta","native":null,"lat":"17.14111000","lon":"-92.76222000"},{"id":71477,"name":"La Rinconada","native":null,"lat":"15.59333000","lon":"-92.26806000"},{"id":71502,"name":"La Tigrilla","native":null,"lat":"15.98769000","lon":"-92.85220000"},{"id":71516,"name":"La Trinitaria","native":null,"lat":"16.11859000","lon":"-92.05201000"},{"id":71540,"name":"Lacandón","native":null,"lat":"17.02141000","lon":"-91.59523000"},{"id":71557,"name":"Laguna del Cofre","native":null,"lat":"15.62751000","lon":"-92.64143000"},{"id":71571,"name":"Larráinzar","native":null,"lat":"16.88392000","lon":"-92.71329000"},{"id":71579,"name":"Las Brisas","native":null,"lat":"15.51681000","lon":"-93.11763000"},{"id":71586,"name":"Las Chicharras","native":null,"lat":"15.67089000","lon":"-92.21070000"},{"id":71596,"name":"Las Delicias","native":null,"lat":"15.96932000","lon":"-91.86315000"},{"id":71599,"name":"Las Flechas","native":null,"lat":"16.70028000","lon":"-93.02639000"},{"id":71616,"name":"Las Maravillas","native":null,"lat":"16.95951000","lon":"-93.32012000"},{"id":71617,"name":"Las Margaritas","native":null,"lat":"16.31265000","lon":"-91.98107000"},{"id":71628,"name":"Las Ollas","native":null,"lat":"16.78146000","lon":"-92.55278000"},{"id":71637,"name":"Las Rosas","native":null,"lat":"16.36574000","lon":"-92.37040000"},{"id":71642,"name":"Las Tazas","native":null,"lat":"16.75722000","lon":"-91.61500000"},{"id":71888,"name":"Lázaro Cárdenas","native":null,"lat":"16.60417000","lon":"-93.79139000"},{"id":71896,"name":"Lázaro Cárdenas (Chilil)","native":null,"lat":"16.67611000","lon":"-92.48917000"},{"id":71670,"name":"Libertad Melchor Ocampo","native":null,"lat":"16.37389000","lon":"-93.47500000"},{"id":71671,"name":"Libertad Ventanas","native":null,"lat":"15.53954000","lon":"-92.27576000"},{"id":71693,"name":"Llano de la Lima","native":null,"lat":"14.86596000","lon":"-92.29714000"},{"id":71713,"name":"Loma Bonita","native":null,"lat":"17.78697000","lon":"-92.07651000"},{"id":71741,"name":"Lomantán","native":null,"lat":"16.43999000","lon":"-92.06445000"},{"id":71782,"name":"Los Cafetales","native":null,"lat":"14.86745000","lon":"-92.30200000"},{"id":71793,"name":"Los Corazones","native":null,"lat":"16.21026000","lon":"-94.07391000"},{"id":71819,"name":"Los Naranjos","native":null,"lat":"17.26446000","lon":"-92.61972000"},{"id":71827,"name":"Los Palacios","native":null,"lat":"14.85718000","lon":"-92.25821000"},{"id":71832,"name":"Los Pinos","native":null,"lat":"16.92083000","lon":"-92.10861000"},{"id":71834,"name":"Los Plátanos","native":null,"lat":"17.00556000","lon":"-92.74264000"},{"id":71836,"name":"Los Pozos","native":null,"lat":"16.64770000","lon":"-92.40726000"},{"id":71853,"name":"Los Riegos","native":null,"lat":"16.30457000","lon":"-92.12425000"},{"id":71880,"name":"Luis Espinoza","native":null,"lat":"17.03167000","lon":"-93.02694000"},{"id":71915,"name":"Macvilhó","native":null,"lat":"16.85760000","lon":"-92.69419000"},{"id":71942,"name":"Majastic","native":null,"lat":"17.28944000","lon":"-92.62833000"},{"id":71943,"name":"Majomut","native":null,"lat":"16.84917000","lon":"-92.65944000"},{"id":71966,"name":"Manuel Ávila Camacho","native":null,"lat":"16.14647000","lon":"-93.01701000"},{"id":71968,"name":"Manuel Ávila Camacho (Ponte Duro)","native":null,"lat":"15.80973000","lon":"-93.58933000"},{"id":71961,"name":"Manuel Lazos","native":null,"lat":"14.97159000","lon":"-92.18726000"},{"id":71977,"name":"Mapastepec","native":null,"lat":"15.43358000","lon":"-92.90039000"},{"id":71981,"name":"Maravilla Tenejapa","native":null,"lat":"16.20391000","lon":"-91.26093000"},{"id":71982,"name":"Maravillas","native":null,"lat":"17.09693000","lon":"-92.89107000"},{"id":71993,"name":"Mariano Matamoros","native":null,"lat":"16.48119000","lon":"-92.58472000"},{"id":71995,"name":"Mariscal Subikuski","native":null,"lat":"17.33250000","lon":"-92.38083000"},{"id":71998,"name":"Marqués de Comillas","native":null,"lat":"16.21471000","lon":"-90.75917000"},{"id":72000,"name":"Marte R. Gómez","native":null,"lat":"14.92653000","lon":"-92.44389000"},{"id":72023,"name":"Matzam","native":null,"lat":"16.78917000","lon":"-92.47694000"},{"id":72036,"name":"Mazapa","native":null,"lat":"15.38773000","lon":"-92.18780000"},{"id":72038,"name":"Mazapa de Madero","native":null,"lat":"15.36461000","lon":"-92.18762000"},{"id":72049,"name":"Mazatán","native":null,"lat":"14.86319000","lon":"-92.45030000"},{"id":72262,"name":"Mérida","native":null,"lat":"16.56750000","lon":"-93.81722000"},{"id":72087,"name":"Metapa","native":null,"lat":"14.83624000","lon":"-92.19186000"},{"id":72128,"name":"Miguel Hidalgo","native":null,"lat":"16.35060000","lon":"-92.62852000"},{"id":72135,"name":"Miguel Utrilla (Los Chorros)","native":null,"lat":"16.94278000","lon":"-92.47972000"},{"id":72158,"name":"Misija","native":null,"lat":"17.26611000","lon":"-92.38167000"},{"id":72161,"name":"Mitontic","native":null,"lat":"16.87540000","lon":"-92.57130000"},{"id":72163,"name":"Mitzitón","native":null,"lat":"16.64639000","lon":"-92.54333000"},{"id":72164,"name":"Mixcum","native":null,"lat":"15.02560000","lon":"-92.14080000"},{"id":72205,"name":"Monte Redondo","native":null,"lat":"15.65217000","lon":"-92.05045000"},{"id":72212,"name":"Montecristo","native":null,"lat":"15.69263000","lon":"-92.61999000"},{"id":72213,"name":"Montecristo de Guerrero","native":null,"lat":"15.67526000","lon":"-92.64399000"},{"id":72218,"name":"Monterrey","native":null,"lat":"16.06191000","lon":"-93.36928000"},{"id":72226,"name":"Morelia (Victórico Rodolfo Grajales)","native":null,"lat":"16.72306000","lon":"-91.96778000"},{"id":72241,"name":"Motozintla","native":null,"lat":"15.36694000","lon":"-92.24605000"},{"id":72246,"name":"Moyos","native":null,"lat":"17.35889000","lon":"-92.64134000"},{"id":72256,"name":"Muquén","native":null,"lat":"16.80641000","lon":"-92.61006000"},{"id":72265,"name":"Nachig","native":null,"lat":"16.73056000","lon":"-92.72528000"},{"id":72285,"name":"Narciso Mendoza","native":null,"lat":"16.57996000","lon":"-92.98911000"},{"id":72296,"name":"Navenchauc","native":null,"lat":"16.73501000","lon":"-92.77900000"},{"id":72323,"name":"Nicolás Bravo","native":null,"lat":"16.51058000","lon":"-92.99222000"},{"id":72328,"name":"Nicolás Ruiz","native":null,"lat":"16.43714000","lon":"-92.58522000"},{"id":72359,"name":"Nueva América","native":null,"lat":"15.92281000","lon":"-92.30587000"},{"id":72362,"name":"Nueva Colombia","native":null,"lat":"15.69670000","lon":"-92.72111000"},{"id":72364,"name":"Nueva Esperanza","native":null,"lat":"17.24746000","lon":"-92.45524000"},{"id":72366,"name":"Nueva Independencia","native":null,"lat":"15.78259000","lon":"-92.20883000"},{"id":72368,"name":"Nueva Libertad","native":null,"lat":"16.09038000","lon":"-92.80813000"},{"id":72369,"name":"Nueva Libertad (El Colorado)","native":null,"lat":"15.89861000","lon":"-92.05917000"},{"id":72370,"name":"Nueva Morelia","native":null,"lat":"15.61784000","lon":"-92.14517000"},{"id":72371,"name":"Nueva Palestina","native":null,"lat":"16.81722000","lon":"-91.26000000"},{"id":72375,"name":"Nueva Sesecapa","native":null,"lat":"15.40205000","lon":"-92.82239000"},{"id":72376,"name":"Nueva Tenochtitlán (Rizo de Oro)","native":null,"lat":"16.47639000","lon":"-94.08056000"},{"id":72378,"name":"Nuevo Amatenango","native":null,"lat":"15.50852000","lon":"-92.10958000"},{"id":72380,"name":"Nuevo Carmen Tonapac","native":null,"lat":"16.69667000","lon":"-92.95556000"},{"id":72385,"name":"Nuevo Francisco León","native":null,"lat":"17.03031000","lon":"-91.32216000"},{"id":72389,"name":"Nuevo Juan del Grijalva","native":null,"lat":"17.42722000","lon":"-93.37222000"},{"id":72391,"name":"Nuevo León","native":null,"lat":"16.48629000","lon":"-92.57140000"},{"id":72393,"name":"Nuevo Limar","native":null,"lat":"17.45514000","lon":"-92.39890000"},{"id":72398,"name":"Nuevo México","native":null,"lat":"16.46944000","lon":"-93.43806000"},{"id":72395,"name":"Nuevo Milenio Valdivia","native":null,"lat":"15.50306000","lon":"-92.94861000"},{"id":72399,"name":"Nuevo Naranjo","native":null,"lat":"17.15444000","lon":"-93.43333000"},{"id":72401,"name":"Nuevo Nicapa","native":null,"lat":"17.63464000","lon":"-93.07238000"},{"id":72402,"name":"Nuevo Pacayal","native":null,"lat":"15.66010000","lon":"-92.31538000"},{"id":72407,"name":"Nuevo Pumpuapa (Cereso)","native":null,"lat":"14.92562000","lon":"-92.36533000"},{"id":72409,"name":"Nuevo San Juan Chamula","native":null,"lat":"16.14426000","lon":"-91.44379000"},{"id":72413,"name":"Nuevo Sitalá","native":null,"lat":"17.13936000","lon":"-92.48287000"},{"id":72419,"name":"Nuevo Vicente Guerrero","native":null,"lat":"16.03860000","lon":"-92.97542000"},{"id":72420,"name":"Nuevo Vicente Guerrero (El Chichonal)","native":null,"lat":"16.48528000","lon":"-92.87139000"},{"id":72421,"name":"Nuevo Volcán Chichonal","native":null,"lat":"17.77263000","lon":"-93.10955000"},{"id":72423,"name":"Nuevo Xochimilco","native":null,"lat":"17.45442000","lon":"-93.36904000"},{"id":72447,"name":"Ochusjob","native":null,"lat":"16.22482000","lon":"-92.25201000"},{"id":72448,"name":"Ococh","native":null,"lat":"16.83806000","lon":"-92.47528000"},{"id":72450,"name":"Ocosingo","native":null,"lat":"16.90639000","lon":"-92.09374000"},{"id":72452,"name":"Ocotepec","native":null,"lat":"17.22620000","lon":"-93.16440000"},{"id":72464,"name":"Ocozocoautla de Espinosa","native":null,"lat":"16.76231000","lon":"-93.37476000"},{"id":72467,"name":"Octavio Paz","native":null,"lat":"14.85778000","lon":"-92.26389000"},{"id":72484,"name":"Ojo de Agua","native":null,"lat":"16.15773000","lon":"-91.75794000"},{"id":72508,"name":"Omoa","native":null,"lat":"14.83292000","lon":"-92.23279000"},{"id":72510,"name":"Once de Abril","native":null,"lat":"15.05199000","lon":"-92.14224000"},{"id":72534,"name":"Ostuacán","native":null,"lat":"17.40664000","lon":"-93.33643000"},{"id":72535,"name":"Osumacinta","native":null,"lat":"16.93611000","lon":"-93.09028000"},{"id":72546,"name":"Oxchuc","native":null,"lat":"16.78588000","lon":"-92.34455000"},{"id":72550,"name":"Oxinam","native":null,"lat":"16.86306000","lon":"-92.54917000"},{"id":72564,"name":"Pablo L. Sidar","native":null,"lat":"15.83053000","lon":"-92.27977000"},{"id":72571,"name":"Pacú","native":null,"lat":"16.63584000","lon":"-93.13437000"},{"id":72582,"name":"Palenque","native":null,"lat":"17.50953000","lon":"-91.98248000"},{"id":72625,"name":"Pantelhó","native":null,"lat":"17.00563000","lon":"-92.47165000"},{"id":72626,"name":"Pantepec","native":null,"lat":"17.18842000","lon":"-93.04998000"},{"id":72650,"name":"Paraíso del Grijalva","native":null,"lat":"16.22576000","lon":"-92.64318000"},{"id":72653,"name":"Paredón","native":null,"lat":"16.05083000","lon":"-93.86667000"},{"id":72680,"name":"Paso Hondo","native":null,"lat":"15.68390000","lon":"-92.01860000"},{"id":72704,"name":"Pasté","native":null,"lat":"16.70420000","lon":"-92.74111000"},{"id":72709,"name":"Patosil","native":null,"lat":"16.75210000","lon":"-92.74133000"},{"id":72712,"name":"Patria Nueva (San José el Contento)","native":null,"lat":"16.92778000","lon":"-92.11361000"},{"id":72714,"name":"Pavencul","native":null,"lat":"15.20249000","lon":"-92.17993000"},{"id":72736,"name":"Perla de Acapulco","native":null,"lat":"16.79570000","lon":"-91.47793000"},{"id":72742,"name":"Petalcingo","native":null,"lat":"17.22715000","lon":"-92.41511000"},{"id":72761,"name":"Pichucalco","native":null,"lat":"17.51000000","lon":"-93.11591000"},{"id":72766,"name":"Piedra Labrada","native":null,"lat":"15.68226000","lon":"-92.30538000"},{"id":72774,"name":"Pijijiapan","native":null,"lat":"15.68618000","lon":"-93.20938000"},{"id":72795,"name":"Plan de Agua Prieta","native":null,"lat":"16.13111000","lon":"-92.79139000"},{"id":72798,"name":"Plan de Ayala","native":null,"lat":"16.47152000","lon":"-92.02735000"},{"id":72846,"name":"Pomposo Castellanos","native":null,"lat":"16.59033000","lon":"-93.86688000"},{"id":72861,"name":"Potrerillo","native":null,"lat":"15.63096000","lon":"-92.02059000"},{"id":72891,"name":"Presidente Echeverría (Laja Tendida)","native":null,"lat":"16.33583000","lon":"-92.66861000"},{"id":72895,"name":"Primer Cantón","native":null,"lat":"15.12056000","lon":"-92.44000000"},{"id":72907,"name":"Profresor Roberto Barrios","native":null,"lat":"17.32583000","lon":"-91.92639000"},{"id":72927,"name":"Puebla","native":null,"lat":"16.91583000","lon":"-92.50389000"},{"id":72938,"name":"Pueblo Nuevo","native":null,"lat":"17.16027000","lon":"-92.89977000"},{"id":72971,"name":"Puerto Madero","native":null,"lat":"14.72076000","lon":"-92.42146000"},{"id":72983,"name":"Pugchén Mumuntic","native":null,"lat":"16.86389000","lon":"-92.82361000"},{"id":72986,"name":"Punta Arena","native":null,"lat":"17.74601000","lon":"-92.05871000"},{"id":73024,"name":"Querétaro","native":null,"lat":"15.83752000","lon":"-92.75774000"},{"id":73036,"name":"Quintana Roo","native":null,"lat":"16.60667000","lon":"-93.56194000"},{"id":73046,"name":"Rafael Pascacio Gamboa","native":null,"lat":"17.91818000","lon":"-93.26833000"},{"id":73047,"name":"Rafael Ramírez","native":null,"lat":"16.46199000","lon":"-91.94523000"},{"id":73052,"name":"Ramón F. Balboa","native":null,"lat":"16.47427000","lon":"-91.40318000"},{"id":73082,"name":"Raudales Malpaso","native":null,"lat":"17.18833000","lon":"-93.60583000"},{"id":73084,"name":"Raymundo Enríquez","native":null,"lat":"14.86722000","lon":"-92.31466000"},{"id":73087,"name":"Rayón","native":null,"lat":"17.20137000","lon":"-93.01110000"},{"id":73094,"name":"Reforma","native":null,"lat":"17.86876000","lon":"-93.22673000"},{"id":73096,"name":"Reforma y Planada","native":null,"lat":"17.38694000","lon":"-92.86583000"},{"id":73100,"name":"Revolución Mexicana","native":null,"lat":"16.17156000","lon":"-93.07666000"},{"id":73106,"name":"Ricardo Flores Magón","native":null,"lat":"16.39397000","lon":"-92.69618000"},{"id":73118,"name":"Rincón Chamula","native":null,"lat":"17.20718000","lon":"-92.93912000"},{"id":73168,"name":"Río Blanco","native":null,"lat":"16.20501000","lon":"-91.63429000"},{"id":73171,"name":"Río Chancalá","native":null,"lat":"17.33454000","lon":"-91.68430000"},{"id":73178,"name":"Río Jordán","native":null,"lat":"17.24611000","lon":"-91.93306000"},{"id":73143,"name":"Rizo de Oro","native":null,"lat":"15.97088000","lon":"-92.48316000"},{"id":73145,"name":"Roblada Grande","native":null,"lat":"16.48909000","lon":"-93.19499000"},{"id":73151,"name":"Rodulfo Figueroa","native":null,"lat":"15.92006000","lon":"-91.90370000"},{"id":73153,"name":"Romerillo","native":null,"lat":"16.76528000","lon":"-92.56750000"},{"id":73192,"name":"Sabanilla","native":null,"lat":"17.30308000","lon":"-92.58368000"},{"id":73195,"name":"Sabinalito","native":null,"lat":"15.70186000","lon":"-91.98636000"},{"id":73198,"name":"Saclamantón","native":null,"lat":"16.78833000","lon":"-92.63500000"},{"id":73225,"name":"Saltillo","native":null,"lat":"16.39359000","lon":"-91.94890000"},{"id":73227,"name":"Salto de Agua","native":null,"lat":"17.55435000","lon":"-92.33941000"},{"id":73230,"name":"Salvador Urbina","native":null,"lat":"15.03535000","lon":"-92.20805000"},{"id":73278,"name":"San Andrés Duraznal","native":null,"lat":"17.15653000","lon":"-92.79606000"},{"id":73325,"name":"San Antonio Buenavista","native":null,"lat":"16.15234000","lon":"-91.65020000"},{"id":73326,"name":"San Antonio Bulujib","native":null,"lat":"16.99667000","lon":"-92.29667000"},{"id":73380,"name":"San Antonio del Monte","native":null,"lat":"16.76028000","lon":"-92.65306000"},{"id":73455,"name":"San Caralampio","native":null,"lat":"15.82935000","lon":"-92.03555000"},{"id":73466,"name":"San Cayetano","native":null,"lat":"16.96119000","lon":"-92.76016000"},{"id":73483,"name":"San Cristóbal de las Casas","native":null,"lat":"16.73176000","lon":"-92.64126000"},{"id":73526,"name":"San Felipe Tizapa","native":null,"lat":"15.27616000","lon":"-92.61300000"},{"id":73535,"name":"San Fernando","native":null,"lat":"16.87153000","lon":"-93.20759000"},{"id":73547,"name":"San Francisco (El Calvito)","native":null,"lat":"16.32167000","lon":"-92.56194000"},{"id":73569,"name":"San Francisco Jaconá","native":null,"lat":"17.26278000","lon":"-93.03250000"},{"id":73588,"name":"San Francisco Pujiltic","native":null,"lat":"16.27922000","lon":"-92.45319000"},{"id":73665,"name":"San Isidro","native":null,"lat":"15.74373000","lon":"-93.35276000"},{"id":73691,"name":"San Isidro las Banderas","native":null,"lat":"17.23028000","lon":"-93.06028000"},{"id":73720,"name":"San Jerónimo Tulijá","native":null,"lat":"17.22361000","lon":"-91.78972000"},{"id":73756,"name":"San José Chapayal","native":null,"lat":"17.30056000","lon":"-92.89028000"},{"id":73855,"name":"San José las Chicharras","native":null,"lat":"15.64363000","lon":"-92.20659000"},{"id":73803,"name":"San José Yashitinín","native":null,"lat":"16.65472000","lon":"-92.44500000"},{"id":73804,"name":"San José Yocnajab","native":null,"lat":"16.25383000","lon":"-92.08698000"},{"id":74021,"name":"San Lucas","native":null,"lat":"16.61167000","lon":"-92.71806000"},{"id":74061,"name":"San Luqueño","native":null,"lat":"16.01278000","lon":"-93.84583000"},{"id":74150,"name":"San Miguel","native":null,"lat":"17.36324000","lon":"-92.00762000"},{"id":74242,"name":"San Miguel la Sardina","native":null,"lat":"17.29417000","lon":"-93.35250000"},{"id":74290,"name":"San Pablo Huacano","native":null,"lat":"17.19583000","lon":"-93.20750000"},{"id":74321,"name":"San Pedro Buenavista","native":null,"lat":"16.08333000","lon":"-93.11667000"},{"id":74362,"name":"San Pedro Nichtalucum","native":null,"lat":"17.03444000","lon":"-92.72694000"},{"id":74420,"name":"San Quintín","native":null,"lat":"16.40672000","lon":"-91.34575000"},{"id":74510,"name":"San Vicente la Mesilla","native":null,"lat":"16.17861000","lon":"-92.29333000"},{"id":74653,"name":"Santa Elena","native":null,"lat":"16.89267000","lon":"-91.58987000"},{"id":74704,"name":"Santa María","native":null,"lat":"17.35230000","lon":"-92.07679000"},{"id":74829,"name":"Santa Rita","native":null,"lat":"16.13167000","lon":"-91.97500000"},{"id":74989,"name":"Santiago el Pinar","native":null,"lat":"16.94838000","lon":"-92.72074000"},{"id":74936,"name":"Santiago Pojcol","native":null,"lat":"16.99148000","lon":"-91.98071000"},{"id":74993,"name":"Santo Domingo","native":null,"lat":"15.03067000","lon":"-92.10361000"},{"id":75019,"name":"Santo Domingo de las Palmas","native":null,"lat":"16.13667000","lon":"-91.32194000"},{"id":75068,"name":"Señor del Pozo","native":null,"lat":"16.29625000","lon":"-92.11165000"},{"id":75069,"name":"Shoctic","native":null,"lat":"17.22361000","lon":"-92.48806000"},{"id":75070,"name":"Sibacá","native":null,"lat":"16.93093000","lon":"-92.14006000"},{"id":75071,"name":"Sibaniljá Pocolum","native":null,"lat":"16.87639000","lon":"-92.46111000"},{"id":75081,"name":"Siltepec","native":null,"lat":"15.55717000","lon":"-92.32314000"},{"id":75084,"name":"Simojovel","native":null,"lat":"17.14736000","lon":"-92.67154000"},{"id":75085,"name":"Simojovel de Allende","native":null,"lat":"17.14036000","lon":"-92.71394000"},{"id":75089,"name":"Sinaloa","native":null,"lat":"15.89261000","lon":"-92.12896000"},{"id":75099,"name":"Sitalá","native":null,"lat":"17.02417000","lon":"-92.30694000"},{"id":75107,"name":"Socoltenango","native":null,"lat":"16.17412000","lon":"-92.36658000"},{"id":75109,"name":"Soconusco","native":null,"lat":"15.31502000","lon":"-92.72645000"},{"id":75119,"name":"Solosuchiapa","native":null,"lat":"17.39364000","lon":"-93.01301000"},{"id":75129,"name":"Soyaló","native":null,"lat":"16.91352000","lon":"-92.96579000"},{"id":75133,"name":"Soyatitán","native":null,"lat":"16.29427000","lon":"-92.42402000"},{"id":75138,"name":"Suchiapa","native":null,"lat":"16.60775000","lon":"-93.10003000"},{"id":75139,"name":"Suchiate","native":null,"lat":"14.64138000","lon":"-92.22252000"},{"id":75161,"name":"Tacuba Nueva","native":null,"lat":"17.09028000","lon":"-92.37028000"},{"id":75172,"name":"Talismán","native":null,"lat":"14.96333000","lon":"-92.14722000"},{"id":75176,"name":"Tamaulipas","native":null,"lat":"15.77189000","lon":"-93.40718000"},{"id":75214,"name":"Taniperla","native":null,"lat":"16.82222000","lon":"-91.52333000"},{"id":75221,"name":"Tapachula","native":null,"lat":"14.90385000","lon":"-92.25749000"},{"id":75222,"name":"Tapalapa","native":null,"lat":"17.22618000","lon":"-93.11552000"},{"id":75227,"name":"Tapilula","native":null,"lat":"17.25355000","lon":"-93.00933000"},{"id":75288,"name":"Tecpatán","native":null,"lat":"17.13676000","lon":"-93.31133000"},{"id":75352,"name":"Tenango","native":null,"lat":"16.96667000","lon":"-92.41667000"},{"id":75371,"name":"Tentic","native":null,"lat":"16.86333000","lon":"-92.68222000"},{"id":75381,"name":"Teopisca","native":null,"lat":"16.54182000","lon":"-92.47405000"},{"id":75506,"name":"Texcaltic","native":null,"lat":"14.79550000","lon":"-92.18737000"},{"id":75556,"name":"Tierra y Libertad","native":null,"lat":"16.37889000","lon":"-93.86056000"},{"id":75565,"name":"Tila","native":null,"lat":"17.30054000","lon":"-92.42730000"},{"id":75569,"name":"Tiltepec","native":null,"lat":"16.39389000","lon":"-93.86972000"},{"id":75574,"name":"Tinajas 1ra. Sección","native":null,"lat":"14.71750000","lon":"-92.32861000"},{"id":75715,"name":"Tocob Leglemal","native":null,"lat":"17.23389000","lon":"-92.37833000"},{"id":75738,"name":"Tonalá","native":null,"lat":"16.08977000","lon":"-93.75489000"},{"id":75750,"name":"Totolapa","native":null,"lat":"16.54357000","lon":"-92.68019000"},{"id":75771,"name":"Tres Cerros","native":null,"lat":"16.91556000","lon":"-92.47278000"},{"id":75777,"name":"Tres Picos","native":null,"lat":"15.88209000","lon":"-93.52867000"},{"id":75805,"name":"Tumbala","native":null,"lat":"17.27746000","lon":"-92.31700000"},{"id":75825,"name":"Tuxtla","native":null,"lat":"16.75973000","lon":"-93.11308000"},{"id":75827,"name":"Tuxtla Chico","native":null,"lat":"14.93945000","lon":"-92.16730000"},{"id":75831,"name":"Tuzantán","native":null,"lat":"15.14711000","lon":"-92.42237000"},{"id":75833,"name":"Tz'Aquiviljok","native":null,"lat":"16.85528000","lon":"-92.45972000"},{"id":75835,"name":"Tzajalá","native":null,"lat":"17.13559000","lon":"-92.39328000"},{"id":75834,"name":"Tzajalchén","native":null,"lat":"16.84165000","lon":"-92.46014000"},{"id":75836,"name":"Tzeltal","native":null,"lat":"16.93944000","lon":"-92.47778000"},{"id":75840,"name":"Tzimol","native":null,"lat":"16.18356000","lon":"-92.18934000"},{"id":75842,"name":"Tzinil","native":null,"lat":"16.25778000","lon":"-92.32222000"},{"id":75848,"name":"Tziscao","native":null,"lat":"16.08155000","lon":"-91.66641000"},{"id":75850,"name":"Tzoeptic","native":null,"lat":"16.88278000","lon":"-92.56806000"},{"id":75852,"name":"Tzontehuitz","native":null,"lat":"16.83314000","lon":"-92.57965000"},{"id":75853,"name":"Tzopilja","native":null,"lat":"16.73972000","lon":"-92.30917000"},{"id":75860,"name":"Ubilio García","native":null,"lat":"17.08405000","lon":"-91.47241000"},{"id":75881,"name":"Unión Buena Vista","native":null,"lat":"16.48582000","lon":"-92.81823000"},{"id":75882,"name":"Unión Buenavista","native":null,"lat":"15.79527000","lon":"-92.54417000"},{"id":75885,"name":"Unión Juárez","native":null,"lat":"17.28083000","lon":"-92.39972000"},{"id":75886,"name":"Unión Roja","native":null,"lat":"15.04658000","lon":"-92.21653000"},{"id":75901,"name":"Usipa","native":null,"lat":"17.50028000","lon":"-92.43806000"},{"id":75940,"name":"Vega del Rosario","native":null,"lat":"15.52083000","lon":"-92.30720000"},{"id":75943,"name":"Veinte de Noviembre","native":null,"lat":"14.97730000","lon":"-92.26509000"},{"id":75963,"name":"Venustiano Carranza","native":null,"lat":"16.32314000","lon":"-92.55844000"},{"id":75966,"name":"Veracruz","native":null,"lat":"16.40417000","lon":"-91.99944000"},{"id":75967,"name":"Verapaz","native":null,"lat":"15.71166000","lon":"-92.06199000"},{"id":75973,"name":"Vicente Guerrero","native":null,"lat":"16.66028000","lon":"-93.58306000"},{"id":75986,"name":"Vida Mejor I","native":null,"lat":"14.86972000","lon":"-92.30778000"},{"id":75995,"name":"Villa Comaltitlán","native":null,"lat":"15.18645000","lon":"-92.59053000"},{"id":75996,"name":"Villa Corzo","native":null,"lat":"16.18510000","lon":"-93.26881000"},{"id":76010,"name":"Villa Hidalgo","native":null,"lat":"16.30457000","lon":"-93.15466000"},{"id":76077,"name":"Villaflores","native":null,"lat":"16.34149000","lon":"-93.33191000"},{"id":76081,"name":"Villahermosa Yaluma","native":null,"lat":"16.33366000","lon":"-92.07771000"},{"id":76084,"name":"Villamorelos","native":null,"lat":"16.48000000","lon":"-93.92778000"},{"id":76100,"name":"Viva Cárdenas","native":null,"lat":"16.83570000","lon":"-93.19333000"},{"id":76101,"name":"Viva México","native":null,"lat":"14.91008000","lon":"-92.32609000"},{"id":76163,"name":"Xochiltepec","native":null,"lat":"15.12780000","lon":"-92.43388000"},{"id":76211,"name":"Yajalón","native":null,"lat":"17.18519000","lon":"-92.32715000"},{"id":76214,"name":"Yaltem","native":null,"lat":"16.84402000","lon":"-92.79057000"},{"id":76217,"name":"Yasha","native":null,"lat":"16.39141000","lon":"-92.06878000"},{"id":76218,"name":"Yashanal","native":null,"lat":"16.82889000","lon":"-92.45194000"},{"id":76238,"name":"Yibeljoj","native":null,"lat":"16.95750000","lon":"-92.50361000"},{"id":76244,"name":"Yoshib","native":null,"lat":"16.84528000","lon":"-92.44611000"},{"id":76278,"name":"Zacatonal de Juárez","native":null,"lat":"17.27097000","lon":"-92.79936000"},{"id":76282,"name":"Zacualpa","native":null,"lat":"15.16820000","lon":"-92.62705000"},{"id":76295,"name":"Zamora Pico de Oro","native":null,"lat":"16.33205000","lon":"-90.76560000"},{"id":76317,"name":"Zaragoza","native":null,"lat":"17.00906000","lon":"-91.64033000"},{"id":76323,"name":"Zaragoza la Montaña","native":null,"lat":"16.41653000","lon":"-92.20512000"},{"id":76331,"name":"Zequentic","native":null,"lat":"16.71694000","lon":"-92.82667000"},{"id":76340,"name":"Zinacantán","native":null,"lat":"16.76020000","lon":"-92.72257000"}]},{"id":3447,"name":"Chihuahua","native":null,"cities":[{"id":68018,"name":"Abdenago C. García","native":null,"lat":"29.98937000","lon":"-107.55210000"},{"id":68091,"name":"Adolfo López Mateos","native":null,"lat":"28.46667000","lon":"-107.30000000"},{"id":68162,"name":"Ahumada","native":null,"lat":"30.48174000","lon":"-106.48832000"},{"id":68187,"name":"Aldama","native":null,"lat":"28.93636000","lon":"-105.71098000"},{"id":68208,"name":"Allende","native":null,"lat":"27.07787000","lon":"-105.28789000"},{"id":68259,"name":"Ampliación Colonia Lázaro Cárdenas","native":null,"lat":"28.38333000","lon":"-105.61667000"},{"id":68286,"name":"Anáhuac","native":null,"lat":"28.48396000","lon":"-106.74720000"},{"id":68323,"name":"Aquiles Serdán","native":null,"lat":"28.58454000","lon":"-105.88108000"},{"id":68379,"name":"Ascensión","native":null,"lat":"31.27914000","lon":"-107.73149000"},{"id":68477,"name":"Baborigame","native":null,"lat":"26.42962000","lon":"-107.26857000"},{"id":68491,"name":"Bachíniva","native":null,"lat":"28.76801000","lon":"-107.25559000"},{"id":68497,"name":"Bahuichivo","native":null,"lat":"27.40950000","lon":"-108.06740000"},{"id":68508,"name":"Balleza","native":null,"lat":"26.95154000","lon":"-106.34921000"},{"id":68563,"name":"Basaseachic","native":null,"lat":"28.20626000","lon":"-108.21270000"},{"id":68565,"name":"Basúchil","native":null,"lat":"28.52479000","lon":"-107.40172000"},{"id":68566,"name":"Batopilas","native":null,"lat":"27.02846000","lon":"-107.74125000"},{"id":68598,"name":"Benito Juárez","native":null,"lat":"29.74624000","lon":"-107.93966000"},{"id":68627,"name":"Bocoyna","native":null,"lat":"27.84133000","lon":"-107.58918000"},{"id":68638,"name":"Boquilla de Babisas (La Boquilla de Conchos)","native":null,"lat":"27.54861000","lon":"-105.40361000"},{"id":68667,"name":"Buenaventura","native":null,"lat":"30.02116000","lon":"-107.19308000"},{"id":68758,"name":"Camargo","native":null,"lat":"27.82905000","lon":"-104.78012000"},{"id":68822,"name":"Carichí","native":null,"lat":"27.74601000","lon":"-107.07795000"},{"id":68834,"name":"Carretas","native":null,"lat":"28.24920000","lon":"-106.51062000"},{"id":68853,"name":"Casas Grandes","native":null,"lat":"30.38269000","lon":"-107.95628000"},{"id":68907,"name":"Cerocahui","native":null,"lat":"27.29906000","lon":"-108.05500000"},{"id":69056,"name":"Chihuahua","native":null,"lat":"28.82669000","lon":"-106.19876000"},{"id":69126,"name":"Chínipas","native":null,"lat":"27.39502000","lon":"-108.53730000"},{"id":69154,"name":"Ciudad Delicias","native":null,"lat":"28.19013000","lon":"-105.47012000"},{"id":69270,"name":"Colonia Abraham González (La Quemada)","native":null,"lat":"28.20667000","lon":"-105.40750000"},{"id":69286,"name":"Colonia Campesina","native":null,"lat":"28.14028000","lon":"-105.52667000"},{"id":69300,"name":"Colonia Felipe Ángeles","native":null,"lat":"28.38550000","lon":"-105.51184000"},{"id":69338,"name":"Colonia Nicolás Bravo (Kilómetro Noventa y Dos)","native":null,"lat":"28.09222000","lon":"-105.52778000"},{"id":69356,"name":"Colonia Revolución","native":null,"lat":"28.24167000","lon":"-105.44361000"},{"id":69371,"name":"Colonia Terrazas","native":null,"lat":"28.23795000","lon":"-105.46527000"},{"id":69443,"name":"Conchos","native":null,"lat":"27.58745000","lon":"-105.33358000"},{"id":69452,"name":"Congregación Ortíz","native":null,"lat":"28.25375000","lon":"-105.51922000"},{"id":69515,"name":"Coyame","native":null,"lat":"29.46141000","lon":"-105.09404000"},{"id":69516,"name":"Coyame del Sotol","native":null,"lat":"29.68793000","lon":"-105.13855000"},{"id":69532,"name":"Creel","native":null,"lat":"27.75054000","lon":"-107.63520000"},{"id":69583,"name":"Cuauhtémoc","native":null,"lat":"28.40884000","lon":"-106.86319000"},{"id":69648,"name":"Cusihuiriachi","native":null,"lat":"28.23980000","lon":"-106.83477000"},{"id":69676,"name":"Delicias","native":null,"lat":"28.16948000","lon":"-105.44913000"},{"id":69729,"name":"Dr. Belisario Domínguez","native":null,"lat":"27.98462000","lon":"-106.45234000"},{"id":69758,"name":"Ejido Benito Juárez","native":null,"lat":"30.14937000","lon":"-106.88362000"},{"id":69763,"name":"Ejido El Largo","native":null,"lat":"29.68333000","lon":"-108.26667000"},{"id":69764,"name":"Ejido El Vergel","native":null,"lat":"26.47133000","lon":"-106.38320000"},{"id":69771,"name":"Ejido La Quemada","native":null,"lat":"28.84761000","lon":"-107.02152000"},{"id":70045,"name":"El Molino","native":null,"lat":"28.16608000","lon":"-105.53783000"},{"id":70074,"name":"El Oro","native":null,"lat":"26.86320000","lon":"-105.84838000"},{"id":70200,"name":"El Sauz","native":null,"lat":"29.05056000","lon":"-106.25280000"},{"id":70224,"name":"El Terrero","native":null,"lat":"29.18152000","lon":"-107.38740000"},{"id":70242,"name":"El Tule","native":null,"lat":"27.07325000","lon":"-106.31735000"},{"id":70338,"name":"Estación Conchos","native":null,"lat":"27.97326000","lon":"-105.28843000"},{"id":70339,"name":"Estación Consuelo","native":null,"lat":"28.33118000","lon":"-105.59471000"},{"id":70511,"name":"Galeana","native":null,"lat":"30.10916000","lon":"-107.63167000"},{"id":70645,"name":"Gómez Farías","native":null,"lat":"29.35981000","lon":"-107.73960000"},{"id":70560,"name":"Gran Morelos","native":null,"lat":"28.24841000","lon":"-106.49357000"},{"id":70568,"name":"Guachochi","native":null,"lat":"27.17004000","lon":"-107.29404000"},{"id":70575,"name":"Guadalupe","native":null,"lat":"30.82737000","lon":"-105.64057000"},{"id":70602,"name":"Guadalupe Victoria","native":null,"lat":"31.53396000","lon":"-107.73835000"},{"id":70613,"name":"Guadalupe y Calvo","native":null,"lat":"26.09117000","lon":"-106.96260000"},{"id":70628,"name":"Guazapares","native":null,"lat":"27.44005000","lon":"-108.23338000"},{"id":70631,"name":"Guerrero","native":null,"lat":"28.42888000","lon":"-107.50377000"},{"id":70689,"name":"Hidalgo del Parral","native":null,"lat":"27.07964000","lon":"-105.70722000"},{"id":70765,"name":"Huejotitán","native":null,"lat":"27.05623000","lon":"-106.17819000"},{"id":70852,"name":"Ignacio Zaragoza","native":null,"lat":"29.64248000","lon":"-107.76375000"},{"id":70870,"name":"Independencia","native":null,"lat":"29.09231000","lon":"-107.54322000"},{"id":71002,"name":"Janos","native":null,"lat":"30.88909000","lon":"-108.19431000"},{"id":71049,"name":"Jiménez","native":null,"lat":"28.33333000","lon":"-105.40000000"},{"id":71090,"name":"José Esteban Coronado","native":null,"lat":"26.73722000","lon":"-105.15833000"},{"id":71094,"name":"José Mariano Jiménez","native":null,"lat":"27.13076000","lon":"-104.92391000"},{"id":71146,"name":"Juárez","native":null,"lat":"31.72024000","lon":"-106.46084000"},{"id":71135,"name":"Julimes","native":null,"lat":"28.42376000","lon":"-105.42727000"},{"id":71159,"name":"Kilómetro Noventa y Nueve","native":null,"lat":"28.12668000","lon":"-105.58018000"},{"id":71244,"name":"La Constitución","native":null,"lat":"29.92077000","lon":"-106.79620000"},{"id":71249,"name":"La Cruz","native":null,"lat":"27.86359000","lon":"-105.19596000"},{"id":71336,"name":"La Junta","native":null,"lat":"28.48003000","lon":"-107.32948000"},{"id":71594,"name":"Las Cruces","native":null,"lat":"29.43278000","lon":"-107.38958000"},{"id":71649,"name":"Las Varas","native":null,"lat":"28.15659000","lon":"-105.34058000"},{"id":71650,"name":"Las Varas (Estación Babícora)","native":null,"lat":"29.48083000","lon":"-108.02556000"},{"id":71654,"name":"Las Yerbitas [Aserradero]","native":null,"lat":"26.08025000","lon":"-106.77969000"},{"id":71890,"name":"Lázaro Cárdenas","native":null,"lat":"28.39051000","lon":"-105.62346000"},{"id":71712,"name":"Loma Blanca","native":null,"lat":"31.57996000","lon":"-106.29604000"},{"id":71917,"name":"Madera","native":null,"lat":"29.19366000","lon":"-108.14684000"},{"id":71937,"name":"Maguarichi","native":null,"lat":"27.81655000","lon":"-107.96866000"},{"id":71958,"name":"Manuel Benavides","native":null,"lat":"28.94431000","lon":"-103.91889000"},{"id":71964,"name":"Manuel Ojinaga","native":null,"lat":"29.56444000","lon":"-104.41639000"},{"id":71990,"name":"Mariano Balleza","native":null,"lat":"26.95389000","lon":"-106.34611000"},{"id":72015,"name":"Matachí","native":null,"lat":"28.84287000","lon":"-107.75503000"},{"id":72017,"name":"Matamoros","native":null,"lat":"26.76209000","lon":"-105.58523000"},{"id":72075,"name":"Meoqui","native":null,"lat":"28.27226000","lon":"-105.48046000"},{"id":72081,"name":"Mesa del Huracán","native":null,"lat":"29.67045000","lon":"-108.25182000"},{"id":72122,"name":"Miguel Ahumada","native":null,"lat":"30.61861000","lon":"-106.51222000"},{"id":72132,"name":"Miguel Hidalgo","native":null,"lat":"28.15361000","lon":"-105.39389000"},{"id":72207,"name":"Monte Verde","native":null,"lat":"30.91401000","lon":"-108.71573000"},{"id":72229,"name":"Morelos","native":null,"lat":"26.67289000","lon":"-107.67665000"},{"id":72236,"name":"Moris","native":null,"lat":"28.14888000","lon":"-108.52325000"},{"id":72272,"name":"Naica","native":null,"lat":"27.85736000","lon":"-105.49233000"},{"id":72273,"name":"Namiquipa","native":null,"lat":"29.25173000","lon":"-107.41400000"},{"id":72317,"name":"Nicolas Bravo","native":null,"lat":"29.35306000","lon":"-107.93440000"},{"id":72334,"name":"Ninguno [CERESO]","native":null,"lat":"28.60972000","lon":"-105.94028000"},{"id":72344,"name":"Nonoava","native":null,"lat":"27.43854000","lon":"-106.73285000"},{"id":72381,"name":"Nuevo Casas Grandes","native":null,"lat":"30.41552000","lon":"-107.91166000"},{"id":72440,"name":"Ocampo","native":null,"lat":"28.19367000","lon":"-108.36760000"},{"id":72466,"name":"Octaviano López","native":null,"lat":"27.00250000","lon":"-105.03306000"},{"id":72479,"name":"Ojinaga","native":null,"lat":"29.31371000","lon":"-104.44840000"},{"id":72530,"name":"Orranteño","native":null,"lat":"28.18272000","lon":"-105.33774000"},{"id":72532,"name":"Oscar Soto Maynez","native":null,"lat":"29.02963000","lon":"-107.47242000"},{"id":72660,"name":"Parral","native":null,"lat":"26.93022000","lon":"-105.66640000"},{"id":72748,"name":"Peña Blanca","native":null,"lat":"29.28984000","lon":"-107.71130000"},{"id":72858,"name":"Porvenir","native":null,"lat":"31.24038000","lon":"-105.87664000"},{"id":72884,"name":"Praxedis G. Guerrero","native":null,"lat":"31.37061000","lon":"-106.00616000"},{"id":72886,"name":"Praxédis Guerrero","native":null,"lat":"31.36667000","lon":"-106.01667000"},{"id":72929,"name":"Pueblito de Allende","native":null,"lat":"26.99065000","lon":"-105.32686000"},{"id":72972,"name":"Puerto Palomas","native":null,"lat":"31.77718000","lon":"-107.63439000"},{"id":73142,"name":"Riva Palacio","native":null,"lat":"28.81462000","lon":"-106.64990000"},{"id":73149,"name":"Rodrígo M. Quevedo","native":null,"lat":"29.91982000","lon":"-107.52079000"},{"id":73159,"name":"Rosales","native":null,"lat":"28.18753000","lon":"-105.55717000"},{"id":73163,"name":"Rosario","native":null,"lat":"27.25616000","lon":"-106.29878000"},{"id":73232,"name":"Samachique","native":null,"lat":"27.30156000","lon":"-107.53897000"},{"id":73234,"name":"Samalayuca","native":null,"lat":"31.34242000","lon":"-106.47981000"},{"id":73239,"name":"San Agustín","native":null,"lat":"31.51674000","lon":"-106.25548000"},{"id":73266,"name":"San Andrés","native":null,"lat":"28.54726000","lon":"-106.50350000"},{"id":73451,"name":"San Buenaventura","native":null,"lat":"29.84320000","lon":"-107.46067000"},{"id":73460,"name":"San Carlos","native":null,"lat":"29.10665000","lon":"-103.90722000"},{"id":73609,"name":"San Francisco de Borja","native":null,"lat":"27.90171000","lon":"-106.68562000"},{"id":73610,"name":"San Francisco de Conchos","native":null,"lat":"27.57356000","lon":"-105.37779000"},{"id":73620,"name":"San Francisco del Oro","native":null,"lat":"26.89417000","lon":"-105.90594000"},{"id":73667,"name":"San Isidro","native":null,"lat":"31.54683000","lon":"-106.27868000"},{"id":73982,"name":"San Juanito","native":null,"lat":"27.97295000","lon":"-107.60199000"},{"id":73992,"name":"San Lorenzo","native":null,"lat":"28.15352000","lon":"-106.47695000"},{"id":74425,"name":"San Rafael","native":null,"lat":"27.49750000","lon":"-107.89099000"},{"id":74565,"name":"Santa Bárbara","native":null,"lat":"26.80381000","lon":"-105.82024000"},{"id":74657,"name":"Santa Eulalia","native":null,"lat":"28.59450000","lon":"-105.88796000"},{"id":74674,"name":"Santa Isabel","native":null,"lat":"28.34166000","lon":"-106.37220000"},{"id":75044,"name":"Saucillo","native":null,"lat":"28.03055000","lon":"-105.29376000"},{"id":75098,"name":"Sisoguichi","native":null,"lat":"27.78304000","lon":"-107.49517000"},{"id":75856,"name":"Témoris","native":null,"lat":"27.27569000","lon":"-108.27946000"},{"id":75344,"name":"Temósachic","native":null,"lat":"28.95469000","lon":"-107.82957000"},{"id":75730,"name":"Tomochic","native":null,"lat":"28.35273000","lon":"-107.84576000"},{"id":75816,"name":"Turuachi","native":null,"lat":"26.13139000","lon":"-106.70417000"},{"id":75894,"name":"Urique","native":null,"lat":"27.21122000","lon":"-107.91415000"},{"id":75897,"name":"Uruachi","native":null,"lat":"27.84669000","lon":"-108.36712000"},{"id":75910,"name":"Valentín Gómez Farías","native":null,"lat":"28.21667000","lon":"-106.58333000"},{"id":75919,"name":"Valle de Allende","native":null,"lat":"26.93527000","lon":"-105.39271000"},{"id":75927,"name":"Valle de Zaragoza","native":null,"lat":"27.45066000","lon":"-105.80847000"},{"id":75928,"name":"Valle del Rosario","native":null,"lat":"27.31881000","lon":"-106.29551000"},{"id":76252,"name":"Yécora","native":null,"lat":"28.37154000","lon":"-108.92781000"}]},{"id":3473,"name":"Ciudad de México","native":null,"cities":[{"id":76401,"name":"Álvaro Obregón","native":null,"lat":"19.37496000","lon":"-99.21976000"},{"id":68472,"name":"Azcapotzalco","native":null,"lat":"19.48698000","lon":"-99.18594000"},{"id":68588,"name":"Benito Juarez","native":null,"lat":"19.39840000","lon":"-99.15766000"},{"id":72102,"name":"Ciudad de México","native":null,"lat":"19.42847000","lon":"-99.12766000"},{"id":69255,"name":"Col. Bosques de las Lomas","native":null,"lat":"19.37893000","lon":"-99.26587000"},{"id":69383,"name":"Colonia del Valle","native":null,"lat":"19.38611000","lon":"-99.16204000"},{"id":69337,"name":"Colonia Nativitas","native":null,"lat":"19.38119000","lon":"-99.13685000"},{"id":69517,"name":"Coyoacán","native":null,"lat":"19.34670000","lon":"-99.16174000"},{"id":69581,"name":"Cuauhtémoc","native":null,"lat":"19.44506000","lon":"-99.14612000"},{"id":69672,"name":"Delegación Cuajimalpa de Morelos","native":null,"lat":"19.36920000","lon":"-99.29089000"},{"id":70638,"name":"Gustavo A. Madero","native":null,"lat":"19.48407000","lon":"-99.11144000"},{"id":70639,"name":"Gustavo Adolfo Madero","native":null,"lat":"19.49392000","lon":"-99.11075000"},{"id":70950,"name":"Iztacalco","native":null,"lat":"19.39528000","lon":"-99.09778000"},{"id":70952,"name":"Iztapalapa","native":null,"lat":"19.35529000","lon":"-99.06224000"},{"id":71756,"name":"Lomas de Tepemecatl","native":null,"lat":"19.23861000","lon":"-99.23944000"},{"id":71923,"name":"Magdalena Contreras","native":null,"lat":"19.33212000","lon":"-99.21118000"},{"id":72130,"name":"Miguel Hidalgo","native":null,"lat":"19.43411000","lon":"-99.20024000"},{"id":72138,"name":"Milpa Alta","native":null,"lat":"19.19251000","lon":"-99.02317000"},{"id":72836,"name":"Polanco","native":null,"lat":"19.43332000","lon":"-99.19919000"},{"id":73286,"name":"San Andrés Mixquic","native":null,"lat":"19.22512000","lon":"-98.96408000"},{"id":73352,"name":"San Antonio Tecómitl","native":null,"lat":"19.21778000","lon":"-98.98806000"},{"id":73416,"name":"San Bartolome Xicomulco","native":null,"lat":"19.20607000","lon":"-99.06820000"},{"id":73592,"name":"San Francisco Tecoxpa","native":null,"lat":"19.19167000","lon":"-99.00639000"},{"id":73900,"name":"San Juan Ixtayopan","native":null,"lat":"19.23187000","lon":"-98.99867000"},{"id":73996,"name":"San Lorenzo Acopilco","native":null,"lat":"19.33002000","lon":"-99.32721000"},{"id":74014,"name":"San Lorenzo Tlacoyucan","native":null,"lat":"19.17605000","lon":"-99.03219000"},{"id":74157,"name":"San Miguel Ajusco","native":null,"lat":"19.22201000","lon":"-99.20242000"},{"id":74216,"name":"San Miguel Topilejo","native":null,"lat":"19.20264000","lon":"-99.14193000"},{"id":74297,"name":"San Pablo Oztotepec","native":null,"lat":"19.18652000","lon":"-99.07361000"},{"id":74318,"name":"San Pedro Atocpan","native":null,"lat":"19.20160000","lon":"-99.04963000"},{"id":74447,"name":"San Salvador Cuauhtenco","native":null,"lat":"19.19276000","lon":"-99.08983000"},{"id":74546,"name":"Santa Ana Tlacotenco","native":null,"lat":"19.17569000","lon":"-98.99788000"},{"id":74592,"name":"Santa Catarina Yecahuizotl","native":null,"lat":"19.31205000","lon":"-98.96461000"},{"id":75481,"name":"Tetelco","native":null,"lat":"19.21673000","lon":"-98.97295000"},{"id":75711,"name":"Tláhuac","native":null,"lat":"19.28689000","lon":"-99.00507000"},{"id":75649,"name":"Tlalpan","native":null,"lat":"19.29513000","lon":"-99.16206000"},{"id":75960,"name":"Venustiano Carranza","native":null,"lat":"19.44361000","lon":"-99.10499000"},{"id":76166,"name":"Xochimilco","native":null,"lat":"19.25465000","lon":"-99.10356000"}]},{"id":3471,"name":"Coahuila de Zaragoza","native":null,"cities":[{"id":68014,"name":"Abasolo","native":null,"lat":"27.18219000","lon":"-101.42757000"},{"id":68114,"name":"Agua Nueva","native":null,"lat":"25.18934000","lon":"-101.08840000"},{"id":68175,"name":"Albia","native":null,"lat":"25.66537000","lon":"-103.36253000"},{"id":68188,"name":"Alejo González (Bilbao)","native":null,"lat":"25.82194000","lon":"-103.19472000"},{"id":68374,"name":"Arteaga","native":null,"lat":"25.44528000","lon":"-100.84667000"},{"id":68639,"name":"Boquilla de las Perlas","native":null,"lat":"25.32803000","lon":"-103.28870000"},{"id":68788,"name":"Candela","native":null,"lat":"26.83840000","lon":"-100.66630000"},{"id":68859,"name":"Castaños","native":null,"lat":"26.78932000","lon":"-101.43211000"},{"id":69112,"name":"Chula Vista","native":null,"lat":"27.04083000","lon":"-103.36611000"},{"id":69142,"name":"Ciudad Acuña","native":null,"lat":"29.32322000","lon":"-100.95217000"},{"id":69169,"name":"Ciudad Melchor Múzquiz","native":null,"lat":"27.87933000","lon":"-101.51615000"},{"id":69202,"name":"Cloete","native":null,"lat":"27.92097000","lon":"-101.17576000"},{"id":69291,"name":"Colonia Diana Laura Riojas de Colosio","native":null,"lat":"26.97722000","lon":"-101.48083000"},{"id":69377,"name":"Colonia Venustiano Carranza","native":null,"lat":"28.63861000","lon":"-100.55667000"},{"id":69430,"name":"Compuertas","native":null,"lat":"25.74681000","lon":"-103.30250000"},{"id":69445,"name":"Concordia","native":null,"lat":"25.77982000","lon":"-103.11696000"},{"id":69520,"name":"Coyote","native":null,"lat":"25.69510000","lon":"-103.28420000"},{"id":69570,"name":"Cuatro Ciénegas de Carranza","native":null,"lat":"26.98542000","lon":"-102.06386000"},{"id":69797,"name":"Ejido Venustiano Carranza","native":null,"lat":"25.35091000","lon":"-102.95698000"},{"id":69858,"name":"El Cambio","native":null,"lat":"25.64048000","lon":"-103.32710000"},{"id":69919,"name":"El Consuelo","native":null,"lat":"25.57131000","lon":"-103.27620000"},{"id":69936,"name":"El Cuije","native":null,"lat":"25.69670000","lon":"-103.34107000"},{"id":70012,"name":"El Lequeitio","native":null,"lat":"25.84673000","lon":"-103.27890000"},{"id":70063,"name":"El Nilo","native":null,"lat":"25.73363000","lon":"-102.94297000"},{"id":70099,"name":"El Perú","native":null,"lat":"25.60290000","lon":"-103.34423000"},{"id":70119,"name":"El Porvenir (El Porvenir de Arriba)","native":null,"lat":"25.77444000","lon":"-103.32528000"},{"id":70158,"name":"El Retiro","native":null,"lat":"25.82758000","lon":"-103.13004000"},{"id":70321,"name":"Escuadrón Doscientos Uno","native":null,"lat":"25.67433000","lon":"-103.34829000"},{"id":70452,"name":"Fraccionamiento la Noria","native":null,"lat":"25.55722000","lon":"-103.34361000"},{"id":70491,"name":"Frontera","native":null,"lat":"26.92814000","lon":"-101.45212000"},{"id":70529,"name":"General Cepeda","native":null,"lat":"25.37767000","lon":"-101.47571000"},{"id":70550,"name":"Gilita","native":null,"lat":"25.39314000","lon":"-103.19976000"},{"id":70561,"name":"Granada","native":null,"lat":"25.64127000","lon":"-103.26710000"},{"id":70630,"name":"Guerrero","native":null,"lat":"28.30992000","lon":"-100.38048000"},{"id":70828,"name":"Hércules","native":null,"lat":"28.04306000","lon":"-103.79111000"},{"id":70683,"name":"Hidalgo","native":null,"lat":"27.78994000","lon":"-99.87699000"},{"id":70710,"name":"Hormiguero","native":null,"lat":"25.68386000","lon":"-103.34121000"},{"id":70714,"name":"Huachichil","native":null,"lat":"25.21114000","lon":"-100.82570000"},{"id":70802,"name":"Huitrón","native":null,"lat":"25.85748000","lon":"-103.34825000"},{"id":70956,"name":"Jaboncillo","native":null,"lat":"25.74809000","lon":"-103.26550000"},{"id":71051,"name":"Jiménez","native":null,"lat":"29.06975000","lon":"-100.67895000"},{"id":71240,"name":"La Concha","native":null,"lat":"25.63524000","lon":"-103.38136000"},{"id":71248,"name":"La Cruz","native":null,"lat":"26.99339000","lon":"-101.49580000"},{"id":71268,"name":"La Esmeralda","native":null,"lat":"27.28735000","lon":"-103.66283000"},{"id":71273,"name":"La Esperanza","native":null,"lat":"25.56631000","lon":"-103.28123000"},{"id":71289,"name":"La Fe","native":null,"lat":"25.84743000","lon":"-103.20117000"},{"id":71293,"name":"La Florida","native":null,"lat":"25.76811000","lon":"-103.32424000"},{"id":71374,"name":"La Luz","native":null,"lat":"25.72621000","lon":"-103.24540000"},{"id":71425,"name":"La Palma","native":null,"lat":"25.60830000","lon":"-103.32228000"},{"id":71432,"name":"La Partida","native":null,"lat":"25.59181000","lon":"-103.29994000"},{"id":71435,"name":"La Paz","native":null,"lat":"25.59390000","lon":"-103.35852000"},{"id":71442,"name":"La Perla","native":null,"lat":"25.49696000","lon":"-103.35088000"},{"id":71449,"name":"La Pinta","native":null,"lat":"25.90281000","lon":"-103.26476000"},{"id":71559,"name":"Laguna del Rey (Químicas del Rey)","native":null,"lat":"27.03056000","lon":"-103.36667000"},{"id":71566,"name":"Lamadrid","native":null,"lat":"27.05087000","lon":"-101.79552000"},{"id":71623,"name":"Las Mieleras","native":null,"lat":"25.39948000","lon":"-103.26740000"},{"id":71869,"name":"Los Álamos","native":null,"lat":"28.35645000","lon":"-100.94564000"},{"id":71878,"name":"Luchanas","native":null,"lat":"25.79091000","lon":"-103.19384000"},{"id":71984,"name":"Maravillas","native":null,"lat":"25.65872000","lon":"-103.34079000"},{"id":72018,"name":"Matamoros","native":null,"lat":"25.52699000","lon":"-103.22850000"},{"id":72035,"name":"Mayran","native":null,"lat":"25.67296000","lon":"-102.84288000"},{"id":72144,"name":"Minas de Barroterán","native":null,"lat":"27.65144000","lon":"-101.28212000"},{"id":72191,"name":"Monclova","native":null,"lat":"26.90687000","lon":"-101.42056000"},{"id":72270,"name":"Nadadores","native":null,"lat":"27.02819000","lon":"-101.59420000"},{"id":72294,"name":"Nava","native":null,"lat":"28.42071000","lon":"-100.76565000"},{"id":72373,"name":"Nueva Rosita","native":null,"lat":"27.94028000","lon":"-101.21812000"},{"id":72392,"name":"Nuevo León","native":null,"lat":"25.71863000","lon":"-103.29471000"},{"id":72438,"name":"Ocampo","native":null,"lat":"27.31477000","lon":"-102.39660000"},{"id":72446,"name":"Ocho de Enero","native":null,"lat":"26.99733000","lon":"-101.49598000"},{"id":72581,"name":"Palau","native":null,"lat":"27.89232000","lon":"-101.42319000"},