[{"id":1393,"name":"Bocas del Toro Province","native":null,"cities":[{"id":79962,"name":"Almirante","native":null,"lat":"9.30091000","lon":"-82.40180000"},{"id":79982,"name":"Barranco","native":null,"lat":"9.51984000","lon":"-82.70424000"},{"id":79983,"name":"Barranco Adentro","native":null,"lat":"9.52757000","lon":"-82.73344000"},{"id":79986,"name":"Bastimentos","native":null,"lat":"9.34707000","lon":"-82.20880000"},{"id":80000,"name":"Bocas del Toro","native":null,"lat":"9.34031000","lon":"-82.24204000"},{"id":80036,"name":"Cauchero","native":null,"lat":"9.15226000","lon":"-82.26450000"},{"id":80054,"name":"Changuinola","native":null,"lat":"9.43000000","lon":"-82.52000000"},{"id":80063,"name":"Chiriquí Grande","native":null,"lat":"8.94557000","lon":"-82.11769000"},{"id":80084,"name":"Distrito Chiriquí Grande","native":null,"lat":"8.94748000","lon":"-82.12418000"},{"id":80092,"name":"Distrito de Bocas del Toro","native":null,"lat":"9.36235000","lon":"-82.26288000"},{"id":80101,"name":"Distrito de Changuinola","native":null,"lat":"9.25000000","lon":"-82.63333000"},{"id":80170,"name":"El Empalme","native":null,"lat":"9.41667000","lon":"-82.51667000"},{"id":80202,"name":"El Silencio","native":null,"lat":"9.37222000","lon":"-82.52877000"},{"id":80217,"name":"Guabito","native":null,"lat":"9.48968000","lon":"-82.61279000"},{"id":80235,"name":"Isla Bastimentos","native":null,"lat":"9.30000000","lon":"-82.13333000"},{"id":80265,"name":"La Mesa","native":null,"lat":"9.49587000","lon":"-82.67534000"},{"id":80355,"name":"Miramar","native":null,"lat":"8.99482000","lon":"-82.24147000"},{"id":80437,"name":"Punta Laurel","native":null,"lat":"9.14100000","lon":"-82.12717000"},{"id":80438,"name":"Punta Peña","native":null,"lat":"8.91659000","lon":"-82.18488000"},{"id":80439,"name":"Punta Róbalo","native":null,"lat":"9.03631000","lon":"-82.24952000"},{"id":80537,"name":"Valle del Risco","native":null,"lat":"9.23064000","lon":"-82.42748000"}]},{"id":1397,"name":"Chiriquí Province","native":null,"cities":[{"id":79959,"name":"Alanje","native":null,"lat":"8.39791000","lon":"-82.55947000"},{"id":79961,"name":"Algarrobos Arriba","native":null,"lat":"8.51550000","lon":"-82.42263000"},{"id":79963,"name":"Alto Boquete","native":null,"lat":"8.73458000","lon":"-82.43213000"},{"id":79974,"name":"Aserrío de Gariché","native":null,"lat":"8.48257000","lon":"-82.79086000"},{"id":80012,"name":"Bágala","native":null,"lat":"8.46399000","lon":"-82.52617000"},{"id":79979,"name":"Bajo Boquete","native":null,"lat":"8.77058000","lon":"-82.43306000"},{"id":79985,"name":"Barrio Guadalupe","native":null,"lat":"8.86482000","lon":"-82.56523000"},{"id":79992,"name":"Bijagual","native":null,"lat":"8.51486000","lon":"-82.33361000"},{"id":79995,"name":"Boca Chica","native":null,"lat":"8.21911000","lon":"-82.21592000"},{"id":79999,"name":"Boca del Monte","native":null,"lat":"8.35296000","lon":"-82.11379000"},{"id":80002,"name":"Boquerón","native":null,"lat":"8.50510000","lon":"-82.57025000"},{"id":80003,"name":"Boquete","native":null,"lat":"8.78024000","lon":"-82.44136000"},{"id":80005,"name":"Breñón","native":null,"lat":"8.62491000","lon":"-82.81277000"},{"id":80010,"name":"Bugaba","native":null,"lat":"8.48255000","lon":"-82.61991000"},{"id":80011,"name":"Bugabita Arriba","native":null,"lat":"8.52143000","lon":"-82.63638000"},{"id":80021,"name":"Caimito","native":null,"lat":"8.54162000","lon":"-82.41900000"},{"id":80023,"name":"Caldera","native":null,"lat":"8.64907000","lon":"-82.38058000"},{"id":80038,"name":"Cañas Gordas","native":null,"lat":"8.74309000","lon":"-82.91275000"},{"id":80043,"name":"Celmira","native":null,"lat":"8.54026000","lon":"-82.80022000"},{"id":80051,"name":"Cerro Punta","native":null,"lat":"8.84968000","lon":"-82.57261000"},{"id":80052,"name":"Cerro Viejo","native":null,"lat":"8.25349000","lon":"-81.57658000"},{"id":80062,"name":"Chiriquí","native":null,"lat":"8.39291000","lon":"-82.31993000"},{"id":80070,"name":"Cochea Abajo","native":null,"lat":"8.50512000","lon":"-82.35878000"},{"id":80075,"name":"Cordillera","native":null,"lat":"8.70683000","lon":"-82.60327000"},{"id":80082,"name":"David","native":null,"lat":"8.42729000","lon":"-82.43085000"},{"id":80087,"name":"Distrito de Alanje","native":null,"lat":"8.39842000","lon":"-82.64065000"},{"id":80091,"name":"Distrito de Barú","native":null,"lat":"8.29482000","lon":"-82.92726000"},{"id":80093,"name":"Distrito de Boquerón","native":null,"lat":"8.61667000","lon":"-82.56667000"},{"id":80094,"name":"Distrito de Boquete","native":null,"lat":"8.74896000","lon":"-82.36842000"},{"id":80095,"name":"Distrito de Bugaba","native":null,"lat":"8.68786000","lon":"-82.67937000"},{"id":80107,"name":"Distrito de David","native":null,"lat":"8.40000000","lon":"-82.40000000"},{"id":80108,"name":"Distrito de Dolega","native":null,"lat":"8.61667000","lon":"-82.45000000"},{"id":80110,"name":"Distrito de Gualaca","native":null,"lat":"8.57398000","lon":"-82.22207000"},{"id":80132,"name":"Distrito de Remedios","native":null,"lat":"8.20253000","lon":"-81.81163000"},{"id":80133,"name":"Distrito de Renacimiento","native":null,"lat":"8.71667000","lon":"-82.76667000"},{"id":80137,"name":"Distrito de San Félix","native":null,"lat":"8.27768000","lon":"-81.87377000"},{"id":80138,"name":"Distrito de San Lorenzo","native":null,"lat":"8.29366000","lon":"-82.08922000"},{"id":80145,"name":"Distrito de Tolé","native":null,"lat":"8.19015000","lon":"-81.66007000"},{"id":80147,"name":"Divalá","native":null,"lat":"8.41066000","lon":"-82.71332000"},{"id":80148,"name":"Dolega District","native":null,"lat":"8.56667000","lon":"-82.41407000"},{"id":80185,"name":"El Nancito","native":null,"lat":"8.23811000","lon":"-81.73218000"},{"id":80186,"name":"El Palmar","native":null,"lat":"8.30098000","lon":"-82.85344000"},{"id":80193,"name":"El Porvenir","native":null,"lat":"8.22919000","lon":"-81.83278000"},{"id":80203,"name":"El Tejar","native":null,"lat":"8.42973000","lon":"-82.57294000"},{"id":80210,"name":"Finca Blanco","native":null,"lat":"8.37979000","lon":"-82.87385000"},{"id":80229,"name":"Gómez","native":null,"lat":"8.56085000","lon":"-82.74142000"},{"id":80216,"name":"Guabal","native":null,"lat":"8.57466000","lon":"-82.53730000"},{"id":80218,"name":"Guaca Arriba","native":null,"lat":"8.53733000","lon":"-82.49281000"},{"id":80220,"name":"Gualaca","native":null,"lat":"8.53006000","lon":"-82.29959000"},{"id":80223,"name":"Guarumal","native":null,"lat":"8.34523000","lon":"-82.53205000"},{"id":80225,"name":"Guayabal","native":null,"lat":"8.62193000","lon":"-82.57935000"},{"id":80233,"name":"Horconcitos","native":null,"lat":"8.31142000","lon":"-82.15102000"},{"id":80247,"name":"La Concepción","native":null,"lat":"8.51212000","lon":"-82.61858000"},{"id":80252,"name":"La Esperanza","native":null,"lat":"8.40344000","lon":"-82.79197000"},{"id":80254,"name":"La Estrella","native":null,"lat":"8.51572000","lon":"-82.67212000"},{"id":80283,"name":"Lajas Adentro","native":null,"lat":"8.24981000","lon":"-81.87779000"},{"id":80284,"name":"Lajas de Tolé","native":null,"lat":"8.16994000","lon":"-81.69654000"},{"id":80295,"name":"Las Lajas","native":null,"lat":"8.24184000","lon":"-81.86931000"},{"id":80296,"name":"Las Lomas","native":null,"lat":"8.42927000","lon":"-82.38743000"},{"id":80311,"name":"Limones","native":null,"lat":"8.10007000","lon":"-82.86679000"},{"id":80326,"name":"Los Algarrobos","native":null,"lat":"8.49601000","lon":"-82.42417000"},{"id":80328,"name":"Los Anastacios","native":null,"lat":"8.53027000","lon":"-82.42295000"},{"id":80344,"name":"Los Ángeles","native":null,"lat":"8.52271000","lon":"-82.19997000"},{"id":80338,"name":"Los Naranjos","native":null,"lat":"8.79210000","lon":"-82.44665000"},{"id":80347,"name":"Manaca Civil","native":null,"lat":"8.32458000","lon":"-82.81570000"},{"id":80348,"name":"Manaca Norte","native":null,"lat":"8.33419000","lon":"-82.81003000"},{"id":80351,"name":"Mata del Nance","native":null,"lat":"8.45056000","lon":"-82.40057000"},{"id":80360,"name":"Monte Lirio","native":null,"lat":"8.78935000","lon":"-82.82865000"},{"id":80378,"name":"Nuevo San Carlitos","native":null,"lat":"8.45698000","lon":"-82.43712000"},{"id":80387,"name":"Paja de Sombrero","native":null,"lat":"8.68335000","lon":"-82.31911000"},{"id":80392,"name":"Palmira","native":null,"lat":"8.73401000","lon":"-82.45887000"},{"id":80393,"name":"Palmira Centro","native":null,"lat":"8.73956000","lon":"-82.45228000"},{"id":80395,"name":"Paraíso","native":null,"lat":"8.65842000","lon":"-82.58625000"},{"id":80402,"name":"Paso Canoas Arriba","native":null,"lat":"8.56516000","lon":"-82.82214000"},{"id":80405,"name":"Pedregal","native":null,"lat":"8.36586000","lon":"-82.43524000"},{"id":80418,"name":"Plaza de Caisán","native":null,"lat":"8.73672000","lon":"-82.81968000"},{"id":80424,"name":"Potrerillos Abajo","native":null,"lat":"8.63978000","lon":"-82.48560000"},{"id":80425,"name":"Potrerillos Arriba","native":null,"lat":"8.68547000","lon":"-82.49090000"},{"id":80428,"name":"Progreso","native":null,"lat":"8.44669000","lon":"-82.83859000"},{"id":80430,"name":"Pueblo Viejo","native":null,"lat":"8.25081000","lon":"-81.66259000"},{"id":80431,"name":"Puerto Armuelles","native":null,"lat":"8.27775000","lon":"-82.86206000"},{"id":80440,"name":"Punta de Burica","native":null,"lat":"8.03333000","lon":"-82.86667000"},{"id":80447,"name":"Quebrada de Piedra","native":null,"lat":"8.09418000","lon":"-81.67915000"},{"id":80449,"name":"Querévalo","native":null,"lat":"8.37174000","lon":"-82.52670000"},{"id":80450,"name":"Quinteño","native":null,"lat":"8.47102000","lon":"-82.39352000"},{"id":80451,"name":"Remedios","native":null,"lat":"8.22436000","lon":"-81.82747000"},{"id":80452,"name":"Rincón","native":null,"lat":"8.46374000","lon":"-82.27951000"},{"id":80465,"name":"Río Sereno","native":null,"lat":"8.81741000","lon":"-82.85731000"},{"id":80455,"name":"Rovira Arriba","native":null,"lat":"8.63822000","lon":"-82.49965000"},{"id":80471,"name":"San Andrés","native":null,"lat":"8.60260000","lon":"-82.72588000"},{"id":80474,"name":"San Carlos","native":null,"lat":"8.51663000","lon":"-82.50906000"},{"id":80478,"name":"San Félix","native":null,"lat":"8.29063000","lon":"-81.86702000"},{"id":80480,"name":"San Isidro","native":null,"lat":"8.53032000","lon":"-82.82720000"},{"id":80487,"name":"San Lorenzo","native":null,"lat":"8.30561000","lon":"-82.10114000"},{"id":80491,"name":"San Pablo Nuevo Abajo","native":null,"lat":"8.42558000","lon":"-82.50173000"},{"id":80492,"name":"San Pablo Viejo Abajo","native":null,"lat":"8.45339000","lon":"-82.50179000"},{"id":80497,"name":"Santa Clara","native":null,"lat":"8.83376000","lon":"-82.77945000"},{"id":80499,"name":"Santa Cruz","native":null,"lat":"8.23219000","lon":"-81.91323000"},{"id":80503,"name":"Santa Marta","native":null,"lat":"8.51406000","lon":"-82.69870000"},{"id":80507,"name":"Santa Rosa","native":null,"lat":"8.59958000","lon":"-82.68489000"},{"id":80510,"name":"Santo Domingo","native":null,"lat":"8.50803000","lon":"-82.71295000"},{"id":80511,"name":"Santo Tomás","native":null,"lat":"8.38959000","lon":"-82.65058000"},{"id":80513,"name":"Sioguí Abajo","native":null,"lat":"8.48678000","lon":"-82.66539000"},{"id":80514,"name":"Sioguí Arriba","native":null,"lat":"8.53865000","lon":"-82.68619000"},{"id":80517,"name":"Sortova","native":null,"lat":"8.54642000","lon":"-82.65170000"},{"id":80520,"name":"Tijeras","native":null,"lat":"8.47514000","lon":"-82.56058000"},{"id":80521,"name":"Tinajas","native":null,"lat":"8.55281000","lon":"-82.45963000"},{"id":80525,"name":"Tolé","native":null,"lat":"8.23989000","lon":"-81.67168000"},{"id":80539,"name":"Veladero","native":null,"lat":"8.23136000","lon":"-81.65417000"},{"id":80550,"name":"Volcán","native":null,"lat":"8.77291000","lon":"-82.63823000"}]},{"id":1387,"name":"Coclé Province","native":null,"cities":[{"id":79956,"name":"Aguadulce","native":null,"lat":"8.24183000","lon":"-80.54609000"},{"id":79957,"name":"Aguas Blancas","native":null,"lat":"8.50351000","lon":"-80.31169000"},{"id":79965,"name":"Alto de La Estancia","native":null,"lat":"8.58792000","lon":"-80.18443000"},{"id":79969,"name":"Antón","native":null,"lat":"8.39733000","lon":"-80.26063000"},{"id":79984,"name":"Barranco Colorado","native":null,"lat":"8.38937000","lon":"-80.63546000"},{"id":80013,"name":"Caballero","native":null,"lat":"8.54343000","lon":"-80.19769000"},{"id":80017,"name":"Cabuya","native":null,"lat":"8.54703000","lon":"-80.16756000"},{"id":80019,"name":"Caimito","native":null,"lat":"8.62271000","lon":"-80.23919000"},{"id":80039,"name":"Cañaveral","native":null,"lat":"8.51700000","lon":"-80.42916000"},{"id":80032,"name":"Capellanía","native":null,"lat":"8.29858000","lon":"-80.55480000"},{"id":80058,"name":"Chigoré","native":null,"lat":"8.53035000","lon":"-80.35117000"},{"id":80059,"name":"Chiguirí Arriba","native":null,"lat":"8.67187000","lon":"-80.18975000"},{"id":80067,"name":"Churuquita Chiquita","native":null,"lat":"8.57555000","lon":"-80.27161000"},{"id":80068,"name":"Churuquita Grande","native":null,"lat":"8.59449000","lon":"-80.27182000"},{"id":80071,"name":"Coclé","native":null,"lat":"8.45601000","lon":"-80.42899000"},{"id":80086,"name":"Distrito de Aguadulce","native":null,"lat":"8.21270000","lon":"-80.61441000"},{"id":80088,"name":"Distrito de Antón","native":null,"lat":"8.45394000","lon":"-80.18361000"},{"id":80114,"name":"Distrito de La Pintada","native":null,"lat":"8.71801000","lon":"-80.53946000"},{"id":80122,"name":"Distrito de Natá","native":null,"lat":"8.34416000","lon":"-80.60934000"},{"id":80124,"name":"Distrito de Olá","native":null,"lat":"8.48053000","lon":"-80.65324000"},{"id":80085,"name":"Distrito Penonomé","native":null,"lat":"8.63000000","lon":"-80.28333000"},{"id":80157,"name":"El Caño","native":null,"lat":"8.40195000","lon":"-80.51791000"},{"id":80159,"name":"El Chirú","native":null,"lat":"8.39876000","lon":"-80.18721000"},{"id":80163,"name":"El Coco","native":null,"lat":"8.39716000","lon":"-80.35000000"},{"id":80165,"name":"El Copé","native":null,"lat":"8.62036000","lon":"-80.58433000"},{"id":80167,"name":"El Cortezo","native":null,"lat":"8.34556000","lon":"-80.58721000"},{"id":80168,"name":"El Cristo","native":null,"lat":"8.25071000","lon":"-80.62093000"},{"id":80194,"name":"El Potrero","native":null,"lat":"8.52146000","lon":"-80.51681000"},{"id":80198,"name":"El Retiro","native":null,"lat":"8.48014000","lon":"-80.15426000"},{"id":80201,"name":"El Roble","native":null,"lat":"8.16850000","lon":"-80.65897000"},{"id":80207,"name":"Entradero","native":null,"lat":"8.56880000","lon":"-80.20743000"},{"id":80209,"name":"Farallón","native":null,"lat":"8.35658000","lon":"-80.13723000"},{"id":80228,"name":"Guzman","native":null,"lat":"8.51969000","lon":"-80.58405000"},{"id":80237,"name":"Juan Díaz","native":null,"lat":"8.46240000","lon":"-80.28280000"},{"id":80261,"name":"La Loma","native":null,"lat":"8.16667000","lon":"-80.63742000"},{"id":80275,"name":"La Pintada","native":null,"lat":"8.59299000","lon":"-80.44349000"},{"id":80293,"name":"Las Huacas del Quije","native":null,"lat":"8.46702000","lon":"-80.75089000"},{"id":80299,"name":"Las Marias","native":null,"lat":"8.88809000","lon":"-80.21893000"},{"id":80301,"name":"Las Minas","native":null,"lat":"8.64118000","lon":"-80.39432000"},{"id":80305,"name":"Las Sabanas","native":null,"lat":"8.58141000","lon":"-80.67978000"},{"id":80317,"name":"Llano Grande","native":null,"lat":"8.63817000","lon":"-80.43848000"},{"id":80320,"name":"Llano Marín","native":null,"lat":"8.47696000","lon":"-80.32499000"},{"id":80340,"name":"Los Pollos","native":null,"lat":"8.39898000","lon":"-80.15731000"},{"id":80366,"name":"Natá","native":null,"lat":"8.33209000","lon":"-80.51969000"},{"id":80370,"name":"Nuestro Amo","native":null,"lat":"8.44485000","lon":"-80.58934000"},{"id":80383,"name":"Olá","native":null,"lat":"8.41807000","lon":"-80.65123000"},{"id":80406,"name":"Penonomé","native":null,"lat":"8.51889000","lon":"-80.35727000"},{"id":80411,"name":"Piedras Gordas","native":null,"lat":"8.63777000","lon":"-80.51024000"},{"id":80420,"name":"Pocrí","native":null,"lat":"8.25814000","lon":"-80.55000000"},{"id":80460,"name":"Río Grande","native":null,"lat":"8.42679000","lon":"-80.48457000"},{"id":80462,"name":"Río Hato","native":null,"lat":"8.37940000","lon":"-80.16621000"},{"id":80486,"name":"San Juan de Dios","native":null,"lat":"8.55119000","lon":"-80.22623000"},{"id":80522,"name":"Toabré","native":null,"lat":"8.65131000","lon":"-80.32017000"},{"id":80528,"name":"Toza","native":null,"lat":"8.34542000","lon":"-80.64012000"},{"id":80548,"name":"Vista Hermosa","native":null,"lat":"8.52687000","lon":"-80.37486000"}]},{"id":1386,"name":"Colón Province","native":null,"cities":[{"id":80007,"name":"Buena Vista","native":null,"lat":"9.27356000","lon":"-79.69551000"},{"id":80035,"name":"Cativá","native":null,"lat":"9.36218000","lon":"-79.83232000"},{"id":80072,"name":"Coclé del Norte","native":null,"lat":"9.07540000","lon":"-80.57177000"},{"id":80073,"name":"Colón","native":null,"lat":"9.35451000","lon":"-79.90011000"},{"id":80078,"name":"Cristóbal","native":null,"lat":"9.35222000","lon":"-79.90444000"},{"id":80099,"name":"Distrito de Chagres","native":null,"lat":"9.12300000","lon":"-80.11841000"},{"id":80106,"name":"Distrito de Colón","native":null,"lat":"9.24313000","lon":"-79.79463000"},{"id":80109,"name":"Distrito de Donoso","native":null,"lat":"9.01999000","lon":"-80.42967000"},{"id":80131,"name":"Distrito de Portobelo","native":null,"lat":"9.49748000","lon":"-79.60730000"},{"id":80140,"name":"Distrito de Santa Isabel","native":null,"lat":"9.48333000","lon":"-79.31667000"},{"id":80174,"name":"El Giral","native":null,"lat":"9.24509000","lon":"-79.69266000"},{"id":80175,"name":"El Guabo","native":null,"lat":"9.07842000","lon":"-80.08316000"},{"id":80206,"name":"El Valle de la Unión","native":null,"lat":"9.23630000","lon":"-79.65986000"},{"id":80208,"name":"Escobal","native":null,"lat":"9.14373000","lon":"-79.96439000"},{"id":80214,"name":"Gatún","native":null,"lat":"9.28922000","lon":"-79.77204000"},{"id":80213,"name":"Gatuncillo","native":null,"lat":"9.24346000","lon":"-79.64856000"},{"id":80298,"name":"Las Margaritas","native":null,"lat":"9.32603000","lon":"-79.89028000"},{"id":80350,"name":"María Chiquita","native":null,"lat":"9.43991000","lon":"-79.75455000"},{"id":80354,"name":"Miramar","native":null,"lat":"9.57544000","lon":"-79.33573000"},{"id":80368,"name":"Nombre de Dios","native":null,"lat":"9.57937000","lon":"-79.47109000"},{"id":80376,"name":"Nuevo Chagres","native":null,"lat":"9.23979000","lon":"-80.08267000"},{"id":80379,"name":"Nuevo San Juan","native":null,"lat":"9.22205000","lon":"-79.66602000"},{"id":80380,"name":"Nuevo Vigía","native":null,"lat":"9.24263000","lon":"-79.60756000"},{"id":80388,"name":"Palenque","native":null,"lat":"9.56970000","lon":"-79.36341000"},{"id":80389,"name":"Palmas Bellas","native":null,"lat":"9.22838000","lon":"-80.08503000"},{"id":80391,"name":"Palmira","native":null,"lat":"9.54359000","lon":"-79.21946000"},{"id":80415,"name":"Playa Chiquita","native":null,"lat":"9.56620000","lon":"-79.29185000"},{"id":80423,"name":"Portobelo","native":null,"lat":"9.55303000","lon":"-79.65693000"},{"id":80433,"name":"Puerto Escondido","native":null,"lat":"9.19333000","lon":"-80.08833000"},{"id":80435,"name":"Puerto Pilón","native":null,"lat":"9.36316000","lon":"-79.79333000"},{"id":80443,"name":"Quebrada Bonita Adentro","native":null,"lat":"9.29662000","lon":"-79.70606000"},{"id":80457,"name":"Río Alejandro","native":null,"lat":"9.37149000","lon":"-79.78809000"},{"id":80459,"name":"Río Duque","native":null,"lat":"9.25688000","lon":"-79.67937000"},{"id":80464,"name":"Río Rita","native":null,"lat":"9.30296000","lon":"-79.79234000"},{"id":80469,"name":"Sabanitas","native":null,"lat":"9.34269000","lon":"-79.80961000"},{"id":80502,"name":"Santa Isabel","native":null,"lat":"9.53922000","lon":"-79.19570000"},{"id":80506,"name":"Santa Rita Arriba","native":null,"lat":"9.33032000","lon":"-79.79363000"},{"id":80541,"name":"Viento Frío","native":null,"lat":"9.58263000","lon":"-79.40690000"}]},{"id":1385,"name":"Darién Province","native":null,"cities":[{"id":79997,"name":"Boca de Cupé","native":null,"lat":"8.03003000","lon":"-77.58978000"},{"id":80030,"name":"Camogantí","native":null,"lat":"8.04171000","lon":"-77.88682000"},{"id":80079,"name":"Cucunatí","native":null,"lat":"8.57508000","lon":"-78.25671000"},{"id":80102,"name":"Distrito de Chepigana","native":null,"lat":"7.84374000","lon":"-77.83830000"},{"id":80129,"name":"Distrito de Pinogana","native":null,"lat":"7.89343000","lon":"-77.52562000"},{"id":80212,"name":"Garachiné","native":null,"lat":"8.06684000","lon":"-78.36436000"},{"id":80236,"name":"Jaqué","native":null,"lat":"7.51826000","lon":"-78.16343000"},{"id":80270,"name":"La Palma","native":null,"lat":"8.40608000","lon":"-78.13964000"},{"id":80353,"name":"Metetí","native":null,"lat":"8.49909000","lon":"-77.97897000"},{"id":80362,"name":"Mortí","native":null,"lat":"8.84246000","lon":"-77.97539000"},{"id":80442,"name":"Púcuro","native":null,"lat":"7.97876000","lon":"-77.48758000"},{"id":80500,"name":"Santa Fé","native":null,"lat":"8.65525000","lon":"-78.16140000"},{"id":80552,"name":"Yaviza","native":null,"lat":"8.15835000","lon":"-77.69276000"}]},{"id":1396,"name":"Emberá-Wounaan Comarca","native":null,"cities":[{"id":79987,"name":"Bayamón","native":null,"lat":"7.96817000","lon":"-78.21648000"},{"id":80081,"name":"Cémaco","native":null,"lat":"8.08285000","lon":"-77.54210000"},{"id":80076,"name":"Corozal","native":null,"lat":"8.20108000","lon":"-77.59637000"},{"id":80470,"name":"Sambú","native":null,"lat":"7.82013000","lon":"-78.11005000"},{"id":80531,"name":"Unión Chocó","native":null,"lat":"8.08404000","lon":"-77.53507000"},{"id":80551,"name":"Yape","native":null,"lat":"8.09839000","lon":"-77.59817000"}]},{"id":1388,"name":"Guna Yala","native":null,"cities":[{"id":79954,"name":"Achutupo","native":null,"lat":"9.19827000","lon":"-77.98729000"},{"id":79958,"name":"Ailigandí","native":null,"lat":"9.22810000","lon":"-78.02778000"},{"id":80034,"name":"Cartí Sugdup","native":null,"lat":"9.46460000","lon":"-78.95931000"},{"id":80192,"name":"El Porvenir","native":null,"lat":"9.55276000","lon":"-78.95230000"},{"id":80363,"name":"Mulatupo","native":null,"lat":"8.94672000","lon":"-77.75080000"},{"id":80365,"name":"Narganá","native":null,"lat":"9.44394000","lon":"-78.58666000"},{"id":80417,"name":"Playón Chico","native":null,"lat":"9.31128000","lon":"-78.23270000"},{"id":80434,"name":"Puerto Obaldía","native":null,"lat":"8.66632000","lon":"-77.41922000"},{"id":80479,"name":"San Ignacio de Tupile","native":null,"lat":"9.28905000","lon":"-78.15206000"},{"id":80530,"name":"Tubualá","native":null,"lat":"9.51667000","lon":"-79.03333000"},{"id":80534,"name":"Ustupo","native":null,"lat":"9.13112000","lon":"-77.92620000"}]},{"id":1389,"name":"Herrera Province","native":null,"cities":[{"id":79998,"name":"Boca de Parita","native":null,"lat":"8.00796000","lon":"-80.45320000"},{"id":80015,"name":"Cabuya","native":null,"lat":"8.03138000","lon":"-80.63227000"},{"id":80049,"name":"Cerro Largo","native":null,"lat":"7.83377000","lon":"-80.83168000"},{"id":80064,"name":"Chitré","native":null,"lat":"7.96082000","lon":"-80.42944000"},{"id":80065,"name":"Chumical","native":null,"lat":"7.84482000","lon":"-80.72627000"},{"id":80066,"name":"Chupampa","native":null,"lat":"8.07620000","lon":"-80.77656000"},{"id":80105,"name":"Distrito de Chitré","native":null,"lat":"7.98333000","lon":"-80.43333000"},{"id":80115,"name":"Distrito de Las Minas","native":null,"lat":"7.76525000","lon":"-80.82249000"},{"id":80118,"name":"Distrito de Los Pozos","native":null,"lat":"7.70944000","lon":"-80.64311000"},{"id":80123,"name":"Distrito de Ocú","native":null,"lat":"7.90641000","lon":"-80.79752000"},{"id":80126,"name":"Distrito de Parita","native":null,"lat":"8.06240000","lon":"-80.56373000"},{"id":80128,"name":"Distrito de Pesé","native":null,"lat":"7.88194000","lon":"-80.63261000"},{"id":80141,"name":"Distrito de Santa María","native":null,"lat":"8.11667000","lon":"-80.68333000"},{"id":80153,"name":"El Calabacito","native":null,"lat":"7.71843000","lon":"-80.59757000"},{"id":80154,"name":"El Capurí","native":null,"lat":"7.72571000","lon":"-80.64349000"},{"id":80158,"name":"El Cedro","native":null,"lat":"7.68565000","lon":"-80.65927000"},{"id":80188,"name":"El Pedregoso","native":null,"lat":"7.93642000","lon":"-80.63807000"},{"id":80199,"name":"El Rincón","native":null,"lat":"8.11923000","lon":"-80.61707000"},{"id":80204,"name":"El Toro","native":null,"lat":"7.75110000","lon":"-80.86943000"},{"id":80241,"name":"La Arena","native":null,"lat":"7.96766000","lon":"-80.46523000"},{"id":80279,"name":"La Trinidad","native":null,"lat":"7.91457000","lon":"-80.70332000"},{"id":80289,"name":"Las Guabas","native":null,"lat":"7.90949000","lon":"-80.80706000"},{"id":80300,"name":"Las Minas","native":null,"lat":"7.79581000","lon":"-80.74570000"},{"id":80309,"name":"Leones Arriba","native":null,"lat":"7.76590000","lon":"-80.84515000"},{"id":80312,"name":"Limón de Tijeras","native":null,"lat":"7.81756000","lon":"-80.91335000"},{"id":80314,"name":"Llano Bonito","native":null,"lat":"7.97637000","lon":"-80.41646000"},{"id":80321,"name":"Llano de La Cruz","native":null,"lat":"7.95178000","lon":"-80.64239000"},{"id":80315,"name":"Llano Grande","native":null,"lat":"7.97406000","lon":"-80.71103000"},{"id":80330,"name":"Los Canelos","native":null,"lat":"8.11722000","lon":"-80.70769000"},{"id":80331,"name":"Los Castillos","native":null,"lat":"7.98565000","lon":"-80.61886000"},{"id":80333,"name":"Los Cerritos","native":null,"lat":"7.79746000","lon":"-80.61071000"},{"id":80334,"name":"Los Cerros de Paja","native":null,"lat":"7.71821000","lon":"-80.67273000"},{"id":80341,"name":"Los Pozos","native":null,"lat":"7.78300000","lon":"-80.64524000"},{"id":80358,"name":"Monagrillo","native":null,"lat":"7.98179000","lon":"-80.43764000"},{"id":80382,"name":"Ocú","native":null,"lat":"7.94052000","lon":"-80.77936000"},{"id":80401,"name":"París","native":null,"lat":"8.05053000","lon":"-80.55409000"},{"id":80398,"name":"Parita","native":null,"lat":"7.99393000","lon":"-80.52097000"},{"id":80410,"name":"Peñas Chatas","native":null,"lat":"8.01502000","lon":"-80.80366000"},{"id":80408,"name":"Pesé","native":null,"lat":"7.90863000","lon":"-80.61433000"},{"id":80413,"name":"Pitaloza Arriba","native":null,"lat":"7.64216000","lon":"-80.66788000"},{"id":80422,"name":"Portobelillo","native":null,"lat":"8.01738000","lon":"-80.59538000"},{"id":80427,"name":"Potuga","native":null,"lat":"8.06317000","lon":"-80.62271000"},{"id":80448,"name":"Quebrada del Rosario","native":null,"lat":"7.71238000","lon":"-80.74222000"},{"id":80453,"name":"Rincón Hondo","native":null,"lat":"7.84436000","lon":"-80.60397000"},{"id":80467,"name":"Sabana Grande","native":null,"lat":"7.88002000","lon":"-80.63818000"},{"id":80485,"name":"San Juan Bautista","native":null,"lat":"7.96099000","lon":"-80.41283000"},{"id":80504,"name":"Santa María","native":null,"lat":"8.11143000","lon":"-80.66582000"}]},{"id":1390,"name":"Los Santos Province","native":null,"cities":[{"id":79955,"name":"Agua Buena","native":null,"lat":"7.83465000","lon":"-80.39405000"},{"id":79976,"name":"Ave María","native":null,"lat":"7.32481000","lon":"-80.45361000"},{"id":79978,"name":"Bahía Honda","native":null,"lat":"7.70517000","lon":"-80.45342000"},{"id":79980,"name":"Bajo Corral","native":null,"lat":"7.60463000","lon":"-80.26016000"},{"id":79988,"name":"Bayano","native":null,"lat":"7.63014000","lon":"-80.38201000"},{"id":79990,"name":"Bella Vista","native":null,"lat":"7.75000000","lon":"-80.23333000"},{"id":80029,"name":"Cambutal","native":null,"lat":"7.26534000","lon":"-80.49105000"},{"id":80037,"name":"Cañas","native":null,"lat":"7.44713000","lon":"-80.26480000"},{"id":80042,"name":"Cedro Arriba","native":null,"lat":"7.78097000","lon":"-80.53057000"},{"id":80111,"name":"Distrito de Guararé","native":null,"lat":"7.77021000","lon":"-80.37515000"},{"id":80117,"name":"Distrito de Las Tablas","native":null,"lat":"7.64843000","lon":"-80.29933000"},{"id":80119,"name":"Distrito de Los Santos","native":null,"lat":"7.88333000","lon":"-80.45000000"},{"id":80120,"name":"Distrito de Macaracas","native":null,"lat":"7.65817000","lon":"-80.53526000"},{"id":80127,"name":"Distrito de Pedasí","native":null,"lat":"7.48528000","lon":"-80.12747000"},{"id":80130,"name":"Distrito de Pocrí","native":null,"lat":"7.63721000","lon":"-80.16470000"},{"id":80146,"name":"Distrito de Tonosí","native":null,"lat":"7.43597000","lon":"-80.45828000"},{"id":80151,"name":"El Cacao","native":null,"lat":"7.44570000","lon":"-80.40938000"},{"id":80156,"name":"El Cañafístulo","native":null,"lat":"7.61768000","lon":"-80.23322000"},{"id":80155,"name":"El Carate","native":null,"lat":"7.73124000","lon":"-80.29691000"},{"id":80161,"name":"El Cocal","native":null,"lat":"7.73697000","lon":"-80.27980000"},{"id":80166,"name":"El Cortezo","native":null,"lat":"7.42661000","lon":"-80.63311000"},{"id":80169,"name":"El Ejido","native":null,"lat":"7.91634000","lon":"-80.38686000"},{"id":80176,"name":"El Guásimo","native":null,"lat":"7.80640000","lon":"-80.52991000"},{"id":80177,"name":"El Hato","native":null,"lat":"7.79316000","lon":"-80.38267000"},{"id":80180,"name":"El Macano","native":null,"lat":"7.68489000","lon":"-80.40309000"},{"id":80181,"name":"El Manantial","native":null,"lat":"7.78245000","lon":"-80.24713000"},{"id":80184,"name":"El Muñoz","native":null,"lat":"7.67582000","lon":"-80.32130000"},{"id":80189,"name":"El Pedregoso","native":null,"lat":"7.69173000","lon":"-80.32793000"},{"id":80211,"name":"Flores","native":null,"lat":"7.48157000","lon":"-80.40695000"},{"id":80221,"name":"Guararé","native":null,"lat":"7.81531000","lon":"-80.28345000"},{"id":80222,"name":"Guararé Arriba","native":null,"lat":"7.80023000","lon":"-80.35983000"},{"id":80246,"name":"La Colorada","native":null,"lat":"7.82362000","lon":"-80.55552000"},{"id":80248,"name":"La Enea","native":null,"lat":"7.83333000","lon":"-80.27417000"},{"id":80253,"name":"La Espigadilla","native":null,"lat":"7.88389000","lon":"-80.39039000"},{"id":80260,"name":"La Laja","native":null,"lat":"7.73102000","lon":"-80.25298000"},{"id":80266,"name":"La Mesa","native":null,"lat":"7.65670000","lon":"-80.61794000"},{"id":80267,"name":"La Miel","native":null,"lat":"7.56022000","lon":"-80.32736000"},{"id":80271,"name":"La Palma","native":null,"lat":"7.71667000","lon":"-80.38333000"},{"id":80272,"name":"La Pasera","native":null,"lat":"7.79757000","lon":"-80.30342000"},{"id":80278,"name":"La Tiza","native":null,"lat":"7.75110000","lon":"-80.29216000"},{"id":80280,"name":"La Tronosa","native":null,"lat":"7.43609000","lon":"-80.58698000"},{"id":80282,"name":"Lajamina","native":null,"lat":"7.58587000","lon":"-80.13212000"},{"id":80287,"name":"Las Cruces","native":null,"lat":"7.82285000","lon":"-80.43003000"},{"id":80290,"name":"Las Guabas","native":null,"lat":"7.81469000","lon":"-80.50155000"},{"id":80303,"name":"Las Palmas","native":null,"lat":"7.68314000","lon":"-80.49728000"},{"id":80304,"name":"Las Palmitas","native":null,"lat":"7.76523000","lon":"-80.29350000"},{"id":80306,"name":"Las Tablas","native":null,"lat":"7.76472000","lon":"-80.27483000"},{"id":80307,"name":"Las Trancas","native":null,"lat":"7.73400000","lon":"-80.37384000"},{"id":80313,"name":"Llano Abajo","native":null,"lat":"7.78598000","lon":"-80.41060000"},{"id":80322,"name":"Llano de Piedra","native":null,"lat":"7.65972000","lon":"-80.56347000"},{"id":80319,"name":"Llano Largo","native":null,"lat":"7.90607000","lon":"-80.42561000"},{"id":80343,"name":"Los Ángeles","native":null,"lat":"7.88422000","lon":"-80.35772000"},{"id":80329,"name":"Los Asientos","native":null,"lat":"7.51656000","lon":"-80.13521000"},{"id":80339,"name":"Los Olivos","native":null,"lat":"7.91589000","lon":"-80.48884000"},{"id":80342,"name":"Los Santos","native":null,"lat":"7.93333000","lon":"-80.41667000"},{"id":80346,"name":"Macaracas","native":null,"lat":"7.73168000","lon":"-80.55364000"},{"id":80357,"name":"Mogollón","native":null,"lat":"7.64261000","lon":"-80.45950000"},{"id":80369,"name":"Nuario","native":null,"lat":"7.53047000","lon":"-80.32692000"},{"id":80385,"name":"Oria Arriba","native":null,"lat":"7.50505000","lon":"-80.20567000"},{"id":80390,"name":"Palmira","native":null,"lat":"7.66347000","lon":"-80.35728000"},{"id":80396,"name":"Paraíso","native":null,"lat":"7.68510000","lon":"-80.16082000"},{"id":80399,"name":"Paritilla","native":null,"lat":"7.62848000","lon":"-80.17240000"},{"id":80403,"name":"Pedasí","native":null,"lat":"7.53034000","lon":"-80.02699000"},{"id":80409,"name":"Peña Blanca","native":null,"lat":"7.71931000","lon":"-80.28366000"},{"id":80407,"name":"Perales","native":null,"lat":"7.77461000","lon":"-80.32494000"},{"id":80419,"name":"Pocrí","native":null,"lat":"7.65816000","lon":"-80.12119000"},{"id":80463,"name":"Río Hondo","native":null,"lat":"7.71192000","lon":"-80.35904000"},{"id":80468,"name":"Sabana Grande","native":null,"lat":"7.83543000","lon":"-80.36490000"},{"id":80481,"name":"San José","native":null,"lat":"7.67395000","lon":"-80.24438000"},{"id":80496,"name":"Santa Ana Arriba","native":null,"lat":"7.93300000","lon":"-80.36369000"},{"id":80509,"name":"Santo Domingo","native":null,"lat":"7.74614000","lon":"-80.24173000"},{"id":80512,"name":"Sesteadero","native":null,"lat":"7.73885000","lon":"-80.24854000"},{"id":80526,"name":"Tonosí","native":null,"lat":"7.40684000","lon":"-80.44217000"},{"id":80529,"name":"Tres Quebradas","native":null,"lat":"7.84018000","lon":"-80.40740000"},{"id":80536,"name":"Valle Rico","native":null,"lat":"7.62011000","lon":"-80.35076000"},{"id":80538,"name":"Vallerriquito","native":null,"lat":"7.62163000","lon":"-80.31975000"},{"id":80544,"name":"Villa Lourdes","native":null,"lat":"7.81141000","lon":"-80.47029000"}]},{"id":1391,"name":"Ngöbe-Buglé Comarca","native":null,"cities":[{"id":79977,"name":"Bahía Azul","native":null,"lat":"9.14176000","lon":"-81.89425000"},{"id":79991,"name":"Besiko","native":null,"lat":"8.54863000","lon":"-82.08980000"},{"id":79993,"name":"Bisira","native":null,"lat":"8.89553000","lon":"-81.85352000"},{"id":79996,"name":"Boca de Balsa","native":null,"lat":"8.52995000","lon":"-82.03132000"},{"id":80009,"name":"Buenos Aires","native":null,"lat":"8.41384000","lon":"-81.48440000"},{"id":80028,"name":"Camarón Arriba","native":null,"lat":"8.38324000","lon":"-81.99345000"},{"id":80046,"name":"Cerro Banco","native":null,"lat":"8.45797000","lon":"-82.03081000"},{"id":80048,"name":"Cerro Caña","native":null,"lat":"8.35174000","lon":"-81.61050000"},{"id":80050,"name":"Cerro Plata","native":null,"lat":"8.47733000","lon":"-81.54585000"},{"id":80057,"name":"Chichica","native":null,"lat":"8.35885000","lon":"-81.66582000"},{"id":80226,"name":"Guayabito","native":null,"lat":"8.53949000","lon":"-81.48225000"},{"id":80230,"name":"Hato Chami","native":null,"lat":"8.44281000","lon":"-81.77196000"},{"id":80231,"name":"Hato Corotú","native":null,"lat":"8.33516000","lon":"-81.97030000"},{"id":80239,"name":"Kankintú","native":null,"lat":"8.89503000","lon":"-81.85750000"},{"id":80240,"name":"Kusapín","native":null,"lat":"9.17119000","lon":"-81.89621000"},{"id":80285,"name":"Lajero Arriba","native":null,"lat":"8.29060000","lon":"-81.77047000"},{"id":80323,"name":"Llano Ñopo","native":null,"lat":"8.41996000","lon":"-81.61865000"},{"id":80325,"name":"Loma Yuca","native":null,"lat":"8.71817000","lon":"-81.40492000"},{"id":80356,"name":"Mirono","native":null,"lat":"8.40469000","lon":"-81.83064000"},{"id":80364,"name":"Müna","native":null,"lat":"8.35035000","lon":"-81.67219000"},{"id":80367,"name":"Nole Düima","native":null,"lat":"8.32682000","lon":"-81.81531000"},{"id":80381,"name":"Nurun","native":null,"lat":"8.47815000","lon":"-81.47015000"},{"id":80384,"name":"Oma","native":null,"lat":"8.35019000","lon":"-81.80177000"},{"id":80397,"name":"Paredón Arriba","native":null,"lat":"8.45977000","lon":"-81.19592000"},{"id":80414,"name":"Plan de Chorcha","native":null,"lat":"8.46168000","lon":"-82.15924000"},{"id":80429,"name":"Pueblo Nuevo","native":null,"lat":"8.88070000","lon":"-82.22411000"},{"id":80444,"name":"Quebrada Canoa","native":null,"lat":"8.43333000","lon":"-81.78333000"},{"id":80445,"name":"Quebrada Tula","native":null,"lat":"8.84037000","lon":"-81.99645000"},{"id":80515,"name":"Sitio Prado","native":null,"lat":"8.37233000","lon":"-81.58141000"},{"id":80523,"name":"Tobobe","native":null,"lat":"9.12111000","lon":"-81.82471000"}]},{"id":1394,"name":"Panamá Oeste Province","native":null,"cities":[{"id":79966,"name":"Alto del Espino","native":null,"lat":"8.84213000","lon":"-79.84551000"},{"id":79967,"name":"Altos de San Francisco","native":null,"lat":"8.86167000","lon":"-79.79000000"},{"id":79971,"name":"Arenosa","native":null,"lat":"9.03978000","lon":"-79.95128000"},{"id":79972,"name":"Arosemena","native":null,"lat":"8.97091000","lon":"-79.96641000"},{"id":79973,"name":"Arraiján","native":null,"lat":"8.95187000","lon":"-79.66011000"},{"id":79989,"name":"Bejuco","native":null,"lat":"8.60037000","lon":"-79.88988000"},{"id":80008,"name":"Buenos Aires","native":null,"lat":"8.63146000","lon":"-79.94775000"},{"id":80016,"name":"Cabuya","native":null,"lat":"8.57472000","lon":"-79.92714000"},{"id":80020,"name":"Caimito","native":null,"lat":"8.81143000","lon":"-79.94738000"},{"id":80033,"name":"Capira","native":null,"lat":"8.75636000","lon":"-79.87996000"},{"id":80044,"name":"Cermeño","native":null,"lat":"8.74082000","lon":"-79.85299000"},{"id":80047,"name":"Cerro Cama","native":null,"lat":"9.02802000","lon":"-79.90744000"},{"id":80053,"name":"Chame","native":null,"lat":"8.57753000","lon":"-79.88595000"},{"id":80069,"name":"Cirí de Los Sotos","native":null,"lat":"8.97206000","lon":"-80.09209000"},{"id":80083,"name":"Distrito Arraiján","native":null,"lat":"8.95000000","lon":"-79.70000000"},{"id":80097,"name":"Distrito de Capira","native":null,"lat":"8.76228000","lon":"-79.88275000"},{"id":80100,"name":"Distrito de Chame","native":null,"lat":"8.60000000","lon":"-79.91667000"},{"id":80112,"name":"Distrito de La Chorrera","native":null,"lat":"8.95000000","lon":"-79.85000000"},{"id":80135,"name":"Distrito de San Carlos","native":null,"lat":"8.53196000","lon":"-80.06906000"},{"id":80152,"name":"El Cacao","native":null,"lat":"8.76134000","lon":"-80.01294000"},{"id":80164,"name":"El Coco","native":null,"lat":"8.87009000","lon":"-79.80415000"},{"id":80171,"name":"El Espavé","native":null,"lat":"8.66161000","lon":"-79.87584000"},{"id":80172,"name":"El Espino","native":null,"lat":"8.83795000","lon":"-79.84925000"},{"id":80178,"name":"El Higo","native":null,"lat":"8.44731000","lon":"-80.03603000"},{"id":80179,"name":"El Líbano","native":null,"lat":"8.61685000","lon":"-79.83483000"},{"id":80219,"name":"Guadalupe","native":null,"lat":"8.85452000","lon":"-79.81408000"},{"id":80227,"name":"Guayabito","native":null,"lat":"8.54828000","lon":"-80.01350000"},{"id":80232,"name":"Hato Montaña","native":null,"lat":"8.91938000","lon":"-79.73915000"},{"id":80243,"name":"La Chorrera","native":null,"lat":"8.88028000","lon":"-79.78333000"},{"id":80250,"name":"La Ermita","native":null,"lat":"8.45622000","lon":"-80.06835000"},{"id":80257,"name":"La Herradura","native":null,"lat":"8.84848000","lon":"-79.80404000"},{"id":80258,"name":"La Laguna","native":null,"lat":"9.04404000","lon":"-79.84215000"},{"id":80268,"name":"La Mitra","native":null,"lat":"8.84091000","lon":"-79.78648000"},{"id":80273,"name":"La Pesa","native":null,"lat":"8.85073000","lon":"-79.82374000"},{"id":80286,"name":"Las Colinas","native":null,"lat":"8.55000000","lon":"-80.08333000"},{"id":80294,"name":"Las Lajas","native":null,"lat":"8.54963000","lon":"-79.93521000"},{"id":80308,"name":"Las Uvas","native":null,"lat":"8.45937000","lon":"-80.00075000"},{"id":80318,"name":"Llano Largo","native":null,"lat":"8.83463000","lon":"-79.80765000"},{"id":80336,"name":"Los Llanitos","native":null,"lat":"8.59787000","lon":"-80.09503000"},{"id":80352,"name":"Mendoza","native":null,"lat":"9.01471000","lon":"-79.85073000"},{"id":80371,"name":"Nueva Arenosa","native":null,"lat":"8.86944000","lon":"-79.99472000"},{"id":80373,"name":"Nueva Gorgona","native":null,"lat":"8.55000000","lon":"-79.87547000"},{"id":80374,"name":"Nuevo Arraiján","native":null,"lat":"8.92453000","lon":"-79.72004000"},{"id":80377,"name":"Nuevo Emperador","native":null,"lat":"9.00273000","lon":"-79.73141000"},{"id":80416,"name":"Playa Leona","native":null,"lat":"8.78389000","lon":"-79.77547000"},{"id":80426,"name":"Potrero Grande","native":null,"lat":"8.88051000","lon":"-79.82795000"},{"id":80432,"name":"Puerto Caimito","native":null,"lat":"8.87022000","lon":"-79.71423000"},{"id":80458,"name":"Río Congo","native":null,"lat":"8.96666000","lon":"-79.76105000"},{"id":80475,"name":"San Carlos","native":null,"lat":"8.47323000","lon":"-79.96104000"},{"id":80483,"name":"San José","native":null,"lat":"8.93333000","lon":"-79.73333000"},{"id":80495,"name":"San Vicente de Bique","native":null,"lat":"8.91143000","lon":"-79.67360000"},{"id":80498,"name":"Santa Clara","native":null,"lat":"9.02875000","lon":"-79.75443000"},{"id":80505,"name":"Santa Rita","native":null,"lat":"8.85681000","lon":"-79.87954000"},{"id":80518,"name":"Sorá","native":null,"lat":"8.63191000","lon":"-80.00888000"},{"id":80540,"name":"Veracruz","native":null,"lat":"8.88988000","lon":"-79.62603000"},{"id":80543,"name":"Villa Carmen","native":null,"lat":"8.79832000","lon":"-79.86929000"},{"id":80545,"name":"Villa Rosario","native":null,"lat":"8.77379000","lon":"-79.87547000"},{"id":80547,"name":"Vista Alegre","native":null,"lat":"8.92772000","lon":"-79.70280000"}]},{"id":1395,"name":"Panamá Province","native":null,"cities":[{"id":79960,"name":"Alcalde Díaz","native":null,"lat":"9.12016000","lon":"-79.55641000"},{"id":79968,"name":"Ancón","native":null,"lat":"8.96015000","lon":"-79.55140000"},{"id":80006,"name":"Brujas","native":null,"lat":"8.58536000","lon":"-78.53008000"},{"id":80014,"name":"Cabra Número Uno","native":null,"lat":"9.10863000","lon":"-79.33694000"},{"id":80018,"name":"Caimitillo","native":null,"lat":"9.15559000","lon":"-79.53974000"},{"id":80027,"name":"Calzada Larga","native":null,"lat":"9.17272000","lon":"-79.56212000"},{"id":80041,"name":"Cañita","native":null,"lat":"9.22236000","lon":"-78.89509000"},{"id":80045,"name":"Cerro Azul","native":null,"lat":"9.15735000","lon":"-79.42097000"},{"id":80055,"name":"Chepillo","native":null,"lat":"8.95396000","lon":"-79.12856000"},{"id":80056,"name":"Chepo","native":null,"lat":"9.17019000","lon":"-79.10083000"},{"id":80060,"name":"Chilibre","native":null,"lat":"9.15093000","lon":"-79.62098000"},{"id":80061,"name":"Chimán","native":null,"lat":"8.69125000","lon":"-78.63570000"},{"id":80074,"name":"Contadora","native":null,"lat":"8.62483000","lon":"-79.03748000"},{"id":80080,"name":"Curundú","native":null,"lat":"8.97092000","lon":"-79.54612000"},{"id":80090,"name":"Distrito de Balboa","native":null,"lat":"8.46667000","lon":"-79.00000000"},{"id":80103,"name":"Distrito de Chepo","native":null,"lat":"9.17391000","lon":"-78.70374000"},{"id":80104,"name":"Distrito de Chimán","native":null,"lat":"8.76043000","lon":"-78.56470000"},{"id":80125,"name":"Distrito de Panamá","native":null,"lat":"9.30612000","lon":"-79.45246000"},{"id":80144,"name":"Distrito de Taboga","native":null,"lat":"8.78333000","lon":"-79.55833000"},{"id":80160,"name":"El Chorrillo","native":null,"lat":"8.94964000","lon":"-79.54715000"},{"id":80196,"name":"El Progreso","native":null,"lat":"9.26667000","lon":"-79.11667000"},{"id":80215,"name":"Gonzalillo","native":null,"lat":"9.09183000","lon":"-79.51928000"},{"id":80234,"name":"Howard","native":null,"lat":"8.93942000","lon":"-79.59097000"},{"id":80238,"name":"Juan Díaz","native":null,"lat":"9.05000000","lon":"-79.45000000"},{"id":80242,"name":"La Cabima","native":null,"lat":"9.11865000","lon":"-79.53660000"},{"id":80245,"name":"La Colorada","native":null,"lat":"9.10224000","lon":"-79.41600000"},{"id":80249,"name":"La Ensenada","native":null,"lat":"8.36618000","lon":"-78.84606000"},{"id":80251,"name":"La Esmeralda","native":null,"lat":"8.26817000","lon":"-78.92460000"},{"id":80256,"name":"La Guinea","native":null,"lat":"8.34250000","lon":"-78.93430000"},{"id":80264,"name":"La Mesa","native":null,"lat":"9.17308000","lon":"-79.27401000"},{"id":80288,"name":"Las Cumbres","native":null,"lat":"9.08916000","lon":"-79.52809000"},{"id":80297,"name":"Las Margaritas","native":null,"lat":"9.18426000","lon":"-79.08730000"},{"id":80345,"name":"Lídice","native":null,"lat":"8.74869000","lon":"-79.90974000"},{"id":80337,"name":"Los Lotes","native":null,"lat":"9.12425000","lon":"-79.28929000"},{"id":80372,"name":"Nueva Esperanza","native":null,"lat":"9.10210000","lon":"-79.33414000"},{"id":80375,"name":"Nuevo Belén","native":null,"lat":"9.07939000","lon":"-79.39556000"},{"id":80386,"name":"Pacora","native":null,"lat":"9.07937000","lon":"-79.28997000"},{"id":80394,"name":"Panamá","native":null,"lat":"8.99360000","lon":"-79.51973000"},{"id":80400,"name":"Parque Lefevre","native":null,"lat":"9.01667000","lon":"-79.48333000"},{"id":80441,"name":"Pásiga","native":null,"lat":"8.93647000","lon":"-78.90917000"},{"id":80404,"name":"Pedregal","native":null,"lat":"9.06667000","lon":"-79.43333000"},{"id":80456,"name":"Río Abajo","native":null,"lat":"9.01667000","lon":"-79.50000000"},{"id":80472,"name":"San Antonio","native":null,"lat":"9.17290000","lon":"-79.54743000"},{"id":80476,"name":"San Felipe","native":null,"lat":"8.95118000","lon":"-79.53726000"},{"id":80489,"name":"San Miguel","native":null,"lat":"8.45685000","lon":"-78.93695000"},{"id":80490,"name":"San Miguelito","native":null,"lat":"9.05032000","lon":"-79.47068000"},{"id":80494,"name":"San Vicente","native":null,"lat":"9.11445000","lon":"-79.59755000"},{"id":80524,"name":"Tocumen","native":null,"lat":"9.08939000","lon":"-79.38310000"},{"id":80527,"name":"Tortí","native":null,"lat":"8.92132000","lon":"-78.40546000"},{"id":80533,"name":"Unión de Azuero","native":null,"lat":"9.15256000","lon":"-79.17005000"},{"id":80532,"name":"Unión Santeña","native":null,"lat":"8.83525000","lon":"-78.65104000"},{"id":80546,"name":"Villa Unida","native":null,"lat":"9.18908000","lon":"-79.62452000"},{"id":80549,"name":"Vista Hermosa","native":null,"lat":"9.11178000","lon":"-79.36113000"}]},{"id":1392,"name":"Veraguas Province","native":null,"cities":[{"id":79964,"name":"Alto de Jesús","native":null,"lat":"8.26152000","lon":"-81.48412000"},{"id":79970,"name":"Arenas","native":null,"lat":"7.36865000","lon":"-80.86268000"},{"id":79975,"name":"Atalaya","native":null,"lat":"8.04213000","lon":"-80.92528000"},{"id":79981,"name":"Barnizal","native":null,"lat":"8.40460000","lon":"-80.77765000"},{"id":79994,"name":"Bisvalles","native":null,"lat":"8.18298000","lon":"-81.22092000"},{"id":80001,"name":"Boquerón","native":null,"lat":"8.24414000","lon":"-80.85897000"},{"id":80004,"name":"Boró","native":null,"lat":"8.16933000","lon":"-81.30071000"},{"id":80022,"name":"Calabacito","native":null,"lat":"8.24817000","lon":"-81.08187000"},{"id":80024,"name":"Calidonia","native":null,"lat":"7.95756000","lon":"-81.38633000"},{"id":80025,"name":"Calobre","native":null,"lat":"8.31886000","lon":"-80.84067000"},{"id":80026,"name":"Calovébora","native":null,"lat":"8.78703000","lon":"-81.21056000"},{"id":80040,"name":"Cañazas","native":null,"lat":"8.32004000","lon":"-81.21152000"},{"id":80031,"name":"Canto del Llano","native":null,"lat":"8.12472000","lon":"-80.96374000"},{"id":80077,"name":"Corozal","native":null,"lat":"8.07712000","lon":"-81.43990000"},{"id":80089,"name":"Distrito de Atalaya","native":null,"lat":"8.02899000","lon":"-80.91739000"},{"id":80096,"name":"Distrito de Calobre","native":null,"lat":"8.39684000","lon":"-80.85124000"},{"id":80098,"name":"Distrito de Cañazas","native":null,"lat":"8.35596000","lon":"-81.28633000"},{"id":80113,"name":"Distrito de La Mesa","native":null,"lat":"8.10976000","lon":"-81.17767000"},{"id":80116,"name":"Distrito de Las Palmas","native":null,"lat":"8.14532000","lon":"-81.42849000"},{"id":80121,"name":"Distrito de Montijo","native":null,"lat":"7.95316000","lon":"-81.05301000"},{"id":80134,"name":"Distrito de Río de Jesús","native":null,"lat":"7.91438000","lon":"-81.16133000"},{"id":80136,"name":"Distrito de San Francisco","native":null,"lat":"8.26965000","lon":"-81.00108000"},{"id":80139,"name":"Distrito de Santa Fé","native":null,"lat":"8.72063000","lon":"-80.95858000"},{"id":80142,"name":"Distrito de Santiago","native":null,"lat":"8.12425000","lon":"-80.87827000"},{"id":80143,"name":"Distrito de Soná","native":null,"lat":"7.84378000","lon":"-81.36612000"},{"id":80149,"name":"El Alto","native":null,"lat":"8.51191000","lon":"-81.03646000"},{"id":80150,"name":"El Barrito","native":null,"lat":"7.96059000","lon":"-80.94801000"},{"id":80162,"name":"El Coclá","native":null,"lat":"8.32143000","lon":"-80.92069000"},{"id":80173,"name":"El Espino de Santa Rosa","native":null,"lat":"8.09286000","lon":"-80.82380000"},{"id":80182,"name":"El Marañón","native":null,"lat":"8.03582000","lon":"-81.21489000"},{"id":80183,"name":"El María","native":null,"lat":"8.02905000","lon":"-81.44384000"},{"id":80197,"name":"El Pájaro","native":null,"lat":"7.95342000","lon":"-81.12154000"},{"id":80187,"name":"El Pantano","native":null,"lat":"8.53755000","lon":"-81.06941000"},{"id":80190,"name":"El Peñón","native":null,"lat":"8.35000000","lon":"-80.97620000"},{"id":80191,"name":"El Picador","native":null,"lat":"8.37803000","lon":"-81.25621000"},{"id":80195,"name":"El Potrero","native":null,"lat":"8.37692000","lon":"-80.79434000"},{"id":80200,"name":"El Rincón","native":null,"lat":"8.18422000","lon":"-81.43333000"},{"id":80205,"name":"El Uvito","native":null,"lat":"8.11648000","lon":"-80.98461000"},{"id":80224,"name":"Guarumal","native":null,"lat":"7.79404000","lon":"-81.25904000"},{"id":80244,"name":"La Colorada","native":null,"lat":"8.01319000","lon":"-80.98590000"},{"id":80255,"name":"La Garceana","native":null,"lat":"7.93708000","lon":"-81.01643000"},{"id":80259,"name":"La Laguna","native":null,"lat":"8.33882000","lon":"-80.72949000"},{"id":80262,"name":"La Loma","native":null,"lat":"7.43708000","lon":"-80.89118000"},{"id":80263,"name":"La Mesa","native":null,"lat":"8.14707000","lon":"-81.18114000"},{"id":80269,"name":"La Montañuela","native":null,"lat":"8.02487000","lon":"-80.86325000"},{"id":80274,"name":"La Peña","native":null,"lat":"8.12784000","lon":"-81.02693000"},{"id":80276,"name":"La Raya de Calobre","native":null,"lat":"8.21630000","lon":"-80.82729000"},{"id":80277,"name":"La Raya de Santa María","native":null,"lat":"8.16429000","lon":"-80.82143000"},{"id":80281,"name":"La Yeguada","native":null,"lat":"8.43060000","lon":"-80.85752000"},{"id":80291,"name":"Las Guías Abajo","native":null,"lat":"8.19451000","lon":"-80.75494000"},{"id":80292,"name":"Las Huacas","native":null,"lat":"7.90167000","lon":"-81.14056000"},{"id":80302,"name":"Las Palmas","native":null,"lat":"8.13564000","lon":"-81.45674000"},{"id":80310,"name":"Leones Arriba","native":null,"lat":"7.75415000","lon":"-81.11556000"},{"id":80316,"name":"Llano Grande","native":null,"lat":"8.07473000","lon":"-81.13626000"},{"id":80324,"name":"Lolá","native":null,"lat":"8.09326000","lon":"-81.47163000"},{"id":80327,"name":"Los Algarrobos","native":null,"lat":"8.10898000","lon":"-81.01355000"},{"id":80332,"name":"Los Castillos","native":null,"lat":"8.02326000","lon":"-81.11941000"},{"id":80335,"name":"Los Higos","native":null,"lat":"8.20553000","lon":"-80.86022000"},{"id":80349,"name":"Mariato District","native":null,"lat":"7.67810000","lon":"-81.00409000"},{"id":80359,"name":"Monjarás","native":null,"lat":"8.36942000","lon":"-80.86667000"},{"id":80361,"name":"Montijo","native":null,"lat":"7.98858000","lon":"-81.05643000"},{"id":80412,"name":"Piedras Gordas","native":null,"lat":"8.52419000","lon":"-80.91152000"},{"id":80421,"name":"Ponuga","native":null,"lat":"7.88245000","lon":"-80.97880000"},{"id":80436,"name":"Puerto Vidal","native":null,"lat":"8.04834000","lon":"-81.60499000"},{"id":80446,"name":"Quebrada de Oro","native":null,"lat":"8.03548000","lon":"-81.38692000"},{"id":80466,"name":"Río de Jesús","native":null,"lat":"7.97882000","lon":"-81.16162000"},{"id":80461,"name":"Río Grande","native":null,"lat":"7.71907000","lon":"-81.33423000"},{"id":80454,"name":"Rodeo Viejo","native":null,"lat":"8.11205000","lon":"-81.31684000"},{"id":80473,"name":"San Bartolo","native":null,"lat":"8.21063000","lon":"-81.27572000"},{"id":80477,"name":"San Francisco","native":null,"lat":"8.06667000","lon":"-81.36667000"},{"id":80482,"name":"San José","native":null,"lat":"8.46704000","lon":"-80.80514000"},{"id":80484,"name":"San Juan","native":null,"lat":"8.30311000","lon":"-81.01575000"},{"id":80488,"name":"San Marcelo","native":null,"lat":"8.27252000","lon":"-81.15988000"},{"id":80493,"name":"San Pedro del Espino","native":null,"lat":"8.14011000","lon":"-81.08663000"},{"id":80501,"name":"Santa Fé","native":null,"lat":"8.51063000","lon":"-81.07802000"},{"id":80508,"name":"Santiago de Veraguas","native":null,"lat":"8.10000000","lon":"-80.98333000"},{"id":80516,"name":"Soná","native":null,"lat":"8.01223000","lon":"-81.32163000"},{"id":80519,"name":"Tebario","native":null,"lat":"7.71369000","lon":"-80.97825000"},{"id":80535,"name":"Utirá","native":null,"lat":"7.97208000","lon":"-81.21777000"},{"id":80542,"name":"Viguí","native":null,"lat":"8.33921000","lon":"-81.49823000"},{"id":80553,"name":"Zapotillo","native":null,"lat":"8.00532000","lon":"-81.50653000"}]}]