[{"name":"Bocas del Toro Province","native":null,"cities":[{"name":"Almirante","native":null,"lat":"9.30091000","lon":"-82.40180000"},{"name":"Barranco","native":null,"lat":"9.51984000","lon":"-82.70424000"},{"name":"Barranco Adentro","native":null,"lat":"9.52757000","lon":"-82.73344000"},{"name":"Bastimentos","native":null,"lat":"9.34707000","lon":"-82.20880000"},{"name":"Bocas del Toro","native":null,"lat":"9.34031000","lon":"-82.24204000"},{"name":"Cauchero","native":null,"lat":"9.15226000","lon":"-82.26450000"},{"name":"Changuinola","native":null,"lat":"9.43000000","lon":"-82.52000000"},{"name":"Chiriquí Grande","native":null,"lat":"8.94557000","lon":"-82.11769000"},{"name":"Distrito Chiriquí Grande","native":null,"lat":"8.94748000","lon":"-82.12418000"},{"name":"Distrito de Bocas del Toro","native":null,"lat":"9.36235000","lon":"-82.26288000"},{"name":"Distrito de Changuinola","native":null,"lat":"9.25000000","lon":"-82.63333000"},{"name":"El Empalme","native":null,"lat":"9.41667000","lon":"-82.51667000"},{"name":"El Silencio","native":null,"lat":"9.37222000","lon":"-82.52877000"},{"name":"Guabito","native":null,"lat":"9.48968000","lon":"-82.61279000"},{"name":"Isla Bastimentos","native":null,"lat":"9.30000000","lon":"-82.13333000"},{"name":"La Mesa","native":null,"lat":"9.49587000","lon":"-82.67534000"},{"name":"Miramar","native":null,"lat":"8.99482000","lon":"-82.24147000"},{"name":"Punta Laurel","native":null,"lat":"9.14100000","lon":"-82.12717000"},{"name":"Punta Peña","native":null,"lat":"8.91659000","lon":"-82.18488000"},{"name":"Punta Róbalo","native":null,"lat":"9.03631000","lon":"-82.24952000"},{"name":"Valle del Risco","native":null,"lat":"9.23064000","lon":"-82.42748000"}]},{"name":"Chiriquí Province","native":null,"cities":[{"name":"Alanje","native":null,"lat":"8.39791000","lon":"-82.55947000"},{"name":"Algarrobos Arriba","native":null,"lat":"8.51550000","lon":"-82.42263000"},{"name":"Alto Boquete","native":null,"lat":"8.73458000","lon":"-82.43213000"},{"name":"Aserrío de Gariché","native":null,"lat":"8.48257000","lon":"-82.79086000"},{"name":"Bágala","native":null,"lat":"8.46399000","lon":"-82.52617000"},{"name":"Bajo Boquete","native":null,"lat":"8.77058000","lon":"-82.43306000"},{"name":"Barrio Guadalupe","native":null,"lat":"8.86482000","lon":"-82.56523000"},{"name":"Bijagual","native":null,"lat":"8.51486000","lon":"-82.33361000"},{"name":"Boca Chica","native":null,"lat":"8.21911000","lon":"-82.21592000"},{"name":"Boca del Monte","native":null,"lat":"8.35296000","lon":"-82.11379000"},{"name":"Boquerón","native":null,"lat":"8.50510000","lon":"-82.57025000"},{"name":"Boquete","native":null,"lat":"8.78024000","lon":"-82.44136000"},{"name":"Breñón","native":null,"lat":"8.62491000","lon":"-82.81277000"},{"name":"Bugaba","native":null,"lat":"8.48255000","lon":"-82.61991000"},{"name":"Bugabita Arriba","native":null,"lat":"8.52143000","lon":"-82.63638000"},{"name":"Caimito","native":null,"lat":"8.54162000","lon":"-82.41900000"},{"name":"Caldera","native":null,"lat":"8.64907000","lon":"-82.38058000"},{"name":"Cañas Gordas","native":null,"lat":"8.74309000","lon":"-82.91275000"},{"name":"Celmira","native":null,"lat":"8.54026000","lon":"-82.80022000"},{"name":"Cerro Punta","native":null,"lat":"8.84968000","lon":"-82.57261000"},{"name":"Cerro Viejo","native":null,"lat":"8.25349000","lon":"-81.57658000"},{"name":"Chiriquí","native":null,"lat":"8.39291000","lon":"-82.31993000"},{"name":"Cochea Abajo","native":null,"lat":"8.50512000","lon":"-82.35878000"},{"name":"Cordillera","native":null,"lat":"8.70683000","lon":"-82.60327000"},{"name":"David","native":null,"lat":"8.42729000","lon":"-82.43085000"},{"name":"Distrito de Alanje","native":null,"lat":"8.39842000","lon":"-82.64065000"},{"name":"Distrito de Barú","native":null,"lat":"8.29482000","lon":"-82.92726000"},{"name":"Distrito de Boquerón","native":null,"lat":"8.61667000","lon":"-82.56667000"},{"name":"Distrito de Boquete","native":null,"lat":"8.74896000","lon":"-82.36842000"},{"name":"Distrito de Bugaba","native":null,"lat":"8.68786000","lon":"-82.67937000"},{"name":"Distrito de David","native":null,"lat":"8.40000000","lon":"-82.40000000"},{"name":"Distrito de Dolega","native":null,"lat":"8.61667000","lon":"-82.45000000"},{"name":"Distrito de Gualaca","native":null,"lat":"8.57398000","lon":"-82.22207000"},{"name":"Distrito de Remedios","native":null,"lat":"8.20253000","lon":"-81.81163000"},{"name":"Distrito de Renacimiento","native":null,"lat":"8.71667000","lon":"-82.76667000"},{"name":"Distrito de San Félix","native":null,"lat":"8.27768000","lon":"-81.87377000"},{"name":"Distrito de San Lorenzo","native":null,"lat":"8.29366000","lon":"-82.08922000"},{"name":"Distrito de Tolé","native":null,"lat":"8.19015000","lon":"-81.66007000"},{"name":"Divalá","native":null,"lat":"8.41066000","lon":"-82.71332000"},{"name":"Dolega District","native":null,"lat":"8.56667000","lon":"-82.41407000"},{"name":"El Nancito","native":null,"lat":"8.23811000","lon":"-81.73218000"},{"name":"El Palmar","native":null,"lat":"8.30098000","lon":"-82.85344000"},{"name":"El Porvenir","native":null,"lat":"8.22919000","lon":"-81.83278000"},{"name":"El Tejar","native":null,"lat":"8.42973000","lon":"-82.57294000"},{"name":"Finca Blanco","native":null,"lat":"8.37979000","lon":"-82.87385000"},{"name":"Gómez","native":null,"lat":"8.56085000","lon":"-82.74142000"},{"name":"Guabal","native":null,"lat":"8.57466000","lon":"-82.53730000"},{"name":"Guaca Arriba","native":null,"lat":"8.53733000","lon":"-82.49281000"},{"name":"Gualaca","native":null,"lat":"8.53006000","lon":"-82.29959000"},{"name":"Guarumal","native":null,"lat":"8.34523000","lon":"-82.53205000"},{"name":"Guayabal","native":null,"lat":"8.62193000","lon":"-82.57935000"},{"name":"Horconcitos","native":null,"lat":"8.31142000","lon":"-82.15102000"},{"name":"La Concepción","native":null,"lat":"8.51212000","lon":"-82.61858000"},{"name":"La Esperanza","native":null,"lat":"8.40344000","lon":"-82.79197000"},{"name":"La Estrella","native":null,"lat":"8.51572000","lon":"-82.67212000"},{"name":"Lajas Adentro","native":null,"lat":"8.24981000","lon":"-81.87779000"},{"name":"Lajas de Tolé","native":null,"lat":"8.16994000","lon":"-81.69654000"},{"name":"Las Lajas","native":null,"lat":"8.24184000","lon":"-81.86931000"},{"name":"Las Lomas","native":null,"lat":"8.42927000","lon":"-82.38743000"},{"name":"Limones","native":null,"lat":"8.10007000","lon":"-82.86679000"},{"name":"Los Algarrobos","native":null,"lat":"8.49601000","lon":"-82.42417000"},{"name":"Los Anastacios","native":null,"lat":"8.53027000","lon":"-82.42295000"},{"name":"Los Ángeles","native":null,"lat":"8.52271000","lon":"-82.19997000"},{"name":"Los Naranjos","native":null,"lat":"8.79210000","lon":"-82.44665000"},{"name":"Manaca Civil","native":null,"lat":"8.32458000","lon":"-82.81570000"},{"name":"Manaca Norte","native":null,"lat":"8.33419000","lon":"-82.81003000"},{"name":"Mata del Nance","native":null,"lat":"8.45056000","lon":"-82.40057000"},{"name":"Monte Lirio","native":null,"lat":"8.78935000","lon":"-82.82865000"},{"name":"Nuevo San Carlitos","native":null,"lat":"8.45698000","lon":"-82.43712000"},{"name":"Paja de Sombrero","native":null,"lat":"8.68335000","lon":"-82.31911000"},{"name":"Palmira","native":null,"lat":"8.73401000","lon":"-82.45887000"},{"name":"Palmira Centro","native":null,"lat":"8.73956000","lon":"-82.45228000"},{"name":"Paraíso","native":null,"lat":"8.65842000","lon":"-82.58625000"},{"name":"Paso Canoas Arriba","native":null,"lat":"8.56516000","lon":"-82.82214000"},{"name":"Pedregal","native":null,"lat":"8.36586000","lon":"-82.43524000"},{"name":"Plaza de Caisán","native":null,"lat":"8.73672000","lon":"-82.81968000"},{"name":"Potrerillos Abajo","native":null,"lat":"8.63978000","lon":"-82.48560000"},{"name":"Potrerillos Arriba","native":null,"lat":"8.68547000","lon":"-82.49090000"},{"name":"Progreso","native":null,"lat":"8.44669000","lon":"-82.83859000"},{"name":"Pueblo Viejo","native":null,"lat":"8.25081000","lon":"-81.66259000"},{"name":"Puerto Armuelles","native":null,"lat":"8.27775000","lon":"-82.86206000"},{"name":"Punta de Burica","native":null,"lat":"8.03333000","lon":"-82.86667000"},{"name":"Quebrada de Piedra","native":null,"lat":"8.09418000","lon":"-81.67915000"},{"name":"Querévalo","native":null,"lat":"8.37174000","lon":"-82.52670000"},{"name":"Quinteño","native":null,"lat":"8.47102000","lon":"-82.39352000"},{"name":"Remedios","native":null,"lat":"8.22436000","lon":"-81.82747000"},{"name":"Rincón","native":null,"lat":"8.46374000","lon":"-82.27951000"},{"name":"Río Sereno","native":null,"lat":"8.81741000","lon":"-82.85731000"},{"name":"Rovira Arriba","native":null,"lat":"8.63822000","lon":"-82.49965000"},{"name":"San Andrés","native":null,"lat":"8.60260000","lon":"-82.72588000"},{"name":"San Carlos","native":null,"lat":"8.51663000","lon":"-82.50906000"},{"name":"San Félix","native":null,"lat":"8.29063000","lon":"-81.86702000"},{"name":"San Isidro","native":null,"lat":"8.53032000","lon":"-82.82720000"},{"name":"San Lorenzo","native":null,"lat":"8.30561000","lon":"-82.10114000"},{"name":"San Pablo Nuevo Abajo","native":null,"lat":"8.42558000","lon":"-82.50173000"},{"name":"San Pablo Viejo Abajo","native":null,"lat":"8.45339000","lon":"-82.50179000"},{"name":"Santa Clara","native":null,"lat":"8.83376000","lon":"-82.77945000"},{"name":"Santa Cruz","native":null,"lat":"8.23219000","lon":"-81.91323000"},{"name":"Santa Marta","native":null,"lat":"8.51406000","lon":"-82.69870000"},{"name":"Santa Rosa","native":null,"lat":"8.59958000","lon":"-82.68489000"},{"name":"Santo Domingo","native":null,"lat":"8.50803000","lon":"-82.71295000"},{"name":"Santo Tomás","native":null,"lat":"8.38959000","lon":"-82.65058000"},{"name":"Sioguí Abajo","native":null,"lat":"8.48678000","lon":"-82.66539000"},{"name":"Sioguí Arriba","native":null,"lat":"8.53865000","lon":"-82.68619000"},{"name":"Sortova","native":null,"lat":"8.54642000","lon":"-82.65170000"},{"name":"Tijeras","native":null,"lat":"8.47514000","lon":"-82.56058000"},{"name":"Tinajas","native":null,"lat":"8.55281000","lon":"-82.45963000"},{"name":"Tolé","native":null,"lat":"8.23989000","lon":"-81.67168000"},{"name":"Veladero","native":null,"lat":"8.23136000","lon":"-81.65417000"},{"name":"Volcán","native":null,"lat":"8.77291000","lon":"-82.63823000"}]},{"name":"Coclé Province","native":null,"cities":[{"name":"Aguadulce","native":null,"lat":"8.24183000","lon":"-80.54609000"},{"name":"Aguas Blancas","native":null,"lat":"8.50351000","lon":"-80.31169000"},{"name":"Alto de La Estancia","native":null,"lat":"8.58792000","lon":"-80.18443000"},{"name":"Antón","native":null,"lat":"8.39733000","lon":"-80.26063000"},{"name":"Barranco Colorado","native":null,"lat":"8.38937000","lon":"-80.63546000"},{"name":"Caballero","native":null,"lat":"8.54343000","lon":"-80.19769000"},{"name":"Cabuya","native":null,"lat":"8.54703000","lon":"-80.16756000"},{"name":"Caimito","native":null,"lat":"8.62271000","lon":"-80.23919000"},{"name":"Cañaveral","native":null,"lat":"8.51700000","lon":"-80.42916000"},{"name":"Capellanía","native":null,"lat":"8.29858000","lon":"-80.55480000"},{"name":"Chigoré","native":null,"lat":"8.53035000","lon":"-80.35117000"},{"name":"Chiguirí Arriba","native":null,"lat":"8.67187000","lon":"-80.18975000"},{"name":"Churuquita Chiquita","native":null,"lat":"8.57555000","lon":"-80.27161000"},{"name":"Churuquita Grande","native":null,"lat":"8.59449000","lon":"-80.27182000"},{"name":"Coclé","native":null,"lat":"8.45601000","lon":"-80.42899000"},{"name":"Distrito de Aguadulce","native":null,"lat":"8.21270000","lon":"-80.61441000"},{"name":"Distrito de Antón","native":null,"lat":"8.45394000","lon":"-80.18361000"},{"name":"Distrito de La Pintada","native":null,"lat":"8.71801000","lon":"-80.53946000"},{"name":"Distrito de Natá","native":null,"lat":"8.34416000","lon":"-80.60934000"},{"name":"Distrito de Olá","native":null,"lat":"8.48053000","lon":"-80.65324000"},{"name":"Distrito Penonomé","native":null,"lat":"8.63000000","lon":"-80.28333000"},{"name":"El Caño","native":null,"lat":"8.40195000","lon":"-80.51791000"},{"name":"El Chirú","native":null,"lat":"8.39876000","lon":"-80.18721000"},{"name":"El Coco","native":null,"lat":"8.39716000","lon":"-80.35000000"},{"name":"El Copé","native":null,"lat":"8.62036000","lon":"-80.58433000"},{"name":"El Cortezo","native":null,"lat":"8.34556000","lon":"-80.58721000"},{"name":"El Cristo","native":null,"lat":"8.25071000","lon":"-80.62093000"},{"name":"El Potrero","native":null,"lat":"8.52146000","lon":"-80.51681000"},{"name":"El Retiro","native":null,"lat":"8.48014000","lon":"-80.15426000"},{"name":"El Roble","native":null,"lat":"8.16850000","lon":"-80.65897000"},{"name":"Entradero","native":null,"lat":"8.56880000","lon":"-80.20743000"},{"name":"Farallón","native":null,"lat":"8.35658000","lon":"-80.13723000"},{"name":"Guzman","native":null,"lat":"8.51969000","lon":"-80.58405000"},{"name":"Juan Díaz","native":null,"lat":"8.46240000","lon":"-80.28280000"},{"name":"La Loma","native":null,"lat":"8.16667000","lon":"-80.63742000"},{"name":"La Pintada","native":null,"lat":"8.59299000","lon":"-80.44349000"},{"name":"Las Huacas del Quije","native":null,"lat":"8.46702000","lon":"-80.75089000"},{"name":"Las Marias","native":null,"lat":"8.88809000","lon":"-80.21893000"},{"name":"Las Minas","native":null,"lat":"8.64118000","lon":"-80.39432000"},{"name":"Las Sabanas","native":null,"lat":"8.58141000","lon":"-80.67978000"},{"name":"Llano Grande","native":null,"lat":"8.63817000","lon":"-80.43848000"},{"name":"Llano Marín","native":null,"lat":"8.47696000","lon":"-80.32499000"},{"name":"Los Pollos","native":null,"lat":"8.39898000","lon":"-80.15731000"},{"name":"Natá","native":null,"lat":"8.33209000","lon":"-80.51969000"},{"name":"Nuestro Amo","native":null,"lat":"8.44485000","lon":"-80.58934000"},{"name":"Olá","native":null,"lat":"8.41807000","lon":"-80.65123000"},{"name":"Penonomé","native":null,"lat":"8.51889000","lon":"-80.35727000"},{"name":"Piedras Gordas","native":null,"lat":"8.63777000","lon":"-80.51024000"},{"name":"Pocrí","native":null,"lat":"8.25814000","lon":"-80.55000000"},{"name":"Río Grande","native":null,"lat":"8.42679000","lon":"-80.48457000"},{"name":"Río Hato","native":null,"lat":"8.37940000","lon":"-80.16621000"},{"name":"San Juan de Dios","native":null,"lat":"8.55119000","lon":"-80.22623000"},{"name":"Toabré","native":null,"lat":"8.65131000","lon":"-80.32017000"},{"name":"Toza","native":null,"lat":"8.34542000","lon":"-80.64012000"},{"name":"Vista Hermosa","native":null,"lat":"8.52687000","lon":"-80.37486000"}]},{"name":"Colón Province","native":null,"cities":[{"name":"Buena Vista","native":null,"lat":"9.27356000","lon":"-79.69551000"},{"name":"Cativá","native":null,"lat":"9.36218000","lon":"-79.83232000"},{"name":"Coclé del Norte","native":null,"lat":"9.07540000","lon":"-80.57177000"},{"name":"Colón","native":null,"lat":"9.35451000","lon":"-79.90011000"},{"name":"Cristóbal","native":null,"lat":"9.35222000","lon":"-79.90444000"},{"name":"Distrito de Chagres","native":null,"lat":"9.12300000","lon":"-80.11841000"},{"name":"Distrito de Colón","native":null,"lat":"9.24313000","lon":"-79.79463000"},{"name":"Distrito de Donoso","native":null,"lat":"9.01999000","lon":"-80.42967000"},{"name":"Distrito de Portobelo","native":null,"lat":"9.49748000","lon":"-79.60730000"},{"name":"Distrito de Santa Isabel","native":null,"lat":"9.48333000","lon":"-79.31667000"},{"name":"El Giral","native":null,"lat":"9.24509000","lon":"-79.69266000"},{"name":"El Guabo","native":null,"lat":"9.07842000","lon":"-80.08316000"},{"name":"El Valle de la Unión","native":null,"lat":"9.23630000","lon":"-79.65986000"},{"name":"Escobal","native":null,"lat":"9.14373000","lon":"-79.96439000"},{"name":"Gatún","native":null,"lat":"9.28922000","lon":"-79.77204000"},{"name":"Gatuncillo","native":null,"lat":"9.24346000","lon":"-79.64856000"},{"name":"Las Margaritas","native":null,"lat":"9.32603000","lon":"-79.89028000"},{"name":"María Chiquita","native":null,"lat":"9.43991000","lon":"-79.75455000"},{"name":"Miramar","native":null,"lat":"9.57544000","lon":"-79.33573000"},{"name":"Nombre de Dios","native":null,"lat":"9.57937000","lon":"-79.47109000"},{"name":"Nuevo Chagres","native":null,"lat":"9.23979000","lon":"-80.08267000"},{"name":"Nuevo San Juan","native":null,"lat":"9.22205000","lon":"-79.66602000"},{"name":"Nuevo Vigía","native":null,"lat":"9.24263000","lon":"-79.60756000"},{"name":"Palenque","native":null,"lat":"9.56970000","lon":"-79.36341000"},{"name":"Palmas Bellas","native":null,"lat":"9.22838000","lon":"-80.08503000"},{"name":"Palmira","native":null,"lat":"9.54359000","lon":"-79.21946000"},{"name":"Playa Chiquita","native":null,"lat":"9.56620000","lon":"-79.29185000"},{"name":"Portobelo","native":null,"lat":"9.55303000","lon":"-79.65693000"},{"name":"Puerto Escondido","native":null,"lat":"9.19333000","lon":"-80.08833000"},{"name":"Puerto Pilón","native":null,"lat":"9.36316000","lon":"-79.79333000"},{"name":"Quebrada Bonita Adentro","native":null,"lat":"9.29662000","lon":"-79.70606000"},{"name":"Río Alejandro","native":null,"lat":"9.37149000","lon":"-79.78809000"},{"name":"Río Duque","native":null,"lat":"9.25688000","lon":"-79.67937000"},{"name":"Río Rita","native":null,"lat":"9.30296000","lon":"-79.79234000"},{"name":"Sabanitas","native":null,"lat":"9.34269000","lon":"-79.80961000"},{"name":"Santa Isabel","native":null,"lat":"9.53922000","lon":"-79.19570000"},{"name":"Santa Rita Arriba","native":null,"lat":"9.33032000","lon":"-79.79363000"},{"name":"Viento Frío","native":null,"lat":"9.58263000","lon":"-79.40690000"}]},{"name":"Darién Province","native":null,"cities":[{"name":"Boca de Cupé","native":null,"lat":"8.03003000","lon":"-77.58978000"},{"name":"Camogantí","native":null,"lat":"8.04171000","lon":"-77.88682000"},{"name":"Cucunatí","native":null,"lat":"8.57508000","lon":"-78.25671000"},{"name":"Distrito de Chepigana","native":null,"lat":"7.84374000","lon":"-77.83830000"},{"name":"Distrito de Pinogana","native":null,"lat":"7.89343000","lon":"-77.52562000"},{"name":"Garachiné","native":null,"lat":"8.06684000","lon":"-78.36436000"},{"name":"Jaqué","native":null,"lat":"7.51826000","lon":"-78.16343000"},{"name":"La Palma","native":null,"lat":"8.40608000","lon":"-78.13964000"},{"name":"Metetí","native":null,"lat":"8.49909000","lon":"-77.97897000"},{"name":"Mortí","native":null,"lat":"8.84246000","lon":"-77.97539000"},{"name":"Púcuro","native":null,"lat":"7.97876000","lon":"-77.48758000"},{"name":"Santa Fé","native":null,"lat":"8.65525000","lon":"-78.16140000"},{"name":"Yaviza","native":null,"lat":"8.15835000","lon":"-77.69276000"}]},{"name":"Emberá-Wounaan Comarca","native":null,"cities":[{"name":"Bayamón","native":null,"lat":"7.96817000","lon":"-78.21648000"},{"name":"Cémaco","native":null,"lat":"8.08285000","lon":"-77.54210000"},{"name":"Corozal","native":null,"lat":"8.20108000","lon":"-77.59637000"},{"name":"Sambú","native":null,"lat":"7.82013000","lon":"-78.11005000"},{"name":"Unión Chocó","native":null,"lat":"8.08404000","lon":"-77.53507000"},{"name":"Yape","native":null,"lat":"8.09839000","lon":"-77.59817000"}]},{"name":"Guna Yala","native":null,"cities":[{"name":"Achutupo","native":null,"lat":"9.19827000","lon":"-77.98729000"},{"name":"Ailigandí","native":null,"lat":"9.22810000","lon":"-78.02778000"},{"name":"Cartí Sugdup","native":null,"lat":"9.46460000","lon":"-78.95931000"},{"name":"El Porvenir","native":null,"lat":"9.55276000","lon":"-78.95230000"},{"name":"Mulatupo","native":null,"lat":"8.94672000","lon":"-77.75080000"},{"name":"Narganá","native":null,"lat":"9.44394000","lon":"-78.58666000"},{"name":"Playón Chico","native":null,"lat":"9.31128000","lon":"-78.23270000"},{"name":"Puerto Obaldía","native":null,"lat":"8.66632000","lon":"-77.41922000"},{"name":"San Ignacio de Tupile","native":null,"lat":"9.28905000","lon":"-78.15206000"},{"name":"Tubualá","native":null,"lat":"9.51667000","lon":"-79.03333000"},{"name":"Ustupo","native":null,"lat":"9.13112000","lon":"-77.92620000"}]},{"name":"Herrera Province","native":null,"cities":[{"name":"Boca de Parita","native":null,"lat":"8.00796000","lon":"-80.45320000"},{"name":"Cabuya","native":null,"lat":"8.03138000","lon":"-80.63227000"},{"name":"Cerro Largo","native":null,"lat":"7.83377000","lon":"-80.83168000"},{"name":"Chitré","native":null,"lat":"7.96082000","lon":"-80.42944000"},{"name":"Chumical","native":null,"lat":"7.84482000","lon":"-80.72627000"},{"name":"Chupampa","native":null,"lat":"8.07620000","lon":"-80.77656000"},{"name":"Distrito de Chitré","native":null,"lat":"7.98333000","lon":"-80.43333000"},{"name":"Distrito de Las Minas","native":null,"lat":"7.76525000","lon":"-80.82249000"},{"name":"Distrito de Los Pozos","native":null,"lat":"7.70944000","lon":"-80.64311000"},{"name":"Distrito de Ocú","native":null,"lat":"7.90641000","lon":"-80.79752000"},{"name":"Distrito de Parita","native":null,"lat":"8.06240000","lon":"-80.56373000"},{"name":"Distrito de Pesé","native":null,"lat":"7.88194000","lon":"-80.63261000"},{"name":"Distrito de Santa María","native":null,"lat":"8.11667000","lon":"-80.68333000"},{"name":"El Calabacito","native":null,"lat":"7.71843000","lon":"-80.59757000"},{"name":"El Capurí","native":null,"lat":"7.72571000","lon":"-80.64349000"},{"name":"El Cedro","native":null,"lat":"7.68565000","lon":"-80.65927000"},{"name":"El Pedregoso","native":null,"lat":"7.93642000","lon":"-80.63807000"},{"name":"El Rincón","native":null,"lat":"8.11923000","lon":"-80.61707000"},{"name":"El Toro","native":null,"lat":"7.75110000","lon":"-80.86943000"},{"name":"La Arena","native":null,"lat":"7.96766000","lon":"-80.46523000"},{"name":"La Trinidad","native":null,"lat":"7.91457000","lon":"-80.70332000"},{"name":"Las Guabas","native":null,"lat":"7.90949000","lon":"-80.80706000"},{"name":"Las Minas","native":null,"lat":"7.79581000","lon":"-80.74570000"},{"name":"Leones Arriba","native":null,"lat":"7.76590000","lon":"-80.84515000"},{"name":"Limón de Tijeras","native":null,"lat":"7.81756000","lon":"-80.91335000"},{"name":"Llano Bonito","native":null,"lat":"7.97637000","lon":"-80.41646000"},{"name":"Llano de La Cruz","native":null,"lat":"7.95178000","lon":"-80.64239000"},{"name":"Llano Grande","native":null,"lat":"7.97406000","lon":"-80.71103000"},{"name":"Los Canelos","native":null,"lat":"8.11722000","lon":"-80.70769000"},{"name":"Los Castillos","native":null,"lat":"7.98565000","lon":"-80.61886000"},{"name":"Los Cerritos","native":null,"lat":"7.79746000","lon":"-80.61071000"},{"name":"Los Cerros de Paja","native":null,"lat":"7.71821000","lon":"-80.67273000"},{"name":"Los Pozos","native":null,"lat":"7.78300000","lon":"-80.64524000"},{"name":"Monagrillo","native":null,"lat":"7.98179000","lon":"-80.43764000"},{"name":"Ocú","native":null,"lat":"7.94052000","lon":"-80.77936000"},{"name":"París","native":null,"lat":"8.05053000","lon":"-80.55409000"},{"name":"Parita","native":null,"lat":"7.99393000","lon":"-80.52097000"},{"name":"Peñas Chatas","native":null,"lat":"8.01502000","lon":"-80.80366000"},{"name":"Pesé","native":null,"lat":"7.90863000","lon":"-80.61433000"},{"name":"Pitaloza Arriba","native":null,"lat":"7.64216000","lon":"-80.66788000"},{"name":"Portobelillo","native":null,"lat":"8.01738000","lon":"-80.59538000"},{"name":"Potuga","native":null,"lat":"8.06317000","lon":"-80.62271000"},{"name":"Quebrada del Rosario","native":null,"lat":"7.71238000","lon":"-80.74222000"},{"name":"Rincón Hondo","native":null,"lat":"7.84436000","lon":"-80.60397000"},{"name":"Sabana Grande","native":null,"lat":"7.88002000","lon":"-80.63818000"},{"name":"San Juan Bautista","native":null,"lat":"7.96099000","lon":"-80.41283000"},{"name":"Santa María","native":null,"lat":"8.11143000","lon":"-80.66582000"}]},{"name":"Los Santos Province","native":null,"cities":[{"name":"Agua Buena","native":null,"lat":"7.83465000","lon":"-80.39405000"},{"name":"Ave María","native":null,"lat":"7.32481000","lon":"-80.45361000"},{"name":"Bahía Honda","native":null,"lat":"7.70517000","lon":"-80.45342000"},{"name":"Bajo Corral","native":null,"lat":"7.60463000","lon":"-80.26016000"},{"name":"Bayano","native":null,"lat":"7.63014000","lon":"-80.38201000"},{"name":"Bella Vista","native":null,"lat":"7.75000000","lon":"-80.23333000"},{"name":"Cambutal","native":null,"lat":"7.26534000","lon":"-80.49105000"},{"name":"Cañas","native":null,"lat":"7.44713000","lon":"-80.26480000"},{"name":"Cedro Arriba","native":null,"lat":"7.78097000","lon":"-80.53057000"},{"name":"Distrito de Guararé","native":null,"lat":"7.77021000","lon":"-80.37515000"},{"name":"Distrito de Las Tablas","native":null,"lat":"7.64843000","lon":"-80.29933000"},{"name":"Distrito de Los Santos","native":null,"lat":"7.88333000","lon":"-80.45000000"},{"name":"Distrito de Macaracas","native":null,"lat":"7.65817000","lon":"-80.53526000"},{"name":"Distrito de Pedasí","native":null,"lat":"7.48528000","lon":"-80.12747000"},{"name":"Distrito de Pocrí","native":null,"lat":"7.63721000","lon":"-80.16470000"},{"name":"Distrito de Tonosí","native":null,"lat":"7.43597000","lon":"-80.45828000"},{"name":"El Cacao","native":null,"lat":"7.44570000","lon":"-80.40938000"},{"name":"El Cañafístulo","native":null,"lat":"7.61768000","lon":"-80.23322000"},{"name":"El Carate","native":null,"lat":"7.73124000","lon":"-80.29691000"},{"name":"El Cocal","native":null,"lat":"7.73697000","lon":"-80.27980000"},{"name":"El Cortezo","native":null,"lat":"7.42661000","lon":"-80.63311000"},{"name":"El Ejido","native":null,"lat":"7.91634000","lon":"-80.38686000"},{"name":"El Guásimo","native":null,"lat":"7.80640000","lon":"-80.52991000"},{"name":"El Hato","native":null,"lat":"7.79316000","lon":"-80.38267000"},{"name":"El Macano","native":null,"lat":"7.68489000","lon":"-80.40309000"},{"name":"El Manantial","native":null,"lat":"7.78245000","lon":"-80.24713000"},{"name":"El Muñoz","native":null,"lat":"7.67582000","lon":"-80.32130000"},{"name":"El Pedregoso","native":null,"lat":"7.69173000","lon":"-80.32793000"},{"name":"Flores","native":null,"lat":"7.48157000","lon":"-80.40695000"},{"name":"Guararé","native":null,"lat":"7.81531000","lon":"-80.28345000"},{"name":"Guararé Arriba","native":null,"lat":"7.80023000","lon":"-80.35983000"},{"name":"La Colorada","native":null,"lat":"7.82362000","lon":"-80.55552000"},{"name":"La Enea","native":null,"lat":"7.83333000","lon":"-80.27417000"},{"name":"La Espigadilla","native":null,"lat":"7.88389000","lon":"-80.39039000"},{"name":"La Laja","native":null,"lat":"7.73102000","lon":"-80.25298000"},{"name":"La Mesa","native":null,"lat":"7.65670000","lon":"-80.61794000"},{"name":"La Miel","native":null,"lat":"7.56022000","lon":"-80.32736000"},{"name":"La Palma","native":null,"lat":"7.71667000","lon":"-80.38333000"},{"name":"La Pasera","native":null,"lat":"7.79757000","lon":"-80.30342000"},{"name":"La Tiza","native":null,"lat":"7.75110000","lon":"-80.29216000"},{"name":"La Tronosa","native":null,"lat":"7.43609000","lon":"-80.58698000"},{"name":"Lajamina","native":null,"lat":"7.58587000","lon":"-80.13212000"},{"name":"Las Cruces","native":null,"lat":"7.82285000","lon":"-80.43003000"},{"name":"Las Guabas","native":null,"lat":"7.81469000","lon":"-80.50155000"},{"name":"Las Palmas","native":null,"lat":"7.68314000","lon":"-80.49728000"},{"name":"Las Palmitas","native":null,"lat":"7.76523000","lon":"-80.29350000"},{"name":"Las Tablas","native":null,"lat":"7.76472000","lon":"-80.27483000"},{"name":"Las Trancas","native":null,"lat":"7.73400000","lon":"-80.37384000"},{"name":"Llano Abajo","native":null,"lat":"7.78598000","lon":"-80.41060000"},{"name":"Llano de Piedra","native":null,"lat":"7.65972000","lon":"-80.56347000"},{"name":"Llano Largo","native":null,"lat":"7.90607000","lon":"-80.42561000"},{"name":"Los Ángeles","native":null,"lat":"7.88422000","lon":"-80.35772000"},{"name":"Los Asientos","native":null,"lat":"7.51656000","lon":"-80.13521000"},{"name":"Los Olivos","native":null,"lat":"7.91589000","lon":"-80.48884000"},{"name":"Los Santos","native":null,"lat":"7.93333000","lon":"-80.41667000"},{"name":"Macaracas","native":null,"lat":"7.73168000","lon":"-80.55364000"},{"name":"Mogollón","native":null,"lat":"7.64261000","lon":"-80.45950000"},{"name":"Nuario","native":null,"lat":"7.53047000","lon":"-80.32692000"},{"name":"Oria Arriba","native":null,"lat":"7.50505000","lon":"-80.20567000"},{"name":"Palmira","native":null,"lat":"7.66347000","lon":"-80.35728000"},{"name":"Paraíso","native":null,"lat":"7.68510000","lon":"-80.16082000"},{"name":"Paritilla","native":null,"lat":"7.62848000","lon":"-80.17240000"},{"name":"Pedasí","native":null,"lat":"7.53034000","lon":"-80.02699000"},{"name":"Peña Blanca","native":null,"lat":"7.71931000","lon":"-80.28366000"},{"name":"Perales","native":null,"lat":"7.77461000","lon":"-80.32494000"},{"name":"Pocrí","native":null,"lat":"7.65816000","lon":"-80.12119000"},{"name":"Río Hondo","native":null,"lat":"7.71192000","lon":"-80.35904000"},{"name":"Sabana Grande","native":null,"lat":"7.83543000","lon":"-80.36490000"},{"name":"San José","native":null,"lat":"7.67395000","lon":"-80.24438000"},{"name":"Santa Ana Arriba","native":null,"lat":"7.93300000","lon":"-80.36369000"},{"name":"Santo Domingo","native":null,"lat":"7.74614000","lon":"-80.24173000"},{"name":"Sesteadero","native":null,"lat":"7.73885000","lon":"-80.24854000"},{"name":"Tonosí","native":null,"lat":"7.40684000","lon":"-80.44217000"},{"name":"Tres Quebradas","native":null,"lat":"7.84018000","lon":"-80.40740000"},{"name":"Valle Rico","native":null,"lat":"7.62011000","lon":"-80.35076000"},{"name":"Vallerriquito","native":null,"lat":"7.62163000","lon":"-80.31975000"},{"name":"Villa Lourdes","native":null,"lat":"7.81141000","lon":"-80.47029000"}]},{"name":"Ngöbe-Buglé Comarca","native":null,"cities":[{"name":"Bahía Azul","native":null,"lat":"9.14176000","lon":"-81.89425000"},{"name":"Besiko","native":null,"lat":"8.54863000","lon":"-82.08980000"},{"name":"Bisira","native":null,"lat":"8.89553000","lon":"-81.85352000"},{"name":"Boca de Balsa","native":null,"lat":"8.52995000","lon":"-82.03132000"},{"name":"Buenos Aires","native":null,"lat":"8.41384000","lon":"-81.48440000"},{"name":"Camarón Arriba","native":null,"lat":"8.38324000","lon":"-81.99345000"},{"name":"Cerro Banco","native":null,"lat":"8.45797000","lon":"-82.03081000"},{"name":"Cerro Caña","native":null,"lat":"8.35174000","lon":"-81.61050000"},{"name":"Cerro Plata","native":null,"lat":"8.47733000","lon":"-81.54585000"},{"name":"Chichica","native":null,"lat":"8.35885000","lon":"-81.66582000"},{"name":"Guayabito","native":null,"lat":"8.53949000","lon":"-81.48225000"},{"name":"Hato Chami","native":null,"lat":"8.44281000","lon":"-81.77196000"},{"name":"Hato Corotú","native":null,"lat":"8.33516000","lon":"-81.97030000"},{"name":"Kankintú","native":null,"lat":"8.89503000","lon":"-81.85750000"},{"name":"Kusapín","native":null,"lat":"9.17119000","lon":"-81.89621000"},{"name":"Lajero Arriba","native":null,"lat":"8.29060000","lon":"-81.77047000"},{"name":"Llano Ñopo","native":null,"lat":"8.41996000","lon":"-81.61865000"},{"name":"Loma Yuca","native":null,"lat":"8.71817000","lon":"-81.40492000"},{"name":"Mirono","native":null,"lat":"8.40469000","lon":"-81.83064000"},{"name":"Müna","native":null,"lat":"8.35035000","lon":"-81.67219000"},{"name":"Nole Düima","native":null,"lat":"8.32682000","lon":"-81.81531000"},{"name":"Nurun","native":null,"lat":"8.47815000","lon":"-81.47015000"},{"name":"Oma","native":null,"lat":"8.35019000","lon":"-81.80177000"},{"name":"Paredón Arriba","native":null,"lat":"8.45977000","lon":"-81.19592000"},{"name":"Plan de Chorcha","native":null,"lat":"8.46168000","lon":"-82.15924000"},{"name":"Pueblo Nuevo","native":null,"lat":"8.88070000","lon":"-82.22411000"},{"name":"Quebrada Canoa","native":null,"lat":"8.43333000","lon":"-81.78333000"},{"name":"Quebrada Tula","native":null,"lat":"8.84037000","lon":"-81.99645000"},{"name":"Sitio Prado","native":null,"lat":"8.37233000","lon":"-81.58141000"},{"name":"Tobobe","native":null,"lat":"9.12111000","lon":"-81.82471000"}]},{"name":"Panamá Oeste Province","native":null,"cities":[{"name":"Alto del Espino","native":null,"lat":"8.84213000","lon":"-79.84551000"},{"name":"Altos de San Francisco","native":null,"lat":"8.86167000","lon":"-79.79000000"},{"name":"Arenosa","native":null,"lat":"9.03978000","lon":"-79.95128000"},{"name":"Arosemena","native":null,"lat":"8.97091000","lon":"-79.96641000"},{"name":"Arraiján","native":null,"lat":"8.95187000","lon":"-79.66011000"},{"name":"Bejuco","native":null,"lat":"8.60037000","lon":"-79.88988000"},{"name":"Buenos Aires","native":null,"lat":"8.63146000","lon":"-79.94775000"},{"name":"Cabuya","native":null,"lat":"8.57472000","lon":"-79.92714000"},{"name":"Caimito","native":null,"lat":"8.81143000","lon":"-79.94738000"},{"name":"Capira","native":null,"lat":"8.75636000","lon":"-79.87996000"},{"name":"Cermeño","native":null,"lat":"8.74082000","lon":"-79.85299000"},{"name":"Cerro Cama","native":null,"lat":"9.02802000","lon":"-79.90744000"},{"name":"Chame","native":null,"lat":"8.57753000","lon":"-79.88595000"},{"name":"Cirí de Los Sotos","native":null,"lat":"8.97206000","lon":"-80.09209000"},{"name":"Distrito Arraiján","native":null,"lat":"8.95000000","lon":"-79.70000000"},{"name":"Distrito de Capira","native":null,"lat":"8.76228000","lon":"-79.88275000"},{"name":"Distrito de Chame","native":null,"lat":"8.60000000","lon":"-79.91667000"},{"name":"Distrito de La Chorrera","native":null,"lat":"8.95000000","lon":"-79.85000000"},{"name":"Distrito de San Carlos","native":null,"lat":"8.53196000","lon":"-80.06906000"},{"name":"El Cacao","native":null,"lat":"8.76134000","lon":"-80.01294000"},{"name":"El Coco","native":null,"lat":"8.87009000","lon":"-79.80415000"},{"name":"El Espavé","native":null,"lat":"8.66161000","lon":"-79.87584000"},{"name":"El Espino","native":null,"lat":"8.83795000","lon":"-79.84925000"},{"name":"El Higo","native":null,"lat":"8.44731000","lon":"-80.03603000"},{"name":"El Líbano","native":null,"lat":"8.61685000","lon":"-79.83483000"},{"name":"Guadalupe","native":null,"lat":"8.85452000","lon":"-79.81408000"},{"name":"Guayabito","native":null,"lat":"8.54828000","lon":"-80.01350000"},{"name":"Hato Montaña","native":null,"lat":"8.91938000","lon":"-79.73915000"},{"name":"La Chorrera","native":null,"lat":"8.88028000","lon":"-79.78333000"},{"name":"La Ermita","native":null,"lat":"8.45622000","lon":"-80.06835000"},{"name":"La Herradura","native":null,"lat":"8.84848000","lon":"-79.80404000"},{"name":"La Laguna","native":null,"lat":"9.04404000","lon":"-79.84215000"},{"name":"La Mitra","native":null,"lat":"8.84091000","lon":"-79.78648000"},{"name":"La Pesa","native":null,"lat":"8.85073000","lon":"-79.82374000"},{"name":"Las Colinas","native":null,"lat":"8.55000000","lon":"-80.08333000"},{"name":"Las Lajas","native":null,"lat":"8.54963000","lon":"-79.93521000"},{"name":"Las Uvas","native":null,"lat":"8.45937000","lon":"-80.00075000"},{"name":"Llano Largo","native":null,"lat":"8.83463000","lon":"-79.80765000"},{"name":"Los Llanitos","native":null,"lat":"8.59787000","lon":"-80.09503000"},{"name":"Mendoza","native":null,"lat":"9.01471000","lon":"-79.85073000"},{"name":"Nueva Arenosa","native":null,"lat":"8.86944000","lon":"-79.99472000"},{"name":"Nueva Gorgona","native":null,"lat":"8.55000000","lon":"-79.87547000"},{"name":"Nuevo Arraiján","native":null,"lat":"8.92453000","lon":"-79.72004000"},{"name":"Nuevo Emperador","native":null,"lat":"9.00273000","lon":"-79.73141000"},{"name":"Playa Leona","native":null,"lat":"8.78389000","lon":"-79.77547000"},{"name":"Potrero Grande","native":null,"lat":"8.88051000","lon":"-79.82795000"},{"name":"Puerto Caimito","native":null,"lat":"8.87022000","lon":"-79.71423000"},{"name":"Río Congo","native":null,"lat":"8.96666000","lon":"-79.76105000"},{"name":"San Carlos","native":null,"lat":"8.47323000","lon":"-79.96104000"},{"name":"San José","native":null,"lat":"8.93333000","lon":"-79.73333000"},{"name":"San Vicente de Bique","native":null,"lat":"8.91143000","lon":"-79.67360000"},{"name":"Santa Clara","native":null,"lat":"9.02875000","lon":"-79.75443000"},{"name":"Santa Rita","native":null,"lat":"8.85681000","lon":"-79.87954000"},{"name":"Sorá","native":null,"lat":"8.63191000","lon":"-80.00888000"},{"name":"Veracruz","native":null,"lat":"8.88988000","lon":"-79.62603000"},{"name":"Villa Carmen","native":null,"lat":"8.79832000","lon":"-79.86929000"},{"name":"Villa Rosario","native":null,"lat":"8.77379000","lon":"-79.87547000"},{"name":"Vista Alegre","native":null,"lat":"8.92772000","lon":"-79.70280000"}]},{"name":"Panamá Province","native":null,"cities":[{"name":"Alcalde Díaz","native":null,"lat":"9.12016000","lon":"-79.55641000"},{"name":"Ancón","native":null,"lat":"8.96015000","lon":"-79.55140000"},{"name":"Brujas","native":null,"lat":"8.58536000","lon":"-78.53008000"},{"name":"Cabra Número Uno","native":null,"lat":"9.10863000","lon":"-79.33694000"},{"name":"Caimitillo","native":null,"lat":"9.15559000","lon":"-79.53974000"},{"name":"Calzada Larga","native":null,"lat":"9.17272000","lon":"-79.56212000"},{"name":"Cañita","native":null,"lat":"9.22236000","lon":"-78.89509000"},{"name":"Cerro Azul","native":null,"lat":"9.15735000","lon":"-79.42097000"},{"name":"Chepillo","native":null,"lat":"8.95396000","lon":"-79.12856000"},{"name":"Chepo","native":null,"lat":"9.17019000","lon":"-79.10083000"},{"name":"Chilibre","native":null,"lat":"9.15093000","lon":"-79.62098000"},{"name":"Chimán","native":null,"lat":"8.69125000","lon":"-78.63570000"},{"name":"Contadora","native":null,"lat":"8.62483000","lon":"-79.03748000"},{"name":"Curundú","native":null,"lat":"8.97092000","lon":"-79.54612000"},{"name":"Distrito de Balboa","native":null,"lat":"8.46667000","lon":"-79.00000000"},{"name":"Distrito de Chepo","native":null,"lat":"9.17391000","lon":"-78.70374000"},{"name":"Distrito de Chimán","native":null,"lat":"8.76043000","lon":"-78.56470000"},{"name":"Distrito de Panamá","native":null,"lat":"9.30612000","lon":"-79.45246000"},{"name":"Distrito de Taboga","native":null,"lat":"8.78333000","lon":"-79.55833000"},{"name":"El Chorrillo","native":null,"lat":"8.94964000","lon":"-79.54715000"},{"name":"El Progreso","native":null,"lat":"9.26667000","lon":"-79.11667000"},{"name":"Gonzalillo","native":null,"lat":"9.09183000","lon":"-79.51928000"},{"name":"Howard","native":null,"lat":"8.93942000","lon":"-79.59097000"},{"name":"Juan Díaz","native":null,"lat":"9.05000000","lon":"-79.45000000"},{"name":"La Cabima","native":null,"lat":"9.11865000","lon":"-79.53660000"},{"name":"La Colorada","native":null,"lat":"9.10224000","lon":"-79.41600000"},{"name":"La Ensenada","native":null,"lat":"8.36618000","lon":"-78.84606000"},{"name":"La Esmeralda","native":null,"lat":"8.26817000","lon":"-78.92460000"},{"name":"La Guinea","native":null,"lat":"8.34250000","lon":"-78.93430000"},{"name":"La Mesa","native":null,"lat":"9.17308000","lon":"-79.27401000"},{"name":"Las Cumbres","native":null,"lat":"9.08916000","lon":"-79.52809000"},{"name":"Las Margaritas","native":null,"lat":"9.18426000","lon":"-79.08730000"},{"name":"Lídice","native":null,"lat":"8.74869000","lon":"-79.90974000"},{"name":"Los Lotes","native":null,"lat":"9.12425000","lon":"-79.28929000"},{"name":"Nueva Esperanza","native":null,"lat":"9.10210000","lon":"-79.33414000"},{"name":"Nuevo Belén","native":null,"lat":"9.07939000","lon":"-79.39556000"},{"name":"Pacora","native":null,"lat":"9.07937000","lon":"-79.28997000"},{"name":"Panamá","native":null,"lat":"8.99360000","lon":"-79.51973000"},{"name":"Parque Lefevre","native":null,"lat":"9.01667000","lon":"-79.48333000"},{"name":"Pásiga","native":null,"lat":"8.93647000","lon":"-78.90917000"},{"name":"Pedregal","native":null,"lat":"9.06667000","lon":"-79.43333000"},{"name":"Río Abajo","native":null,"lat":"9.01667000","lon":"-79.50000000"},{"name":"San Antonio","native":null,"lat":"9.17290000","lon":"-79.54743000"},{"name":"San Felipe","native":null,"lat":"8.95118000","lon":"-79.53726000"},{"name":"San Miguel","native":null,"lat":"8.45685000","lon":"-78.93695000"},{"name":"San Miguelito","native":null,"lat":"9.05032000","lon":"-79.47068000"},{"name":"San Vicente","native":null,"lat":"9.11445000","lon":"-79.59755000"},{"name":"Tocumen","native":null,"lat":"9.08939000","lon":"-79.38310000"},{"name":"Tortí","native":null,"lat":"8.92132000","lon":"-78.40546000"},{"name":"Unión de Azuero","native":null,"lat":"9.15256000","lon":"-79.17005000"},{"name":"Unión Santeña","native":null,"lat":"8.83525000","lon":"-78.65104000"},{"name":"Villa Unida","native":null,"lat":"9.18908000","lon":"-79.62452000"},{"name":"Vista Hermosa","native":null,"lat":"9.11178000","lon":"-79.36113000"}]},{"name":"Veraguas Province","native":null,"cities":[{"name":"Alto de Jesús","native":null,"lat":"8.26152000","lon":"-81.48412000"},{"name":"Arenas","native":null,"lat":"7.36865000","lon":"-80.86268000"},{"name":"Atalaya","native":null,"lat":"8.04213000","lon":"-80.92528000"},{"name":"Barnizal","native":null,"lat":"8.40460000","lon":"-80.77765000"},{"name":"Bisvalles","native":null,"lat":"8.18298000","lon":"-81.22092000"},{"name":"Boquerón","native":null,"lat":"8.24414000","lon":"-80.85897000"},{"name":"Boró","native":null,"lat":"8.16933000","lon":"-81.30071000"},{"name":"Calabacito","native":null,"lat":"8.24817000","lon":"-81.08187000"},{"name":"Calidonia","native":null,"lat":"7.95756000","lon":"-81.38633000"},{"name":"Calobre","native":null,"lat":"8.31886000","lon":"-80.84067000"},{"name":"Calovébora","native":null,"lat":"8.78703000","lon":"-81.21056000"},{"name":"Cañazas","native":null,"lat":"8.32004000","lon":"-81.21152000"},{"name":"Canto del Llano","native":null,"lat":"8.12472000","lon":"-80.96374000"},{"name":"Corozal","native":null,"lat":"8.07712000","lon":"-81.43990000"},{"name":"Distrito de Atalaya","native":null,"lat":"8.02899000","lon":"-80.91739000"},{"name":"Distrito de Calobre","native":null,"lat":"8.39684000","lon":"-80.85124000"},{"name":"Distrito de Cañazas","native":null,"lat":"8.35596000","lon":"-81.28633000"},{"name":"Distrito de La Mesa","native":null,"lat":"8.10976000","lon":"-81.17767000"},{"name":"Distrito de Las Palmas","native":null,"lat":"8.14532000","lon":"-81.42849000"},{"name":"Distrito de Montijo","native":null,"lat":"7.95316000","lon":"-81.05301000"},{"name":"Distrito de Río de Jesús","native":null,"lat":"7.91438000","lon":"-81.16133000"},{"name":"Distrito de San Francisco","native":null,"lat":"8.26965000","lon":"-81.00108000"},{"name":"Distrito de Santa Fé","native":null,"lat":"8.72063000","lon":"-80.95858000"},{"name":"Distrito de Santiago","native":null,"lat":"8.12425000","lon":"-80.87827000"},{"name":"Distrito de Soná","native":null,"lat":"7.84378000","lon":"-81.36612000"},{"name":"El Alto","native":null,"lat":"8.51191000","lon":"-81.03646000"},{"name":"El Barrito","native":null,"lat":"7.96059000","lon":"-80.94801000"},{"name":"El Coclá","native":null,"lat":"8.32143000","lon":"-80.92069000"},{"name":"El Espino de Santa Rosa","native":null,"lat":"8.09286000","lon":"-80.82380000"},{"name":"El Marañón","native":null,"lat":"8.03582000","lon":"-81.21489000"},{"name":"El María","native":null,"lat":"8.02905000","lon":"-81.44384000"},{"name":"El Pájaro","native":null,"lat":"7.95342000","lon":"-81.12154000"},{"name":"El Pantano","native":null,"lat":"8.53755000","lon":"-81.06941000"},{"name":"El Peñón","native":null,"lat":"8.35000000","lon":"-80.97620000"},{"name":"El Picador","native":null,"lat":"8.37803000","lon":"-81.25621000"},{"name":"El Potrero","native":null,"lat":"8.37692000","lon":"-80.79434000"},{"name":"El Rincón","native":null,"lat":"8.18422000","lon":"-81.43333000"},{"name":"El Uvito","native":null,"lat":"8.11648000","lon":"-80.98461000"},{"name":"Guarumal","native":null,"lat":"7.79404000","lon":"-81.25904000"},{"name":"La Colorada","native":null,"lat":"8.01319000","lon":"-80.98590000"},{"name":"La Garceana","native":null,"lat":"7.93708000","lon":"-81.01643000"},{"name":"La Laguna","native":null,"lat":"8.33882000","lon":"-80.72949000"},{"name":"La Loma","native":null,"lat":"7.43708000","lon":"-80.89118000"},{"name":"La Mesa","native":null,"lat":"8.14707000","lon":"-81.18114000"},{"name":"La Montañuela","native":null,"lat":"8.02487000","lon":"-80.86325000"},{"name":"La Peña","native":null,"lat":"8.12784000","lon":"-81.02693000"},{"name":"La Raya de Calobre","native":null,"lat":"8.21630000","lon":"-80.82729000"},{"name":"La Raya de Santa María","native":null,"lat":"8.16429000","lon":"-80.82143000"},{"name":"La Yeguada","native":null,"lat":"8.43060000","lon":"-80.85752000"},{"name":"Las Guías Abajo","native":null,"lat":"8.19451000","lon":"-80.75494000"},{"name":"Las Huacas","native":null,"lat":"7.90167000","lon":"-81.14056000"},{"name":"Las Palmas","native":null,"lat":"8.13564000","lon":"-81.45674000"},{"name":"Leones Arriba","native":null,"lat":"7.75415000","lon":"-81.11556000"},{"name":"Llano Grande","native":null,"lat":"8.07473000","lon":"-81.13626000"},{"name":"Lolá","native":null,"lat":"8.09326000","lon":"-81.47163000"},{"name":"Los Algarrobos","native":null,"lat":"8.10898000","lon":"-81.01355000"},{"name":"Los Castillos","native":null,"lat":"8.02326000","lon":"-81.11941000"},{"name":"Los Higos","native":null,"lat":"8.20553000","lon":"-80.86022000"},{"name":"Mariato District","native":null,"lat":"7.67810000","lon":"-81.00409000"},{"name":"Monjarás","native":null,"lat":"8.36942000","lon":"-80.86667000"},{"name":"Montijo","native":null,"lat":"7.98858000","lon":"-81.05643000"},{"name":"Piedras Gordas","native":null,"lat":"8.52419000","lon":"-80.91152000"},{"name":"Ponuga","native":null,"lat":"7.88245000","lon":"-80.97880000"},{"name":"Puerto Vidal","native":null,"lat":"8.04834000","lon":"-81.60499000"},{"name":"Quebrada de Oro","native":null,"lat":"8.03548000","lon":"-81.38692000"},{"name":"Río de Jesús","native":null,"lat":"7.97882000","lon":"-81.16162000"},{"name":"Río Grande","native":null,"lat":"7.71907000","lon":"-81.33423000"},{"name":"Rodeo Viejo","native":null,"lat":"8.11205000","lon":"-81.31684000"},{"name":"San Bartolo","native":null,"lat":"8.21063000","lon":"-81.27572000"},{"name":"San Francisco","native":null,"lat":"8.06667000","lon":"-81.36667000"},{"name":"San José","native":null,"lat":"8.46704000","lon":"-80.80514000"},{"name":"San Juan","native":null,"lat":"8.30311000","lon":"-81.01575000"},{"name":"San Marcelo","native":null,"lat":"8.27252000","lon":"-81.15988000"},{"name":"San Pedro del Espino","native":null,"lat":"8.14011000","lon":"-81.08663000"},{"name":"Santa Fé","native":null,"lat":"8.51063000","lon":"-81.07802000"},{"name":"Santiago de Veraguas","native":null,"lat":"8.10000000","lon":"-80.98333000"},{"name":"Soná","native":null,"lat":"8.01223000","lon":"-81.32163000"},{"name":"Tebario","native":null,"lat":"7.71369000","lon":"-80.97825000"},{"name":"Utirá","native":null,"lat":"7.97208000","lon":"-81.21777000"},{"name":"Viguí","native":null,"lat":"8.33921000","lon":"-81.49823000"},{"name":"Zapotillo","native":null,"lat":"8.00532000","lon":"-81.50653000"}]}]