[{"id":2233,"name":"Açores","native":null,"cities":[{"id":89692,"name":"Água de Pau","native":null,"lat":"37.72142000","lon":"-25.51170000"},{"id":88968,"name":"Angra do Heroísmo","native":null,"lat":"38.65483000","lon":"-27.21734000"},{"id":88969,"name":"Angústias","native":null,"lat":"38.52547000","lon":"-28.63132000"},{"id":88994,"name":"Arrifes","native":null,"lat":"37.76667000","lon":"-25.70000000"},{"id":89037,"name":"Biscoitos","native":null,"lat":"38.78333000","lon":"-27.25000000"},{"id":89057,"name":"Cabouco","native":null,"lat":"37.76667000","lon":"-25.56667000"},{"id":89062,"name":"Cais do Pico","native":null,"lat":"38.52531000","lon":"-28.32074000"},{"id":89069,"name":"Calheta","native":null,"lat":"38.60186000","lon":"-28.01792000"},{"id":89070,"name":"Calheta de São Jorge","native":null,"lat":"38.59767000","lon":"-27.91459000"},{"id":89105,"name":"Castelo Branco","native":null,"lat":"38.52198000","lon":"-28.71365000"},{"id":89131,"name":"Corvo","native":null,"lat":"39.69771000","lon":"-31.10550000"},{"id":89163,"name":"Fajã de Baixo","native":null,"lat":"37.75000000","lon":"-25.65000000"},{"id":89172,"name":"Fenais da Ajuda","native":null,"lat":"37.85128000","lon":"-25.32406000"},{"id":89173,"name":"Fenais da Luz","native":null,"lat":"37.82490000","lon":"-25.64229000"},{"id":89181,"name":"Feteira","native":null,"lat":"38.65429000","lon":"-27.14995000"},{"id":89187,"name":"Fonte Bastardo","native":null,"lat":"38.69201000","lon":"-27.07942000"},{"id":89199,"name":"Furnas","native":null,"lat":"37.77567000","lon":"-25.31035000"},{"id":89223,"name":"Horta","native":null,"lat":"38.53737000","lon":"-28.62615000"},{"id":89228,"name":"Lagoa","native":null,"lat":"37.74486000","lon":"-25.57184000"},{"id":89231,"name":"Lajes","native":null,"lat":"38.76352000","lon":"-27.10336000"},{"id":89232,"name":"Lajes das Flores","native":null,"lat":"39.41619000","lon":"-31.21725000"},{"id":89233,"name":"Lajes do Pico","native":null,"lat":"38.42797000","lon":"-28.17402000"},{"id":89267,"name":"Madalena","native":null,"lat":"38.53642000","lon":"-28.52660000"},{"id":89269,"name":"Maia","native":null,"lat":"37.83247000","lon":"-25.38976000"},{"id":89333,"name":"Mosteiros","native":null,"lat":"37.89017000","lon":"-25.81999000"},{"id":89350,"name":"Nordeste","native":null,"lat":"37.82721000","lon":"-25.22863000"},{"id":89412,"name":"Ponta Delgada","native":null,"lat":"37.74230000","lon":"-25.67093000"},{"id":89413,"name":"Ponta Garça","native":null,"lat":"37.71667000","lon":"-25.36667000"},{"id":89427,"name":"Porto Judeu","native":null,"lat":"38.64814000","lon":"-27.11944000"},{"id":89428,"name":"Porto Martins","native":null,"lat":"38.68146000","lon":"-27.05835000"},{"id":89434,"name":"Povoação","native":null,"lat":"37.76471000","lon":"-25.24487000"},{"id":89437,"name":"Praia da Vitória","native":null,"lat":"38.73333000","lon":"-27.06667000"},{"id":89451,"name":"Rabo de Peixe","native":null,"lat":"37.81022000","lon":"-25.58263000"},{"id":89460,"name":"Relva","native":null,"lat":"37.75271000","lon":"-25.71848000"},{"id":89466,"name":"Ribeira Grande","native":null,"lat":"38.51667000","lon":"-28.70000000"},{"id":89467,"name":"Ribeira Seca","native":null,"lat":"37.81667000","lon":"-25.53333000"},{"id":89469,"name":"Ribeirinha","native":null,"lat":"38.66203000","lon":"-27.18093000"},{"id":89479,"name":"Rosto de Cão","native":null,"lat":"37.75000000","lon":"-25.65000000"},{"id":89494,"name":"Santa Bárbara","native":null,"lat":"38.69608000","lon":"-27.33907000"},{"id":89502,"name":"Santa Cruz da Graciosa","native":null,"lat":"39.04946000","lon":"-28.00432000"},{"id":89501,"name":"Santa Cruz das Flores","native":null,"lat":"39.46984000","lon":"-31.18514000"},{"id":89558,"name":"São Bartolomeu","native":null,"lat":"38.67491000","lon":"-27.29349000"},{"id":89577,"name":"São Mateus","native":null,"lat":"38.65630000","lon":"-27.26935000"},{"id":89586,"name":"São Roque","native":null,"lat":"37.75418000","lon":"-25.64127000"},{"id":89588,"name":"São Roque do Pico","native":null,"lat":"38.51631000","lon":"-28.30752000"},{"id":89589,"name":"São Sebastião","native":null,"lat":"38.66584000","lon":"-27.08976000"},{"id":89592,"name":"São Vicente","native":null,"lat":"37.81829000","lon":"-25.66583000"},{"id":89529,"name":"Senhora do Rosário","native":null,"lat":"37.83333000","lon":"-25.15000000"},{"id":89633,"name":"Velas","native":null,"lat":"38.67995000","lon":"-28.15155000"},{"id":89673,"name":"Vila do Porto","native":null,"lat":"36.97454000","lon":"-25.09967000"},{"id":89650,"name":"Vila Franca do Campo","native":null,"lat":"37.71667000","lon":"-25.43333000"}]},{"id":2235,"name":"Aveiro","native":null,"cities":[{"id":88910,"name":"Aguada de Cima","native":null,"lat":"40.52291000","lon":"-8.42700000"},{"id":89695,"name":"Águeda","native":null,"lat":"40.57720000","lon":"-8.44442000"},{"id":88913,"name":"Albergaria-a-Velha","native":null,"lat":"40.68706000","lon":"-8.50399000"},{"id":88967,"name":"Anadia","native":null,"lat":"40.43841000","lon":"-8.43352000"},{"id":88976,"name":"Aradas","native":null,"lat":"40.62084000","lon":"-8.64195000"},{"id":88980,"name":"Arcos","native":null,"lat":"40.44779000","lon":"-8.44171000"},{"id":88986,"name":"Argoncilhe","native":null,"lat":"41.02541000","lon":"-8.53885000"},{"id":88989,"name":"Arouca","native":null,"lat":"40.92658000","lon":"-8.27251000"},{"id":88993,"name":"Arrifana","native":null,"lat":"40.91565000","lon":"-8.49657000"},{"id":89001,"name":"Avanca","native":null,"lat":"40.80771000","lon":"-8.57220000"},{"id":89003,"name":"Aveiro","native":null,"lat":"40.64427000","lon":"-8.64554000"},{"id":89025,"name":"Beduido","native":null,"lat":"40.76427000","lon":"-8.56110000"},{"id":89048,"name":"Branca","native":null,"lat":"40.76653000","lon":"-8.48262000"},{"id":89106,"name":"Castelo de Paiva","native":null,"lat":"41.03353000","lon":"-8.29822000"},{"id":89129,"name":"Cortegaça","native":null,"lat":"40.94883000","lon":"-8.62130000"},{"id":89137,"name":"Cucujães","native":null,"lat":"40.87413000","lon":"-8.50687000"},{"id":89141,"name":"Eixo","native":null,"lat":"40.62758000","lon":"-8.56922000"},{"id":89147,"name":"Esgueira","native":null,"lat":"40.64899000","lon":"-8.62943000"},{"id":89148,"name":"Esmoriz","native":null,"lat":"40.95773000","lon":"-8.62753000"},{"id":89149,"name":"Espargo","native":null,"lat":"40.92462000","lon":"-8.57495000"},{"id":89150,"name":"Espinho","native":null,"lat":"41.00763000","lon":"-8.64125000"},{"id":89153,"name":"Estarreja","native":null,"lat":"40.75463000","lon":"-8.57917000"},{"id":89170,"name":"Feira","native":null,"lat":"40.92535000","lon":"-8.54277000"},{"id":89185,"name":"Fiães","native":null,"lat":"40.99446000","lon":"-8.52537000"},{"id":89203,"name":"Gafanha da Encarnação","native":null,"lat":"40.61806000","lon":"-8.73303000"},{"id":89204,"name":"Gafanha da Nazaré","native":null,"lat":"40.63621000","lon":"-8.71338000"},{"id":89698,"name":"Ílhavo","native":null,"lat":"40.60188000","lon":"-8.67021000"},{"id":89234,"name":"Lamas","native":null,"lat":"40.98597000","lon":"-8.56923000"},{"id":89246,"name":"Lobão","native":null,"lat":"40.98664000","lon":"-8.48566000"},{"id":89254,"name":"Lourosa","native":null,"lat":"40.98420000","lon":"-8.55142000"},{"id":89257,"name":"Luso","native":null,"lat":"40.38429000","lon":"-8.37845000"},{"id":89263,"name":"Macieira de Cambra","native":null,"lat":"40.85939000","lon":"-8.37338000"},{"id":89287,"name":"Mealhada","native":null,"lat":"40.36273000","lon":"-8.44781000"},{"id":89298,"name":"Milheirós de Poiares","native":null,"lat":"40.92163000","lon":"-8.46788000"},{"id":89334,"name":"Mosteirô","native":null,"lat":"40.89843000","lon":"-8.53196000"},{"id":89338,"name":"Murtosa","native":null,"lat":"40.74301000","lon":"-8.64023000"},{"id":89349,"name":"Nogueira da Regedoura","native":null,"lat":"41.00530000","lon":"-8.59195000"},{"id":89355,"name":"Oiã","native":null,"lat":"40.54264000","lon":"-8.53856000"},{"id":89363,"name":"Oliveira de Azemeis","native":null,"lat":"40.84101000","lon":"-8.47555000"},{"id":89366,"name":"Oliveira do Bairro","native":null,"lat":"40.50977000","lon":"-8.56374000"},{"id":89370,"name":"Oliveirinha","native":null,"lat":"40.60715000","lon":"-8.59198000"},{"id":89374,"name":"Ovar","native":null,"lat":"40.85862000","lon":"-8.62513000"},{"id":89387,"name":"Paços de Brandão","native":null,"lat":"40.97541000","lon":"-8.58350000"},{"id":89379,"name":"Pampilhosa do Botão","native":null,"lat":"40.33580000","lon":"-8.42738000"},{"id":89381,"name":"Pardilhó","native":null,"lat":"40.79925000","lon":"-8.62598000"},{"id":89473,"name":"Rio Meão","native":null,"lat":"40.95775000","lon":"-8.57818000"},{"id":89484,"name":"Salreu","native":null,"lat":"40.73971000","lon":"-8.55720000"},{"id":89492,"name":"Sanfins","native":null,"lat":"40.92979000","lon":"-8.52563000"},{"id":89493,"name":"Sangalhos","native":null,"lat":"40.48678000","lon":"-8.46968000"},{"id":89507,"name":"Santa Maria da Feira","native":null,"lat":"40.96043000","lon":"-8.51545000"},{"id":89564,"name":"São João","native":null,"lat":"40.86802000","lon":"-8.60672000"},{"id":89565,"name":"São João da Madeira","native":null,"lat":"40.90070000","lon":"-8.49020000"},{"id":89570,"name":"São João de Ver","native":null,"lat":"40.95527000","lon":"-8.55117000"},{"id":89587,"name":"São Roque","native":null,"lat":"40.87216000","lon":"-8.47149000"},{"id":89541,"name":"Sever do Vouga","native":null,"lat":"40.73156000","lon":"-8.35493000"},{"id":89542,"name":"Silvalde","native":null,"lat":"40.99205000","lon":"-8.62567000"},{"id":89554,"name":"Souto","native":null,"lat":"40.98496000","lon":"-8.62185000"},{"id":89619,"name":"Vagos","native":null,"lat":"40.49943000","lon":"-8.67830000"},{"id":89625,"name":"Vale de Cambra","native":null,"lat":"40.84500000","lon":"-8.36022000"},{"id":89688,"name":"Válega","native":null,"lat":"40.83629000","lon":"-8.58061000"},{"id":89630,"name":"Valongo","native":null,"lat":"40.61667000","lon":"-8.45000000"},{"id":89645,"name":"Vila Chã","native":null,"lat":"40.86667000","lon":"-8.46667000"}]},{"id":2230,"name":"Beja","native":null,"cities":[{"id":88925,"name":"Aldeia Nova de São Bento","native":null,"lat":"37.92603000","lon":"-7.40804000"},{"id":88944,"name":"Aljustrel","native":null,"lat":"37.87759000","lon":"-8.16516000"},{"id":88949,"name":"Almodôvar","native":null,"lat":"37.49590000","lon":"-8.09372000"},{"id":88950,"name":"Almograve","native":null,"lat":"37.65665000","lon":"-8.79214000"},{"id":88957,"name":"Alvito","native":null,"lat":"38.24653000","lon":"-8.05038000"},{"id":89020,"name":"Barrancos","native":null,"lat":"38.13446000","lon":"-6.97604000"},{"id":89027,"name":"Beja","native":null,"lat":"38.01506000","lon":"-7.86323000"},{"id":89036,"name":"Beringel","native":null,"lat":"38.05656000","lon":"-7.98427000"},{"id":89039,"name":"Boavista dos Pinheiros","native":null,"lat":"37.58058000","lon":"-8.66441000"},{"id":89056,"name":"Cabeça Gorda","native":null,"lat":"37.92401000","lon":"-7.79290000"},{"id":89111,"name":"Castro Verde","native":null,"lat":"37.69828000","lon":"-8.08581000"},{"id":89136,"name":"Cuba","native":null,"lat":"38.21972000","lon":"-7.92114000"},{"id":89176,"name":"Ferreira do Alentejo","native":null,"lat":"38.05000000","lon":"-8.03333000"},{"id":89340,"name":"Mértola","native":null,"lat":"37.65918000","lon":"-7.66434000"},{"id":89299,"name":"Minas de São Domingos","native":null,"lat":"37.67322000","lon":"-7.49765000"},{"id":89335,"name":"Moura","native":null,"lat":"38.14010000","lon":"-7.44856000"},{"id":89346,"name":"Neves","native":null,"lat":"38.02270000","lon":"-7.81344000"},{"id":89352,"name":"Odemira","native":null,"lat":"37.59798000","lon":"-8.63972000"},{"id":89372,"name":"Ourique","native":null,"lat":"37.69156000","lon":"-8.31031000"},{"id":89397,"name":"Penedo Gordo","native":null,"lat":"37.98477000","lon":"-7.91651000"},{"id":89485,"name":"Salvada","native":null,"lat":"37.93771000","lon":"-7.77448000"},{"id":89572,"name":"São Luis","native":null,"lat":"37.71556000","lon":"-8.66472000"},{"id":89590,"name":"São Teotónio","native":null,"lat":"37.51282000","lon":"-8.70708000"},{"id":89533,"name":"Serpa","native":null,"lat":"37.95201000","lon":"-7.47534000"},{"id":89642,"name":"Vidigueira","native":null,"lat":"38.18448000","lon":"-7.74469000"},{"id":89658,"name":"Vila Nova de Milfontes","native":null,"lat":"37.72377000","lon":"-8.78278000"},{"id":89690,"name":"Zambujeira do Mar","native":null,"lat":"37.52799000","lon":"-8.78483000"}]},{"id":2244,"name":"Braga","native":null,"cities":[{"id":88909,"name":"Adaúfe","native":null,"lat":"41.58732000","lon":"-8.39817000"},{"id":88962,"name":"Amares","native":null,"lat":"41.64718000","lon":"-8.35558000"},{"id":88974,"name":"Apúlia","native":null,"lat":"41.48512000","lon":"-8.76413000"},{"id":88975,"name":"Apúlia e Fão","native":null,"lat":"41.51194000","lon":"-8.77288000"},{"id":88979,"name":"Arcos","native":null,"lat":"41.52185000","lon":"-8.42151000"},{"id":88997,"name":"Arões","native":null,"lat":"41.45553000","lon":"-8.21419000"},{"id":89004,"name":"Aveleda","native":null,"lat":"41.52113000","lon":"-8.46682000"},{"id":89018,"name":"Barcelos","native":null,"lat":"41.53174000","lon":"-8.61843000"},{"id":89019,"name":"Barqueiros","native":null,"lat":"41.49111000","lon":"-8.73192000"},{"id":89046,"name":"Braga","native":null,"lat":"41.55032000","lon":"-8.42005000"},{"id":89049,"name":"Brito","native":null,"lat":"41.45821000","lon":"-8.36103000"},{"id":89055,"name":"Cabeceiras de Basto","native":null,"lat":"41.52079000","lon":"-7.97198000"},{"id":89064,"name":"Caldas das Taipas","native":null,"lat":"41.48465000","lon":"-8.34850000"},{"id":89065,"name":"Caldas de Vizela","native":null,"lat":"41.38212000","lon":"-8.30890000"},{"id":89066,"name":"Caldelas","native":null,"lat":"41.67101000","lon":"-8.38148000"},{"id":89067,"name":"Calendário","native":null,"lat":"41.40361000","lon":"-8.52967000"},{"id":89081,"name":"Candoso","native":null,"lat":"41.42768000","lon":"-8.32166000"},{"id":89114,"name":"Celorico de Basto","native":null,"lat":"41.40278000","lon":"-8.03346000"},{"id":89120,"name":"Chavão","native":null,"lat":"41.45235000","lon":"-8.60194000"},{"id":89135,"name":"Cristelo","native":null,"lat":"41.47964000","lon":"-8.69785000"},{"id":89151,"name":"Esporões","native":null,"lat":"41.51006000","lon":"-8.41729000"},{"id":89152,"name":"Esposende","native":null,"lat":"41.53610000","lon":"-8.78201000"},{"id":89160,"name":"Fafe","native":null,"lat":"41.46837000","lon":"-8.15863000"},{"id":89166,"name":"Faria","native":null,"lat":"41.48298000","lon":"-8.67152000"},{"id":89179,"name":"Ferreiros","native":null,"lat":"41.35000000","lon":"-8.55000000"},{"id":89191,"name":"Fradelos","native":null,"lat":"41.36846000","lon":"-8.59887000"},{"id":89196,"name":"Frossos","native":null,"lat":"41.56590000","lon":"-8.45134000"},{"id":89205,"name":"Galegos","native":null,"lat":"41.56268000","lon":"-8.57204000"},{"id":89207,"name":"Gandra","native":null,"lat":"41.52185000","lon":"-8.76185000"},{"id":89212,"name":"Gondizalves","native":null,"lat":"41.54158000","lon":"-8.45570000"},{"id":89216,"name":"Gueral","native":null,"lat":"41.45859000","lon":"-8.62946000"},{"id":89219,"name":"Guimarães","native":null,"lat":"41.44384000","lon":"-8.28918000"},{"id":89220,"name":"Guisande","native":null,"lat":"41.48264000","lon":"-8.44564000"},{"id":89225,"name":"Joane","native":null,"lat":"41.43906000","lon":"-8.40846000"},{"id":89227,"name":"Lago","native":null,"lat":"41.62148000","lon":"-8.41258000"},{"id":89248,"name":"Lordelo","native":null,"lat":"41.37411000","lon":"-8.38016000"},{"id":89264,"name":"Macieira de Rates","native":null,"lat":"41.44092000","lon":"-8.63426000"},{"id":89279,"name":"Marinhas","native":null,"lat":"41.55906000","lon":"-8.78297000"},{"id":89280,"name":"Mariz","native":null,"lat":"41.52823000","lon":"-8.67081000"},{"id":89293,"name":"Merelim","native":null,"lat":"41.58568000","lon":"-8.46555000"},{"id":89330,"name":"Moreira de Conegos","native":null,"lat":"41.38680000","lon":"-8.33940000"},{"id":89343,"name":"Negreiros","native":null,"lat":"41.43552000","lon":"-8.61398000"},{"id":89362,"name":"Oliveira","native":null,"lat":"41.47819000","lon":"-8.46965000"},{"id":89402,"name":"Perelhal","native":null,"lat":"41.53075000","lon":"-8.68982000"},{"id":89415,"name":"Ponte","native":null,"lat":"41.47057000","lon":"-8.32990000"},{"id":89442,"name":"Póvoa de Lanhoso","native":null,"lat":"41.57599000","lon":"-8.27008000"},{"id":89435,"name":"Prado","native":null,"lat":"41.60246000","lon":"-8.46297000"},{"id":89453,"name":"Real","native":null,"lat":"41.55841000","lon":"-8.44330000"},{"id":89458,"name":"Refojos de Basto","native":null,"lat":"41.51318000","lon":"-7.99517000"},{"id":89461,"name":"Rendufe","native":null,"lat":"41.62898000","lon":"-8.40858000"},{"id":89464,"name":"Riba de Ave","native":null,"lat":"41.39648000","lon":"-8.38685000"},{"id":89470,"name":"Ribeirão","native":null,"lat":"41.36081000","lon":"-8.56774000"},{"id":89477,"name":"Ronfe","native":null,"lat":"41.44146000","lon":"-8.38412000"},{"id":89490,"name":"Sande","native":null,"lat":"41.70190000","lon":"-8.39246000"},{"id":89524,"name":"Selho","native":null,"lat":"41.41938000","lon":"-8.34599000"},{"id":89525,"name":"Semelhe","native":null,"lat":"41.55437000","lon":"-8.46281000"},{"id":89536,"name":"Serzedelo","native":null,"lat":"41.40128000","lon":"-8.36888000"},{"id":89537,"name":"Serzedo","native":null,"lat":"41.40502000","lon":"-8.22926000"},{"id":89598,"name":"Tebosa","native":null,"lat":"41.48253000","lon":"-8.48399000"},{"id":89601,"name":"Terras de Bouro","native":null,"lat":"41.73914000","lon":"-8.19109000"},{"id":89618,"name":"Urgeses","native":null,"lat":"41.42720000","lon":"-8.29796000"},{"id":89689,"name":"Várzea","native":null,"lat":"41.51512000","lon":"-8.58400000"},{"id":89644,"name":"Vieira do Minho","native":null,"lat":"41.63557000","lon":"-8.13244000"},{"id":89647,"name":"Vila Cova","native":null,"lat":"41.55107000","lon":"-8.71645000"},{"id":89651,"name":"Vila Frescainha","native":null,"lat":"41.53846000","lon":"-8.63971000"},{"id":89656,"name":"Vila Nova de Famalicão","native":null,"lat":"41.40797000","lon":"-8.51978000"},{"id":89665,"name":"Vila Seca","native":null,"lat":"41.50031000","lon":"-8.68525000"},{"id":89668,"name":"Vila Verde","native":null,"lat":"41.64869000","lon":"-8.43628000"},{"id":89679,"name":"Vilaça","native":null,"lat":"41.51787000","lon":"-8.48357000"},{"id":89676,"name":"Vilar de Figos","native":null,"lat":"41.47555000","lon":"-8.65382000"},{"id":89686,"name":"Vizela","native":null,"lat":"41.37529000","lon":"-8.29310000"}]},{"id":2229,"name":"Bragança","native":null,"cities":[{"id":88934,"name":"Alfândega da Fé","native":null,"lat":"41.34315000","lon":"-6.96112000"},{"id":89030,"name":"Belver","native":null,"lat":"41.24696000","lon":"-7.27594000"},{"id":89047,"name":"Bragança Municipality","native":null,"lat":"41.75608000","lon":"-6.75535000"},{"id":89094,"name":"Carrazeda de Anciães","native":null,"lat":"41.24247000","lon":"-7.30721000"},{"id":89095,"name":"Carrazeda de Ansiães","native":null,"lat":"41.23424000","lon":"-7.31129000"},{"id":89194,"name":"Freixo de Espada à Cinta","native":null,"lat":"41.09033000","lon":"-6.80648000"},{"id":89260,"name":"Macedo de Cavaleiros","native":null,"lat":"41.55132000","lon":"-6.93355000"},{"id":89305,"name":"Miranda do Douro","native":null,"lat":"41.49692000","lon":"-6.27308000"},{"id":89306,"name":"Mirandela","native":null,"lat":"41.50098000","lon":"-7.19185000"},{"id":89307,"name":"Mogadouro","native":null,"lat":"41.34034000","lon":"-6.71187000"},{"id":89487,"name":"Samil","native":null,"lat":"41.77632000","lon":"-6.75698000"},{"id":89526,"name":"Sendim","native":null,"lat":"41.38739000","lon":"-6.42625000"},{"id":89606,"name":"Torre de Moncorvo","native":null,"lat":"41.17454000","lon":"-7.05364000"},{"id":89648,"name":"Vila Flor","native":null,"lat":"41.31429000","lon":"-7.15071000"},{"id":89682,"name":"Vimioso","native":null,"lat":"41.57287000","lon":"-6.52087000"},{"id":89683,"name":"Vinhais","native":null,"lat":"41.83509000","lon":"-7.00501000"}]},{"id":2241,"name":"Castelo Branco","native":null,"cities":[{"id":88926,"name":"Aldeia de Joanes","native":null,"lat":"40.13905000","lon":"-7.51694000"},{"id":89029,"name":"Belmonte","native":null,"lat":"40.36181000","lon":"-7.35157000"},{"id":89104,"name":"Castelo Branco","native":null,"lat":"39.82219000","lon":"-7.49087000"},{"id":89133,"name":"Covilhã","native":null,"lat":"40.28106000","lon":"-7.50504000"},{"id":89198,"name":"Fundão","native":null,"lat":"40.12412000","lon":"-7.49542000"},{"id":89224,"name":"Idanha-A-Nova","native":null,"lat":"39.92957000","lon":"-7.23690000"},{"id":89356,"name":"Oleiros","native":null,"lat":"39.94948000","lon":"-7.88592000"},{"id":89396,"name":"Penamacor","native":null,"lat":"40.15495000","lon":"-7.17149000"},{"id":89440,"name":"Proença-a-Nova","native":null,"lat":"39.75700000","lon":"-7.92595000"},{"id":89535,"name":"Sertã","native":null,"lat":"39.80205000","lon":"-8.09589000"},{"id":89599,"name":"Teixoso","native":null,"lat":"40.31448000","lon":"-7.45759000"},{"id":89670,"name":"Vila de Rei","native":null,"lat":"39.70685000","lon":"-8.12836000"},{"id":89666,"name":"Vila Velha de Ródão","native":null,"lat":"39.68709000","lon":"-7.65987000"}]},{"id":2246,"name":"Coimbra","native":null,"cities":[{"id":88929,"name":"Alfarelos","native":null,"lat":"40.15057000","lon":"-8.65326000"},{"id":88938,"name":"Alhadas","native":null,"lat":"40.18607000","lon":"-8.79057000"},{"id":88972,"name":"Ançã","native":null,"lat":"40.27161000","lon":"-8.52090000"},{"id":88977,"name":"Arazede","native":null,"lat":"40.28627000","lon":"-8.64999000"},{"id":88984,"name":"Arganil","native":null,"lat":"40.21826000","lon":"-8.05403000"},{"id":88998,"name":"Assafarge","native":null,"lat":"40.15895000","lon":"-8.43167000"},{"id":89050,"name":"Buarcos","native":null,"lat":"40.16604000","lon":"-8.87680000"},{"id":89088,"name":"Cantanhede","native":null,"lat":"40.36354000","lon":"-8.60549000"},{"id":89091,"name":"Carapinheira","native":null,"lat":"40.20620000","lon":"-8.64810000"},{"id":89122,"name":"Coimbra","native":null,"lat":"40.20564000","lon":"-8.41955000"},{"id":89126,"name":"Condeixa-a-Nova","native":null,"lat":"40.10639000","lon":"-8.49632000"},{"id":89182,"name":"Figueira da Foz","native":null,"lat":"40.15085000","lon":"-8.86179000"},{"id":89222,"name":"Góis","native":null,"lat":"40.12535000","lon":"-8.08340000"},{"id":89238,"name":"Lavos","native":null,"lat":"40.09363000","lon":"-8.82826000"},{"id":89249,"name":"Lorvão","native":null,"lat":"40.25938000","lon":"-8.31683000"},{"id":89256,"name":"Lousã","native":null,"lat":"40.11673000","lon":"-8.24921000"},{"id":89303,"name":"Mira","native":null,"lat":"40.44559000","lon":"-8.73849000"},{"id":89304,"name":"Miranda do Corvo","native":null,"lat":"40.09318000","lon":"-8.33261000"},{"id":89325,"name":"Montemor-o-Velho","native":null,"lat":"40.19385000","lon":"-8.66696000"},{"id":89368,"name":"Oliveira do Hospital","native":null,"lat":"40.35522000","lon":"-7.86481000"},{"id":89369,"name":"Oliveira do Mondego","native":null,"lat":"40.32305000","lon":"-8.22367000"},{"id":89378,"name":"Pampilhosa da Serra","native":null,"lat":"40.04620000","lon":"-7.95182000"},{"id":89393,"name":"Penacova","native":null,"lat":"40.26884000","lon":"-8.28237000"},{"id":89399,"name":"Penela","native":null,"lat":"40.03333000","lon":"-8.38333000"},{"id":89410,"name":"Poiares","native":null,"lat":"40.21026000","lon":"-8.25746000"},{"id":89497,"name":"Santa Clara","native":null,"lat":"40.19985000","lon":"-8.44018000"},{"id":89516,"name":"Santo António dos Olivais","native":null,"lat":"40.21805000","lon":"-8.40523000"},{"id":89582,"name":"São Pedro de Alva","native":null,"lat":"40.30044000","lon":"-8.16623000"},{"id":89552,"name":"Soure","native":null,"lat":"40.05989000","lon":"-8.62605000"},{"id":89616,"name":"Tábua","native":null,"lat":"40.36207000","lon":"-8.02936000"},{"id":89596,"name":"Tavarede","native":null,"lat":"40.16692000","lon":"-8.84568000"},{"id":89603,"name":"Tocha","native":null,"lat":"40.31308000","lon":"-8.75339000"},{"id":89611,"name":"Travanca","native":null,"lat":"40.32357000","lon":"-8.18687000"},{"id":89660,"name":"Vila Nova de Poiares","native":null,"lat":"40.22129000","lon":"-8.24105000"}]},{"id":2236,"name":"Évora","native":null,"cities":[{"id":88912,"name":"Alandroal","native":null,"lat":"38.62924000","lon":"-7.36599000"},{"id":88990,"name":"Arraiolos","native":null,"lat":"38.76774000","lon":"-7.95831000"},{"id":89043,"name":"Borba","native":null,"lat":"38.80553000","lon":"-7.45465000"},{"id":89157,"name":"Estremoz","native":null,"lat":"38.84996000","lon":"-7.60117000"},{"id":89697,"name":"Évora","native":null,"lat":"38.56667000","lon":"-7.90000000"},{"id":89324,"name":"Montemor-o-Novo","native":null,"lat":"38.67103000","lon":"-8.29956000"},{"id":89328,"name":"Mora","native":null,"lat":"38.92174000","lon":"-8.09972000"},{"id":89336,"name":"Mourão","native":null,"lat":"38.29778000","lon":"-7.22230000"},{"id":89423,"name":"Portel","native":null,"lat":"38.29385000","lon":"-7.72762000"},{"id":89457,"name":"Redondo","native":null,"lat":"38.58010000","lon":"-7.59659000"},{"id":89459,"name":"Reguengos de Monsaraz","native":null,"lat":"38.42529000","lon":"-7.53494000"},{"id":89635,"name":"Vendas Novas","native":null,"lat":"38.63975000","lon":"-8.54702000"},{"id":89639,"name":"Viana do Alentejo","native":null,"lat":"38.33645000","lon":"-8.00011000"},{"id":89669,"name":"Vila Viçosa","native":null,"lat":"38.78790000","lon":"-7.41852000"}]},{"id":2239,"name":"Faro","native":null,"cities":[{"id":88914,"name":"Albufeira","native":null,"lat":"37.08819000","lon":"-8.25030000"},{"id":88919,"name":"Alcantarilha","native":null,"lat":"37.13044000","lon":"-8.34623000"},{"id":88923,"name":"Alcoutim","native":null,"lat":"37.42400000","lon":"-7.65456000"},{"id":88935,"name":"Algoz","native":null,"lat":"37.16301000","lon":"-8.30359000"},{"id":88942,"name":"Aljezur","native":null,"lat":"37.31745000","lon":"-8.80147000"},{"id":88946,"name":"Almancil","native":null,"lat":"37.08686000","lon":"-8.03074000"},{"id":88954,"name":"Altura","native":null,"lat":"37.17560000","lon":"-7.50064000"},{"id":88958,"name":"Alvor","native":null,"lat":"37.12994000","lon":"-8.59174000"},{"id":88988,"name":"Armação de Pêra","native":null,"lat":"37.10256000","lon":"-8.35695000"},{"id":89035,"name":"Bensafrim","native":null,"lat":"37.15583000","lon":"-8.73520000"},{"id":89041,"name":"Boliqueime","native":null,"lat":"37.13718000","lon":"-8.15820000"},{"id":89052,"name":"Cabanas de Tavira","native":null,"lat":"37.13521000","lon":"-7.60048000"},{"id":89100,"name":"Carvoeiro","native":null,"lat":"37.09736000","lon":"-8.46846000"},{"id":89110,"name":"Castro Marim","native":null,"lat":"37.25865000","lon":"-7.50732000"},{"id":89125,"name":"Conceição","native":null,"lat":"37.14789000","lon":"-7.60426000"},{"id":89158,"name":"Estói","native":null,"lat":"37.09503000","lon":"-7.89445000"},{"id":89159,"name":"Estômbar","native":null,"lat":"37.14629000","lon":"-8.48505000"},{"id":89167,"name":"Faro","native":null,"lat":"37.01869000","lon":"-7.92716000"},{"id":89174,"name":"Ferragudo","native":null,"lat":"37.12474000","lon":"-8.51915000"},{"id":89178,"name":"Ferreiras","native":null,"lat":"37.12926000","lon":"-8.23759000"},{"id":89200,"name":"Fuzeta","native":null,"lat":"37.05429000","lon":"-7.74699000"},{"id":89217,"name":"Guia","native":null,"lat":"37.12959000","lon":"-8.29963000"},{"id":89229,"name":"Lagoa","native":null,"lat":"37.10505000","lon":"-8.45974000"},{"id":89230,"name":"Lagos","native":null,"lat":"37.10202000","lon":"-8.67422000"},{"id":89237,"name":"Laranjeiro","native":null,"lat":"37.06799000","lon":"-7.80780000"},{"id":89250,"name":"Loulé","native":null,"lat":"37.14399000","lon":"-8.02345000"},{"id":89259,"name":"Luz","native":null,"lat":"37.09216000","lon":"-7.70433000"},{"id":89273,"name":"Manta Rota","native":null,"lat":"37.16849000","lon":"-7.51804000"},{"id":89281,"name":"Marmelete","native":null,"lat":"37.31014000","lon":"-8.66813000"},{"id":89295,"name":"Mexilhoeira Grande","native":null,"lat":"37.15858000","lon":"-8.61487000"},{"id":89311,"name":"Moncarapacho","native":null,"lat":"37.08360000","lon":"-7.78763000"},{"id":89312,"name":"Monchique","native":null,"lat":"37.31664000","lon":"-8.58340000"},{"id":89321,"name":"Monte Gordo","native":null,"lat":"37.18192000","lon":"-7.45225000"},{"id":89358,"name":"Olhão","native":null,"lat":"37.04509000","lon":"-7.81032000"},{"id":89357,"name":"Olhos de Água","native":null,"lat":"37.09024000","lon":"-8.19168000"},{"id":89375,"name":"Paderne","native":null,"lat":"37.17935000","lon":"-8.20150000"},{"id":89380,"name":"Parchal","native":null,"lat":"37.13827000","lon":"-8.51703000"},{"id":89441,"name":"Pêra","native":null,"lat":"37.12296000","lon":"-8.34115000"},{"id":89421,"name":"Porches","native":null,"lat":"37.12665000","lon":"-8.40162000"},{"id":89424,"name":"Portimão","native":null,"lat":"37.17544000","lon":"-8.58420000"},{"id":89446,"name":"Quarteira","native":null,"lat":"37.06946000","lon":"-8.10064000"},{"id":89482,"name":"Sagres","native":null,"lat":"37.00864000","lon":"-8.94311000"},{"id":89495,"name":"Santa Bárbara de Nexe","native":null,"lat":"37.10619000","lon":"-7.96648000"},{"id":89505,"name":"Santa Luzia","native":null,"lat":"37.10224000","lon":"-7.66202000"},{"id":89559,"name":"São Bartolomeu de Messines","native":null,"lat":"37.25648000","lon":"-8.28672000"},{"id":89560,"name":"São Brás de Alportel","native":null,"lat":"37.19564000","lon":"-7.87546000"},{"id":89574,"name":"São Marcos da Serra","native":null,"lat":"37.36100000","lon":"-8.37764000"},{"id":89528,"name":"Senhora da Luz","native":null,"lat":"37.08771000","lon":"-8.72649000"},{"id":89544,"name":"Silves","native":null,"lat":"37.20343000","lon":"-8.33472000"},{"id":89597,"name":"Tavira","native":null,"lat":"37.12734000","lon":"-7.64861000"},{"id":89614,"name":"Tunes","native":null,"lat":"37.16592000","lon":"-8.25919000"},{"id":89671,"name":"Vila do Bispo","native":null,"lat":"37.08317000","lon":"-8.91144000"},{"id":89653,"name":"Vila Nova De Cacela","native":null,"lat":"37.17391000","lon":"-7.53169000"},{"id":89664,"name":"Vila Real de Santo António","native":null,"lat":"37.19232000","lon":"-7.42538000"},{"id":89674,"name":"Vilamoura","native":null,"lat":"37.08728000","lon":"-8.11701000"}]},{"id":4859,"name":"Guarda","native":null,"cities":[{"id":143237,"name":"Abrigada","native":null,"lat":"39.14472222","lon":"-9.01861111"},{"id":143297,"name":"Açores","native":null,"lat":"40.64500000","lon":"-7.30527778"},{"id":143238,"name":"Adão","native":null,"lat":"40.45916667","lon":"-7.16500000"},{"id":143239,"name":"Agualva","native":null,"lat":"38.77004444","lon":"-9.29881111"},{"id":143760,"name":"Águas Belas","native":null,"lat":"40.37472222","lon":"-7.16694444"},{"id":143240,"name":"Aguiar da Beira","native":null,"lat":"40.81726000","lon":"-7.54431000"},{"id":143241,"name":"Ajuda","native":null,"lat":"38.70750000","lon":"-9.19833333"},{"id":143242,"name":"Albardo","native":null,"lat":"40.51145000","lon":"-7.13028000"},{"id":143243,"name":"Alcabideche","native":null,"lat":"38.73361111","lon":"-9.40916667"},{"id":143244,"name":"Alcains","native":null,"lat":"39.91540278","lon":"-7.46107778"},{"id":143246,"name":"Alcântara","native":null,"lat":"38.70638889","lon":"-9.17416667"},{"id":143245,"name":"Alcoentre","native":null,"lat":"39.20861111","lon":"-8.95944444"},{"id":143252,"name":"Aldeia da Ponte","native":null,"lat":"40.41348889","lon":"-6.86908333"},{"id":143253,"name":"Aldeia da Ribeira","native":null,"lat":"40.45666667","lon":"-6.89777778"},{"id":143254,"name":"Aldeia de Santo António","native":null,"lat":"40.34305556","lon":"-7.13638889"},{"id":143255,"name":"Aldeia do Bispo","native":null,"lat":"40.32333333","lon":"-6.84805556"},{"id":143247,"name":"Aldeia Galega da Merceana","native":null,"lat":"39.08222222","lon":"-9.11194444"},{"id":143248,"name":"Aldeia Gavinha","native":null,"lat":"39.08444444","lon":"-9.09638889"},{"id":143249,"name":"Aldeia Nova Miranda do Douro","native":null,"lat":"40.72584000","lon":"-7.42384000"},{"id":143250,"name":"Aldeia Velha","native":null,"lat":"40.34333333","lon":"-6.86750000"},{"id":143251,"name":"Aldeia Viçosa","native":null,"lat":"40.57888889","lon":"-7.31777778"},{"id":143256,"name":"Aldeias","native":null,"lat":"40.46861111","lon":"-7.59805556"},{"id":143257,"name":"Alenquer","native":null,"lat":"39.05000000","lon":"-9.01666667"},{"id":143258,"name":"Alfaiates","native":null,"lat":"40.39111111","lon":"-6.91333333"},{"id":143259,"name":"Alfornelos","native":null,"lat":"38.76333333","lon":"-9.20638889"},{"id":143260,"name":"Alfragide","native":null,"lat":"38.73203000","lon":"-9.21920000"},{"id":143265,"name":"Algés","native":null,"lat":"38.69949722","lon":"-9.22927222"},{"id":143261,"name":"Algodres","native":null,"lat":"40.95250000","lon":"-7.05472222"},{"id":143262,"name":"Alguber","native":null,"lat":"39.27583333","lon":"-9.01888889"},{"id":143263,"name":"Algueirão","native":null,"lat":"38.79764000","lon":"-9.34370000"},{"id":143264,"name":"Algueirão–Mem Martins","native":null,"lat":"38.79411389","lon":"-9.34510833"},{"id":143266,"name":"Alhandra","native":null,"lat":"38.92732000","lon":"-9.00864000"},{"id":143267,"name":"Almargem","native":null,"lat":"38.84472222","lon":"-9.27305556"},{"id":143268,"name":"Almargem do Bispo","native":null,"lat":"38.84750000","lon":"-9.27138889"},{"id":143269,"name":"Almeida","native":null,"lat":"40.73070000","lon":"-6.90594000"},{"id":143270,"name":"Almendra","native":null,"lat":"40.99284444","lon":"-7.05756944"},{"id":143271,"name":"Almofala","native":null,"lat":"40.86027778","lon":"-6.84861111"},{"id":143272,"name":"Alto do Pina","native":null,"lat":"38.74027778","lon":"-9.12805556"},{"id":143273,"name":"Alvalade","native":null,"lat":"38.74694444","lon":"-9.13611111"},{"id":143274,"name":"Alvendre","native":null,"lat":"40.58500000","lon":"-7.25833333"},{"id":143275,"name":"Alverca da Beira","native":null,"lat":"40.70055556","lon":"-7.21750000"},{"id":143276,"name":"Alverca do Ribatejo","native":null,"lat":"38.89866111","lon":"-9.03947778"},{"id":143277,"name":"Alvoco da Serra","native":null,"lat":"40.29555556","lon":"-7.67027778"},{"id":143278,"name":"Amadora","native":null,"lat":"38.75000000","lon":"-9.23333333"},{"id":143279,"name":"Ameixoeira","native":null,"lat":"38.78777778","lon":"-9.15250000"},{"id":143280,"name":"Amoreira","native":null,"lat":"40.58805556","lon":"-7.01555556"},{"id":143281,"name":"Anjos","native":null,"lat":"38.72388889","lon":"-9.13638889"},{"id":143282,"name":"Apelação","native":null,"lat":"38.81500000","lon":"-9.13249000"},{"id":143283,"name":"Arcozelo","native":null,"lat":"40.54055556","lon":"-7.62722222"},{"id":143284,"name":"Arranhó","native":null,"lat":"38.95371667","lon":"-9.13497778"},{"id":143285,"name":"Arrifana","native":null,"lat":"40.56972222","lon":"-7.21027778"},{"id":143286,"name":"Arruda Dos Vinhos","native":null,"lat":"38.97172000","lon":"-9.08807000"},{"id":143287,"name":"Atalaia","native":null,"lat":"40.66000000","lon":"-7.03305556"},{"id":143288,"name":"Aveiras de Baixo","native":null,"lat":"39.11138889","lon":"-8.86916667"},{"id":143289,"name":"Aveiras de Cima","native":null,"lat":"39.13769444","lon":"-8.89995556"},{"id":143291,"name":"Avelãs da Ribeira","native":null,"lat":"40.67773000","lon":"-7.21492000"},{"id":143290,"name":"Aveloso","native":null,"lat":"40.93111111","lon":"-7.31666667"},{"id":143292,"name":"Azambuja","native":null,"lat":"39.06666667","lon":"-8.86666667"},{"id":143293,"name":"Azambuja (town)","native":null,"lat":"39.07027778","lon":"-8.86833333"},{"id":143294,"name":"Azenhas do Mar","native":null,"lat":"38.84055556","lon":"-9.46000000"},{"id":143295,"name":"Azevo","native":null,"lat":"40.85166667","lon":"-7.13138889"},{"id":143296,"name":"Azueira","native":null,"lat":"39.00653000","lon":"-9.27475000"},{"id":143298,"name":"Baraçal","native":null,"lat":"40.39357000","lon":"-7.08522000"},{"id":143299,"name":"Barcarena","native":null,"lat":"38.73250000","lon":"-9.28000000"},{"id":143300,"name":"Barreira","native":null,"lat":"40.91111111","lon":"-7.18638889"},{"id":143301,"name":"Beato","native":null,"lat":"38.73472222","lon":"-9.10583333"},{"id":143302,"name":"Belas","native":null,"lat":"38.76666667","lon":"-9.26666667"},{"id":143303,"name":"Bendada","native":null,"lat":"40.37083333","lon":"-7.25472222"},{"id":143304,"name":"Benespera","native":null,"lat":"40.44027778","lon":"-7.27638889"},{"id":143305,"name":"Benfica","native":null,"lat":"38.75111111","lon":"-9.20222222"},{"id":143306,"name":"Bismula","native":null,"lat":"40.44694444","lon":"-6.96444444"},{"id":143307,"name":"Bobadela","native":null,"lat":"38.80663000","lon":"-9.09731000"},{"id":143308,"name":"Bouça Cova","native":null,"lat":"40.70464000","lon":"-7.23830000"},{"id":143309,"name":"Brandoa","native":null,"lat":"38.76611111","lon":"-9.21444444"},{"id":143310,"name":"Bucelas","native":null,"lat":"38.90000000","lon":"-9.11666667"},{"id":143311,"name":"Buraca","native":null,"lat":"38.74222222","lon":"-9.20944444"},{"id":143312,"name":"Cabanas de Torres","native":null,"lat":"39.15631000","lon":"-9.06328000"},{"id":143313,"name":"Cabeça","native":null,"lat":"40.31916667","lon":"-7.73527778"},{"id":143314,"name":"Cacem","native":null,"lat":"38.77042000","lon":"-9.30809000"},{"id":143315,"name":"Cachoeiras","native":null,"lat":"38.98583333","lon":"-9.01638889"},{"id":143316,"name":"Cadafais","native":null,"lat":"39.00444444","lon":"-9.00416667"},{"id":143317,"name":"Cadafaz","native":null,"lat":"40.58472222","lon":"-7.36194444"},{"id":143318,"name":"Cadaval","native":null,"lat":"39.24621000","lon":"-9.06738000"},{"id":143319,"name":"Calhandriz","native":null,"lat":"38.92500000","lon":"-9.06777778"},{"id":143320,"name":"Camarate","native":null,"lat":"38.80358000","lon":"-9.12809000"},{"id":143321,"name":"Campelos","native":null,"lat":"39.20000000","lon":"-9.23333333"},{"id":143322,"name":"Campo Grande","native":null,"lat":"38.75694444","lon":"-9.15361111"},{"id":143323,"name":"Campolide","native":null,"lat":"38.72638889","lon":"-9.16333333"},{"id":143324,"name":"Caneças","native":null,"lat":"38.81666667","lon":"-9.23333333"},{"id":143325,"name":"Carapito","native":null,"lat":"40.76759000","lon":"-7.45447000"},{"id":143326,"name":"Carcavelos","native":null,"lat":"38.69220000","lon":"-9.33327000"},{"id":143327,"name":"Cardosas","native":null,"lat":"38.97722222","lon":"-9.04083333"},{"id":143328,"name":"Carmões","native":null,"lat":"39.05777778","lon":"-9.13416667"},{"id":143329,"name":"Carnaxide","native":null,"lat":"38.72666667","lon":"-9.24166667"},{"id":143330,"name":"Carnicães","native":null,"lat":"40.73333333","lon":"-7.31833333"},{"id":143331,"name":"Carnide","native":null,"lat":"38.76083333","lon":"-9.18361111"},{"id":143332,"name":"Carnota","native":null,"lat":"39.03361111","lon":"-9.07166667"},{"id":143333,"name":"Carragozela","native":null,"lat":"40.40572000","lon":"-7.76077000"},{"id":143334,"name":"Carrapichana","native":null,"lat":"40.56194444","lon":"-7.48694444"},{"id":143335,"name":"Carregado","native":null,"lat":"39.02334000","lon":"-8.96450000"},{"id":143336,"name":"Carvalhal","native":null,"lat":"40.88361111","lon":"-7.28361111"},{"id":143337,"name":"Carvoeira","native":null,"lat":"39.08055556","lon":"-9.16222222"},{"id":143339,"name":"Casal de Cambra","native":null,"lat":"38.80236000","lon":"-9.23188000"},{"id":143340,"name":"Casal de Cinza","native":null,"lat":"40.54416667","lon":"-7.16416667"},{"id":143338,"name":"Casal Vasco","native":null,"lat":"40.63792000","lon":"-7.55538000"},{"id":143341,"name":"Casas do Soeiro","native":null,"lat":"40.61888889","lon":"-7.40638889"},{"id":143342,"name":"Cascais","native":null,"lat":"38.69681000","lon":"-9.42147000"},{"id":143343,"name":"Castanheira","native":null,"lat":"40.57472222","lon":"-7.07944444"},{"id":143344,"name":"Castanheira do Ribatejo","native":null,"lat":"38.98333333","lon":"-8.96666667"},{"id":143345,"name":"Casteição","native":null,"lat":"40.88083333","lon":"-7.32583333"},{"id":143346,"name":"Casteleiro","native":null,"lat":"40.30222222","lon":"-7.23166667"},{"id":143347,"name":"Castelo (Lisbon)","native":null,"lat":"38.71361111","lon":"-9.13333333"},{"id":143348,"name":"Castelo Bom","native":null,"lat":"40.62027778","lon":"-6.90055556"},{"id":143349,"name":"Castelo Melhor","native":null,"lat":"41.02750000","lon":"-7.06500000"},{"id":143350,"name":"Castelo Rodrigo","native":null,"lat":"40.87555556","lon":"-6.96388889"},{"id":143351,"name":"Cativelos","native":null,"lat":"40.53083333","lon":"-7.68194444"},{"id":143352,"name":"Cavadoude","native":null,"lat":"40.58472222","lon":"-7.28666667"},{"id":143353,"name":"Caxias","native":null,"lat":"38.70000000","lon":"-9.28333333"},{"id":143354,"name":"Cedovim","native":null,"lat":"41.03333333","lon":"-7.31666667"},{"id":143355,"name":"Celorico da Beira","native":null,"lat":"40.63333333","lon":"-7.40000000"},{"id":143356,"name":"Cercal","native":null,"lat":"39.23388889","lon":"-8.99833333"},{"id":143357,"name":"Cerdeira","native":null,"lat":"40.51416667","lon":"-7.04666667"},{"id":143358,"name":"Cerejo","native":null,"lat":"40.72944444","lon":"-7.22361111"},{"id":143359,"name":"Charneca","native":null,"lat":"38.78527778","lon":"-9.14500000"},{"id":143361,"name":"Chãs","native":null,"lat":"40.98972222","lon":"-7.17027778"},{"id":143360,"name":"Cheleiros","native":null,"lat":"38.88972222","lon":"-9.32888889"},{"id":143362,"name":"Codesseiro","native":null,"lat":"40.65111111","lon":"-7.20500000"},{"id":143363,"name":"Cogula","native":null,"lat":"40.81277778","lon":"-7.26138889"},{"id":143364,"name":"Colares","native":null,"lat":"38.80206000","lon":"-9.46305000"},{"id":143365,"name":"Coração de Jesus","native":null,"lat":"38.72416667","lon":"-9.14500000"},{"id":143366,"name":"Coriscada","native":null,"lat":"40.86197000","lon":"-7.20372000"},{"id":143367,"name":"Cortiçada","native":null,"lat":"40.76500000","lon":"-7.54222222"},{"id":143368,"name":"Cortiçô","native":null,"lat":"40.66305556","lon":"-7.49472222"},{"id":143369,"name":"Cortiçô da Serra","native":null,"lat":"40.60124000","lon":"-7.43426000"},{"id":143370,"name":"Coruche","native":null,"lat":"40.79361111","lon":"-7.54083333"},{"id":143371,"name":"Corujeira","native":null,"lat":"40.50609000","lon":"-7.32803000"},{"id":143374,"name":"Cótimos","native":null,"lat":"40.82750000","lon":"-7.23972222"},{"id":143372,"name":"Cruz Quebrada - Dafundo","native":null,"lat":"38.70611111","lon":"-9.25055556"},{"id":143373,"name":"Custoias","native":null,"lat":"41.10527778","lon":"-7.32083333"},{"id":143375,"name":"Damaia","native":null,"lat":"38.74527778","lon":"-9.21833333"},{"id":143376,"name":"Dois Portos","native":null,"lat":"39.03840000","lon":"-9.18556000"},{"id":143377,"name":"Dornelas","native":null,"lat":"40.73105000","lon":"-7.55894000"},{"id":143378,"name":"Eirado","native":null,"lat":"40.77333333","lon":"-7.49000000"},{"id":143379,"name":"Encarnação","native":null,"lat":"39.03333333","lon":"-9.36805556"},{"id":143380,"name":"Enxara do Bispo","native":null,"lat":"38.99194444","lon":"-9.24083333"},{"id":143381,"name":"Ericeira","native":null,"lat":"38.96277778","lon":"-9.41527778"},{"id":143382,"name":"Ervas Tenras","native":null,"lat":"40.74055556","lon":"-7.18611111"},{"id":143383,"name":"Ervedosa","native":null,"lat":"40.84694444","lon":"-7.17611111"},{"id":143384,"name":"Escalhão","native":null,"lat":"40.94944444","lon":"-6.92611111"},{"id":143385,"name":"Estoril","native":null,"lat":"38.70571000","lon":"-9.39773000"},{"id":143386,"name":"Faia","native":null,"lat":"40.56055556","lon":"-7.31027778"},{"id":143387,"name":"Falagueira","native":null,"lat":"38.75903000","lon":"-9.21988000"},{"id":143388,"name":"Famalicão","native":null,"lat":"40.44361111","lon":"-7.37722222"},{"id":143389,"name":"Famões","native":null,"lat":"38.78333333","lon":"-9.21666667"},{"id":143390,"name":"Fanhões","native":null,"lat":"38.88111111","lon":"-9.15250000"},{"id":143391,"name":"Fernão Joanes","native":null,"lat":"40.48694444","lon":"-7.35527778"},{"id":143397,"name":"Fiães","native":null,"lat":"40.73305556","lon":"-7.37305556"},{"id":143392,"name":"Figueira de Castelo Rodrigo","native":null,"lat":"40.90000000","lon":"-6.96666667"},{"id":143393,"name":"Figueira do Guincho","native":null,"lat":"38.75000000","lon":"-9.46666667"},{"id":143395,"name":"Figueiró da Granja","native":null,"lat":"40.62805556","lon":"-7.49916667"},{"id":143396,"name":"Figueiró da Serra","native":null,"lat":"40.54055556","lon":"-7.48888889"},{"id":143394,"name":"Figueiros","native":null,"lat":"39.27946000","lon":"-9.05083000"},{"id":143414,"name":"Fóios","native":null,"lat":"40.28666667","lon":"-6.89250000"},{"id":143398,"name":"Folgosinho","native":null,"lat":"40.50944444","lon":"-7.51388889"},{"id":143399,"name":"Folhadosa","native":null,"lat":"40.37944444","lon":"-7.78472222"},{"id":143400,"name":"Fontanelas","native":null,"lat":"38.85000000","lon":"-9.43333333"},{"id":143401,"name":"Fonte Longa","native":null,"lat":"41.01305556","lon":"-7.23361111"},{"id":143402,"name":"Forninhos","native":null,"lat":"40.70472222","lon":"-7.55416667"},{"id":143403,"name":"Forno Telheiro","native":null,"lat":"40.67333333","lon":"-7.39777778"},{"id":143404,"name":"Fornos de Algodres","native":null,"lat":"40.61666667","lon":"-7.53333333"},{"id":143405,"name":"Forte da Casa","native":null,"lat":"38.87391000","lon":"-9.05216000"},{"id":143406,"name":"Freches","native":null,"lat":"40.73166667","lon":"-7.34638889"},{"id":143407,"name":"Freineda","native":null,"lat":"40.58305556","lon":"-6.89111111"},{"id":143408,"name":"Freiria","native":null,"lat":"39.02739000","lon":"-9.31995000"},{"id":143409,"name":"Freixeda do Torrão","native":null,"lat":"40.89027778","lon":"-7.03222222"},{"id":143410,"name":"Freixedas","native":null,"lat":"40.69194444","lon":"-7.16305556"},{"id":143411,"name":"Freixo","native":null,"lat":"40.61861111","lon":"-7.01027778"},{"id":143412,"name":"Freixo de Numão","native":null,"lat":"41.06666667","lon":"-7.21666667"},{"id":143413,"name":"Frielas","native":null,"lat":"38.82583333","lon":"-9.14444444"},{"id":143415,"name":"Gagos","native":null,"lat":"40.58388889","lon":"-7.11472222"},{"id":143416,"name":"Girabolhos","native":null,"lat":"40.50944444","lon":"-7.73666667"},{"id":143417,"name":"Gonçalo","native":null,"lat":"40.41666667","lon":"-7.35000000"},{"id":143418,"name":"Gonçalo Bocas","native":null,"lat":"40.57666667","lon":"-7.17750000"},{"id":143419,"name":"Gouveia","native":null,"lat":"40.50000000","lon":"-7.60000000"},{"id":143423,"name":"Graça","native":null,"lat":"38.71722222","lon":"-9.13083333"},{"id":143420,"name":"Gradil","native":null,"lat":"38.98222222","lon":"-9.28083333"},{"id":143421,"name":"Gradiz","native":null,"lat":"40.85944444","lon":"-7.52861111"},{"id":143422,"name":"Granja","native":null,"lat":"40.75201000","lon":"-7.20428000"},{"id":143424,"name":"Guarda","native":null,"lat":"40.53638889","lon":"-7.26833333"},{"id":143425,"name":"Guilheiro","native":null,"lat":"40.89805556","lon":"-7.40972222"},{"id":143426,"name":"Horta","native":null,"lat":"41.06777778","lon":"-7.31055556"},{"id":143427,"name":"Igreja Nova","native":null,"lat":"38.91694444","lon":"-9.31944444"},{"id":143428,"name":"Infias","native":null,"lat":"40.63000000","lon":"-7.53944444"},{"id":143429,"name":"Jarmelo São Miguel","native":null,"lat":"40.60040000","lon":"-7.14915000"},{"id":143430,"name":"Jarmelo São Pedro","native":null,"lat":"40.59447000","lon":"-7.13016000"},{"id":143431,"name":"João Antão","native":null,"lat":"40.46443000","lon":"-7.23940000"},{"id":143433,"name":"Junça","native":null,"lat":"40.68138889","lon":"-6.88555556"},{"id":143432,"name":"Juncais","native":null,"lat":"40.60944444","lon":"-7.50750000"},{"id":143434,"name":"Lagarinhos","native":null,"lat":"40.48583333","lon":"-7.66944444"},{"id":143435,"name":"Lajeosa","native":null,"lat":"40.34353000","lon":"-6.81621000"},{"id":143436,"name":"Lajeosa do Mondego","native":null,"lat":"40.62750000","lon":"-7.33750000"},{"id":143437,"name":"Lajes","native":null,"lat":"40.48361111","lon":"-7.71638889"},{"id":143438,"name":"Lamas","native":null,"lat":"39.21114000","lon":"-9.06151000"},{"id":143439,"name":"Lamegal","native":null,"lat":"40.66500000","lon":"-7.07972222"},{"id":143440,"name":"Lameiras","native":null,"lat":"40.71138889","lon":"-7.10444444"},{"id":143441,"name":"Lapa","native":null,"lat":"38.71189000","lon":"-9.16007000"},{"id":143442,"name":"Lapa Dos Dinheiros","native":null,"lat":"40.37888889","lon":"-7.70944444"},{"id":143443,"name":"Leomil","native":null,"lat":"40.63527778","lon":"-6.96416667"},{"id":143444,"name":"Linda-a-Velha","native":null,"lat":"38.71446000","lon":"-9.24220000"},{"id":143445,"name":"Linhares (Celorico da Beira)","native":null,"lat":"40.54083333","lon":"-7.46111111"},{"id":143446,"name":"Lisbon","native":null,"lat":"38.71666667","lon":"-9.16666667"},{"id":143447,"name":"Longroiva","native":null,"lat":"40.98103000","lon":"-7.20334000"},{"id":143448,"name":"Loriga","native":null,"lat":"40.31666667","lon":"-7.68333333"},{"id":143449,"name":"Loures","native":null,"lat":"38.83333333","lon":"-9.16666667"},{"id":143450,"name":"Lourinhã","native":null,"lat":"39.25000000","lon":"-9.31666667"},{"id":143451,"name":"Lousa","native":null,"lat":"38.89171000","lon":"-9.20972000"},{"id":143452,"name":"Lumiar","native":null,"lat":"38.76527778","lon":"-9.15861111"},{"id":143474,"name":"Maçainhas","native":null,"lat":"40.53666667","lon":"-7.30250000"},{"id":143475,"name":"Maçal do Chão","native":null,"lat":"40.69171000","lon":"-7.29178000"},{"id":143453,"name":"Maceira","native":null,"lat":"40.68555556","lon":"-7.47166667"},{"id":143476,"name":"Maçussa","native":null,"lat":"39.19472222","lon":"-8.86722222"},{"id":143454,"name":"Madalena","native":null,"lat":"38.71000000","lon":"-9.13472222"},{"id":143455,"name":"Mafra","native":null,"lat":"38.93333333","lon":"-9.33333333"},{"id":143456,"name":"Malcata","native":null,"lat":"40.29990000","lon":"-7.06147000"},{"id":143457,"name":"Malhada Sorda","native":null,"lat":"40.53638889","lon":"-6.91444444"},{"id":143458,"name":"Malpartida","native":null,"lat":"40.76000000","lon":"-6.86666667"},{"id":143459,"name":"Malveira","native":null,"lat":"38.93059000","lon":"-9.26165000"},{"id":143460,"name":"Mangualde da Serra","native":null,"lat":"40.46638889","lon":"-7.62166667"},{"id":143461,"name":"Manigoto","native":null,"lat":"40.70833333","lon":"-7.07583333"},{"id":143462,"name":"Manique do Intendente","native":null,"lat":"39.22111111","lon":"-8.89361111"},{"id":143463,"name":"Manteigas","native":null,"lat":"40.40000000","lon":"-7.53333333"},{"id":143464,"name":"Manteigas (São Pedro)","native":null,"lat":"40.36611111","lon":"-7.54611111"},{"id":143465,"name":"Marialva","native":null,"lat":"40.91000000","lon":"-7.23166667"},{"id":143466,"name":"Marmeleiro","native":null,"lat":"40.46861111","lon":"-7.11416667"},{"id":143467,"name":"Marteleira","native":null,"lat":"39.21305556","lon":"-9.28333333"},{"id":143503,"name":"Mártires","native":null,"lat":"38.70861111","lon":"-9.14166667"},{"id":143468,"name":"Marvila","native":null,"lat":"38.74527778","lon":"-9.10416667"},{"id":143469,"name":"Massamá","native":null,"lat":"38.75564000","lon":"-9.28427000"},{"id":143470,"name":"Mata de Lobos","native":null,"lat":"40.91691000","lon":"-6.88804000"},{"id":143471,"name":"Matacães","native":null,"lat":"39.09277778","lon":"-9.21222222"},{"id":143472,"name":"Matança","native":null,"lat":"40.67888889","lon":"-7.52888889"},{"id":143473,"name":"Maxial","native":null,"lat":"39.14301000","lon":"-9.16898000"},{"id":143477,"name":"Meca","native":null,"lat":"39.08972222","lon":"-9.02555556"},{"id":143504,"name":"Mêda","native":null,"lat":"40.96666667","lon":"-7.26666667"},{"id":143478,"name":"Meios","native":null,"lat":"40.49361111","lon":"-7.35916667"},{"id":143479,"name":"Melo","native":null,"lat":"40.51944444","lon":"-7.53361111"},{"id":143480,"name":"Mem Martins","native":null,"lat":"38.79443000","lon":"-9.34284000"},{"id":143481,"name":"Mercês","native":null,"lat":"38.71611111","lon":"-9.14888889"},{"id":143482,"name":"Mesquitela","native":null,"lat":"40.58805556","lon":"-7.48944444"},{"id":143483,"name":"Milharado","native":null,"lat":"38.94722222","lon":"-9.19916667"},{"id":143484,"name":"Mina","native":null,"lat":"38.76166667","lon":"-9.23611111"},{"id":143485,"name":"Minhocal","native":null,"lat":"40.68944444","lon":"-7.34666667"},{"id":143486,"name":"Mira-Sintra","native":null,"lat":"38.78417000","lon":"-9.30148000"},{"id":143487,"name":"Miragaia","native":null,"lat":"39.23583333","lon":"-9.26500000"},{"id":143488,"name":"Miuzela","native":null,"lat":"40.51055556","lon":"-7.00500000"},{"id":143489,"name":"Mizarela","native":null,"lat":"40.55746000","lon":"-7.34107000"},{"id":143490,"name":"Moimenta da Serra","native":null,"lat":"40.47359000","lon":"-7.63839000"},{"id":143491,"name":"Moimentinha","native":null,"lat":"40.74555556","lon":"-7.22777778"},{"id":143492,"name":"Moita","native":null,"lat":"40.30000000","lon":"-7.19750000"},{"id":143493,"name":"Moita dos Ferreiros","native":null,"lat":"39.24825000","lon":"-9.22355000"},{"id":143494,"name":"Moledo","native":null,"lat":"39.28388889","lon":"-9.25722222"},{"id":143495,"name":"Monte Abraão","native":null,"lat":"38.75840000","lon":"-9.26527000"},{"id":143496,"name":"Monte Estoril","native":null,"lat":"38.70636000","lon":"-9.40595000"},{"id":143497,"name":"Monte Redondo","native":null,"lat":"39.11500000","lon":"-9.20444444"},{"id":143498,"name":"Montelavar","native":null,"lat":"38.86968000","lon":"-9.31581000"},{"id":143499,"name":"Moreira de Rei","native":null,"lat":"40.83915000","lon":"-7.32316000"},{"id":143505,"name":"Mós","native":null,"lat":"41.11306000","lon":"-7.19717000"},{"id":143500,"name":"Moscavide","native":null,"lat":"38.77929000","lon":"-9.10222000"},{"id":143501,"name":"Murça","native":null,"lat":"41.10055556","lon":"-7.23138889"},{"id":143502,"name":"Muxagata","native":null,"lat":"41.03611111","lon":"-7.15000000"},{"id":143506,"name":"Nabais","native":null,"lat":"40.52000000","lon":"-7.55555556"},{"id":143507,"name":"Nave","native":null,"lat":"40.39821000","lon":"-6.96030000"},{"id":143508,"name":"Nave de Haver","native":null,"lat":"40.52166667","lon":"-6.83416667"},{"id":143509,"name":"Nespereira","native":null,"lat":"40.51722222","lon":"-7.60972222"},{"id":143510,"name":"Nossa Senhora de Fátima","native":null,"lat":"38.73916667","lon":"-9.15083333"},{"id":143511,"name":"Numão","native":null,"lat":"41.09750000","lon":"-7.29111111"},{"id":143512,"name":"Odivelas","native":null,"lat":"38.80000000","lon":"-9.18333333"},{"id":143513,"name":"Odivelas Municipality","native":null,"lat":"38.79705000","lon":"-9.19108000"},{"id":143514,"name":"Oeiras","native":null,"lat":"38.69704444","lon":"-9.30165278"},{"id":143515,"name":"Oeiras e São Julião da Barra","native":null,"lat":"38.69722222","lon":"-9.30833333"},{"id":143516,"name":"Olhalvo","native":null,"lat":"39.09861111","lon":"-9.06388889"},{"id":143517,"name":"Olival de Basto","native":null,"lat":"38.79083333","lon":"-9.16722222"},{"id":143518,"name":"Olival do Basto","native":null,"lat":"38.79083333","lon":"-9.16611111"},{"id":143519,"name":"Ota","native":null,"lat":"39.11000000","lon":"-8.98972222"},{"id":143520,"name":"Outeiro da Cabeça","native":null,"lat":"39.19222222","lon":"-9.18222222"},{"id":143521,"name":"Outeiro de Gatos","native":null,"lat":"40.95222222","lon":"-7.30222222"},{"id":143529,"name":"Paço de Arcos","native":null,"lat":"38.69500000","lon":"-9.29361111"},{"id":143530,"name":"Paços da Serra","native":null,"lat":"40.45972222","lon":"-7.65055556"},{"id":143522,"name":"Painho","native":null,"lat":"39.30222222","lon":"-9.04944444"},{"id":143523,"name":"Pala","native":null,"lat":"40.76305556","lon":"-7.15111111"},{"id":143524,"name":"Palhais","native":null,"lat":"40.81666667","lon":"-7.43000000"},{"id":143525,"name":"Panoias de Cima","native":null,"lat":"40.49777778","lon":"-7.23277778"},{"id":143526,"name":"Parada","native":null,"lat":"40.53972222","lon":"-7.03777778"},{"id":143527,"name":"Paranhos","native":null,"lat":"40.48635000","lon":"-7.79454000"},{"id":143528,"name":"Parede","native":null,"lat":"38.69328000","lon":"-9.35695000"},{"id":143531,"name":"Pega","native":null,"lat":"40.42861111","lon":"-7.14444444"},{"id":143532,"name":"Pena","native":null,"lat":"38.72138889","lon":"-9.14000000"},{"id":143533,"name":"Pena Lobo","native":null,"lat":"40.39277778","lon":"-7.20388889"},{"id":143534,"name":"Pena Verde","native":null,"lat":"40.72833333","lon":"-7.50527778"},{"id":143536,"name":"Penha de Águia","native":null,"lat":"40.86636000","lon":"-7.06814000"},{"id":143535,"name":"Penha de França","native":null,"lat":"38.73000000","lon":"-9.13166667"},{"id":143558,"name":"Pêra do Moço","native":null,"lat":"40.61305556","lon":"-7.20972222"},{"id":143537,"name":"Peral","native":null,"lat":"39.26166667","lon":"-9.07444444"},{"id":143538,"name":"Pereiro","native":null,"lat":"40.73500000","lon":"-7.01305556"},{"id":143539,"name":"Pereiro de Palhacana","native":null,"lat":"39.04277778","lon":"-9.10888889"},{"id":143559,"name":"Pêro Moniz","native":null,"lat":"39.22138889","lon":"-9.12361111"},{"id":143540,"name":"Pero Pinheiro","native":null,"lat":"38.83990000","lon":"-9.32066000"},{"id":143541,"name":"Peva","native":null,"lat":"40.66472222","lon":"-6.99083333"},{"id":143542,"name":"Pinhanços","native":null,"lat":"40.46638889","lon":"-7.68305556"},{"id":143543,"name":"Pinheiro","native":null,"lat":"40.80083333","lon":"-7.59833333"},{"id":143544,"name":"Pinhel","native":null,"lat":"40.78333333","lon":"-7.06666667"},{"id":143560,"name":"Pínzio","native":null,"lat":"40.60250000","lon":"-7.06527778"},{"id":143553,"name":"Poço do Canto","native":null,"lat":"40.99944444","lon":"-7.26833333"},{"id":143545,"name":"Pomares","native":null,"lat":"40.64305556","lon":"-7.13805556"},{"id":143546,"name":"Ponte do Rol","native":null,"lat":"39.09277778","lon":"-9.31916667"},{"id":143547,"name":"Pontinha","native":null,"lat":"38.77700000","lon":"-9.20377000"},{"id":143548,"name":"Portela","native":null,"lat":"38.78277778","lon":"-9.11111111"},{"id":143550,"name":"Porto da Carne","native":null,"lat":"40.60527778","lon":"-7.29222222"},{"id":143549,"name":"Porto Salvo","native":null,"lat":"38.71722222","lon":"-9.29916667"},{"id":143551,"name":"Pousada","native":null,"lat":"40.54722222","lon":"-7.12611111"},{"id":143552,"name":"Pousafoles do Bispo","native":null,"lat":"40.41222222","lon":"-7.17916667"},{"id":143561,"name":"Póvoa de Santa Iria","native":null,"lat":"38.86111111","lon":"-9.06444444"},{"id":143562,"name":"Póvoa de Santo Adrião","native":null,"lat":"38.80016000","lon":"-9.16395000"},{"id":143563,"name":"Póvoa do Concelho","native":null,"lat":"40.75972222","lon":"-7.26638889"},{"id":143554,"name":"Prados","native":null,"lat":"40.56138889","lon":"-7.37666667"},{"id":143555,"name":"Prazeres","native":null,"lat":"38.70888889","lon":"-9.16888889"},{"id":143556,"name":"Prior Velho","native":null,"lat":"38.79194444","lon":"-9.12083333"},{"id":143557,"name":"Prova","native":null,"lat":"40.91250000","lon":"-7.34194444"},{"id":143564,"name":"Quadrazais","native":null,"lat":"40.32472222","lon":"-6.99833333"},{"id":143565,"name":"Queijas","native":null,"lat":"38.72236000","lon":"-9.26593000"},{"id":143566,"name":"Queiriz","native":null,"lat":"40.73596000","lon":"-7.44999000"},{"id":143567,"name":"Queluz","native":null,"lat":"38.75657000","lon":"-9.25451000"},{"id":143569,"name":"Quintã de Pêro Martins","native":null,"lat":"40.88194444","lon":"-7.08305556"},{"id":143568,"name":"Quintas de São Bartolomeu","native":null,"lat":"40.37138889","lon":"-7.09861111"},{"id":143570,"name":"Rabaçal","native":null,"lat":"40.86250000","lon":"-7.24941000"},{"id":143571,"name":"Ramada","native":null,"lat":"38.80361111","lon":"-9.19111111"},{"id":143572,"name":"Ramalhal","native":null,"lat":"39.14472222","lon":"-9.23222222"},{"id":143573,"name":"Ramela","native":null,"lat":"40.47777778","lon":"-7.25888889"},{"id":143574,"name":"Ranhados","native":null,"lat":"40.99527778","lon":"-7.32944444"},{"id":143575,"name":"Rapa","native":null,"lat":"40.58416667","lon":"-7.34555556"},{"id":143576,"name":"Rapoula do Côa","native":null,"lat":"40.42111111","lon":"-7.04750000"},{"id":143577,"name":"Ratoeira","native":null,"lat":"40.64027778","lon":"-7.35361111"},{"id":143578,"name":"Reboleira","native":null,"lat":"38.75083333","lon":"-9.23027778"},{"id":143579,"name":"Reboleiro","native":null,"lat":"40.83250000","lon":"-7.41888889"},{"id":143580,"name":"Rebolosa","native":null,"lat":"40.42361111","lon":"-6.91111111"},{"id":143581,"name":"Reguengo Grande","native":null,"lat":"39.28722222","lon":"-9.21472222"},{"id":143582,"name":"Reigada","native":null,"lat":"40.80444444","lon":"-6.94805556"},{"id":143583,"name":"Rendo","native":null,"lat":"40.37972222","lon":"-7.04444444"},{"id":143584,"name":"Ribafria","native":null,"lat":"39.06194444","lon":"-9.09472222"},{"id":143585,"name":"Ribamar","native":null,"lat":"39.20250000","lon":"-9.33250000"},{"id":143586,"name":"Ribamondego","native":null,"lat":"40.56805556","lon":"-7.58138889"},{"id":143587,"name":"Ribeira Dos Carinhos","native":null,"lat":"40.62138889","lon":"-7.14222222"},{"id":143589,"name":"Rio de Mel","native":null,"lat":"40.80777778","lon":"-7.39361111"},{"id":143590,"name":"Rio de Mouro","native":null,"lat":"38.76889000","lon":"-9.33273000"},{"id":143588,"name":"Rio Torto","native":null,"lat":"40.50916667","lon":"-7.65694444"},{"id":143591,"name":"Rochoso","native":null,"lat":"40.51638889","lon":"-7.09333333"},{"id":143592,"name":"Runa","native":null,"lat":"39.06527778","lon":"-9.20888889"},{"id":143593,"name":"Ruvina","native":null,"lat":"40.41500000","lon":"-7.01055556"},{"id":143594,"name":"Sabugal","native":null,"lat":"40.35000000","lon":"-7.08333333"},{"id":143595,"name":"Sabugueiro","native":null,"lat":"40.40194444","lon":"-7.63972222"},{"id":143596,"name":"Sacavém","native":null,"lat":"38.79442000","lon":"-9.10533000"},{"id":143597,"name":"Sacramento","native":null,"lat":"38.71222222","lon":"-9.14000000"},{"id":143598,"name":"Safurdão","native":null,"lat":"40.63694444","lon":"-7.06888889"},{"id":143599,"name":"Salgueirais","native":null,"lat":"40.57445000","lon":"-7.42247000"},{"id":143600,"name":"Sameice","native":null,"lat":"40.43444444","lon":"-7.77611111"},{"id":143601,"name":"Sameiro","native":null,"lat":"40.40916667","lon":"-7.49000000"},{"id":143602,"name":"Sandomil","native":null,"lat":"40.35805556","lon":"-7.78277778"},{"id":143603,"name":"Santa Bárbara","native":null,"lat":"39.21000000","lon":"-9.31388889"},{"id":143604,"name":"Santa Catarina","native":null,"lat":"38.71138889","lon":"-9.14805556"},{"id":143605,"name":"Santa Comba","native":null,"lat":"40.45055556","lon":"-7.71472222"},{"id":143606,"name":"Santa Engrácia","native":null,"lat":"38.71916667","lon":"-9.11972222"},{"id":143607,"name":"Santa Eufémia","native":null,"lat":"40.79833333","lon":"-7.18083333"},{"id":143608,"name":"Santa Eulália","native":null,"lat":"40.41439000","lon":"-7.78717000"},{"id":143609,"name":"Santa Iria da Azóia","native":null,"lat":"38.84629000","lon":"-9.08748000"},{"id":143610,"name":"Santa Iria de Azoia","native":null,"lat":"38.84638889","lon":"-9.08805556"},{"id":143611,"name":"Santa Isabel","native":null,"lat":"38.71861111","lon":"-9.15833333"},{"id":143612,"name":"Santa Justa","native":null,"lat":"38.71555556","lon":"-9.13638889"},{"id":143613,"name":"Santa Maria","native":null,"lat":"40.42388889","lon":"-7.52138889"},{"id":143614,"name":"Santa Maria de Belém","native":null,"lat":"38.69911000","lon":"-9.20867000"},{"id":143615,"name":"Santa Maria do Castelo e São Miguel","native":null,"lat":"39.10864000","lon":"-9.23907000"},{"id":143616,"name":"Santa Maria dos Olivais","native":null,"lat":"38.76989000","lon":"-9.12073000"},{"id":143617,"name":"Santa Maria e São Miguel","native":null,"lat":"38.80083333","lon":"-9.37944444"},{"id":143618,"name":"Santa Marinha","native":null,"lat":"40.45027778","lon":"-7.66333333"},{"id":143619,"name":"Santana da Azinha","native":null,"lat":"40.47361111","lon":"-7.20916667"},{"id":143620,"name":"Santiago","native":null,"lat":"40.42388889","lon":"-7.72916667"},{"id":143621,"name":"Santiago dos Velhos","native":null,"lat":"38.94166667","lon":"-9.10361111"},{"id":143622,"name":"Santo Antão do Tojal","native":null,"lat":"38.85361111","lon":"-9.14305556"},{"id":143623,"name":"Santo António dos Cavaleiros","native":null,"lat":"38.81166667","lon":"-9.16111111"},{"id":143624,"name":"Santo Condestável","native":null,"lat":"38.71527778","lon":"-9.16694444"},{"id":143625,"name":"Santo Estêvão","native":null,"lat":"39.04222222","lon":"-9.01583333"},{"id":143626,"name":"Santo Estêvão das Galés","native":null,"lat":"38.89008000","lon":"-9.25066000"},{"id":143627,"name":"Santo Isidoro","native":null,"lat":"38.99361111","lon":"-9.39861111"},{"id":143628,"name":"Santo Quintino","native":null,"lat":"39.00611111","lon":"-9.14972222"},{"id":143629,"name":"Santos-o-Velho","native":null,"lat":"38.70694444","lon":"-9.15638889"},{"id":143653,"name":"São Bartolomeu","native":null,"lat":"39.27511000","lon":"-9.27885000"},{"id":143654,"name":"São Bartolomeu dos Galegos","native":null,"lat":"39.27583333","lon":"-9.27944444"},{"id":143655,"name":"São Brás","native":null,"lat":"38.76750000","lon":"-9.23305556"},{"id":143656,"name":"São Cristóvão e São Lourenço","native":null,"lat":"38.71277778","lon":"-9.13555556"},{"id":143657,"name":"São Domingos de Benfica","native":null,"lat":"38.74361111","lon":"-9.17000000"},{"id":143658,"name":"São Domingos de Rana","native":null,"lat":"38.70123000","lon":"-9.32760000"},{"id":143659,"name":"São Francisco Xavier","native":null,"lat":"38.70722222","lon":"-9.21722222"},{"id":143662,"name":"São João","native":null,"lat":"38.72888889","lon":"-9.12277778"},{"id":143664,"name":"São João da Talha","native":null,"lat":"38.82583333","lon":"-9.09222222"},{"id":143665,"name":"São João das Lampas","native":null,"lat":"38.87000000","lon":"-9.42111111"},{"id":143666,"name":"São João de Brito","native":null,"lat":"38.75500000","lon":"-9.13777778"},{"id":143667,"name":"São João de Deus","native":null,"lat":"38.74027778","lon":"-9.13777778"},{"id":143663,"name":"São João Dos Montes","native":null,"lat":"38.95166000","lon":"-9.05449000"},{"id":143660,"name":"São Jorge de Arroios","native":null,"lat":"38.72888889","lon":"-9.13888889"},{"id":143661,"name":"São José","native":null,"lat":"38.71805556","lon":"-9.14250000"},{"id":143668,"name":"São Julião","native":null,"lat":"40.48757000","lon":"-7.59498000"},{"id":143669,"name":"São Julião do Tojal","native":null,"lat":"38.85805556","lon":"-9.13555556"},{"id":143670,"name":"São Mamede","native":null,"lat":"38.72023000","lon":"-9.15298000"},{"id":143671,"name":"São Marcos","native":null,"lat":"38.75624000","lon":"-9.29731000"},{"id":143672,"name":"São Martinho","native":null,"lat":"40.44305556","lon":"-7.67194444"},{"id":143673,"name":"São Miguel","native":null,"lat":"38.71111111","lon":"-9.12944444"},{"id":143674,"name":"São Miguel da Guarda","native":null,"lat":"40.55555556","lon":"-7.24611111"},{"id":143675,"name":"São Miguel de Alcainça","native":null,"lat":"38.92111111","lon":"-9.29583333"},{"id":143676,"name":"São Nicolau","native":null,"lat":"38.70750000","lon":"-9.13666667"},{"id":143677,"name":"São Paio","native":null,"lat":"40.51527778","lon":"-7.58222222"},{"id":143678,"name":"São Paulo","native":null,"lat":"38.70760000","lon":"-9.14707000"},{"id":143679,"name":"São Pedro","native":null,"lat":"40.63222222","lon":"-7.38138889"},{"id":143680,"name":"São Pedro da Cadeira","native":null,"lat":"39.06972222","lon":"-9.37166667"},{"id":143681,"name":"São Pedro de Penaferrim","native":null,"lat":"38.76947000","lon":"-9.38963000"},{"id":143682,"name":"São Pedro de Rio Seco","native":null,"lat":"40.66194444","lon":"-6.83916667"},{"id":143683,"name":"São Romão","native":null,"lat":"40.40194444","lon":"-7.71694444"},{"id":143684,"name":"São Sebastião da Pedreira","native":null,"lat":"38.73083333","lon":"-9.14916667"},{"id":143685,"name":"São Vicente","native":null,"lat":"40.53979000","lon":"-7.23536000"},{"id":143686,"name":"São Vicente de Fora","native":null,"lat":"38.71583333","lon":"-9.12416667"},{"id":143630,"name":"Sapataria","native":null,"lat":"38.97188000","lon":"-9.20195000"},{"id":143631,"name":"Sazes da Beira","native":null,"lat":"40.34888889","lon":"-7.73527778"},{"id":143687,"name":"Sé","native":null,"lat":"40.53861111","lon":"-7.26916667"},{"id":143632,"name":"Sebadelhe","native":null,"lat":"41.05222222","lon":"-7.26972222"},{"id":143633,"name":"Sebadelhe da Serra","native":null,"lat":"40.87111111","lon":"-7.39833333"},{"id":143634,"name":"Seia","native":null,"lat":"40.42027778","lon":"-7.70333333"},{"id":143635,"name":"Seixas","native":null,"lat":"41.11196000","lon":"-7.25251000"},{"id":143636,"name":"Seixo do Côa","native":null,"lat":"40.46305556","lon":"-7.02666667"},{"id":143637,"name":"Sequeira","native":null,"lat":"40.55361111","lon":"-7.22583333"},{"id":143638,"name":"Sequeiros","native":null,"lat":"40.83714000","lon":"-7.49803000"},{"id":143639,"name":"Silveira","native":null,"lat":"39.11111111","lon":"-9.36416667"},{"id":143640,"name":"Sintra","native":null,"lat":"38.79736111","lon":"-9.39041667"},{"id":143641,"name":"Sintra (town)","native":null,"lat":"38.81439000","lon":"-9.38370000"},{"id":143643,"name":"Sobral da Abelheira","native":null,"lat":"38.99833333","lon":"-9.32916667"},{"id":143644,"name":"Sobral da Serra","native":null,"lat":"40.61916667","lon":"-7.27972222"},{"id":143645,"name":"Sobral de Monte Agraço","native":null,"lat":"39.01666667","lon":"-9.15000000"},{"id":143642,"name":"Sobral Pichorro","native":null,"lat":"40.69073000","lon":"-7.45598000"},{"id":143646,"name":"Sobralinho","native":null,"lat":"38.91750000","lon":"-9.02611111"},{"id":143647,"name":"Socorro","native":null,"lat":"38.71666667","lon":"-9.13444444"},{"id":143648,"name":"Sortelha","native":null,"lat":"40.33138889","lon":"-7.21138889"},{"id":143649,"name":"Souro Pires","native":null,"lat":"40.74500000","lon":"-7.12472222"},{"id":143650,"name":"Souto","native":null,"lat":"40.35666667","lon":"-6.95833333"},{"id":143652,"name":"Souto de Aguiar da Beira","native":null,"lat":"40.81075000","lon":"-7.49244000"},{"id":143651,"name":"Souto Maior","native":null,"lat":"40.79686000","lon":"-7.31410000"},{"id":143688,"name":"Tamanhos","native":null,"lat":"40.76166667","lon":"-7.31555556"},{"id":143689,"name":"Teixeira","native":null,"lat":"40.25333333","lon":"-7.74166667"},{"id":143690,"name":"Terrenho","native":null,"lat":"40.86611111","lon":"-7.35416667"},{"id":143691,"name":"Terrugem","native":null,"lat":"38.85111111","lon":"-9.37472222"},{"id":143692,"name":"Torre do Terrenho","native":null,"lat":"40.88888889","lon":"-7.35944444"},{"id":143693,"name":"Torres","native":null,"lat":"40.74833333","lon":"-7.31916667"},{"id":143694,"name":"Torres Vedras","native":null,"lat":"39.08333333","lon":"-9.26666667"},{"id":143695,"name":"Torrozelo","native":null,"lat":"40.38611111","lon":"-7.76027778"},{"id":143697,"name":"Touça","native":null,"lat":"41.04722222","lon":"-7.23388889"},{"id":143696,"name":"Tourais","native":null,"lat":"40.47138889","lon":"-7.75083333"},{"id":143698,"name":"Trancoso","native":null,"lat":"40.78330000","lon":"-7.35000000"},{"id":143699,"name":"Travancinha","native":null,"lat":"40.42234000","lon":"-7.82175000"},{"id":143700,"name":"Triana","native":null,"lat":"39.06988000","lon":"-8.98660000"},{"id":143701,"name":"Trinta","native":null,"lat":"40.50444444","lon":"-7.35527778"},{"id":143702,"name":"Turcifal","native":null,"lat":"39.03578000","lon":"-9.26017000"},{"id":143703,"name":"Unhos","native":null,"lat":"38.82583333","lon":"-9.12138889"},{"id":143704,"name":"Valbom","native":null,"lat":"40.78055556","lon":"-7.12888889"},{"id":143705,"name":"Valdujo","native":null,"lat":"40.84500000","lon":"-7.26694444"},{"id":143707,"name":"Vale da Mula","native":null,"lat":"40.70361111","lon":"-6.82361111"},{"id":143708,"name":"Vale de Amoreira","native":null,"lat":"40.41416667","lon":"-7.44138889"},{"id":143709,"name":"Vale de Azares","native":null,"lat":"40.60492000","lon":"-7.36421000"},{"id":143710,"name":"Vale de Espinho","native":null,"lat":"40.29694444","lon":"-6.95055556"},{"id":143711,"name":"Vale de Estrela","native":null,"lat":"40.49944444","lon":"-7.30777778"},{"id":143712,"name":"Vale do Paraíso","native":null,"lat":"39.11555556","lon":"-8.88583333"},{"id":143713,"name":"Vale do Seixo","native":null,"lat":"40.79291000","lon":"-7.27266000"},{"id":143706,"name":"Vale Flor","native":null,"lat":"40.91277778","lon":"-7.28222222"},{"id":143714,"name":"Valezim","native":null,"lat":"40.35889000","lon":"-7.70831000"},{"id":143715,"name":"Valhelhas","native":null,"lat":"40.40722222","lon":"-7.40305556"},{"id":143716,"name":"Valverde","native":null,"lat":"40.78416667","lon":"-7.52194444"},{"id":143759,"name":"Várzea de Meruge","native":null,"lat":"40.39527778","lon":"-7.78361111"},{"id":143717,"name":"Vascoveiro","native":null,"lat":"40.73416667","lon":"-7.06972222"},{"id":143718,"name":"Vela","native":null,"lat":"40.43585000","lon":"-7.30369000"},{"id":143719,"name":"Velosa","native":null,"lat":"40.65250000","lon":"-7.29000000"},{"id":143721,"name":"Venda do Pinheiro","native":null,"lat":"38.92527778","lon":"-9.23222222"},{"id":143720,"name":"Venda Nova","native":null,"lat":"38.75422000","lon":"-9.21452000"},{"id":143722,"name":"Venteira","native":null,"lat":"38.75944444","lon":"-9.24111111"},{"id":143723,"name":"Ventosa","native":null,"lat":"39.12694444","lon":"-9.08416667"},{"id":143724,"name":"Vermelha","native":null,"lat":"39.27277778","lon":"-9.10555556"},{"id":143725,"name":"Vermiosa","native":null,"lat":"40.82722222","lon":"-6.87750000"},{"id":143726,"name":"Vialonga","native":null,"lat":"38.87094000","lon":"-9.06823000"},{"id":143727,"name":"Vide","native":null,"lat":"40.29444444","lon":"-7.78416667"},{"id":143728,"name":"Vide Entre Vinhas","native":null,"lat":"40.59722222","lon":"-7.40416667"},{"id":143729,"name":"Videmonte","native":null,"lat":"40.51388889","lon":"-7.39000000"},{"id":143730,"name":"Vila Boa","native":null,"lat":"40.38305556","lon":"-7.00388889"},{"id":143731,"name":"Vila Boa do Mondego","native":null,"lat":"40.62694444","lon":"-7.43777778"},{"id":143732,"name":"Vila Cortês da Serra","native":null,"lat":"40.55083333","lon":"-7.52944444"},{"id":143733,"name":"Vila Cortês do Mondego","native":null,"lat":"40.60593000","lon":"-7.31236000"},{"id":143734,"name":"Vila Cova à Coelheira","native":null,"lat":"40.38333333","lon":"-7.73416667"},{"id":143750,"name":"Vila do Touro","native":null,"lat":"40.41638889","lon":"-7.10555556"},{"id":143735,"name":"Vila Fernando","native":null,"lat":"40.49472222","lon":"-7.15444444"},{"id":143736,"name":"Vila Franca da Serra","native":null,"lat":"40.58722222","lon":"-7.53944444"},{"id":143737,"name":"Vila Franca das Naves","native":null,"lat":"40.72392000","lon":"-7.26206000"},{"id":143738,"name":"Vila Franca de Xira","native":null,"lat":"38.95000000","lon":"-8.98333333"},{"id":143739,"name":"Vila Franca do Deão","native":null,"lat":"40.65277778","lon":"-7.24222222"},{"id":143740,"name":"Vila Franca do Rosário","native":null,"lat":"38.97472222","lon":"-9.25611111"},{"id":143741,"name":"Vila Garcia","native":null,"lat":"40.79414000","lon":"-7.23318000"},{"id":143742,"name":"Vila Nova da Rainha","native":null,"lat":"39.03722222","lon":"-8.93361111"},{"id":143743,"name":"Vila Nova de Foz Côa","native":null,"lat":"41.08333333","lon":"-7.13333333"},{"id":143744,"name":"Vila Nova de São Pedro","native":null,"lat":"39.21980000","lon":"-8.84037000"},{"id":143745,"name":"Vila Nova de Tazem","native":null,"lat":"40.50250000","lon":"-7.70305556"},{"id":143746,"name":"Vila Ruiva","native":null,"lat":"40.56944444","lon":"-7.51416667"},{"id":143747,"name":"Vila Soeiro do Chão","native":null,"lat":"40.61036000","lon":"-7.48202000"},{"id":143748,"name":"Vila Verde","native":null,"lat":"39.15489000","lon":"-9.11512000"},{"id":143749,"name":"Vila Verde dos Francos","native":null,"lat":"39.15444444","lon":"-9.11333333"},{"id":143751,"name":"Vilar","native":null,"lat":"39.18671000","lon":"-9.10687000"},{"id":143755,"name":"Vilar de Amargo","native":null,"lat":"40.94636000","lon":"-7.00157000"},{"id":143752,"name":"Vilar Formoso","native":null,"lat":"40.61382000","lon":"-6.83493000"},{"id":143753,"name":"Vilar Maior","native":null,"lat":"40.48473000","lon":"-6.91999000"},{"id":143754,"name":"Vilar Torpim","native":null,"lat":"40.82555556","lon":"-6.95194444"},{"id":143756,"name":"Vilares","native":null,"lat":"40.72062000","lon":"-7.28348000"},{"id":143757,"name":"Vimeiro","native":null,"lat":"39.17777778","lon":"-9.31777778"},{"id":143758,"name":"Vinhó","native":null,"lat":"40.49583333","lon":"-7.62694444"}]},{"id":2240,"name":"Leiria","native":null,"cities":[{"id":88905,"name":"A dos Francos","native":null,"lat":"39.32272000","lon":"-9.04743000"},{"id":88920,"name":"Alcobaça","native":null,"lat":"39.55223000","lon":"-8.97749000"},{"id":88930,"name":"Alfeizerão","native":null,"lat":"39.49971000","lon":"-9.10341000"},{"id":88943,"name":"Aljubarrota","native":null,"lat":"39.56715000","lon":"-8.92925000"},{"id":88955,"name":"Alvaiázere","native":null,"lat":"39.81951000","lon":"-8.38858000"},{"id":88959,"name":"Alvorninha","native":null,"lat":"39.38224000","lon":"-9.03674000"},{"id":88964,"name":"Amor","native":null,"lat":"39.80404000","lon":"-8.85984000"},{"id":88970,"name":"Ansião","native":null,"lat":"39.93424000","lon":"-8.42045000"},{"id":89000,"name":"Atouguia da Baleia","native":null,"lat":"39.33814000","lon":"-9.32630000"},{"id":89023,"name":"Batalha","native":null,"lat":"39.66025000","lon":"-8.82475000"},{"id":89033,"name":"Benedita","native":null,"lat":"39.42470000","lon":"-8.96996000"},{"id":89042,"name":"Bombarral","native":null,"lat":"39.26723000","lon":"-9.15795000"},{"id":89063,"name":"Caldas da Rainha","native":null,"lat":"39.40326000","lon":"-9.13839000"},{"id":89090,"name":"Caranguejeira","native":null,"lat":"39.74619000","lon":"-8.70740000"},{"id":89102,"name":"Castanheira de Pêra","native":null,"lat":"40.00717000","lon":"-8.21048000"},{"id":89113,"name":"Cela","native":null,"lat":"39.54075000","lon":"-9.03449000"},{"id":89164,"name":"Famalicão","native":null,"lat":"39.53642000","lon":"-9.08308000"},{"id":89180,"name":"Ferrel","native":null,"lat":"39.36398000","lon":"-9.31541000"},{"id":89184,"name":"Figueiró Dos Vinhos","native":null,"lat":"39.90617000","lon":"-8.27753000"},{"id":89188,"name":"Foz do Arelho","native":null,"lat":"39.43672000","lon":"-9.21374000"},{"id":89241,"name":"Leiria","native":null,"lat":"39.74362000","lon":"-8.80705000"},{"id":89253,"name":"Louriçal","native":null,"lat":"40.00390000","lon":"-8.73736000"},{"id":89261,"name":"Maceira","native":null,"lat":"39.68853000","lon":"-8.89423000"},{"id":89277,"name":"Marinha Grande","native":null,"lat":"39.77681000","lon":"-8.95005000"},{"id":89302,"name":"Mira","native":null,"lat":"39.54315000","lon":"-8.71505000"},{"id":89322,"name":"Monte Real","native":null,"lat":"39.85210000","lon":"-8.86349000"},{"id":89323,"name":"Monte Redondo","native":null,"lat":"39.89930000","lon":"-8.83171000"},{"id":89341,"name":"Nadadouro","native":null,"lat":"39.41927000","lon":"-9.19091000"},{"id":89342,"name":"Nazaré","native":null,"lat":"39.59965000","lon":"-9.07162000"},{"id":89699,"name":"Óbidos","native":null,"lat":"39.35854000","lon":"-9.17603000"},{"id":89385,"name":"Pataias","native":null,"lat":"39.66978000","lon":"-8.99580000"},{"id":89391,"name":"Pedrógão Grande","native":null,"lat":"39.92682000","lon":"-8.20093000"},{"id":89400,"name":"Peniche","native":null,"lat":"39.35580000","lon":"-9.38112000"},{"id":89411,"name":"Pombal","native":null,"lat":"39.90735000","lon":"-8.66949000"},{"id":89433,"name":"Porto de Mós","native":null,"lat":"39.60191000","lon":"-8.81839000"},{"id":89483,"name":"Salir de Matos","native":null,"lat":"39.43186000","lon":"-9.09479000"},{"id":89496,"name":"Santa Catarina da Serra","native":null,"lat":"39.67960000","lon":"-8.68679000"},{"id":89576,"name":"São Martinho do Porto","native":null,"lat":"39.51444000","lon":"-9.13111000"},{"id":89534,"name":"Serra de El-Rei","native":null,"lat":"39.33291000","lon":"-9.26843000"},{"id":89555,"name":"Souto da Carpalhosa","native":null,"lat":"39.84867000","lon":"-8.83506000"},{"id":89615,"name":"Turquel","native":null,"lat":"39.46411000","lon":"-8.97743000"},{"id":89622,"name":"Valado de Frades","native":null,"lat":"39.58432000","lon":"-9.02290000"},{"id":89637,"name":"Vestiaria","native":null,"lat":"39.55271000","lon":"-8.99790000"},{"id":89641,"name":"Vidais","native":null,"lat":"39.36886000","lon":"-9.04916000"},{"id":89643,"name":"Vieira de Leiria","native":null,"lat":"39.86945000","lon":"-8.93238000"}]},{"id":2228,"name":"Lisbon","native":null,"cities":[{"id":88904,"name":"A dos Cunhados","native":null,"lat":"39.15237000","lon":"-9.29720000"},{"id":88908,"name":"Abrigada","native":null,"lat":"39.14416000","lon":"-9.01853000"},{"id":88915,"name":"Alcabideche","native":null,"lat":"38.73366000","lon":"-9.40928000"},{"id":88922,"name":"Alcoentre","native":null,"lat":"39.20857000","lon":"-8.95953000"},{"id":88928,"name":"Alenquer","native":null,"lat":"39.05315000","lon":"-9.00928000"},{"id":88933,"name":"Alfragide","native":null,"lat":"38.73203000","lon":"-9.21920000"},{"id":88937,"name":"Algés","native":null,"lat":"38.70245000","lon":"-9.22936000"},{"id":88936,"name":"Algueirão","native":null,"lat":"38.79764000","lon":"-9.34370000"},{"id":88939,"name":"Alhandra","native":null,"lat":"38.92732000","lon":"-9.00864000"},{"id":88947,"name":"Almargem","native":null,"lat":"38.84485000","lon":"-9.27315000"},{"id":88956,"name":"Alvalade","native":null,"lat":"38.75328000","lon":"-9.14397000"},{"id":88960,"name":"Amadora","native":null,"lat":"38.75382000","lon":"-9.23083000"},{"id":88973,"name":"Apelação","native":null,"lat":"38.81387000","lon":"-9.13225000"},{"id":88991,"name":"Arranhó","native":null,"lat":"38.95378000","lon":"-9.13465000"},{"id":88996,"name":"Arruda dos Vinhos","native":null,"lat":"38.97172000","lon":"-9.08807000"},{"id":89002,"name":"Aveiras de Cima","native":null,"lat":"39.13796000","lon":"-8.89932000"},{"id":89009,"name":"Azambuja","native":null,"lat":"39.07029000","lon":"-8.86822000"},{"id":89017,"name":"Barcarena","native":null,"lat":"38.73245000","lon":"-9.28000000"},{"id":89024,"name":"Beato António","native":null,"lat":"38.73327000","lon":"-9.10335000"},{"id":89028,"name":"Belas","native":null,"lat":"38.77670000","lon":"-9.26353000"},{"id":89034,"name":"Benfica","native":null,"lat":"38.75087000","lon":"-9.20282000"},{"id":89040,"name":"Bobadela","native":null,"lat":"38.80774000","lon":"-9.09925000"},{"id":89051,"name":"Bucelas","native":null,"lat":"38.90193000","lon":"-9.11885000"},{"id":89053,"name":"Cabanas de Torres","native":null,"lat":"39.15581000","lon":"-9.06588000"},{"id":89059,"name":"Cacém","native":null,"lat":"38.76698000","lon":"-9.29793000"},{"id":89060,"name":"Cadafais","native":null,"lat":"39.00461000","lon":"-9.00419000"},{"id":89061,"name":"Cadaval","native":null,"lat":"39.24621000","lon":"-9.06738000"},{"id":89072,"name":"Camarate","native":null,"lat":"38.80358000","lon":"-9.12809000"},{"id":89075,"name":"Campelos","native":null,"lat":"39.19678000","lon":"-9.23519000"},{"id":89083,"name":"Caneças","native":null,"lat":"38.81321000","lon":"-9.22679000"},{"id":89092,"name":"Carcavelos","native":null,"lat":"38.69105000","lon":"-9.32215000"},{"id":89093,"name":"Carnaxide","native":null,"lat":"38.72706000","lon":"-9.24671000"},{"id":89096,"name":"Carregado","native":null,"lat":"39.02362000","lon":"-8.97692000"},{"id":89101,"name":"Cascais","native":null,"lat":"38.69681000","lon":"-9.42147000"},{"id":89103,"name":"Castanheira do Ribatejo","native":null,"lat":"38.99298000","lon":"-8.97346000"},{"id":89112,"name":"Caxias","native":null,"lat":"38.70314000","lon":"-9.27666000"},{"id":89117,"name":"Charneca","native":null,"lat":"38.78351000","lon":"-9.14348000"},{"id":89123,"name":"Colares","native":null,"lat":"38.79921000","lon":"-9.44691000"},{"id":89144,"name":"Ericeira","native":null,"lat":"38.96275000","lon":"-9.41563000"},{"id":89155,"name":"Estoril","native":null,"lat":"38.70571000","lon":"-9.39773000"},{"id":89165,"name":"Famões","native":null,"lat":"38.78804000","lon":"-9.21033000"},{"id":89186,"name":"Fontanelas","native":null,"lat":"38.84806000","lon":"-9.43942000"},{"id":89244,"name":"Linda-a-Velha","native":null,"lat":"38.71446000","lon":"-9.24220000"},{"id":89245,"name":"Lisbon","native":null,"lat":"38.72635000","lon":"-9.14843000"},{"id":89251,"name":"Loures","native":null,"lat":"38.83091000","lon":"-9.16845000"},{"id":89252,"name":"Lourinhã","native":null,"lat":"39.24745000","lon":"-9.31194000"},{"id":89268,"name":"Mafra","native":null,"lat":"38.94107000","lon":"-9.32636000"},{"id":89271,"name":"Malveira","native":null,"lat":"38.93213000","lon":"-9.25779000"},{"id":89283,"name":"Massamá","native":null,"lat":"38.75279000","lon":"-9.28110000"},{"id":89288,"name":"Meca","native":null,"lat":"39.08178000","lon":"-9.03459000"},{"id":89292,"name":"Mem Martins","native":null,"lat":"38.79443000","lon":"-9.34284000"},{"id":89296,"name":"Milharado","native":null,"lat":"38.94732000","lon":"-9.19914000"},{"id":89310,"name":"Moita dos Ferreiros","native":null,"lat":"39.24825000","lon":"-9.22355000"},{"id":89320,"name":"Monte Estoril","native":null,"lat":"38.70636000","lon":"-9.40595000"},{"id":89332,"name":"Moscavide e Portela","native":null,"lat":"38.77929000","lon":"-9.10222000"},{"id":89353,"name":"Odivelas","native":null,"lat":"38.79269000","lon":"-9.18380000"},{"id":89354,"name":"Oeiras","native":null,"lat":"38.71371000","lon":"-9.26832000"},{"id":89359,"name":"Olivais","native":null,"lat":"38.76994000","lon":"-9.10674000"},{"id":89361,"name":"Olival do Basto","native":null,"lat":"38.79079000","lon":"-9.16621000"},{"id":89371,"name":"Ota","native":null,"lat":"39.11199000","lon":"-8.99105000"},{"id":89386,"name":"Paço de Arcos","native":null,"lat":"38.69569000","lon":"-9.29143000"},{"id":89382,"name":"Parede","native":null,"lat":"38.69282000","lon":"-9.35412000"},{"id":89403,"name":"Pero Pinheiro","native":null,"lat":"38.85783000","lon":"-9.32352000"},{"id":89419,"name":"Pontinha","native":null,"lat":"38.76771000","lon":"-9.19935000"},{"id":89430,"name":"Porto Salvo","native":null,"lat":"38.72293000","lon":"-9.30473000"},{"id":89443,"name":"Póvoa de Santa Iria","native":null,"lat":"38.86101000","lon":"-9.06453000"},{"id":89444,"name":"Póvoa de Santo Adrião","native":null,"lat":"38.80000000","lon":"-9.16667000"},{"id":89439,"name":"Prior Velho","native":null,"lat":"38.79174000","lon":"-9.12119000"},{"id":89447,"name":"Queijas","native":null,"lat":"38.71925000","lon":"-9.26255000"},{"id":89448,"name":"Queluz","native":null,"lat":"38.75657000","lon":"-9.25451000"},{"id":89452,"name":"Ramada","native":null,"lat":"38.80368000","lon":"-9.18770000"},{"id":89476,"name":"Rio de Mouro","native":null,"lat":"38.76613000","lon":"-9.32804000"},{"id":89481,"name":"Sacavém","native":null,"lat":"38.79202000","lon":"-9.10801000"},{"id":89504,"name":"Santa Iria da Azóia","native":null,"lat":"38.84110000","lon":"-9.09908000"},{"id":89514,"name":"Santo Antão do Tojal","native":null,"lat":"38.85151000","lon":"-9.13975000"},{"id":89517,"name":"Santo Isidoro","native":null,"lat":"38.99593000","lon":"-9.39940000"},{"id":89520,"name":"Santos-o-Velho","native":null,"lat":"38.70690000","lon":"-9.15611000"},{"id":89557,"name":"São Bartolomeu","native":null,"lat":"39.27511000","lon":"-9.27885000"},{"id":89561,"name":"São Domingos de Rana","native":null,"lat":"38.70194000","lon":"-9.34083000"},{"id":89567,"name":"São João da Talha","native":null,"lat":"38.82378000","lon":"-9.09719000"},{"id":89568,"name":"São João das Lampas","native":null,"lat":"38.87376000","lon":"-9.39842000"},{"id":89571,"name":"São João dos Montes","native":null,"lat":"38.93944000","lon":"-9.01892000"},{"id":89580,"name":"São Pedro da Cadeira","native":null,"lat":"39.06983000","lon":"-9.37174000"},{"id":89543,"name":"Silveira","native":null,"lat":"39.11120000","lon":"-9.36430000"},{"id":89546,"name":"Sintra","native":null,"lat":"38.81439000","lon":"-9.38370000"},{"id":89548,"name":"Sobral de Monte Agraço","native":null,"lat":"39.01958000","lon":"-9.15081000"},{"id":89549,"name":"Sobralinho","native":null,"lat":"38.91703000","lon":"-9.02656000"},{"id":89602,"name":"Terrugem","native":null,"lat":"38.70647000","lon":"-9.28693000"},{"id":89608,"name":"Torres Vedras","native":null,"lat":"39.09109000","lon":"-9.25860000"},{"id":89617,"name":"Unhos","native":null,"lat":"38.81958000","lon":"-9.12007000"},{"id":89634,"name":"Venda do Pinheiro","native":null,"lat":"38.92365000","lon":"-9.23178000"},{"id":89636,"name":"Ventosa","native":null,"lat":"39.12696000","lon":"-9.08423000"},{"id":89638,"name":"Vialonga","native":null,"lat":"38.87206000","lon":"-9.07805000"},{"id":89649,"name":"Vila Franca de Xira","native":null,"lat":"38.92137000","lon":"-9.03220000"},{"id":89667,"name":"Vila Verde","native":null,"lat":"39.15489000","lon":"-9.11512000"},{"id":89681,"name":"Vimeiro","native":null,"lat":"39.17768000","lon":"-9.31702000"}]},{"id":2231,"name":"Madeira","native":null,"cities":[{"id":89693,"name":"Água de Pena","native":null,"lat":"32.70143000","lon":"-16.77874000"},{"id":88978,"name":"Arco da Calheta","native":null,"lat":"32.71502000","lon":"-17.14974000"},{"id":89038,"name":"Boaventura","native":null,"lat":"32.81846000","lon":"-16.97268000"},{"id":89068,"name":"Calheta","native":null,"lat":"32.71667000","lon":"-17.18333000"},{"id":89071,"name":"Camacha","native":null,"lat":"32.67919000","lon":"-16.84462000"},{"id":89139,"name":"Câmara de Lobos","native":null,"lat":"32.65043000","lon":"-16.97718000"},{"id":89074,"name":"Campanário","native":null,"lat":"32.66578000","lon":"-17.03576000"},{"id":89084,"name":"Canhas","native":null,"lat":"32.69465000","lon":"-17.09867000"},{"id":89086,"name":"Caniçal","native":null,"lat":"32.73834000","lon":"-16.73836000"},{"id":89087,"name":"Caniço","native":null,"lat":"32.65078000","lon":"-16.83749000"},{"id":89138,"name":"Curral das Freiras","native":null,"lat":"32.72029000","lon":"-16.96993000"},{"id":89156,"name":"Estreito da Calheta","native":null,"lat":"32.73704000","lon":"-17.18674000"},{"id":89161,"name":"Faial","native":null,"lat":"32.78333000","lon":"-16.85000000"},{"id":89162,"name":"Fajã da Ovelha","native":null,"lat":"32.77457000","lon":"-17.23412000"},{"id":89197,"name":"Funchal","native":null,"lat":"32.66568000","lon":"-16.92547000"},{"id":89262,"name":"Machico","native":null,"lat":"32.71620000","lon":"-16.76758000"},{"id":89351,"name":"Nossa Senhora do Monte","native":null,"lat":"32.66667000","lon":"-16.90000000"},{"id":89414,"name":"Ponta do Sol","native":null,"lat":"32.67980000","lon":"-17.10000000"},{"id":89432,"name":"Porto da Cruz","native":null,"lat":"32.76667000","lon":"-16.83333000"},{"id":89429,"name":"Porto Moniz","native":null,"lat":"32.86681000","lon":"-17.16667000"},{"id":89431,"name":"Porto Santo","native":null,"lat":"33.07145000","lon":"-16.34304000"},{"id":89465,"name":"Ribeira Brava","native":null,"lat":"32.67483000","lon":"-17.06288000"},{"id":89499,"name":"Santa Cruz","native":null,"lat":"32.68806000","lon":"-16.79388000"},{"id":89509,"name":"Santana","native":null,"lat":"32.80000000","lon":"-16.88333000"},{"id":89563,"name":"São Jorge","native":null,"lat":"32.81667000","lon":"-16.90000000"},{"id":89575,"name":"São Martinho","native":null,"lat":"32.64480000","lon":"-16.93843000"},{"id":89585,"name":"São Roque","native":null,"lat":"32.66667000","lon":"-16.91667000"},{"id":89591,"name":"São Vicente","native":null,"lat":"32.79673000","lon":"-17.04323000"}]},{"id":2232,"name":"Portalegre","native":null,"cities":[{"id":88953,"name":"Alter do Chão","native":null,"lat":"39.23098000","lon":"-7.74430000"},{"id":88995,"name":"Arronches","native":null,"lat":"39.12242000","lon":"-7.28619000"},{"id":88999,"name":"Atalaia","native":null,"lat":"39.45551000","lon":"-7.87295000"},{"id":89008,"name":"Avis","native":null,"lat":"39.06448000","lon":"-7.89560000"},{"id":89078,"name":"Campo Maior","native":null,"lat":"39.02935000","lon":"-7.06479000"},{"id":89107,"name":"Castelo de Vide","native":null,"lat":"39.41624000","lon":"-7.45680000"},{"id":89134,"name":"Crato","native":null,"lat":"39.28657000","lon":"-7.64408000"},{"id":89142,"name":"Elvas","native":null,"lat":"38.88150000","lon":"-7.16282000"},{"id":89195,"name":"Fronteira","native":null,"lat":"39.07179000","lon":"-7.61052000"},{"id":89208,"name":"Gavião","native":null,"lat":"39.44462000","lon":"-7.89532000"},{"id":89282,"name":"Marvão","native":null,"lat":"39.39377000","lon":"-7.37663000"},{"id":89314,"name":"Monforte","native":null,"lat":"39.04960000","lon":"-7.44428000"},{"id":89319,"name":"Montargil","native":null,"lat":"39.07771000","lon":"-8.17044000"},{"id":89347,"name":"Nisa","native":null,"lat":"39.51828000","lon":"-7.67496000"},{"id":89418,"name":"Ponte de Sor","native":null,"lat":"39.21441000","lon":"-8.05420000"},{"id":89422,"name":"Portalegre","native":null,"lat":"39.29740000","lon":"-7.41538000"},{"id":89513,"name":"Santo André","native":null,"lat":"39.05532000","lon":"-8.24414000"},{"id":89553,"name":"Sousel","native":null,"lat":"38.96685000","lon":"-7.71788000"},{"id":89624,"name":"Vale da Amoreira","native":null,"lat":"39.06969000","lon":"-7.69849000"}]},{"id":2243,"name":"Porto","native":null,"cities":[{"id":89691,"name":"Água Longa","native":null,"lat":"41.24972000","lon":"-8.49285000"},{"id":89694,"name":"Águas Santas","native":null,"lat":"41.21017000","lon":"-8.57599000"},{"id":88911,"name":"Aguçadoura","native":null,"lat":"41.43116000","lon":"-8.77844000"},{"id":88931,"name":"Alfena","native":null,"lat":"41.23671000","lon":"-8.52454000"},{"id":88951,"name":"Alpendurada","native":null,"lat":"41.08944000","lon":"-8.24643000"},{"id":88961,"name":"Amarante","native":null,"lat":"41.27271000","lon":"-8.08245000"},{"id":88966,"name":"Amorim","native":null,"lat":"41.40503000","lon":"-8.75046000"},{"id":88971,"name":"Anta","native":null,"lat":"41.26634000","lon":"-8.62844000"},{"id":88982,"name":"Arcozelo","native":null,"lat":"41.06187000","lon":"-8.63192000"},{"id":88985,"name":"Argivai","native":null,"lat":"41.37744000","lon":"-8.72987000"},{"id":89696,"name":"Árvore","native":null,"lat":"41.33922000","lon":"-8.71806000"},{"id":89005,"name":"Aver-o-Mar","native":null,"lat":"41.40607000","lon":"-8.77958000"},{"id":89006,"name":"Aves","native":null,"lat":"41.37034000","lon":"-8.41010000"},{"id":89007,"name":"Avintes","native":null,"lat":"41.10711000","lon":"-8.55131000"},{"id":89011,"name":"Azenha","native":null,"lat":"41.07651000","lon":"-8.62468000"},{"id":89013,"name":"Baguim do Monte","native":null,"lat":"41.19203000","lon":"-8.54118000"},{"id":89014,"name":"Baião","native":null,"lat":"41.16384000","lon":"-8.03581000"},{"id":89015,"name":"Balazar","native":null,"lat":"41.40435000","lon":"-8.62386000"},{"id":89016,"name":"Baltar","native":null,"lat":"41.19272000","lon":"-8.38768000"},{"id":89022,"name":"Barrosas","native":null,"lat":"41.35534000","lon":"-8.29943000"},{"id":89026,"name":"Beiriz de Baixo","native":null,"lat":"41.39727000","lon":"-8.72385000"},{"id":89045,"name":"Bougado","native":null,"lat":"41.33979000","lon":"-8.55180000"},{"id":89077,"name":"Campo","native":null,"lat":"41.18516000","lon":"-8.46493000"},{"id":89082,"name":"Canelas","native":null,"lat":"41.08333000","lon":"-8.60000000"},{"id":89085,"name":"Canidelo","native":null,"lat":"41.12314000","lon":"-8.64654000"},{"id":89099,"name":"Carvalhosa","native":null,"lat":"41.30057000","lon":"-8.36080000"},{"id":89108,"name":"Castelões de Cepeda","native":null,"lat":"41.20265000","lon":"-8.33516000"},{"id":89145,"name":"Ermesinde","native":null,"lat":"41.21653000","lon":"-8.55318000"},{"id":89154,"name":"Estela","native":null,"lat":"41.44944000","lon":"-8.75166000"},{"id":89202,"name":"Fânzeres","native":null,"lat":"41.16754000","lon":"-8.52981000"},{"id":89171,"name":"Felgueiras","native":null,"lat":"41.34774000","lon":"-8.20808000"},{"id":89175,"name":"Ferreira","native":null,"lat":"41.26718000","lon":"-8.34434000"},{"id":89183,"name":"Figueiró","native":null,"lat":"41.29922000","lon":"-8.16779000"},{"id":89189,"name":"Foz do Douro","native":null,"lat":"41.15119000","lon":"-8.67125000"},{"id":89190,"name":"Foz do Sousa","native":null,"lat":"41.09668000","lon":"-8.50184000"},{"id":89192,"name":"Frazão","native":null,"lat":"41.25866000","lon":"-8.40014000"},{"id":89193,"name":"Freamunde","native":null,"lat":"41.28835000","lon":"-8.33533000"},{"id":89206,"name":"Gandra","native":null,"lat":"41.20116000","lon":"-8.43376000"},{"id":89209,"name":"Gemunde","native":null,"lat":"41.26766000","lon":"-8.64515000"},{"id":89213,"name":"Gondomar","native":null,"lat":"41.12015000","lon":"-8.49595000"},{"id":89214,"name":"Grijó","native":null,"lat":"41.02836000","lon":"-8.58017000"},{"id":89218,"name":"Guifões","native":null,"lat":"41.19748000","lon":"-8.66899000"},{"id":89221,"name":"Gulpilhares","native":null,"lat":"41.08292000","lon":"-8.62679000"},{"id":89226,"name":"Jovim","native":null,"lat":"41.11102000","lon":"-8.51903000"},{"id":89239,"name":"Lavra","native":null,"lat":"41.25935000","lon":"-8.71849000"},{"id":89242,"name":"Leça da Palmeira","native":null,"lat":"41.19100000","lon":"-8.70027000"},{"id":89243,"name":"Leça do Bailio","native":null,"lat":"41.21201000","lon":"-8.63422000"},{"id":89247,"name":"Lordelo","native":null,"lat":"41.23451000","lon":"-8.40297000"},{"id":89255,"name":"Lousada","native":null,"lat":"41.28355000","lon":"-8.27437000"},{"id":89258,"name":"Lustosa","native":null,"lat":"41.34081000","lon":"-8.31715000"},{"id":89266,"name":"Madalena","native":null,"lat":"41.21616000","lon":"-8.33451000"},{"id":89270,"name":"Maia","native":null,"lat":"41.24254000","lon":"-8.60257000"},{"id":89274,"name":"Marco de Canaveses","native":null,"lat":"41.15545000","lon":"-8.16954000"},{"id":89275,"name":"Marco de Canavezes","native":null,"lat":"41.18389000","lon":"-8.14864000"},{"id":89276,"name":"Margaride","native":null,"lat":"41.36478000","lon":"-8.19999000"},{"id":89284,"name":"Matosinhos","native":null,"lat":"41.18207000","lon":"-8.68908000"},{"id":89289,"name":"Meinedo","native":null,"lat":"41.24827000","lon":"-8.25807000"},{"id":89291,"name":"Melres","native":null,"lat":"41.06989000","lon":"-8.40091000"},{"id":89297,"name":"Milheirós","native":null,"lat":"41.21478000","lon":"-8.58837000"},{"id":89301,"name":"Mindelo","native":null,"lat":"41.31527000","lon":"-8.72124000"},{"id":89329,"name":"Moreira","native":null,"lat":"41.05600000","lon":"-8.38939000"},{"id":89344,"name":"Negrelos","native":null,"lat":"41.34946000","lon":"-8.40145000"},{"id":89348,"name":"Nogueira","native":null,"lat":"41.24246000","lon":"-8.58685000"},{"id":89360,"name":"Olival","native":null,"lat":"41.05024000","lon":"-8.54416000"},{"id":89367,"name":"Oliveira do Douro","native":null,"lat":"41.12466000","lon":"-8.58463000"},{"id":89388,"name":"Paços de Ferreira","native":null,"lat":"41.28964000","lon":"-8.37584000"},{"id":89383,"name":"Paredes","native":null,"lat":"41.20501000","lon":"-8.37506000"},{"id":89389,"name":"Pedroso","native":null,"lat":"41.41103000","lon":"-8.74897000"},{"id":89390,"name":"Pedrouços","native":null,"lat":"41.18880000","lon":"-8.58624000"},{"id":89394,"name":"Penafiel","native":null,"lat":"41.20931000","lon":"-8.26996000"},{"id":89401,"name":"Perafita","native":null,"lat":"41.18252000","lon":"-8.25450000"},{"id":89404,"name":"Perozinho","native":null,"lat":"41.06513000","lon":"-8.58531000"},