[{"id":3182,"name":"Al Daayen","native":null,"cities":[]},{"id":3183,"name":"Al Khor","native":null,"cities":[{"id":89856,"name":"Al Ghuwayrīyah","native":null,"lat":"25.82882000","lon":"51.24567000"},{"id":89858,"name":"Al Khawr","native":null,"lat":"25.68389000","lon":"51.50583000"}]},{"id":3177,"name":"Al Rayyan Municipality","native":null,"cities":[{"id":89861,"name":"Ar Rayyān","native":null,"lat":"25.29194000","lon":"51.42444000"},{"id":89869,"name":"Umm Bāb","native":null,"lat":"25.21417000","lon":"50.80722000"}]},{"id":3179,"name":"Al Wakrah","native":null,"cities":[{"id":89859,"name":"Al Wakrah","native":null,"lat":"25.17151000","lon":"51.60337000"},{"id":89860,"name":"Al Wukayr","native":null,"lat":"25.15107000","lon":"51.53718000"},{"id":89868,"name":"Musay‘īd","native":null,"lat":"24.99226000","lon":"51.55067000"}]},{"id":3178,"name":"Al-Shahaniya","native":null,"cities":[{"id":89857,"name":"Al Jumaylīyah","native":null,"lat":"25.61068000","lon":"51.09108000"},{"id":89863,"name":"Ash Shīḩānīyah","native":null,"lat":"25.37088000","lon":"51.22264000"},{"id":89865,"name":"Dukhān","native":null,"lat":"25.42485000","lon":"50.78227000"}]},{"id":3181,"name":"Doha","native":null,"cities":[{"id":89864,"name":"Doha","native":null,"lat":"25.28545000","lon":"51.53096000"}]},{"id":3180,"name":"Madinat ash Shamal","native":null,"cities":[{"id":89862,"name":"Ar Ruways","native":null,"lat":"26.13978000","lon":"51.21493000"},{"id":89866,"name":"Fuwayriţ","native":null,"lat":"26.02565000","lon":"51.36971000"},{"id":89867,"name":"Madīnat ash Shamāl","native":null,"lat":"26.12933000","lon":"51.20090000"}]},{"id":3184,"name":"Umm Salal Municipality","native":null,"cities":[{"id":89870,"name":"Umm Şalāl Muḩammad","native":null,"lat":"25.41524000","lon":"51.40647000"}]}]