[{"id":1911,"name":"Altai Krai","native":null,"cities":[{"id":97586,"name":"Aleysk","native":null,"lat":"52.49260000","lon":"82.78220000"},{"id":97587,"name":"Aleyskiy Rayon","native":null,"lat":"52.41667000","lon":"82.75000000"},{"id":97603,"name":"Altayskoye","native":null,"lat":"51.95333000","lon":"85.33250000"},{"id":97641,"name":"Anton’yevka","native":null,"lat":"51.99610000","lon":"83.97400000"},{"id":97726,"name":"Aya","native":null,"lat":"51.94532000","lon":"85.80168000"},{"id":97795,"name":"Barnaul","native":null,"lat":"53.36056000","lon":"83.76361000"},{"id":97796,"name":"Barnaul Urban Okrug","native":null,"lat":"53.33087000","lon":"83.64441000"},{"id":97808,"name":"Bastan","native":null,"lat":"51.85889000","lon":"79.47444000"},{"id":97823,"name":"Bayevo","native":null,"lat":"53.27065000","lon":"80.77921000"},{"id":97827,"name":"Bayunovskiye Klyuchi","native":null,"lat":"53.32806000","lon":"84.18222000"},{"id":97856,"name":"Belokurikha","native":null,"lat":"51.99590000","lon":"84.98960000"},{"id":97868,"name":"Beloyarsk","native":null,"lat":"53.44610000","lon":"83.90480000"},{"id":97905,"name":"Berëzovka","native":null,"lat":"52.35111000","lon":"85.82722000"},{"id":97942,"name":"Biysk","native":null,"lat":"52.53639000","lon":"85.20722000"},{"id":97947,"name":"Blagoveshchenka","native":null,"lat":"52.83333000","lon":"79.86667000"},{"id":97956,"name":"Bobrovka","native":null,"lat":"53.18361000","lon":"83.87639000"},{"id":98036,"name":"Borovikha","native":null,"lat":"53.50720000","lon":"83.83790000"},{"id":98082,"name":"Burla","native":null,"lat":"53.33620000","lon":"78.33010000"},{"id":98102,"name":"Bystryanka","native":null,"lat":"52.28611000","lon":"85.82833000"},{"id":98103,"name":"Bystryy Istok","native":null,"lat":"52.37100000","lon":"84.38730000"},{"id":98120,"name":"Charyshskoye","native":null,"lat":"51.39780000","lon":"83.55980000"},{"id":98149,"name":"Cheremnoye","native":null,"lat":"53.16972000","lon":"83.21333000"},{"id":98454,"name":"Gal’bshtadt","native":null,"lat":"53.22640000","lon":"78.98450000"},{"id":98515,"name":"Gon’ba","native":null,"lat":"53.41720000","lon":"83.57470000"},{"id":98537,"name":"Gornyak","native":null,"lat":"50.99417000","lon":"81.46611000"},{"id":98590,"name":"Grishkovka","native":null,"lat":"53.14870000","lon":"78.75100000"},{"id":98680,"name":"Inya","native":null,"lat":"53.50440000","lon":"82.67120000"},{"id":98796,"name":"Kalmanka","native":null,"lat":"52.89917000","lon":"83.54333000"},{"id":98797,"name":"Kalmanskiy Rayon","native":null,"lat":"53.00000000","lon":"83.50000000"},{"id":98824,"name":"Kamen’-na-Obi","native":null,"lat":"53.78840000","lon":"81.34230000"},{"id":98950,"name":"Khabarskiy Rayon","native":null,"lat":"53.58333000","lon":"79.50000000"},{"id":98951,"name":"Khabary","native":null,"lat":"53.62588000","lon":"79.53450000"},{"id":99111,"name":"Klyuchi","native":null,"lat":"52.25303000","lon":"79.16868000"},{"id":99231,"name":"Kosikha","native":null,"lat":"53.36167000","lon":"84.58222000"},{"id":99232,"name":"Kosikhinskiy Rayon","native":null,"lat":"53.41667000","lon":"84.58333000"},{"id":99311,"name":"Krasnogorskoye","native":null,"lat":"52.29530000","lon":"86.19790000"},{"id":99333,"name":"Krasnoshchekovo","native":null,"lat":"51.67083000","lon":"82.72889000"},{"id":99379,"name":"Krasnyy Yar","native":null,"lat":"52.35750000","lon":"85.33806000"},{"id":99403,"name":"Krutikha","native":null,"lat":"53.95990000","lon":"81.20930000"},{"id":99437,"name":"Kulunda","native":null,"lat":"52.56600000","lon":"78.93850000"},{"id":99438,"name":"Kulundinskiy Rayon","native":null,"lat":"52.58333000","lon":"79.00000000"},{"id":99481,"name":"Kur’inskiy Rayon","native":null,"lat":"51.41667000","lon":"82.41667000"},{"id":99484,"name":"Kusak","native":null,"lat":"53.22380000","lon":"78.93370000"},{"id":99523,"name":"Kytmanovo","native":null,"lat":"53.45930000","lon":"85.44790000"},{"id":99556,"name":"Lebyazh’ye","native":null,"lat":"53.24361000","lon":"83.65333000"},{"id":99600,"name":"Lesnoye","native":null,"lat":"52.46926000","lon":"85.25547000"},{"id":99650,"name":"Logovskoye","native":null,"lat":"53.49430000","lon":"84.20160000"},{"id":99655,"name":"Loktevskiy Rayon","native":null,"lat":"51.00000000","lon":"81.58333000"},{"id":99757,"name":"Malinovoye Ozero","native":null,"lat":"51.67528000","lon":"79.78250000"},{"id":99765,"name":"Malougrenevo","native":null,"lat":"52.55680000","lon":"85.33908000"},{"id":99779,"name":"Mamontovo","native":null,"lat":"52.70550000","lon":"81.62440000"},{"id":99780,"name":"Mamontovskiy Rayon","native":null,"lat":"52.66667000","lon":"81.75000000"},{"id":99805,"name":"Martynovo","native":null,"lat":"53.26667000","lon":"85.88333000"},{"id":99902,"name":"Mikhaylovskiy Rayon","native":null,"lat":"51.75000000","lon":"79.66667000"},{"id":99906,"name":"Mikhaylovskoye","native":null,"lat":"51.82389000","lon":"79.71722000"},{"id":100047,"name":"Nagornyy","native":null,"lat":"52.79590000","lon":"83.54980000"},{"id":100053,"name":"Nalobikha","native":null,"lat":"53.20090000","lon":"84.60000000"},{"id":100064,"name":"Natsional’nyy Rayon Nemetskiy","native":null,"lat":"53.25000000","lon":"79.00000000"},{"id":100066,"name":"Nauchnyy Gorodok","native":null,"lat":"53.42030000","lon":"83.52100000"},{"id":100135,"name":"Nikolayevka","native":null,"lat":"51.92556000","lon":"79.41583000"},{"id":100214,"name":"Novichikha","native":null,"lat":"52.20400000","lon":"81.38770000"},{"id":100215,"name":"Novichikhinskiy Rayon","native":null,"lat":"52.16667000","lon":"81.41667000"},{"id":100216,"name":"Novikovo","native":null,"lat":"52.62231000","lon":"85.96392000"},{"id":100224,"name":"Novoaltaysk","native":null,"lat":"53.39170000","lon":"83.93630000"},{"id":100304,"name":"Novosilikatnyy","native":null,"lat":"53.30972000","lon":"83.62389000"},{"id":100318,"name":"Novotyryshkino","native":null,"lat":"52.08330000","lon":"84.90890000"},{"id":100363,"name":"Novyye Zori","native":null,"lat":"53.24778000","lon":"83.42500000"},{"id":100538,"name":"Pankrushikha","native":null,"lat":"53.83194000","lon":"80.34056000"},{"id":100539,"name":"Pankrushikhinskiy Rayon","native":null,"lat":"53.83333000","lon":"80.33333000"},{"id":100573,"name":"Pavlovsk","native":null,"lat":"53.31861000","lon":"82.98222000"},{"id":100582,"name":"Pavlovskiy Rayon","native":null,"lat":"53.25000000","lon":"83.00000000"},{"id":100620,"name":"Pervomayskiy","native":null,"lat":"52.91730000","lon":"81.66240000"},{"id":100623,"name":"Pervomayskiy Rayon","native":null,"lat":"53.41667000","lon":"84.08333000"},{"id":100628,"name":"Pervomayskoye","native":null,"lat":"52.59888000","lon":"85.25769000"},{"id":100655,"name":"Petropavlovskiy Rayon","native":null,"lat":"52.16667000","lon":"84.25000000"},{"id":100656,"name":"Petropavlovskoye","native":null,"lat":"52.07120000","lon":"84.10700000"},{"id":100732,"name":"Podsosnovo","native":null,"lat":"53.37210000","lon":"78.91840000"},{"id":100786,"name":"Pospelikha","native":null,"lat":"51.95000000","lon":"81.76667000"},{"id":100787,"name":"Pospelikhinskiy Rayon","native":null,"lat":"51.83333000","lon":"81.66667000"},{"id":100954,"name":"Rebrikha","native":null,"lat":"53.07333000","lon":"82.34083000"},{"id":100955,"name":"Rebrikhinskiy Rayon","native":null,"lat":"53.00000000","lon":"82.25000000"},{"id":100973,"name":"Rodino","native":null,"lat":"52.49783000","lon":"80.20294000"},{"id":100974,"name":"Rodinskiy Rayon","native":null,"lat":"52.50000000","lon":"80.33333000"},{"id":100989,"name":"Romanovo","native":null,"lat":"52.61820000","lon":"81.22710000"},{"id":100991,"name":"Romanovskiy Rayon","native":null,"lat":"52.58333000","lon":"81.16667000"},{"id":101019,"name":"Rubtsovsk","native":null,"lat":"51.51473000","lon":"81.20613000"},{"id":101020,"name":"Rubtsovskiy Rayon","native":null,"lat":"51.50000000","lon":"81.33333000"},{"id":101101,"name":"Sannikovo","native":null,"lat":"53.34480000","lon":"83.97490000"},{"id":101201,"name":"Severka","native":null,"lat":"52.13333000","lon":"79.28333000"},{"id":101236,"name":"Shakhi","native":null,"lat":"53.33610000","lon":"83.36240000"},{"id":101290,"name":"Shelabolikha","native":null,"lat":"53.41310000","lon":"82.61670000"},{"id":101291,"name":"Shelabolikhinskiy Rayon","native":null,"lat":"53.41667000","lon":"82.25000000"},{"id":101324,"name":"Shipunovo","native":null,"lat":"52.15820000","lon":"82.21730000"},{"id":101325,"name":"Shipunovskiy Rayon","native":null,"lat":"52.33333000","lon":"82.08333000"},{"id":101342,"name":"Shubenka","native":null,"lat":"52.65510000","lon":"85.09858000"},{"id":101345,"name":"Shul’gin Log","native":null,"lat":"52.16985000","lon":"85.85573000"},{"id":101367,"name":"Sibirskiy","native":null,"lat":"53.57770000","lon":"83.75770000"},{"id":101399,"name":"Slavgorod","native":null,"lat":"52.99780000","lon":"78.64490000"},{"id":101400,"name":"Slavgorodskoye","native":null,"lat":"53.02140000","lon":"78.64350000"},{"id":101417,"name":"Smolenskiy Rayon","native":null,"lat":"52.16667000","lon":"84.91667000"},{"id":101418,"name":"Smolenskoye","native":null,"lat":"52.30447000","lon":"85.07850000"},{"id":101437,"name":"Sokolovo","native":null,"lat":"52.53180000","lon":"84.78960000"},{"id":101464,"name":"Soloneshenskiy Rayon","native":null,"lat":"51.66667000","lon":"84.50000000"},{"id":101465,"name":"Soloneshnoye","native":null,"lat":"51.65440000","lon":"84.31970000"},{"id":101468,"name":"Solton","native":null,"lat":"52.84290000","lon":"86.47870000"},{"id":101469,"name":"Soltonskiy Rayon","native":null,"lat":"52.83333000","lon":"86.50000000"},{"id":101478,"name":"Sorokino","native":null,"lat":"53.75000000","lon":"84.91667000"},{"id":101518,"name":"Sovetskoye","native":null,"lat":"52.28556000","lon":"85.41424000"},{"id":101550,"name":"Srostki","native":null,"lat":"52.42090000","lon":"85.69923000"},{"id":101551,"name":"Stan-Bekhtemir","native":null,"lat":"52.60665000","lon":"85.62619000"},{"id":101571,"name":"Staroaleyskoye","native":null,"lat":"51.00611000","lon":"82.00000000"},{"id":101574,"name":"Starobelokurikha","native":null,"lat":"52.05206000","lon":"85.08765000"},{"id":101608,"name":"Staryy Togul","native":null,"lat":"53.42910000","lon":"85.90060000"},{"id":101636,"name":"Stukovo","native":null,"lat":"53.21278000","lon":"83.33778000"},{"id":101722,"name":"Sychëvka","native":null,"lat":"52.05120000","lon":"84.77880000"},{"id":101739,"name":"Tabuny","native":null,"lat":"52.77730000","lon":"78.78960000"},{"id":101757,"name":"Tal’menka","native":null,"lat":"53.81830000","lon":"83.56770000"},{"id":101758,"name":"Tal’menskiy Rayon","native":null,"lat":"53.75000000","lon":"83.41667000"},{"id":101870,"name":"Togul","native":null,"lat":"53.46700000","lon":"85.91280000"},{"id":101871,"name":"Togul’skiy Rayon","native":null,"lat":"53.66667000","lon":"86.08333000"},{"id":101893,"name":"Topchikha","native":null,"lat":"52.81920000","lon":"83.11850000"},{"id":101896,"name":"Topol’noye","native":null,"lat":"51.51050000","lon":"84.48130000"},{"id":101924,"name":"Troitskoye","native":null,"lat":"52.98220000","lon":"84.68000000"},{"id":101940,"name":"Tselinnoye","native":null,"lat":"53.07822000","lon":"85.65363000"},{"id":102006,"name":"Tyumentsevo","native":null,"lat":"53.32240000","lon":"81.49800000"},{"id":102007,"name":"Tyumentsevskiy Rayon","native":null,"lat":"53.25000000","lon":"81.50000000"},{"id":102038,"name":"Uglovskoye","native":null,"lat":"51.35570000","lon":"80.19420000"},{"id":102117,"name":"Ust’-Charyshskaya Pristan’","native":null,"lat":"52.39340000","lon":"83.66350000"},{"id":102120,"name":"Ust’-Isha","native":null,"lat":"52.18201000","lon":"85.96757000"},{"id":102124,"name":"Ust’-Kalmanka","native":null,"lat":"52.12070000","lon":"83.30500000"},{"id":102143,"name":"Ust’yanka","native":null,"lat":"53.45270000","lon":"78.74250000"},{"id":102148,"name":"Usyatskoye","native":null,"lat":"52.56806000","lon":"85.76085000"},{"id":102231,"name":"Verkh-Katunskoye","native":null,"lat":"52.45000000","lon":"85.43162000"},{"id":102233,"name":"Verkh-Suetka","native":null,"lat":"53.30401000","lon":"80.04675000"},{"id":102251,"name":"Verkhniy Bekhtemir","native":null,"lat":"52.76582000","lon":"85.91011000"},{"id":102287,"name":"Veseloyarsk","native":null,"lat":"51.28737000","lon":"81.10703000"},{"id":102331,"name":"Vlasikha","native":null,"lat":"53.29722000","lon":"83.57417000"},{"id":102340,"name":"Volchikha","native":null,"lat":"52.01356000","lon":"80.35715000"},{"id":102341,"name":"Volchikhinskiy Rayon","native":null,"lat":"52.08333000","lon":"80.50000000"},{"id":102504,"name":"Yarovoye","native":null,"lat":"52.92730000","lon":"78.58000000"},{"id":102526,"name":"Yegor’yevskiy Rayon","native":null,"lat":"51.75000000","lon":"81.00000000"},{"id":102552,"name":"Yel’tsovskiy Rayon","native":null,"lat":"53.25000000","lon":"86.41667000"},{"id":102618,"name":"Yuzhnyy","native":null,"lat":"53.25417000","lon":"83.69361000"},{"id":102638,"name":"Zalesovo","native":null,"lat":"53.99389000","lon":"84.74306000"},{"id":102658,"name":"Zarinsk","native":null,"lat":"53.70740000","lon":"84.94930000"},{"id":102659,"name":"Zarinskiy Rayon","native":null,"lat":"53.91667000","lon":"85.33333000"},{"id":102662,"name":"Zarya","native":null,"lat":"52.59696000","lon":"85.17570000"},{"id":102667,"name":"Zaton","native":null,"lat":"53.29361000","lon":"83.80722000"},{"id":102682,"name":"Zav’yalovo","native":null,"lat":"52.83805000","lon":"80.91970000"},{"id":102684,"name":"Zav’yalovskiy Rayon","native":null,"lat":"52.91667000","lon":"81.00000000"},{"id":102752,"name":"Zmeinogorsk","native":null,"lat":"51.15776000","lon":"82.19534000"},{"id":102769,"name":"Zonal’noye","native":null,"lat":"52.66650000","lon":"84.93310000"},{"id":102776,"name":"Zudilovo","native":null,"lat":"53.49270000","lon":"83.89370000"}]},{"id":1876,"name":"Altai Republic","native":null,"cities":[{"id":97548,"name":"Aktash","native":null,"lat":"50.30000000","lon":"87.73333000"},{"id":97684,"name":"Artybash","native":null,"lat":"51.79278000","lon":"87.27611000"},{"id":97876,"name":"Belyashi","native":null,"lat":"49.70900000","lon":"87.42300000"},{"id":98141,"name":"Chemal","native":null,"lat":"51.41111000","lon":"86.00500000"},{"id":98158,"name":"Cherga","native":null,"lat":"51.56889000","lon":"85.56250000"},{"id":98212,"name":"Choya","native":null,"lat":"52.01080000","lon":"86.54670000"},{"id":98384,"name":"Elekmonar","native":null,"lat":"51.45889000","lon":"85.98778000"},{"id":98529,"name":"Gorno-Altaysk","native":null,"lat":"51.96056000","lon":"85.91892000"},{"id":98679,"name":"Inya","native":null,"lat":"50.45611000","lon":"86.62667000"},{"id":98684,"name":"Iogach","native":null,"lat":"51.78167000","lon":"87.26306000"},{"id":99226,"name":"Kosh-Agach","native":null,"lat":"49.99273000","lon":"88.67598000"},{"id":99787,"name":"Manzherok","native":null,"lat":"51.83028000","lon":"85.77500000"},{"id":99824,"name":"Mayma","native":null,"lat":"52.01577000","lon":"85.90963000"},{"id":99825,"name":"Mayminskiy Rayon","native":null,"lat":"51.83333000","lon":"86.00000000"},{"id":100448,"name":"Onguday","native":null,"lat":"50.75000000","lon":"86.15000000"},{"id":100449,"name":"Ongudayskiy Rayon","native":null,"lat":"50.66667000","lon":"86.50000000"},{"id":101282,"name":"Shebalino","native":null,"lat":"51.29167000","lon":"85.67722000"},{"id":101283,"name":"Shebalinskiy Rayon","native":null,"lat":"51.33333000","lon":"85.50000000"},{"id":101502,"name":"Souzga","native":null,"lat":"51.88722000","lon":"85.84944000"},{"id":101785,"name":"Tashanta","native":null,"lat":"49.71573000","lon":"89.19425000"},{"id":101980,"name":"Turochak","native":null,"lat":"52.25760000","lon":"87.12240000"},{"id":102127,"name":"Ust’-Kan","native":null,"lat":"50.92760000","lon":"84.76100000"},{"id":102131,"name":"Ust’-Koksa","native":null,"lat":"50.26960000","lon":"85.61080000"},{"id":102132,"name":"Ust’-Koksinskiy Rayon","native":null,"lat":"50.16667000","lon":"85.58333000"},{"id":102141,"name":"Ust’-Ulagan","native":null,"lat":"50.63258000","lon":"87.96046000"}]},{"id":1858,"name":"Amur Oblast","native":null,"cities":[{"id":97666,"name":"Arkhara","native":null,"lat":"49.42447000","lon":"130.08569000"},{"id":97667,"name":"Arkharinskiy Rayon","native":null,"lat":"49.50000000","lon":"130.66667000"},{"id":97853,"name":"Belogorsk","native":null,"lat":"50.91644000","lon":"128.47726000"},{"id":97854,"name":"Belogorskiy Rayon","native":null,"lat":"50.75000000","lon":"128.50000000"},{"id":97949,"name":"Blagoveshchensk","native":null,"lat":"50.27961000","lon":"127.54050000"},{"id":97950,"name":"Blagoveshchenskiy Rayon","native":null,"lat":"50.75000000","lon":"127.50000000"},{"id":98079,"name":"Bureya","native":null,"lat":"49.81212000","lon":"129.81278000"},{"id":98080,"name":"Bureyskiy Rayon","native":null,"lat":"50.00000000","lon":"130.00000000"},{"id":98383,"name":"Ekimchan","native":null,"lat":"53.06972000","lon":"132.94011000"},{"id":98546,"name":"Gorod Blagoveshchensk","native":null,"lat":"50.40000000","lon":"127.60000000"},{"id":98554,"name":"Gorod Raychikhinsk","native":null,"lat":"49.75000000","lon":"129.41667000"},{"id":98733,"name":"Ivanovskiy Rayon","native":null,"lat":"50.45611000","lon":"127.99778000"},{"id":99187,"name":"Konstantinovka","native":null,"lat":"49.61876000","lon":"127.99025000"},{"id":99193,"name":"Konstantinovskiy Rayon","native":null,"lat":"49.75000000","lon":"128.16667000"},{"id":99735,"name":"Magdagachi","native":null,"lat":"53.45398000","lon":"125.80932000"},{"id":99736,"name":"Magdagachinskiy Rayon","native":null,"lat":"53.33333000","lon":"126.00000000"},{"id":99837,"name":"Mazanovskiy Rayon","native":null,"lat":"52.16667000","lon":"129.50000000"},{"id":99904,"name":"Mikhaylovskiy Rayon","native":null,"lat":"49.75000000","lon":"128.75000000"},{"id":100117,"name":"Never","native":null,"lat":"53.97946000","lon":"124.15777000"},{"id":100232,"name":"Novobureyskiy","native":null,"lat":"49.79695000","lon":"129.87443000"},{"id":100287,"name":"Novoraychikhinsk","native":null,"lat":"49.78423000","lon":"129.59051000"},{"id":100414,"name":"Oktyabr’skiy Rayon","native":null,"lat":"50.33333000","lon":"129.00000000"},{"id":100514,"name":"Ovsyanka","native":null,"lat":"53.57868000","lon":"126.89623000"},{"id":100797,"name":"Poyarkovo","native":null,"lat":"49.62678000","lon":"128.65352000"},{"id":100946,"name":"Raychikhinsk","native":null,"lat":"49.78998000","lon":"129.40992000"},{"id":100992,"name":"Romnenskiy Rayon","native":null,"lat":"51.00000000","lon":"130.00000000"},{"id":100993,"name":"Romny","native":null,"lat":"50.72070000","lon":"129.29122000"},{"id":101150,"name":"Selemdzhinskiy Rayon","native":null,"lat":"52.50000000","lon":"132.00000000"},{"id":101194,"name":"Seryshevo","native":null,"lat":"51.09391000","lon":"128.38258000"},{"id":101195,"name":"Seryshevskiy Rayon","native":null,"lat":"51.16667000","lon":"128.50000000"},{"id":101318,"name":"Shimanovsk","native":null,"lat":"52.00575000","lon":"127.67756000"},{"id":101319,"name":"Shimanovskiy Rayon","native":null,"lat":"52.16667000","lon":"127.50000000"},{"id":101330,"name":"Shirokiy","native":null,"lat":"49.75907000","lon":"129.51988000"},{"id":101383,"name":"Sivaki","native":null,"lat":"52.63430000","lon":"126.74777000"},{"id":101392,"name":"Skovorodino","native":null,"lat":"53.98473000","lon":"123.94030000"},{"id":101393,"name":"Skovorodinskiy Rayon","native":null,"lat":"53.83333000","lon":"123.50000000"},{"id":101467,"name":"Solovjevsk","native":null,"lat":"54.23333000","lon":"124.43333000"},{"id":101541,"name":"Srednebelaya","native":null,"lat":"50.65854000","lon":"128.00932000"},{"id":101712,"name":"Svobodnenskiy Rayon","native":null,"lat":"51.50000000","lon":"127.83333000"},{"id":101714,"name":"Svobodnyy","native":null,"lat":"51.37525000","lon":"128.14097000"},{"id":101744,"name":"Takhtamygda","native":null,"lat":"54.11031000","lon":"123.60802000"},{"id":101746,"name":"Talakan","native":null,"lat":"50.26378000","lon":"130.26755000"},{"id":101749,"name":"Taldan","native":null,"lat":"53.68981000","lon":"124.81490000"},{"id":101763,"name":"Tambovka","native":null,"lat":"50.09968000","lon":"128.05724000"},{"id":101764,"name":"Tambovskiy Rayon","native":null,"lat":"50.08333000","lon":"128.00000000"},{"id":101875,"name":"Tokur","native":null,"lat":"53.13531000","lon":"132.88996000"},{"id":101950,"name":"Tsiolkovskiy","native":null,"lat":"51.76694000","lon":"128.11472000"},{"id":101991,"name":"Tygda","native":null,"lat":"53.11169000","lon":"126.32907000"},{"id":101993,"name":"Tynda","native":null,"lat":"55.15600000","lon":"124.72479000"},{"id":101994,"name":"Tyndinskiy Rayon","native":null,"lat":"55.33333000","lon":"123.50000000"},{"id":102089,"name":"Urusha","native":null,"lat":"54.05303000","lon":"122.88561000"},{"id":102095,"name":"Ushumun","native":null,"lat":"52.78633000","lon":"126.53767000"},{"id":102528,"name":"Yekaterinoslavka","native":null,"lat":"50.37344000","lon":"129.10957000"},{"id":102570,"name":"Yerofey Pavlovich","native":null,"lat":"53.96305000","lon":"121.95805000"},{"id":102673,"name":"Zavitinsk","native":null,"lat":"50.11118000","lon":"129.44156000"},{"id":102674,"name":"Zavitinskiy Rayon","native":null,"lat":"50.16667000","lon":"129.50000000"},{"id":102708,"name":"Zeya","native":null,"lat":"53.73601000","lon":"127.25700000"},{"id":102709,"name":"Zeyskiy Rayon","native":null,"lat":"54.50000000","lon":"128.50000000"}]},{"id":1849,"name":"Arkhangelsk","native":null,"cities":[{"id":97664,"name":"Arkhangel’sk","native":null,"lat":"64.54010000","lon":"40.54330000"},{"id":97903,"name":"Berëznik","native":null,"lat":"62.85200000","lon":"42.70710000"},{"id":98153,"name":"Cheremushskiy","native":null,"lat":"61.27306000","lon":"47.26361000"},{"id":98358,"name":"Dvinskoy","native":null,"lat":"62.15190000","lon":"45.11840000"},{"id":98655,"name":"Il’insko-Podomskoye","native":null,"lat":"61.11444000","lon":"47.97861000"},{"id":98646,"name":"Ileza","native":null,"lat":"61.05328000","lon":"43.90021000"},{"id":98698,"name":"Isakogorka","native":null,"lat":"64.44600000","lon":"40.65310000"},{"id":98809,"name":"Kamenka","native":null,"lat":"65.88350000","lon":"44.12720000"},{"id":98879,"name":"Kargopol’","native":null,"lat":"61.50359000","lon":"38.94860000"},{"id":98880,"name":"Kargopol’skiy Rayon","native":null,"lat":"61.33333000","lon":"39.00000000"},{"id":98884,"name":"Karpogory","native":null,"lat":"64.00189000","lon":"44.44513000"},{"id":98909,"name":"Katunino","native":null,"lat":"64.38620000","lon":"40.62980000"},{"id":98964,"name":"Kharitonovo","native":null,"lat":"61.40092000","lon":"47.49779000"},{"id":98994,"name":"Kholmogorskiy Rayon","native":null,"lat":"64.08333000","lon":"41.66667000"},{"id":98995,"name":"Kholmogory","native":null,"lat":"64.22290000","lon":"41.65600000"},{"id":99088,"name":"Kizema","native":null,"lat":"61.11304000","lon":"44.83017000"},{"id":99126,"name":"Kodino","native":null,"lat":"63.71976000","lon":"39.64465000"},{"id":99197,"name":"Konëvo","native":null,"lat":"62.11745000","lon":"39.33131000"},{"id":99186,"name":"Konosha","native":null,"lat":"60.97360000","lon":"40.25700000"},{"id":99221,"name":"Koryazhma","native":null,"lat":"61.31433000","lon":"47.16914000"},{"id":99246,"name":"Kotlas","native":null,"lat":"61.25745000","lon":"46.64963000"},{"id":99247,"name":"Kotlasskiy Rayon","native":null,"lat":"61.16667000","lon":"46.33333000"},{"id":99297,"name":"Krasnoborsk","native":null,"lat":"61.55978000","lon":"45.93396000"},{"id":99435,"name":"Kuloy","native":null,"lat":"61.03049000","lon":"42.49252000"},{"id":99580,"name":"Lenskiy Rayon","native":null,"lat":"62.00000000","lon":"48.66667000"},{"id":99588,"name":"Leshukonskiy Rayon","native":null,"lat":"65.00000000","lon":"47.00000000"},{"id":99589,"name":"Leshukonskoye","native":null,"lat":"64.89770000","lon":"45.76550000"},{"id":99675,"name":"Loyga","native":null,"lat":"61.07845000","lon":"44.60750000"},{"id":99689,"name":"Lukovetskiy","native":null,"lat":"64.29560000","lon":"41.92110000"},{"id":99876,"name":"Mezen’","native":null,"lat":"65.84010000","lon":"44.25420000"},{"id":99875,"name":"Mezenskiy Rayon","native":null,"lat":"65.75000000","lon":"44.00000000"},{"id":99924,"name":"Mirnyy","native":null,"lat":"61.33289000","lon":"44.53598000"},{"id":100240,"name":"Novodvinsk","native":null,"lat":"64.41650000","lon":"40.81220000"},{"id":100374,"name":"Nyandoma","native":null,"lat":"61.66560000","lon":"40.20130000"},{"id":100375,"name":"Nyandomskiy Rayon","native":null,"lat":"62.00000000","lon":"40.66667000"},{"id":100407,"name":"Oksovskiy","native":null,"lat":"62.60623000","lon":"39.89845000"},{"id":100446,"name":"Onega","native":null,"lat":"63.90692000","lon":"38.11112000"},{"id":100447,"name":"Onezhskiy Rayon","native":null,"lat":"63.33333000","lon":"38.00000000"},{"id":100675,"name":"Pinega","native":null,"lat":"64.69969000","lon":"43.39016000"},{"id":100677,"name":"Pinezhskiy Rayon","native":null,"lat":"64.66667000","lon":"43.00000000"},{"id":100701,"name":"Plesetsk","native":null,"lat":"62.70804000","lon":"40.29159000"},{"id":100734,"name":"Podyuga","native":null,"lat":"61.09500000","lon":"40.86472000"},{"id":100834,"name":"Primorskiy Rayon","native":null,"lat":"65.00000000","lon":"41.00000000"},{"id":100845,"name":"Privodino","native":null,"lat":"61.07599000","lon":"46.50238000"},{"id":100890,"name":"Puksoozero","native":null,"lat":"62.59030000","lon":"40.60660000"},{"id":100972,"name":"Rochegda","native":null,"lat":"62.66780000","lon":"43.41330000"},{"id":101089,"name":"Samoded","native":null,"lat":"63.60830000","lon":"40.51110000"},{"id":101217,"name":"Severodvinsk","native":null,"lat":"64.56350000","lon":"39.83020000"},{"id":101243,"name":"Shalakusha","native":null,"lat":"62.22472000","lon":"40.25389000"},{"id":101256,"name":"Shangaly","native":null,"lat":"61.12842000","lon":"43.33427000"},{"id":101300,"name":"Shenkursk","native":null,"lat":"62.10910000","lon":"42.89595000"},{"id":101301,"name":"Shenkurskiy Rayon","native":null,"lat":"62.25000000","lon":"42.41667000"},{"id":101323,"name":"Shipitsyno","native":null,"lat":"61.28056000","lon":"46.52083000"},{"id":101474,"name":"Sol’vychegodsk","native":null,"lat":"61.33046000","lon":"46.91559000"},{"id":101448,"name":"Solginskiy","native":null,"lat":"61.05000000","lon":"41.34278000"},{"id":102022,"name":"Udimskiy","native":null,"lat":"61.14171000","lon":"45.91443000"},{"id":102074,"name":"Urdoma","native":null,"lat":"61.75335000","lon":"48.54420000"},{"id":102138,"name":"Ust’-Shonosha","native":null,"lat":"61.15310000","lon":"41.34300000"},{"id":102144,"name":"Ust’yanskiy Rayon","native":null,"lat":"61.33333000","lon":"43.66667000"},{"id":102162,"name":"Uyemskiy","native":null,"lat":"64.47430000","lon":"40.85240000"},{"id":102203,"name":"Vas’kovo","native":null,"lat":"64.41220000","lon":"40.46390000"},{"id":102221,"name":"Vel’sk","native":null,"lat":"61.07006000","lon":"42.09830000"},{"id":102222,"name":"Vel’skiy Rayon","native":null,"lat":"61.00000000","lon":"42.00000000"},{"id":102274,"name":"Verkhnyaya Toyma","native":null,"lat":"62.23470000","lon":"45.00090000"},{"id":102360,"name":"Voloshka","native":null,"lat":"61.33139000","lon":"40.08583000"},{"id":102427,"name":"Vychegodskiy","native":null,"lat":"61.24702000","lon":"46.89842000"},{"id":102462,"name":"Yagry","native":null,"lat":"64.59417000","lon":"39.81028000"},{"id":102494,"name":"Yarensk","native":null,"lat":"62.16755000","lon":"49.09162000"},{"id":102557,"name":"Yemetsk","native":null,"lat":"63.47191000","lon":"41.78023000"},{"id":102558,"name":"Yemtsa","native":null,"lat":"63.07337000","lon":"40.33285000"},{"id":102575,"name":"Yertsevo","native":null,"lat":"60.79660000","lon":"40.08600000"}]},{"id":1866,"name":"Astrakhan Oblast","native":null,"cities":[{"id":97530,"name":"Akhtubinsk","native":null,"lat":"48.27955000","lon":"46.17217000"},{"id":97531,"name":"Akhtubinskiy Rayon","native":null,"lat":"48.16667000","lon":"46.25000000"},{"id":97539,"name":"Aksarayskiy","native":null,"lat":"46.79244000","lon":"48.01188000"},{"id":97706,"name":"Astrakhan","native":null,"lat":"46.34968000","lon":"48.04076000"},{"id":98228,"name":"Chyorny Yar","native":null,"lat":"48.06242000","lon":"46.10911000"},{"id":98640,"name":"Ikryanoye","native":null,"lat":"46.09323000","lon":"47.73078000"},{"id":98831,"name":"Kamyzyak","native":null,"lat":"46.10995000","lon":"48.07364000"},{"id":98849,"name":"Kapustin Yar","native":null,"lat":"48.58175000","lon":"45.74481000"},{"id":98867,"name":"Karalat","native":null,"lat":"45.91555000","lon":"48.30683000"},{"id":98963,"name":"Kharabali","native":null,"lat":"47.41958000","lon":"47.25678000"},{"id":99067,"name":"Kirovskiy","native":null,"lat":"45.84639000","lon":"48.12472000"},{"id":99347,"name":"Krasnoyarskiy Rayon","native":null,"lat":"46.83333000","lon":"48.25000000"},{"id":99377,"name":"Krasnyy Yar","native":null,"lat":"46.53314000","lon":"48.34559000"},{"id":99382,"name":"Krasnyye Barrikady","native":null,"lat":"46.20450000","lon":"47.85350000"},{"id":99628,"name":"Liman","native":null,"lat":"45.78457000","lon":"47.22405000"},{"id":99629,"name":"Limanskiy Rayon","native":null,"lat":"45.83333000","lon":"47.25000000"},{"id":99792,"name":"Marfino","native":null,"lat":"46.40852000","lon":"48.71398000"},{"id":100002,"name":"Mumra","native":null,"lat":"45.77251000","lon":"47.65398000"},{"id":100038,"name":"Nachalovo","native":null,"lat":"46.33800000","lon":"48.20128000"},{"id":100058,"name":"Narimanov","native":null,"lat":"46.69270000","lon":"47.84980000"},{"id":100163,"name":"Nizhniy Baskunchak","native":null,"lat":"48.21978000","lon":"46.83105000"},{"id":100456,"name":"Oranzherei","native":null,"lat":"45.84756000","lon":"47.56635000"},{"id":100752,"name":"Poldnëvoye","native":null,"lat":"45.85568000","lon":"47.95241000"},{"id":100849,"name":"Privolzhskiy Rayon","native":null,"lat":"46.25000000","lon":"48.16667000"},{"id":101129,"name":"Sasykoli","native":null,"lat":"47.55153000","lon":"46.99679000"},{"id":101386,"name":"Sizyy Bugor","native":null,"lat":"46.21343000","lon":"48.50462000"},{"id":101471,"name":"Solyanka","native":null,"lat":"46.38890000","lon":"48.01755000"},{"id":101583,"name":"Starokucherganovka","native":null,"lat":"46.32476000","lon":"47.95550000"},{"id":101762,"name":"Tambovka","native":null,"lat":"47.31528000","lon":"47.37773000"},{"id":101931,"name":"Trudfront","native":null,"lat":"45.93460000","lon":"47.66929000"},{"id":101968,"name":"Tumak","native":null,"lat":"46.23436000","lon":"48.50627000"},{"id":102156,"name":"Uvary","native":null,"lat":"46.04575000","lon":"48.03558000"},{"id":102250,"name":"Verkhniy Baskunchak","native":null,"lat":"48.22564000","lon":"46.72169000"},{"id":102343,"name":"Volgo-Kaspiyskiy","native":null,"lat":"46.20306000","lon":"47.91869000"},{"id":102352,"name":"Volodarskiy","native":null,"lat":"46.40134000","lon":"48.54093000"},{"id":102472,"name":"Yaksatovo","native":null,"lat":"46.24343000","lon":"48.01514000"},{"id":102482,"name":"Yandyki","native":null,"lat":"45.76913000","lon":"47.12577000"},{"id":102562,"name":"Yenotayevka","native":null,"lat":"47.24559000","lon":"47.02814000"},{"id":102706,"name":"Zenzeli","native":null,"lat":"45.92407000","lon":"47.04739000"},{"id":102759,"name":"Znamensk","native":null,"lat":"48.58420000","lon":"45.73380000"}]},{"id":1903,"name":"Belgorod Oblast","native":null,"cities":[{"id":97579,"name":"Alekseyevka","native":null,"lat":"50.63090000","lon":"38.69030000"},{"id":97837,"name":"Bekhteyevka","native":null,"lat":"50.80758000","lon":"37.21789000"},{"id":97848,"name":"Belgorod","native":null,"lat":"50.61074000","lon":"36.58015000"},{"id":97849,"name":"Belgorodskiy Rayon","native":null,"lat":"50.50000000","lon":"36.50000000"},{"id":97914,"name":"Bessonovka","native":null,"lat":"50.52644000","lon":"36.30107000"},{"id":98028,"name":"Borisovka","native":null,"lat":"50.60155000","lon":"36.01549000"},{"id":98029,"name":"Borisovskiy Rayon","native":null,"lat":"50.58333000","lon":"36.00000000"},{"id":98178,"name":"Chernyanka","native":null,"lat":"50.94095000","lon":"37.80693000"},{"id":98179,"name":"Chernyanskiy Rayon","native":null,"lat":"51.00000000","lon":"37.91667000"},{"id":98507,"name":"Golovchino","native":null,"lat":"50.53410000","lon":"35.79700000"},{"id":98577,"name":"Grayvoron","native":null,"lat":"50.47670000","lon":"35.67730000"},{"id":98578,"name":"Grayvoronskiy Rayon","native":null,"lat":"50.50000000","lon":"35.66667000"},{"id":98603,"name":"Gubkin","native":null,"lat":"51.28167000","lon":"37.54583000"},{"id":98647,"name":"Ilovka","native":null,"lat":"50.70530000","lon":"38.63700000"},{"id":98739,"name":"Ivnya","native":null,"lat":"51.06294000","lon":"36.13426000"},{"id":98740,"name":"Ivnyanskiy Rayon","native":null,"lat":"51.00000000","lon":"36.25000000"},{"id":99212,"name":"Korocha","native":null,"lat":"50.81320000","lon":"37.18598000"},{"id":99213,"name":"Korochanskiy Rayon","native":null,"lat":"50.83333000","lon":"37.25000000"},{"id":99286,"name":"Krasnaya Yaruga","native":null,"lat":"50.80083000","lon":"35.65833000"},{"id":99288,"name":"Krasnenskiy Rayon","native":null,"lat":"50.91667000","lon":"38.58333000"},{"id":99314,"name":"Krasnogvardeyskiy Rayon","native":null,"lat":"50.66667000","lon":"38.33333000"},{"id":99318,"name":"Krasnogvardeyskoye","native":null,"lat":"50.64920000","lon":"38.40360000"},{"id":99348,"name":"Krasnoyaruzhskiy Rayon","native":null,"lat":"50.83333000","lon":"35.50000000"},{"id":99350,"name":"Krasnoye","native":null,"lat":"50.92970000","lon":"38.68170000"},{"id":99643,"name":"Livenka","native":null,"lat":"50.44910000","lon":"38.29590000"},{"id":99810,"name":"Maslova Pristan’","native":null,"lat":"50.45758000","lon":"36.72038000"},{"id":99831,"name":"Mayskiy","native":null,"lat":"50.51988000","lon":"36.45878000"},{"id":100210,"name":"Novaya Tavolzhanka","native":null,"lat":"50.35123000","lon":"36.82980000"},{"id":100276,"name":"Novooskol’skiy Rayon","native":null,"lat":"50.75000000","lon":"37.83333000"},{"id":100348,"name":"Novyy Oskol","native":null,"lat":"50.76330000","lon":"37.86402000"},{"id":100857,"name":"Prokhorovka","native":null,"lat":"51.03741000","lon":"36.73252000"},{"id":100858,"name":"Prokhorovskiy Rayon","native":null,"lat":"51.00447000","lon":"36.74875000"},{"id":100864,"name":"Proletarskiy","native":null,"lat":"50.79139000","lon":"35.77306000"},{"id":100911,"name":"Pyatnitskoye","native":null,"lat":"50.42330000","lon":"37.82730000"},{"id":100932,"name":"Rakitnoye","native":null,"lat":"50.83890000","lon":"35.85150000"},{"id":100933,"name":"Rakityanskiy Rayon","native":null,"lat":"50.83333000","lon":"35.91667000"},{"id":100952,"name":"Razumnoye","native":null,"lat":"50.53439000","lon":"36.68462000"},{"id":100984,"name":"Rogovatoye","native":null,"lat":"51.23000000","lon":"38.38180000"},{"id":101010,"name":"Roven’skiy Rayon","native":null,"lat":"50.00000000","lon":"39.00000000"},{"id":101208,"name":"Severnyy","native":null,"lat":"50.67704000","lon":"36.55324000"},{"id":101284,"name":"Shebekino","native":null,"lat":"50.40967000","lon":"36.91360000"},{"id":101285,"name":"Shebekinskiy Rayon","native":null,"lat":"50.50000000","lon":"37.00000000"},{"id":101390,"name":"Skorodnoye","native":null,"lat":"51.07101000","lon":"37.22756000"},{"id":101607,"name":"Staryy Oskol","native":null,"lat":"51.29667000","lon":"37.84167000"},{"id":101631,"name":"Stroitel’","native":null,"lat":"50.78543000","lon":"36.48310000"},{"id":101883,"name":"Tomarovka","native":null,"lat":"50.68338000","lon":"36.23309000"},{"id":101917,"name":"Troitskiy","native":null,"lat":"51.35880000","lon":"37.52530000"},{"id":102073,"name":"Urazovo","native":null,"lat":"50.08360000","lon":"38.03950000"},{"id":102183,"name":"Valuyki","native":null,"lat":"50.20350000","lon":"38.10670000"},{"id":102184,"name":"Valuyskiy Rayon","native":null,"lat":"50.16667000","lon":"38.00000000"},{"id":102299,"name":"Veydelevka","native":null,"lat":"50.15210000","lon":"38.44920000"},{"id":102358,"name":"Volokonovka","native":null,"lat":"50.48270000","lon":"37.85630000"},{"id":102359,"name":"Volokonovskiy Rayon","native":null,"lat":"50.50000000","lon":"37.83333000"},{"id":102467,"name":"Yakovlevo","native":null,"lat":"50.86033000","lon":"36.44784000"},{"id":102469,"name":"Yakovlevskiy Rayon","native":null,"lat":"50.83333000","lon":"36.41667000"},{"id":102665,"name":"Zasosna","native":null,"lat":"50.63070000","lon":"38.39650000"}]},{"id":1867,"name":"Bryansk Oblast","native":null,"cities":[{"id":97606,"name":"Altukhovo","native":null,"lat":"52.67559000","lon":"34.36703000"},{"id":97659,"name":"Ardon’","native":null,"lat":"52.73524000","lon":"32.30857000"},{"id":97882,"name":"Belyye Berega","native":null,"lat":"53.20851000","lon":"34.66405000"},{"id":98051,"name":"Brasovskiy Rayon","native":null,"lat":"52.66667000","lon":"34.75000000"},{"id":98060,"name":"Bryansk","native":null,"lat":"53.25209000","lon":"34.37167000"},{"id":98061,"name":"Bryanskiy Rayon","native":null,"lat":"53.25000000","lon":"34.41667000"},{"id":98104,"name":"Bytosh’","native":null,"lat":"53.81861000","lon":"34.09116000"},{"id":98226,"name":"Churovichi","native":null,"lat":"52.16930000","lon":"31.99260000"},{"id":98295,"name":"Dobrun’","native":null,"lat":"53.18512000","lon":"34.24625000"},{"id":98345,"name":"Dubrovka","native":null,"lat":"53.69070000","lon":"33.50710000"},{"id":98346,"name":"Dubrovskiy Rayon","native":null,"lat":"53.66667000","lon":"33.41667000"},{"id":98362,"name":"Dyat’kovo","native":null,"lat":"53.59782000","lon":"34.33825000"},{"id":98363,"name":"Dyat’kovskiy Rayon","native":null,"lat":"53.66667000","lon":"34.25000000"},{"id":98498,"name":"Glinishchevo","native":null,"lat":"53.30416000","lon":"34.06523000"},{"id":98520,"name":"Gordeyevka","native":null,"lat":"52.95690000","lon":"31.97030000"},{"id":98521,"name":"Gordeyevskiy Rayon","native":null,"lat":"52.91667000","lon":"31.91667000"},{"id":98547,"name":"Gorod Bryansk","native":null,"lat":"53.25000000","lon":"34.41667000"},{"id":98550,"name":"Gorod Dyat’kovo","native":null,"lat":"53.60000000","lon":"34.35000000"},{"id":98729,"name":"Ivanovka","native":null,"lat":"53.34694000","lon":"34.21917000"},{"id":98743,"name":"Ivot","native":null,"lat":"53.67556000","lon":"34.18722000"},{"id":98859,"name":"Karachev","native":null,"lat":"53.12292000","lon":"34.98517000"},{"id":99098,"name":"Kletnya","native":null,"lat":"53.38967000","lon":"33.21714000"},{"id":99099,"name":"Kletnyanskiy Rayon","native":null,"lat":"53.33333000","lon":"33.16667000"},{"id":99101,"name":"Klimovo","native":null,"lat":"52.38053000","lon":"32.19233000"},{"id":99103,"name":"Klimovskiy Rayon","native":null,"lat":"52.25000000","lon":"32.16667000"},{"id":99106,"name":"Klintsovskiy Rayon","native":null,"lat":"52.75000000","lon":"32.16667000"},{"id":99107,"name":"Klintsy","native":null,"lat":"52.76019000","lon":"32.23935000"},{"id":99130,"name":"Kokino","native":null,"lat":"52.49640000","lon":"34.78080000"},{"id":99131,"name":"Kokorevka","native":null,"lat":"52.58740000","lon":"34.26920000"},{"id":99158,"name":"Komarichi","native":null,"lat":"52.41510000","lon":"34.79050000"},{"id":99159,"name":"Komarichskiy Rayon","native":null,"lat":"52.41667000","lon":"34.75000000"},{"id":99223,"name":"Korzhovka-Golubovka","native":null,"lat":"52.76742000","lon":"32.35362000"},{"id":99277,"name":"Krasnaya Gora","native":null,"lat":"52.99950000","lon":"31.60230000"},{"id":99308,"name":"Krasnogorskiy Rayon","native":null,"lat":"53.00000000","lon":"31.50000000"},{"id":99654,"name":"Lokot’","native":null,"lat":"52.56500000","lon":"34.57760000"},{"id":99661,"name":"Lopandino","native":null,"lat":"52.46660000","lon":"34.81630000"},{"id":99719,"name":"Lyubokhna","native":null,"lat":"53.50332000","lon":"34.38847000"},{"id":99720,"name":"Lyubovsho","native":null,"lat":"52.98510000","lon":"31.54220000"},{"id":99887,"name":"Mglin","native":null,"lat":"53.05907000","lon":"32.84753000"},{"id":99888,"name":"Mglinskiy Rayon","native":null,"lat":"53.16667000","lon":"32.83333000"},{"id":100071,"name":"Navlinskiy Rayon","native":null,"lat":"52.83333000","lon":"34.41667000"},{"id":100072,"name":"Navlya","native":null,"lat":"52.82544000","lon":"34.49960000"},{"id":100114,"name":"Net’inka","native":null,"lat":"53.34778000","lon":"34.19111000"},{"id":100337,"name":"Novozybkov","native":null,"lat":"52.53960000","lon":"31.92750000"},{"id":100338,"name":"Novozybkovskiy Rayon","native":null,"lat":"52.58333000","lon":"31.83333000"},{"id":100349,"name":"Novyy Ropsk","native":null,"lat":"52.29781000","lon":"32.31206000"},{"id":100706,"name":"Pochep","native":null,"lat":"52.93360000","lon":"33.44640000"},{"id":100707,"name":"Pochepskiy Rayon","native":null,"lat":"52.91667000","lon":"33.50000000"},{"id":100735,"name":"Pogar","native":null,"lat":"52.55399000","lon":"33.25907000"},{"id":100736,"name":"Pogarskiy Rayon","native":null,"lat":"52.50000000","lon":"33.25000000"},{"id":100907,"name":"Putëvka","native":null,"lat":"53.25833000","lon":"34.28778000"},{"id":100924,"name":"Raditsa-Krylovka","native":null,"lat":"53.31712000","lon":"34.35742000"},{"id":100982,"name":"Rognedino","native":null,"lat":"53.80147000","lon":"33.55760000"},{"id":100983,"name":"Rognedinskiy Rayon","native":null,"lat":"53.83333000","lon":"33.66667000"},{"id":101058,"name":"Rzhanitsa","native":null,"lat":"53.42844000","lon":"33.92297000"},{"id":101063,"name":"Sachkovichi","native":null,"lat":"52.34590000","lon":"32.22460000"},{"id":101161,"name":"Sel’tso","native":null,"lat":"53.36831000","lon":"34.10328000"},{"id":101198,"name":"Seshcha","native":null,"lat":"53.73610000","lon":"33.33870000"},{"id":101224,"name":"Sevsk","native":null,"lat":"52.14910000","lon":"34.49260000"},{"id":101225,"name":"Sevskiy Rayon","native":null,"lat":"52.08333000","lon":"34.41667000"},{"id":101612,"name":"Star’","native":null,"lat":"53.62362000","lon":"34.15183000"},{"id":101577,"name":"Starodub","native":null,"lat":"52.58444000","lon":"32.76333000"},{"id":101578,"name":"Starodubskiy Rayon","native":null,"lat":"52.50000000","lon":"32.75000000"},{"id":101671,"name":"Suponevo","native":null,"lat":"53.20492000","lon":"34.29597000"},{"id":101673,"name":"Surazh","native":null,"lat":"53.01747000","lon":"32.39178000"},{"id":101674,"name":"Surazhskiy Rayon","native":null,"lat":"53.08333000","lon":"32.41667000"},{"id":101694,"name":"Suzëmka","native":null,"lat":"52.31834000","lon":"34.07899000"},{"id":101692,"name":"Suzemskiy Rayon","native":null,"lat":"52.41667000","lon":"34.16667000"},{"id":101697,"name":"Sven’","native":null,"lat":"53.18222000","lon":"34.55111000"},{"id":101928,"name":"Trubchevsk","native":null,"lat":"52.57980000","lon":"33.76440000"},{"id":101929,"name":"Trubchevskiy Rayon","native":null,"lat":"52.58333000","lon":"33.75000000"},{"id":102058,"name":"Unecha","native":null,"lat":"52.84591000","lon":"32.67394000"},{"id":102059,"name":"Unechskiy Rayon","native":null,"lat":"52.83333000","lon":"32.83333000"},{"id":102430,"name":"Vygonichi","native":null,"lat":"53.09855000","lon":"34.06728000"},{"id":102431,"name":"Vygonichskiy Rayon","native":null,"lat":"53.08333000","lon":"34.00000000"},{"id":102440,"name":"Vyshkov","native":null,"lat":"52.47640000","lon":"31.68730000"},{"id":102640,"name":"Zamishevo","native":null,"lat":"52.53950000","lon":"32.01290000"},{"id":102686,"name":"Zaymishche","native":null,"lat":"52.72640000","lon":"32.23340000"},{"id":102735,"name":"Zhiryatino","native":null,"lat":"53.22280000","lon":"33.73060000"},{"id":102736,"name":"Zhiryatinskiy Rayon","native":null,"lat":"53.25000000","lon":"33.58333000"},{"id":102741,"name":"Zhukovka","native":null,"lat":"53.53395000","lon":"33.72798000"},{"id":102744,"name":"Zhukovskiy Rayon","native":null,"lat":"53.50000000","lon":"33.83333000"},{"id":102751,"name":"Zlynka","native":null,"lat":"52.42670000","lon":"31.73780000"}]},{"id":1893,"name":"Chechen Republic","native":null,"cities":[{"id":97499,"name":"Achkhoy-Martan","native":null,"lat":"43.18997000","lon":"45.28373000"},{"id":97500,"name":"Achkhoy-Martanovskiy Rayon","native":null,"lat":"43.08333000","lon":"45.25000000"},{"id":97593,"name":"Alkhan-Kala","native":null,"lat":"43.25861000","lon":"45.53917000"},{"id":97594,"name":"Alkhan-Yurt","native":null,"lat":"43.23179000","lon":"45.57228000"},{"id":97595,"name":"Alkhazurovo","native":null,"lat":"43.06390000","lon":"45.65134000"},{"id":97597,"name":"Alleroy","native":null,"lat":"43.21711000","lon":"46.28209000"},{"id":97601,"name":"Alpatovo","native":null,"lat":"43.70280000","lon":"45.24154000"},{"id":97662,"name":"Argun","native":null,"lat":"43.29713000","lon":"45.87454000"},{"id":97705,"name":"Assinovskaya","native":null,"lat":"43.24167000","lon":"45.18194000"},{"id":97725,"name":"Avtury","native":null,"lat":"43.16345000","lon":"46.00152000"},{"id":97749,"name":"Bachi-Yurt","native":null,"lat":"43.22417000","lon":"46.19423000"},{"id":97787,"name":"Bamut","native":null,"lat":"43.15986000","lon":"45.19734000"},{"id":97847,"name":"Belgatoy","native":null,"lat":"43.18995000","lon":"45.83082000"},{"id":97886,"name":"Benoy-Yurt","native":null,"lat":"43.69305000","lon":"45.05025000"},{"id":98045,"name":"Borzoy","native":null,"lat":"42.84147000","lon":"45.62746000"},{"id":98130,"name":"Chechen-Aul","native":null,"lat":"43.20000000","lon":"45.78889000"},{"id":98196,"name":"Chiri-Yurt","native":null,"lat":"43.08869000","lon":"45.74323000"},{"id":98333,"name":"Duba-Yurt","native":null,"lat":"43.03534000","lon":"45.73046000"},{"id":98365,"name":"Dyshne-Vedeno","native":null,"lat":"42.96435000","lon":"46.11578000"},{"id":98373,"name":"Dzhalka","native":null,"lat":"43.31860000","lon":"45.98787000"},{"id":98388,"name":"Elin-Yurt","native":null,"lat":"43.67306000","lon":"44.95889000"},{"id":98397,"name":"Engel’-Yurt","native":null,"lat":"43.32633000","lon":"46.36048000"},{"id":98473,"name":"Gekhi","native":null,"lat":"43.16354000","lon":"45.47238000"},{"id":98484,"name":"Germenchuk","native":null,"lat":"43.18570000","lon":"45.92100000"},{"id":98485,"name":"Gerzel’-Aul","native":null,"lat":"43.24728000","lon":"46.40249000"},{"id":98516,"name":"Goragorskiy","native":null,"lat":"43.50020000","lon":"45.08574000"},{"id":98573,"name":"Goyty","native":null,"lat":"43.16417000","lon":"45.62278000"},{"id":98582,"name":"Grebenskaya","native":null,"lat":"43.53086000","lon":"46.37174000"},{"id":98593,"name":"Groznenskiy Rayon","native":null,"lat":"43.33333000","lon":"45.50000000"},{"id":98594,"name":"Groznyy","native":null,"lat":"43.31195000","lon":"45.68895000"},{"id":98606,"name":"Gudermes","native":null,"lat":"43.35071000","lon":"46.10925000"},{"id":98607,"name":"Gudermesskiy Rayon","native":null,"lat":"43.33333000","lon":"46.16667000"},{"id":98644,"name":"Ilaskhan-Yurt","native":null,"lat":"43.27910000","lon":"46.10229000"},{"id":98702,"name":"Ishcherskaya","native":null,"lat":"43.71359000","lon":"45.13371000"},{"id":98707,"name":"Ishkhoy-Yurt","native":null,"lat":"43.21278000","lon":"46.38936000"},{"id":98724,"name":"Itum-Kali","native":null,"lat":"42.73552000","lon":"45.57574000"},{"id":98725,"name":"Itum-Kalinskiy Rayon","native":null,"lat":"42.73611000","lon":"45.57250000"},{"id":98794,"name":"Kalinovskaya","native":null,"lat":"43.57383000","lon":"45.52090000"},{"id":98876,"name":"Kargalinskaya","native":null,"lat":"43.74381000","lon":"46.47821000"},{"id":98911,"name":"Katyr-Yurt","native":null,"lat":"43.17164000","lon":"45.36991000"},{"id":98956,"name":"Khambi-Irze","native":null,"lat":"43.23502000","lon":"45.45302000"},{"id":98960,"name":"Khankala","native":null,"lat":"43.30212000","lon":"45.75564000"},{"id":99429,"name":"Kulary","native":null,"lat":"43.23972000","lon":"45.50417000"},{"id":99456,"name":"Kurchaloy","native":null,"lat":"43.20184000","lon":"46.08810000"},{"id":99537,"name":"Lakha Nëvre","native":null,"lat":"43.62271000","lon":"45.33969000"},{"id":99541,"name":"Lakkha Nëvre","native":null,"lat":"43.61033000","lon":"45.24542000"},{"id":99804,"name":"Martan-Chu","native":null,"lat":"43.06366000","lon":"45.56217000"},{"id":99829,"name":"Mayrtup","native":null,"lat":"43.20348000","lon":"46.13215000"},{"id":99871,"name":"Mesker-Yurt","native":null,"lat":"43.25147000","lon":"45.90716000"},{"id":100041,"name":"Nadterechnyy Rayon","native":null,"lat":"43.58333000","lon":"45.25000000"},{"id":100067,"name":"Naurskaya","native":null,"lat":"43.65075000","lon":"45.31173000"},{"id":100068,"name":"Naurskiy Rayon","native":null,"lat":"43.66667000","lon":"45.50000000"},{"id":100189,"name":"Nogamerzin-Yurt","native":null,"lat":"43.65361000","lon":"44.88889000"},{"id":100356,"name":"Novyye Atagi","native":null,"lat":"43.13528000","lon":"45.77306000"},{"id":100365,"name":"Nozhay-Yurt","native":null,"lat":"43.09290000","lon":"46.37868000"},{"id":100366,"name":"Nozhay-Yurtovskiy Rayon","native":null,"lat":"43.08333000","lon":"46.41667000"},{"id":100516,"name":"Oyskhara","native":null,"lat":"43.26402000","lon":"46.24803000"},{"id":100615,"name":"Pervomayskaya","native":null,"lat":"43.40331000","lon":"45.52343000"},{"id":100654,"name":"Petropavlovskaya","native":null,"lat":"43.37944000","lon":"45.82611000"},{"id":100820,"name":"Prigorodnoye","native":null,"lat":"43.25303000","lon":"45.75808000"},{"id":101000,"name":"Roshni-Chu","native":null,"lat":"43.08954000","lon":"45.45435000"},{"id":101087,"name":"Samashki","native":null,"lat":"43.28935000","lon":"45.29786000"},{"id":101186,"name":"Sernovodsk","native":null,"lat":"43.31277000","lon":"45.15969000"},{"id":101196,"name":"Serzhen’-Yurt","native":null,"lat":"43.12265000","lon":"45.98583000"},{"id":101227,"name":"Shaami-Yurt","native":null,"lat":"43.22647000","lon":"45.38815000"},{"id":101244,"name":"Shalazhi","native":null,"lat":"43.09476000","lon":"45.35898000"},{"id":101245,"name":"Shali","native":null,"lat":"43.14806000","lon":"45.90194000"},{"id":101246,"name":"Shalinskiy Rayon","native":null,"lat":"43.16667000","lon":"45.91667000"},{"id":101269,"name":"Shatoy","native":null,"lat":"42.87143000","lon":"45.68865000"},{"id":101365,"name":"Shëlkovskaya","native":null,"lat":"43.50804000","lon":"46.34016000"},{"id":101292,"name":"Shelkovskiy Rayon","native":null,"lat":"43.58333000","lon":"46.00000000"},{"id":101566,"name":"Staraya Sunzha","native":null,"lat":"43.33542000","lon":"45.74377000"},{"id":101610,"name":"Staryye Atagi","native":null,"lat":"43.12028000","lon":"45.74056000"},{"id":101880,"name":"Tolstoy-Yurt","native":null,"lat":"43.44548000","lon":"45.77901000"},{"id":101943,"name":"Tsentoroy","native":null,"lat":"43.00658000","lon":"46.22235000"},{"id":101953,"name":"Tsotsin-Yurt","native":null,"lat":"43.24206000","lon":"46.00013000"},{"id":102087,"name":"Urus-Martan","native":null,"lat":"43.13053000","lon":"45.53791000"},{"id":102088,"name":"Urus-Martanovskiy Rayon","native":null,"lat":"43.08333000","lon":"45.58333000"},{"id":102182,"name":"Valerik","native":null,"lat":"43.17972000","lon":"45.40806000"},{"id":102208,"name":"Vedeno","native":null,"lat":"42.96892000","lon":"46.09611000"},{"id":102209,"name":"Vedenskiy Rayon","native":null,"lat":"43.00000000","lon":"46.08333000"},{"id":102474,"name":"Yalkhoy-Mokhk","native":null,"lat":"43.10528000","lon":"46.19045000"},{"id":102634,"name":"Zakan-Yurt","native":null,"lat":"43.26224000","lon":"45.42307000"},{"id":102642,"name":"Zandak","native":null,"lat":"43.05710000","lon":"46.45566000"},{"id":102761,"name":"Znamenskoye","native":null,"lat":"43.67898000","lon":"45.12867000"}]},{"id":1845,"name":"Chelyabinsk Oblast","native":null,"cities":[{"id":97513,"name":"Agapovka","native":null,"lat":"53.29730000","lon":"59.13480000"},{"id":97514,"name":"Agapovskiy Rayon","native":null,"lat":"53.33333000","lon":"59.33333000"},{"id":97660,"name":"Argayash","native":null,"lat":"55.48880000","lon":"60.87670000"},{"id":97696,"name":"Asha","native":null,"lat":"54.99730000","lon":"57.27220000"},{"id":97698,"name":"Ashinskiy Rayon","native":null,"lat":"55.00000000","lon":"57.50000000"},{"id":97756,"name":"Bakal","native":null,"lat":"54.94170000","lon":"58.80830000"},{"id":97832,"name":"Bazhovo","native":null,"lat":"55.05955000","lon":"61.60445000"},{"id":97889,"name":"Berdyaush","native":null,"lat":"55.16190000","lon":"59.14640000"},{"id":97957,"name":"Bobrovka","native":null,"lat":"54.04700000","lon":"61.74550000"},{"id":98054,"name":"Bredy","native":null,"lat":"52.41528000","lon":"60.34111000"},{"id":98057,"name":"Brodokalmak","native":null,"lat":"55.57480000","lon":"62.08200000"},{"id":98125,"name":"Chebarkul’","native":null,"lat":"54.97490000","lon":"60.36330000"},{"id":98126,"name":"Chebarkul’skiy Rayon","native":null,"lat":"54.83333000","lon":"60.50000000"},{"id":98140,"name":"Chelyabinsk","native":null,"lat":"55.15402000","lon":"61.42915000"},{"id":98151,"name":"Cheremshanka","native":null,"lat":"56.11920000","lon":"60.26804000"},{"id":98192,"name":"Chesma","native":null,"lat":"53.81111000","lon":"60.65333000"},{"id":98299,"name":"Dolgoderevenskoye","native":null,"lat":"55.34444000","lon":"61.34444000"},{"id":98421,"name":"Fershampenuaz","native":null,"lat":"53.52020000","lon":"59.81170000"},{"id":98536,"name":"Gornyak","native":null,"lat":"55.13446000","lon":"61.68268000"},{"id":98549,"name":"Gorod Chelyabinsk","native":null,"lat":"55.16553000","lon":"61.41673000"},{"id":98834,"name":"Kanashevo","native":null,"lat":"55.21690000","lon":"62.06340000"},{"id":98853,"name":"Karabash","native":null,"lat":"55.48080000","lon":"60.21570000"},{"id":98887,"name":"Kartalinskiy Rayon","native":null,"lat":"53.00000000","lon":"60.50000000"},{"id":98888,"name":"Kartaly","native":null,"lat":"53.05285000","lon":"60.64903000"},{"id":98899,"name":"Kasli","native":null,"lat":"55.89090000","lon":"60.76160000"},{"id":98906,"name":"Katav-Ivanovsk","native":null,"lat":"54.75306000","lon":"58.19556000"},{"id":98907,"name":"Katav-Ivanovskiy Rayon","native":null,"lat":"54.75000000","lon":"58.25000000"},{"id":99092,"name":"Kizil’skiy Rayon","native":null,"lat":"52.75000000","lon":"59.41667000"},{"id":99199,"name":"Kopeysk","native":null,"lat":"55.11722000","lon":"61.62823000"},{"id":99207,"name":"Korkino","native":null,"lat":"54.89130000","lon":"61.39690000"},{"id":99257,"name":"Koyelga","native":null,"lat":"54.65224000","lon":"60.90490000"},{"id":99306,"name":"Krasnogorskiy","native":null,"lat":"54.60250000","lon":"61.23100000"},{"id":99398,"name":"Kropachëvo","native":null,"lat":"55.01120000","lon":"57.98960000"},{"id":99445,"name":"Kunashak","native":null,"lat":"55.70320000","lon":"61.54980000"},{"id":99483,"name":"Kusa","native":null,"lat":"55.33833000","lon":"59.44056000"},{"id":99521,"name":"Kyshtym","native":null,"lat":"55.71400000","lon":"60.55280000"},{"id":99568,"name":"Leninsk","native":null,"lat":"54.90306000","lon":"59.86750000"},{"id":99652,"name":"Lokomotivnyy","native":null,"lat":"53.01180000","lon":"60.56840000"},{"id":99738,"name":"Magnitka","native":null,"lat":"55.34750000","lon":"59.69611000"},{"id":99739,"name":"Magnitogorsk","native":null,"lat":"53.41861000","lon":"59.04722000"},{"id":99883,"name":"Mezhevoy","native":null,"lat":"55.17111000","lon":"58.78139000"},{"id":99889,"name":"Miass","native":null,"lat":"55.04500000","lon":"60.10833000"},{"id":99890,"name":"Miasskoye","native":null,"lat":"55.27840000","lon":"61.89050000"},{"id":100020,"name":"Muslyumovo","native":null,"lat":"55.61330000","lon":"61.62600000"},{"id":100045,"name":"Nagaybakskiy Rayon","native":null,"lat":"53.58333000","lon":"59.75000000"},{"id":100177,"name":"Nizhniy Ufaley","native":null,"lat":"55.91528000","lon":"59.98417000"},{"id":100244,"name":"Novogornyy","native":null,"lat":"55.63000000","lon":"60.79190000"},{"id":100306,"name":"Novosineglazovskiy","native":null,"lat":"55.03928000","lon":"61.37680000"},{"id":100376,"name":"Nyazepetrovsk","native":null,"lat":"56.05306000","lon":"59.60278000"},{"id":100377,"name":"Nyazepetrovskiy Rayon","native":null,"lat":"56.00000000","lon":"59.58333000"},{"id":100413,"name":"Oktyabr’skiy Rayon","native":null,"lat":"54.41667000","lon":"62.75000000"},{"id":100519,"name":"Ozersk","native":null,"lat":"55.75556000","lon":"60.70278000"},{"id":100550,"name":"Parizh","native":null,"lat":"53.29740000","lon":"60.10050000"},{"id":100694,"name":"Plast","native":null,"lat":"54.36914000","lon":"60.81361000"},{"id":100754,"name":"Poletayevo","native":null,"lat":"55.03360000","lon":"61.11380000"},{"id":100789,"name":"Potanino","native":null,"lat":"55.17860000","lon":"61.62220000"},{"id":100999,"name":"Roshchino","native":null,"lat":"55.31012000","lon":"61.26363000"},{"id":101012,"name":"Roza","native":null,"lat":"54.91630000","lon":"61.45860000"},{"id":101118,"name":"Sargazy","native":null,"lat":"55.02064000","lon":"61.24985000"},{"id":101132,"name":"Satka","native":null,"lat":"55.04250000","lon":"59.04000000"},{"id":101133,"name":"Satkinskiy Rayon","native":null,"lat":"55.00000000","lon":"59.00000000"},{"id":101154,"name":"Selezyan","native":null,"lat":"54.90583000","lon":"61.82444000"},{"id":101370,"name":"Sim","native":null,"lat":"54.99300000","lon":"57.69820000"},{"id":101423,"name":"Snezhinsk","native":null,"lat":"56.08500000","lon":"60.73139000"},{"id":101496,"name":"Sosnovskiy Rayon","native":null,"lat":"55.25000000","lon":"61.16667000"},{"id":101581,"name":"Starokamyshinsk","native":null,"lat":"55.03912000","lon":"61.58778000"},{"id":101729,"name":"Syrostan","native":null,"lat":"55.06340000","lon":"59.90020000"},{"id":101803,"name":"Tayginka","native":null,"lat":"55.62440000","lon":"60.50760000"},{"id":101859,"name":"Timiryazevskiy","native":null,"lat":"54.92917000","lon":"60.76250000"},{"id":101935,"name":"Trëkhgornyy","native":null,"lat":"54.81500000","lon":"58.45917000"},{"id":101914,"name":"Troitsk","native":null,"lat":"54.09790000","lon":"61.57730000"},{"id":101975,"name":"Turgoyak","native":null,"lat":"55.15000000","lon":"60.11833000"},{"id":101999,"name":"Tyubuk","native":null,"lat":"56.05521000","lon":"60.94050000"},{"id":102114,"name":"Ust’-Bagaryak","native":null,"lat":"56.13278000","lon":"61.84722000"},{"id":102129,"name":"Ust’-Katav","native":null,"lat":"54.93660000","lon":"58.17570000"},{"id":102158,"name":"Uvel’skiy","native":null,"lat":"54.44460000","lon":"61.35740000"},{"id":102159,"name":"Uvel’skiy Rayon","native":null,"lat":"54.50000000","lon":"61.50000000"},{"id":102163,"name":"Uyskiy Rayon","native":null,"lat":"54.33333000","lon":"60.08333000"},{"id":102164,"name":"Uyskoye","native":null,"lat":"54.37750000","lon":"60.00472000"},{"id":102176,"name":"Vakhrushevo","native":null,"lat":"55.23170000","lon":"61.71730000"},{"id":102192,"name":"Varna","native":null,"lat":"53.38194000","lon":"60.97472000"},{"id":102195,"name":"Varnenskiy Rayon","native":null,"lat":"53.25000000","lon":"61.08333000"},{"id":102217,"name":"Velikopetrovka","native":null,"lat":"53.25042000","lon":"60.48606000"},{"id":102242,"name":"Verkhneural’sk","native":null,"lat":"53.87694000","lon":"59.21056000"},{"id":102258,"name":"Verkhniy Ufaley","native":null,"lat":"56.05560000","lon":"60.23970000"},{"id":102318,"name":"Vishnëvogorsk","native":null,"lat":"55.99130000","lon":"60.65790000"},{"id":102423,"name":"Vyazovaya","native":null,"lat":"54.90500000","lon":"58.35611000"},{"id":102553,"name":"Yemanzhelinka","native":null,"lat":"54.80100000","lon":"61.29890000"},{"id":102554,"name":"Yemanzhelinsk","native":null,"lat":"54.75472000","lon":"61.32083000"},{"id":102578,"name":"Yetkul’","native":null,"lat":"54.82210000","lon":"61.58800000"},{"id":102601,"name":"Yuryuzan’","native":null,"lat":"54.86333000","lon":"58.42194000"},{"id":102617,"name":"Yuzhnoural’sk","native":null,"lat":"54.44180000","lon":"61.25360000"},{"id":102719,"name":"Zheleznodorozhnyy","native":null,"lat":"55.10183000","lon":"61.54926000"},{"id":102750,"name":"Zlatoust","native":null,"lat":"55.17111000","lon":"59.65083000"}]},{"id":1859,"name":"Chukotka Autonomous Okrug","native":null,"cities":[{"id":97618,"name":"Anadyr","native":null,"lat":"64.73424000","lon":"177.51030000"},{"id":97619,"name":"Anadyrskiy Rayon","native":null,"lat":"65.00000000","lon":"173.00000000"},{"id":97897,"name":"Beringovskiy","native":null,"lat":"63.06101000","lon":"179.35046000"},{"id":97928,"name":"Bilibino","native":null,"lat":"68.05464000","lon":"166.43721000"},{"id":98381,"name":"Egvekinot","native":null,"lat":"66.32166000","lon":"-179.12198000"},{"id":99547,"name":"Lavrentiya","native":null,"lat":"65.58604000","lon":"-171.02082000"},{"id":99664,"name":"Lorino","native":null,"lat":"65.50306000","lon":"-171.70387000"},{"id":100669,"name":"Pevek","native":null,"lat":"69.70287000","lon":"170.29993000"},{"id":100872,"name":"Provideniya","native":null,"lat":"64.42289000","lon":"-173.22641000"},{"id":100873,"name":"Providenskiy Rayon","native":null,"lat":"65.25000000","lon":"-175.00000000"}]},{"id":1914,"name":"Chuvash Republic","native":null,"cities":[{"id":97560,"name":"Alatyr’","native":null,"lat":"54.84210000","lon":"46.58130000"},{"id":97559,"name":"Alatyrskiy Rayon","native":null,"lat":"54.91667000","lon":"46.75000000"},{"id":97590,"name":"Alikovo","native":null,"lat":"55.73827000","lon":"46.75493000"},{"id":97591,"name":"Alikovskiy Rayon","native":null,"lat":"55.75000000","lon":"46.75000000"},{"id":97714,"name":"Atlashevo","native":null,"lat":"56.01235000","lon":"47.55615000"},{"id":97815,"name":"Batyrevo","native":null,"lat":"55.06750000","lon":"47.61111000"},{"id":97816,"name":"Batyrevskiy Rayon","native":null,"lat":"55.08333000","lon":"47.50000000"},{"id":98070,"name":"Buinsk","native":null,"lat":"55.19500000","lon":"47.06080000"},{"id":98127,"name":"Cheboksarskiy Rayon","native":null,"lat":"56.08333000","lon":"47.25000000"},{"id":98128,"name":"Cheboksary","native":null,"lat":"56.13222000","lon":"47.25194000"},{"id":98626,"name":"Ibresi","native":null,"lat":"55.30110000","lon":"47.03800000"},{"id":98627,"name":"Ibresinskiy Rayon","native":null,"lat":"55.25000000","lon":"47.00000000"},{"id":98708,"name":"Ishley","native":null,"lat":"56.02317000","lon":"47.05054000"},{"id":98833,"name":"Kanash","native":null,"lat":"55.50962000","lon":"47.49127000"},{"id":98835,"name":"Kanashskiy Rayon","native":null,"lat":"55.50000000","lon":"47.41667000"},{"id":99076,"name":"Kirya","native":null,"lat":"55.08102000","lon":"46.86091000"},{"id":99168,"name":"Komsomol'skoye","native":null,"lat":"55.25667000","lon":"47.54608000"},{"id":99176,"name":"Komsomol’skiy Rayon","native":null,"lat":"55.25000000","lon":"47.50000000"},{"id":99266,"name":"Kozlovka","native":null,"lat":"55.84284000","lon":"48.24920000"},{"id":99269,"name":"Kozlovskiy Rayon","native":null,"lat":"55.83333000","lon":"48.16667000"},{"id":99294,"name":"Krasnoarmeyskiy Rayon","native":null,"lat":"55.75000000","lon":"47.16667000"},{"id":99295,"name":"Krasnoarmeyskoye","native":null,"lat":"55.76813000","lon":"47.17244000"},{"id":99299,"name":"Krasnochetayskiy Rayon","native":null,"lat":"55.66667000","lon":"46.25000000"},{"id":99383,"name":"Krasnyye Chetai","native":null,"lat":"55.68871000","lon":"46.13865000"},{"id":99424,"name":"Kugesi","native":null,"lat":"56.02895000","lon":"47.29255000"},{"id":99796,"name":"Mariinskiy Posad","native":null,"lat":"56.11497000","lon":"47.71805000"},{"id":99797,"name":"Mariinsko-Posadskiy Rayon","native":null,"lat":"55.91667000","lon":"47.83333000"},{"id":99962,"name":"Morgaushi","native":null,"lat":"55.96430000","lon":"46.77430000"},{"id":99963,"name":"Morgaushskiy Rayon","native":null,"lat":"56.00000000","lon":"46.75000000"},{"id":100233,"name":"Novocheboksarsk","native":null,"lat":"56.11095000","lon":"47.47755000"},{"id":100361,"name":"Novyye Lapsary","native":null,"lat":"56.06850000","lon":"47.21420000"},{"id":100775,"name":"Poretskiy Rayon","native":null,"lat":"55.16667000","lon":"46.41667000"},{"id":100776,"name":"Poretskoye","native":null,"lat":"55.19742000","lon":"46.32908000"},{"id":101296,"name":"Shemursha","native":null,"lat":"54.88663000","lon":"47.51893000"},{"id":101297,"name":"Shemurshinskiy Rayon","native":null,"lat":"54.91667000","lon":"47.50000000"},{"id":101311,"name":"Shikhazany","native":null,"lat":"55.56047000","lon":"47.39297000"},{"id":101346,"name":"Shumerlinskiy Rayon","native":null,"lat":"55.50000000","lon":"46.50000000"},{"id":101347,"name":"Shumerlya","native":null,"lat":"55.50050000","lon":"46.41288000"},{"id":101951,"name":"Tsivil’sk","native":null,"lat":"55.86974000","lon":"47.47874000"},{"id":101952,"name":"Tsivil’skiy Rayon","native":null,"lat":"55.83333000","lon":"47.50000000"},{"id":102081,"name":"Urmarskiy Rayon","native":null,"lat":"55.66667000","lon":"47.91667000"},{"id":102082,"name":"Urmary","native":null,"lat":"55.67894000","lon":"47.94396000"},{"id":102416,"name":"Vurnarskiy Rayon","native":null,"lat":"55.50000000","lon":"46.91667000"},{"id":102417,"name":"Vurnary","native":null,"lat":"55.49044000","lon":"46.96479000"},{"id":102459,"name":"Yadrin","native":null,"lat":"55.94052000","lon":"46.20622000"},{"id":102460,"name":"Yadrinskiy Rayon","native":null,"lat":"55.91667000","lon":"46.33333000"},{"id":102476,"name":"Yal’chikskiy Rayon","native":null,"lat":"55.16667000","lon":"47.91667000"},{"id":102487,"name":"Yantikovo","native":null,"lat":"55.82158000","lon":"47.91036000"},{"id":102488,"name":"Yantikovskiy Rayon","native":null,"lat":"55.50000000","lon":"47.83333000"}]},{"id":1880,"name":"Irkutsk","native":null,"cities":[]},{"id":1864,"name":"Ivanovo Oblast","native":null,"cities":[{"id":97669,"name":"Arkhipovka","native":null,"lat":"56.66292000","lon":"41.25434000"},{"id":97972,"name":"Bogorodskoye","native":null,"lat":"57.04695000","lon":"41.01354000"},{"id":98352,"name":"Dulyapino","native":null,"lat":"57.25783000","lon":"40.81471000"},{"id":98442,"name":"Furmanov","native":null,"lat":"57.25363000","lon":"41.10849000"},{"id":98461,"name":"Gavrilov Posad","native":null,"lat":"56.55930000","lon":"40.12100000"},{"id":98658,"name":"Il’inskoye-Khovanskoye","native":null,"lat":"56.97180000","lon":"39.76840000"},{"id":98731,"name":"Ivanovo","native":null,"lat":"56.99719000","lon":"40.97139000"},{"id":98732,"name":"Ivanovskiy Rayon","native":null,"lat":"57.00000000","lon":"41.00000000"},{"id":98812,"name":"Kamenka","native":null,"lat":"57.39214000","lon":"41.79383000"},{"id":98826,"name":"Kaminskiy","native":null,"lat":"57.15159000","lon":"41.47318000"},{"id":99048,"name":"Kineshemskiy Rayon","native":null,"lat":"57.33333000","lon":"42.33333000"},{"id":99049,"name":"Kineshma","native":null,"lat":"57.43914000","lon":"42.12894000"},{"id":99083,"name":"Kitovo","native":null,"lat":"56.86586000","lon":"41.28246000"},{"id":99129,"name":"Kokhma","native":null,"lat":"56.93487000","lon":"41.09150000"},{"id":99138,"name":"Kolobovo","native":null,"lat":"56.70199000","lon":"41.34173000"},{"id":99172,"name":"Komsomol’sk","native":null,"lat":"57.02913000","lon":"40.37266000"},{"id":99175,"name":"Komsomol’skiy Rayon","native":null,"lat":"57.08333000","lon":"40.41667000"},{"id":99506,"name":"Kuznechikha","native":null,"lat":"57.21607000","lon":"42.33477000"},{"id":99619,"name":"Lezhnevo","native":null,"lat":"56.77508000","lon":"40.89174000"},{"id":99620,"name":"Lezhnevskiy Rayon","native":null,"lat":"56.75000000","lon":"40.91667000"},{"id":99683,"name":"Lukh","native":null,"lat":"57.01242000","lon":"42.25838000"},{"id":99686,"name":"Lukhskiy Rayon","native":null,"lat":"57.00000000","lon":"42.41667000"},{"id":99800,"name":"Markovo","native":null,"lat":"57.01850000","lon":"40.49465000"},{"id":100073,"name":"Navoloki","native":null,"lat":"57.46572000","lon":"41.96344000"},{"id":100109,"name":"Nerl’","native":null,"lat":"56.66285000","lon":"40.38931000"},{"id":100220,"name":"Novo-Talitsy","native":null,"lat":"57.00392000","lon":"40.85936000"},{"id":100281,"name":"Novopistsovo","native":null,"lat":"57.32177000","lon":"41.85310000"},{"id":100333,"name":"Novoye Leushino","native":null,"lat":"56.80732000","lon":"40.51443000"},{"id":100359,"name":"Novyye Gorki","native":null,"lat":"56.72535000","lon":"41.06014000"},{"id":100529,"name":"Palekh","native":null,"lat":"56.80256000","lon":"41.85508000"},{"id":100530,"name":"Palekhskiy Rayon","native":null,"lat":"56.83333000","lon":"42.00000000"},{"id":100643,"name":"Pestyaki","native":null,"lat":"56.70860000","lon":"42.66954000"},{"id":100644,"name":"Pestyakovskiy Rayon","native":null,"lat":"56.58333000","lon":"42.66667000"},{"id":100663,"name":"Petrovskiy","native":null,"lat":"56.64210000","lon":"40.32026000"},{"id":100685,"name":"Pistsovo","native":null,"lat":"57.17904000","lon":"40.52983000"},{"id":100705,"name":"Plës","native":null,"lat":"57.45862000","lon":"41.51579000"},{"id":100846,"name":"Privolzhsk","native":null,"lat":"57.38698000","lon":"41.28666000"},{"id":100850,"name":"Privolzhskiy Rayon","native":null,"lat":"57.33333000","lon":"41.33333000"},{"id":100885,"name":"Puchezh","native":null,"lat":"56.97878000","lon":"43.16761000"},{"id":100886,"name":"Puchezhskiy Rayon","native":null,"lat":"57.00000000","lon":"43.00000000"},{"id":100977,"name":"Rodniki","native":null,"lat":"57.10513000","lon":"41.73048000"},{"id":100980,"name":"Rodnikovskiy Rayon","native":null,"lat":"57.08333000","lon":"41.75000000"},{"id":101135,"name":"Savino","native":null,"lat":"56.59285000","lon":"41.21814000"},{"id":101137,"name":"Savinskiy Rayon","native":null,"lat":"56.58333000","lon":"41.33333000"},{"id":101360,"name":"Shuya","native":null,"lat":"56.84865000","lon":"41.38833000"},{"id":101362,"name":"Shuyskiy Rayon","native":null,"lat":"56.83333000","lon":"41.50000000"},{"id":101568,"name":"Staraya Vichuga","native":null,"lat":"57.26833000","lon":"41.87873000"},{"id":101753,"name":"Talitsy","native":null,"lat":"56.52801000","lon":"42.33230000"},{"id":101847,"name":"Teykovo","native":null,"lat":"56.85796000","lon":"40.53692000"},{"id":101848,"name":"Teykovskiy Rayon","native":null,"lat":"56.75000000","lon":"40.50000000"},{"id":102240,"name":"Verkhnelandekhovskiy Rayon","native":null,"lat":"56.83333000","lon":"42.58333000"},{"id":102254,"name":"Verkhniy Landekh","native":null,"lat":"56.83971000","lon":"42.59730000"},{"id":102300,"name":"Vichuga","native":null,"lat":"57.21276000","lon":"41.93012000"},{"id":102301,"name":"Vichugskiy Rayon","native":null,"lat":"57.25000000","lon":"42.00000000"},{"id":102605,"name":"Yur’yevets","native":null,"lat":"57.32007000","lon":"43.10410000"},{"id":102606,"name":"Yur’yevetskiy Rayon","native":null,"lat":"57.25000000","lon":"42.83333000"},{"id":102612,"name":"Yuzha","native":null,"lat":"56.58306000","lon":"42.01222000"},{"id":102622,"name":"Yuzhskiy Rayon","native":null,"lat":"56.58333000","lon":"42.00000000"},{"id":102652,"name":"Zarechnyy","native":null,"lat":"57.46931000","lon":"42.28431000"},{"id":102678,"name":"Zavolzhsk","native":null,"lat":"57.48230000","lon":"42.13779000"},{"id":102679,"name":"Zavolzhskiy Rayon","native":null,"lat":"57.50000000","lon":"42.08333000"}]},{"id":1835,"name":"Jewish Autonomous Oblast","native":null,"cities":[{"id":97615,"name":"Amurzet","native":null,"lat":"47.69541000","lon":"131.09493000"},{"id":97742,"name":"Babstovo","native":null,"lat":"48.11853000","lon":"132.47913000"},{"id":97932,"name":"Bira","native":null,"lat":"49.00135000","lon":"132.46826000"},{"id":97933,"name":"Birakan","native":null,"lat":"48.99302000","lon":"131.72026000"},{"id":97935,"name":"Birobidzhan","native":null,"lat":"48.79284000","lon":"132.92386000"},{"id":97936,"name":"Birobidzhanskiy Rayon","native":null,"lat":"48.50000000","lon":"132.75000000"},{"id":98760,"name":"Izvestkovyy","native":null,"lat":"48.98043000","lon":"131.55274000"},{"id":98982,"name":"Khingansk","native":null,"lat":"49.12821000","lon":"131.19322000"},{"id":99439,"name":"Kul’dur","native":null,"lat":"49.20465000","lon":"131.63840000"},{"id":99574,"name":"Leninskiy Rayon","native":null,"lat":"48.16667000","lon":"132.25000000"},{"id":99578,"name":"Leninskoye","native":null,"lat":"47.93501000","lon":"132.62025000"},{"id":99660,"name":"Londoko","native":null,"lat":"49.01805000","lon":"131.99142000"},{"id":100385,"name":"Obluchenskiy Rayon","native":null,"lat":"49.00000000","lon":"132.00000000"},{"id":100415,"name":"Oktyabr’skiy Rayon","native":null,"lat":"48.16667000","lon":"131.41667000"},{"id":100813,"name":"Priamurskiy","native":null,"lat":"48.52716000","lon":"134.90359000"},{"id":101411,"name":"Smidovich","native":null,"lat":"48.59647000","lon":"133.80866000"},{"id":101412,"name":"Smidovichskiy Rayon","native":null,"lat":"48.50000000","lon":"134.00000000"},{"id":102349,"name":"Volochayevka Vtoraya","native":null,"lat":"48.56695000","lon":"134.58232000"}]},{"id":1892,"name":"Kabardino-Balkar Republic","native":null,"cities":[{"id":97571,"name":"Aleksandrovskaya","native":null,"lat":"43.48333000","lon":"43.65000000"},{"id":97604,"name":"Altud","native":null,"lat":"43.72194000","lon":"43.86583000"},{"id":97661,"name":"Argudan","native":null,"lat":"43.42139000","lon":"43.91583000"},{"id":97720,"name":"Aushiger","native":null,"lat":"43.39611000","lon":"43.73167000"},{"id":97743,"name":"Babugent","native":null,"lat":"43.27942000","lon":"43.55020000"},{"id":97762,"name":"Baksan","native":null,"lat":"43.68806000","lon":"43.53694000"},{"id":97763,"name":"Baksanenok","native":null,"lat":"43.68972000","lon":"43.65472000"},{"id":97764,"name":"Baksanskiy Rayon","native":null,"lat":"43.75000000","lon":"43.50000000"},{"id":97844,"name":"Belaya Rechka","native":null,"lat":"43.43806000","lon":"43.53500000"},{"id":98099,"name":"Bylym","native":null,"lat":"43.46500000","lon":"43.03889000"},{"id":98132,"name":"Chegem","native":null,"lat":"43.28333000","lon":"43.13333000"},{"id":98133,"name":"Chegem Vtoroy","native":null,"lat":"43.59583000","lon":"43.59944000"},{"id":98146,"name":"Cherekskiy Rayon","native":null,"lat":"43.25000000","lon":"43.50000000"},{"id":98272,"name":"Deyskoye","native":null,"lat":"43.47546000","lon":"44.16182000"},{"id":98348,"name":"Dugulubgey","native":null,"lat":"43.66250000","lon":"43.53694000"},{"id":98390,"name":"El’brus","native":null,"lat":"43.25771000","lon":"42.64435000"},{"id":98391,"name":"El’brusskiy Rayon","native":null,"lat":"43.41667000","lon":"42.83333000"},{"id":98483,"name":"Germenchik","native":null,"lat":"43.59389000","lon":"43.76611000"},{"id":98611,"name":"Gundelen","native":null,"lat":"43.59750000","lon":"43.17194000"},{"id":98713,"name":"Islamey","native":null,"lat":"43.67556000","lon":"43.45500000"},{"id":98777,"name":"Kakhun","native":null,"lat":"43.54306000","lon":"43.87639000"},{"id":98811,"name":"Kamenka","native":null,"lat":"43.53333000","lon":"43.51667000"},{"id":98817,"name":"Kamennomostskoye","native":null,"lat":"43.73722000","lon":"43.05139000"},{"id":98860,"name":"Karagach","native":null,"lat":"43.80528000","lon":"43.77500000"},{"id":98896,"name":"Kashkhatau","native":null,"lat":"43.31848000","lon":"43.60804000"},{"id":98940,"name":"Kenzhe","native":null,"lat":"43.50167000","lon":"43.55722000"},{"id":99080,"name":"Kishpek","native":null,"lat":"43.65500000","lon":"43.64083000"},{"id":99249,"name":"Kotlyarevskaya","native":null,"lat":"43.57344000","lon":"44.06134000"},{"id":99413,"name":"Kuba-Taba","native":null,"lat":"43.77611000","lon":"43.44278000"},{"id":99524,"name":"Kyzburun Pervyy","native":null,"lat":"43.65167000","lon":"43.39500000"},{"id":99559,"name":"Lechinkay","native":null,"lat":"43.56472000","lon":"43.43278000"},{"id":99590,"name":"Leskenskiy rayon","native":null,"lat":"43.35556000","lon":"43.94139000"},{"id":99759,"name":"Malka","native":null,"lat":"43.80389000","lon":"43.32417000"},{"id":99834,"name":"Mayskiy Rayon","native":null,"lat":"43.66667000","lon":"44.08333000"},{"id":100054,"name":"Nal’chik","native":null,"lat":"43.49806000","lon":"43.61889000"},{"id":100061,"name":"Nartan","native":null,"lat":"43.51083000","lon":"43.69944000"},{"id":100062,"name":"Nartkala","native":null,"lat":"43.55750000","lon":"43.85083000"},{"id":100165,"name":"Nizhniy Cherek","native":null,"lat":"43.51306000","lon":"43.91389000"},{"id":100170,"name":"Nizhniy Kurkuzhin","native":null,"lat":"43.74833000","lon":"43.34972000"},{"id":100693,"name":"Planovskoye","native":null,"lat":"43.39846000","lon":"44.19490000"},{"id":100828,"name":"Primalkinskoye","native":null,"lat":"43.74667000","lon":"44.00833000"},{"id":100855,"name":"Prokhladnenskiy Rayon","native":null,"lat":"43.83333000","lon":"44.00000000"},{"id":100856,"name":"Prokhladnyy","native":null,"lat":"43.75741000","lon":"44.02970000"},{"id":100883,"name":"Psygansu","native":null,"lat":"43.41944000","lon":"43.79361000"},{"id":101119,"name":"Sarmakovo","native":null,"lat":"43.74556000","lon":"43.20028000"},{"id":101248,"name":"Shalushka","native":null,"lat":"43.53250000","lon":"43.56611000"},{"id":101446,"name":"Soldatskaya","native":null,"lat":"43.81806000","lon":"43.81583000"},{"id":101604,"name":"Staryy Cherek","native":null,"lat":"43.47139000","lon":"43.84694000"},{"id":101609,"name":"Staryy Urukh","native":null,"lat":"43.34041000","lon":"44.01868000"},{"id":101827,"name":"Terek","native":null,"lat":"43.48333000","lon":"44.13611000"},{"id":101838,"name":"Terskiy Rayon","native":null,"lat":"43.58333000","lon":"44.25000000"},{"id":101840,"name":"Terskol","native":null,"lat":"43.25680000","lon":"42.51481000"},{"id":101997,"name":"Tyrnyauz","native":null,"lat":"43.38278000","lon":"42.91833000"},{"id":102086,"name":"Urukh","native":null,"lat":"43.29335000","lon":"44.02647000"},{"id":102092,"name":"Urvan’","native":null,"lat":"43.49222000","lon":"43.76056000"},{"id":102091,"name":"Urvanskiy Rayon","native":null,"lat":"43.41667000","lon":"43.91667000"},{"id":102253,"name":"Verkhniy Kurkuzhin","native":null,"lat":"43.69556000","lon":"43.27472000"},{"id":102265,"name":"Verkhnyaya Balkariya","native":null,"lat":"43.12545000","lon":"43.45687000"},{"id":102373,"name":"Vol’nyy Aul","native":null,"lat":"43.47861000","lon":"43.62750000"},{"id":102639,"name":"Zalukokoazhe","native":null,"lat":"43.90389000","lon":"43.21556000"},{"id":102687,"name":"Zayukovo","native":null,"lat":"43.61611000","lon":"43.33389000"},{"id":102711,"name":"Zhankhoteko","native":null,"lat":"43.56417000","lon":"43.21056000"},{"id":102724,"name":"Zhemtala","native":null,"lat":"43.28408000","lon":"43.65586000"},{"id":102768,"name":"Zol’skiy Rayon","native":null,"lat":"43.75000000","lon":"42.91667000"}]},{"id":1902,"name":"Kaliningrad","native":null,"cities":[{"id":97755,"name":"Bagrationovsk","native":null,"lat":"54.38714000","lon":"20.64372000"},{"id":97784,"name":"Baltiysk","native":null,"lat":"54.65455000","lon":"19.90929000"},{"id":97989,"name":"Bol'shoe Isakovo","native":null,"lat":"54.71774000","lon":"20.60284000"},{"id":98177,"name":"Chernyakhovsk","native":null,"lat":"54.63345000","lon":"21.81557000"},{"id":98316,"name":"Donskoye","native":null,"lat":"54.93842000","lon":"19.96821000"},{"id":98616,"name":"Gur’yevsk","native":null,"lat":"54.77323000","lon":"20.60521000"},{"id":98618,"name":"Gusev","native":null,"lat":"54.59222000","lon":"22.19972000"},{"id":98624,"name":"Gvardeysk","native":null,"lat":"54.64772000","lon":"21.06513000"},{"id":98787,"name":"Kaliningrad","native":null,"lat":"54.70649000","lon":"20.51095000"},{"id":99013,"name":"Khrabrovo","native":null,"lat":"54.89709000","lon":"20.58035000"},{"id":99356,"name":"Krasnoznamensk","native":null,"lat":"54.94222000","lon":"22.48972000"},{"id":99534,"name":"Ladushkin","native":null,"lat":"54.57025000","lon":"20.17099000"},{"id":99769,"name":"Maloye Isakovo","native":null,"lat":"54.73269000","lon":"20.58413000"},{"id":99777,"name":"Mamonovo","native":null,"lat":"54.46427000","lon":"19.93801000"},{"id":100100,"name":"Neman","native":null,"lat":"55.03111000","lon":"22.02639000"},{"id":100101,"name":"Nemanskiy Rayon","native":null,"lat":"54.91667000","lon":"22.00000000"},{"id":100111,"name":"Nesterov","native":null,"lat":"54.63056000","lon":"22.57139000"},{"id":100113,"name":"Nesterovskiy Rayon","native":null,"lat":"54.58333000","lon":"22.58333000"},{"id":100507,"name":"Otradnoye","native":null,"lat":"54.94114000","lon":"20.11397000"},{"id":100524,"name":"Ozërsk","native":null,"lat":"54.41056000","lon":"22.01167000"},{"id":100520,"name":"Ozerskiy Rayon","native":null,"lat":"54.41667000","lon":"22.00000000"},{"id":100680,"name":"Pionerskiy","native":null,"lat":"54.95083000","lon":"20.22748000"},{"id":100753,"name":"Polessk","native":null,"lat":"54.86205000","lon":"21.10279000"},{"id":100802,"name":"Pravdinsk","native":null,"lat":"54.44289000","lon":"21.01785000"},{"id":100830,"name":"Primorsk","native":null,"lat":"54.73905000","lon":"20.00553000"},{"id":101402,"name":"Slavsk","native":null,"lat":"55.04250000","lon":"21.67704000"},{"id":101403,"name":"Slavskiy Rayon","native":null,"lat":"55.00000000","lon":"21.66667000"},{"id":101504,"name":"Sovetsk","native":null,"lat":"55.08392000","lon":"21.87851000"},{"id":101701,"name":"Svetlogorsk","native":null,"lat":"54.93987000","lon":"20.15479000"},{"id":101705,"name":"Svetlyy","native":null,"lat":"54.67501000","lon":"20.13473000"},{"id":102350,"name":"Volochayevskoye","native":null,"lat":"54.70034000","lon":"20.21966000"},{"id":102456,"name":"Vzmorye","native":null,"lat":"54.69606000","lon":"20.23613000"},{"id":102486,"name":"Yantarnyy","native":null,"lat":"54.87102000","lon":"19.94016000"},{"id":102619,"name":"Yuzhnyy","native":null,"lat":"54.54837000","lon":"20.59843000"},{"id":102699,"name":"Zelenogradsk","native":null,"lat":"54.95893000","lon":"20.47668000"},{"id":102718,"name":"Zheleznodorozhnyy","native":null,"lat":"54.36013000","lon":"21.30597000"},{"id":102758,"name":"Znamensk","native":null,"lat":"54.61403000","lon":"21.22722000"}]},{"id":1844,"name":"Kaluga Oblast","native":null,"cities":[{"id":97746,"name":"Babynino","native":null,"lat":"54.39385000","lon":"35.77013000"},{"id":97747,"name":"Babyninskiy Rayon","native":null,"lat":"54.41667000","lon":"35.75000000"},{"id":97766,"name":"Balabanovo","native":null,"lat":"55.18161000","lon":"36.66060000"},{"id":97801,"name":"Baryatino","native":null,"lat":"54.31206000","lon":"34.52096000"},{"id":97802,"name":"Baryatinskiy Rayon","native":null,"lat":"54.33333000","lon":"34.58333000"},{"id":97866,"name":"Belousovo","native":null,"lat":"55.09499000","lon":"36.67320000"},{"id":97916,"name":"Betlitsa","native":null,"lat":"54.00946000","lon":"33.95875000"},{"id":98040,"name":"Borovsk","native":null,"lat":"55.20639000","lon":"36.48611000"},{"id":98042,"name":"Borovskiy Rayon","native":null,"lat":"55.16667000","lon":"36.50000000"},{"id":98268,"name":"Deshovki","native":null,"lat":"54.00333000","lon":"35.78771000"},{"id":98270,"name":"Detchino","native":null,"lat":"54.80923000","lon":"36.30750000"},{"id":98354,"name":"Duminichi","native":null,"lat":"53.93446000","lon":"35.10993000"},{"id":98355,"name":"Duminichskiy Rayon","native":null,"lat":"53.91667000","lon":"35.00000000"},{"id":98359,"name":"Dvortsy","native":null,"lat":"54.61677000","lon":"35.99740000"},{"id":98369,"name":"Dzerzhinskiy Rayon","native":null,"lat":"54.75000000","lon":"35.75000000"},{"id":98422,"name":"Ferzikovo","native":null,"lat":"54.51913000","lon":"36.75671000"},{"id":98423,"name":"Ferzikovskiy Rayon","native":null,"lat":"54.58333000","lon":"36.58333000"},{"id":98755,"name":"Iznoski","native":null,"lat":"54.98806000","lon":"35.31083000"},{"id":98756,"name":"Iznoskovskiy rayon","native":null,"lat":"54.99026000","lon":"35.30961000"},{"id":98802,"name":"Kaluga","native":null,"lat":"54.52930000","lon":"36.27542000"},{"id":99025,"name":"Khvastovichi","native":null,"lat":"53.46942000","lon":"35.09409000"},{"id":99026,"name":"Khvastovichskiy Rayon","native":null,"lat":"53.50000000","lon":"35.16667000"},{"id":99060,"name":"Kirov","native":null,"lat":"54.06686000","lon":"34.29955000"},{"id":99072,"name":"Kirovskiy Rayon","native":null,"lat":"54.08333000","lon":"34.41667000"},{"id":99183,"name":"Kondrovo","native":null,"lat":"54.80639000","lon":"35.92778000"},{"id":99260,"name":"Kozel’sk","native":null,"lat":"54.03746000","lon":"35.77159000"},{"id":99261,"name":"Kozel’skiy Rayon","native":null,"lat":"54.00000000","lon":"35.83333000"},{"id":99388,"name":"Kremenki","native":null,"lat":"54.88626000","lon":"37.11955000"},{"id":99421,"name":"Kudinovo","native":null,"lat":"54.99939000","lon":"36.25331000"},{"id":99472,"name":"Kurovskoye","native":null,"lat":"54.54299000","lon":"36.00262000"},{"id":99495,"name":"Kuybyshevskiy Rayon","native":null,"lat":"54.08333000","lon":"33.91667000"},{"id":99724,"name":"Lyudinovo","native":null,"lat":"53.86639000","lon":"34.44778000"},{"id":99725,"name":"Lyudinovskiy Rayon","native":null,"lat":"53.91667000","lon":"34.50000000"},{"id":99767,"name":"Maloyaroslavets","native":null,"lat":"55.01457000","lon":"36.47185000"},{"id":99768,"name":"Maloyaroslavetskiy Rayon","native":null,"lat":"54.91667000","lon":"36.50000000"},{"id":99850,"name":"Medyn’","native":null,"lat":"54.96917000","lon":"35.85861000"},{"id":99849,"name":"Medynskiy Rayon","native":null,"lat":"55.08333000","lon":"35.83333000"},{"id":99869,"name":"Meshchovsk","native":null,"lat":"54.32444000","lon":"35.28083000"},{"id":99870,"name":"Meshchovskiy Rayon","native":null,"lat":"54.33333000","lon":"35.41667000"},{"id":99970,"name":"Mosal’sk","native":null,"lat":"54.48806000","lon":"34.98167000"},{"id":99971,"name":"Mosal’skiy Rayon","native":null,"lat":"54.58333000","lon":"34.83333000"},{"id":99991,"name":"Mstikhino","native":null,"lat":"54.55947000","lon":"36.12777000"},{"id":100027,"name":"Myatlevo","native":null,"lat":"54.89693000","lon":"35.67619000"},{"id":100132,"name":"Nikola-Lenivets","native":null,"lat":"54.74943000","lon":"35.60133000"},{"id":100386,"name":"Obninsk","native":null,"lat":"55.09681000","lon":"36.61006000"},{"id":100601,"name":"Peremyshl’","native":null,"lat":"54.26313000","lon":"36.16063000"},{"id":100602,"name":"Peremyshl’skiy Rayon","native":null,"lat":"54.25000000","lon":"36.08333000"},{"id":100756,"name":"Polotnyanyy Zavod","native":null,"lat":"54.72139000","lon":"35.96611000"},{"id":100912,"name":"Pyatovskiy","native":null,"lat":"54.68908000","lon":"36.05634000"},{"id":101178,"name":"Seredeyskiy","native":null,"lat":"54.05071000","lon":"35.23183000"},{"id":101482,"name":"Sosenskiy","native":null,"lat":"54.05899000","lon":"35.96228000"},{"id":101522,"name":"Spas-Demensk","native":null,"lat":"54.41222000","lon":"34.02257000"},{"id":101523,"name":"Spas-Demenskiy Rayon","native":null,"lat":"54.41667000","lon":"34.00000000"},{"id":101649,"name":"Sukhinichi","native":null,"lat":"54.09989000","lon":"35.34254000"},{"id":101650,"name":"Sukhinichskiy Rayon","native":null,"lat":"54.08333000","lon":"35.33333000"},{"id":101782,"name":"Tarusa","native":null,"lat":"54.72436000","lon":"37.17272000"},{"id":101783,"name":"Tarusskiy Rayon","native":null,"lat":"54.66667000","lon":"37.00000000"},{"id":101908,"name":"Tovarkovo","native":null,"lat":"54.67617000","lon":"35.93860000"},{"id":102054,"name":"Ul’yanovskiy Rayon","native":null,"lat":"53.66667000","lon":"35.66667000"},{"id":102385,"name":"Vorotynsk","native":null,"lat":"54.42828000","lon":"36.04646000"},{"id":102445,"name":"Vysokinichi","native":null,"lat":"54.90928000","lon":"36.93148000"},{"id":102568,"name":"Yermolino","native":null,"lat":"55.19489000","lon":"36.59513000"},{"id":102590,"name":"Yukhnov","native":null,"lat":"54.74444000","lon":"35.22972000"},{"id":102591,"name":"Yukhnovskiy Rayon","native":null,"lat":"54.75000000","lon":"35.25000000"},{"id":102657,"name":"Zarech’ye","native":null,"lat":"53.73078000","lon":"35.63246000"},{"id":102731,"name":"Zhiletovo","native":null,"lat":"54.69216000","lon":"36.02225000"},{"id":102738,"name":"Zhizdra","native":null,"lat":"53.74596000","lon":"34.73951000"},{"id":102739,"name":"Zhizdrinskiy Rayon","native":null,"lat":"53.66667000","lon":"34.75000000"},{"id":102742,"name":"Zhukovo","native":null,"lat":"55.03178000","lon":"36.74402000"},{"id":102745,"name":"Zhukovskiy Rayon","native":null,"lat":"55.08333000","lon":"36.75000000"}]},{"id":1865,"name":"Kamchatka Krai","native":null,"cities":[{"id":97585,"name":"Aleutskiy Rayon","native":null,"lat":"55.21667000","lon":"165.98333000"},{"id":97715,"name":"Atlasovo","native":null,"lat":"55.60650000","lon":"159.64266000"},{"id":98100,"name":"Bystrinskiy Rayon","native":null,"lat":"56.00000000","lon":"158.50000000"},{"id":98404,"name":"Esso","native":null,"lat":"55.92738000","lon":"158.70708000"},{"id":98863,"name":"Karaginsky District","native":null,"lat":"58.00000000","lon":"159.83333000"},{"id":99112,"name":"Klyuchi","native":null,"lat":"56.32035000","lon":"160.84541000"},{"id":99270,"name":"Kozyrëvsk","native":null,"lat":"56.04860000","lon":"159.87150000"},{"id":99914,"name":"Mil’kovo","native":null,"lat":"54.69610000","lon":"158.62067000"},{"id":99915,"name":"Mil’kovskiy Rayon","native":null,"lat":"55.00000000","lon":"159.00000000"},{"id":100430,"name":"Olyutorskiy Rayon","native":null,"lat":"61.00000000","lon":"169.00000000"},{"id":100489,"name":"Ossora","native":null,"lat":"59.24781000","lon":"163.07034000"},{"id":100518,"name":"Ozernovskiy","native":null,"lat":"51.49604000","lon":"156.50102000"},{"id":100527,"name":"Palana","native":null,"lat":"59.08384000","lon":"159.95630000"},{"id":100543,"name":"Paratunka","native":null,"lat":"52.96202000","lon":"158.25723000"},{"id":100596,"name":"Penzhinskiy Rayon","native":null,"lat":"63.00000000","lon":"167.00000000"},{"id":100652,"name":"Petropavlovsk-Kamchatsky","native":null,"lat":"53.04444000","lon":"158.65076000"},{"id":101428,"name":"Sobolevskiy Rayon","native":null,"lat":"54.58333000","lon":"156.50000000"},{"id":101849,"name":"Tigil’","native":null,"lat":"57.75979000","lon":"158.68161000"},{"id":101850,"name":"Tigil’skiy Rayon","native":null,"lat":"57.76046000","lon":"158.68687000"},{"id":101856,"name":"Tilichiki","native":null,"lat":"60.42795000","lon":"166.05764000"},{"id":102116,"name":"Ust’-Bol’sheretskiy Rayon","native":null,"lat":"52.66667000","lon":"157.00000000"},{"id":102125,"name":"Ust’-Kamchatsk Staryy","native":null,"lat":"56.22778000","lon":"162.47778000"},{"id":102126,"name":"Ust’-Kamchatskiy Rayon","native":null,"lat":"56.00000000","lon":"161.00000000"},{"id":102308,"name":"Vilyuchinsk","native":null,"lat":"52.93110000","lon":"158.40469000"},{"id":102544,"name":"Yelizovo","native":null,"lat":"53.18909000","lon":"158.38135000"},{"id":102545,"name":"Yelizovskiy Rayon","native":null,"lat":"53.66667000","lon":"159.00000000"}]},{"id":1869,"name":"Karachay-Cherkess Republic","native":null,"cities":[{"id":97505,"name":"Adyge-Khabl’","native":null,"lat":"44.33434000","lon":"41.93922000"},{"id":97588,"name":"Ali-Berdukovskiy","native":null,"lat":"43.98952000","lon":"41.74212000"},{"id":97911,"name":"Besleney","native":null,"lat":"44.24050000","lon":"41.73870000"},{"id":98160,"name":"Cherkessk","native":null,"lat":"44.22333000","lon":"42.05778000"},{"id":98328,"name":"Druzhba","native":null,"lat":"44.19530000","lon":"42.01700000"},{"id":98638,"name":"Ikon-Khalk","native":null,"lat":"44.30510000","lon":"41.91420000"},{"id":98714,"name":"Ispravnaya","native":null,"lat":"44.06820000","lon":"41.61020000"},{"id":98857,"name":"Karachayevsk","native":null,"lat":"43.77399000","lon":"41.91419000"},{"id":98858,"name":"Karachayevskiy Rayon","native":null,"lat":"43.50000000","lon":"42.00000000"},{"id":98873,"name":"Kardonikskaya","native":null,"lat":"43.86577000","lon":"41.71432000"},{"id":98914,"name":"Kavkazskiy","native":null,"lat":"44.26720000","lon":"42.23470000"},{"id":98952,"name":"Khabez","native":null,"lat":"44.04340000","lon":"41.77200000"},{"id":99366,"name":"Krasnyy Kurgan","native":null,"lat":"43.94222000","lon":"42.61083000"},{"id":99443,"name":"Kumysh","native":null,"lat":"43.88334000","lon":"41.89323000"},{"id":99458,"name":"Kurdzhinovo","native":null,"lat":"43.98838000","lon":"40.95519000"},{"id":99528,"name":"Kyzyl-Oktyabr’skiy","native":null,"lat":"43.82570000","lon":"41.78605000"},{"id":99763,"name":"Malokarachayevskiy Rayon","native":null,"lat":"43.75000000","lon":"42.50000000"},{"id":99841,"name":"Mednogorskiy","native":null,"lat":"43.91780000","lon":"41.18255000"},{"id":100162,"name":"Nizhniy Arkhyz","native":null,"lat":"43.67817000","lon":"41.45977000"},{"id":100344,"name":"Novyy Karachay","native":null,"lat":"43.82076000","lon":"41.90322000"},{"id":100460,"name":"Ordzhonikidzevskiy","native":null,"lat":"43.84233000","lon":"41.89636000"},{"id":100624,"name":"Pervomayskoye","native":null,"lat":"43.93847000","lon":"42.47600000"},{"id":100805,"name":"Pravokubanskiy","native":null,"lat":"43.91721000","lon":"41.88413000"},{"id":100809,"name":"Pregradnaya","native":null,"lat":"43.95395000","lon":"41.18910000"},{"id":100825,"name":"Prikubanskiy Rayon","native":null,"lat":"44.08333000","lon":"42.00000000"},{"id":100884,"name":"Psyzh","native":null,"lat":"44.23306000","lon":"42.01833000"},{"id":101125,"name":"Sary-Tyuz","native":null,"lat":"43.90181000","lon":"41.89523000"},{"id":101623,"name":"Storozhevaya","native":null,"lat":"43.87886000","lon":"41.45143000"},{"id":101830,"name":"Tereze","native":null,"lat":"43.93608000","lon":"42.44340000"},{"id":102014,"name":"Uchkeken","native":null,"lat":"43.93778000","lon":"42.51167000"},{"id":102016,"name":"Uchkulan","native":null,"lat":"43.45705000","lon":"42.09643000"},{"id":102019,"name":"Udarnyy","native":null,"lat":"44.34917000","lon":"42.50528000"},{"id":102119,"name":"Ust’-Dzheguta","native":null,"lat":"44.08340000","lon":"41.97630000"},{"id":102689,"name":"Zelenchukskaya","native":null,"lat":"43.85804000","lon":"41.58940000"}]},{"id":1897,"name":"Kemerovo Oblast","native":null,"cities":[{"id":97477,"name":"Abagur","native":null,"lat":"53.73080000","lon":"87.25260000"},{"id":97646,"name":"Anzhero-Sudzhensk","native":null,"lat":"56.08100000","lon":"86.02850000"},{"id":97685,"name":"Artyshta","native":null,"lat":"54.12220000","lon":"86.29090000"},{"id":97748,"name":"Bachatskiy","native":null,"lat":"54.29270000","lon":"86.12850000"},{"id":97806,"name":"Barzas","native":null,"lat":"55.72912000","lon":"86.32233000"},{"id":97852,"name":"Belogorsk","native":null,"lat":"55.01778000","lon":"88.48972000"},{"id":97867,"name":"Belovo","native":null,"lat":"54.41650000","lon":"86.29760000"},{"id":97907,"name":"Berëzovskiy","native":null,"lat":"55.60000000","lon":"86.20000000"},{"id":98039,"name":"Borovoy","native":null,"lat":"55.43333000","lon":"86.08333000"},{"id":98199,"name":"Chistogorskiy","native":null,"lat":"53.98350000","lon":"87.38430000"},{"id":98576,"name":"Gramoteino","native":null,"lat":"54.53680000","lon":"86.38390000"},{"id":98617,"name":"Gur’yevsk","native":null,"lat":"54.28333000","lon":"85.93333000"},{"id":98677,"name":"Inskoy","native":null,"lat":"54.42970000","lon":"86.44000000"},{"id":98723,"name":"Itatskiy","native":null,"lat":"56.07000000","lon":"89.03694000"},{"id":98749,"name":"Izhmorskiy","native":null,"lat":"56.19239000","lon":"86.64161000"},{"id":98799,"name":"Kaltan","native":null,"lat":"53.53470000","lon":"87.24570000"},{"id":98862,"name":"Karagayla","native":null,"lat":"54.17200000","lon":"86.55210000"},{"id":98921,"name":"Kaz","native":null,"lat":"52.91130000","lon":"87.31050000"},{"id":98933,"name":"Kedrovka","native":null,"lat":"55.53333000","lon":"86.05000000"},{"id":98937,"name":"Kemerovo","native":null,"lat":"55.33333000","lon":"86.08333000"},{"id":99078,"name":"Kiselëvsk","native":null,"lat":"53.99000000","lon":"86.66210000"},{"id":99272,"name":"Krapivinskiy","native":null,"lat":"54.99920000","lon":"86.81330000"},{"id":99298,"name":"Krasnobrodskiy","native":null,"lat":"54.15810000","lon":"86.44860000"},{"id":99307,"name":"Krasnogorskiy","native":null,"lat":"54.54710000","lon":"86.28100000"},{"id":99352,"name":"Krasnoye","native":null,"lat":"54.60680000","lon":"85.38990000"},{"id":99499,"name":"Kuzedeyevo","native":null,"lat":"53.33080000","lon":"87.20190000"},{"id":99569,"name":"Leninsk-Kuznetskiy Rayon","native":null,"lat":"54.66667000","lon":"86.00000000"},{"id":99570,"name":"Leninsk-Kuznetsky","native":null,"lat":"54.65670000","lon":"86.17370000"},{"id":99639,"name":"Listvyagi","native":null,"lat":"53.67720000","lon":"86.95100000"},{"id":99795,"name":"Mariinsk","native":null,"lat":"56.21389000","lon":"87.74722000"},{"id":99880,"name":"Mezhdurechensk","native":null,"lat":"53.69417000","lon":"88.06028000"},{"id":100003,"name":"Mundybash","native":null,"lat":"53.21100000","lon":"87.29830000"},{"id":100033,"name":"Myski","native":null,"lat":"53.70900000","lon":"87.80140000"},{"id":100131,"name":"Nikitinskiy","native":null,"lat":"54.58450000","lon":"86.01150000"},{"id":100257,"name":"Novokuznetsk","native":null,"lat":"53.75570000","lon":"87.10990000"},{"id":100258,"name":"Novokuznetskiy Rayon","native":null,"lat":"53.75000000","lon":"87.08333000"},{"id":100279,"name":"Novopesterevo","native":null,"lat":"54.44290000","lon":"85.74010000"},{"id":100487,"name":"Osinniki","native":null,"lat":"53.62390000","lon":"87.35980000"},{"id":100679,"name":"Pioner","native":null,"lat":"55.31660000","lon":"85.95080000"},{"id":100703,"name":"Plotnikovo","native":null,"lat":"55.02472000","lon":"85.94361000"},{"id":100764,"name":"Polysayevo","native":null,"lat":"54.60120000","lon":"86.24590000"},{"id":100842,"name":"Pritomskiy","native":null,"lat":"53.77240000","lon":"87.60820000"},{"id":100859,"name":"Prokop’yevsk","native":null,"lat":"53.90590000","lon":"86.71900000"},{"id":100860,"name":"Prokop’yevskiy Rayon","native":null,"lat":"54.00000000","lon":"86.66667000"},{"id":100866,"name":"Promyshlennaya","native":null,"lat":"54.91590000","lon":"85.63850000"},{"id":100867,"name":"Promyshlennovskiy","native":null,"lat":"55.48333000","lon":"86.20000000"},{"id":101023,"name":"Rudnichnyy","native":null,"lat":"56.08469000","lon":"86.24988000"},{"id":101077,"name":"Salair","native":null,"lat":"54.23120000","lon":"85.79720000"},{"id":101305,"name":"Sheregesh","native":null,"lat":"52.92090000","lon":"87.98690000"},{"id":101490,"name":"Sosnovka","native":null,"lat":"53.66760000","lon":"87.15270000"},{"id":101527,"name":"Spassk","native":null,"lat":"52.74700000","lon":"87.75450000"},{"id":101572,"name":"Starobachaty","native":null,"lat":"54.24250000","lon":"86.20720000"},{"id":101590,"name":"Staropesterevo","native":null,"lat":"54.50010000","lon":"86.40940000"},{"id":101684,"name":"Suslovo","native":null,"lat":"56.21667000","lon":"88.11667000"},{"id":101788,"name":"Tashtagol","native":null,"lat":"52.76570000","lon":"87.88940000"},{"id":101789,"name":"Tashtagol’skiy Rayon","native":null,"lat":"52.78333000","lon":"87.88333000"},{"id":101802,"name":"Tayga","native":null,"lat":"56.06402000","lon":"85.62238000"},{"id":101806,"name":"Tayzhina","native":null,"lat":"53.66790000","lon":"87.43620000"},{"id":101815,"name":"Temirtau","native":null,"lat":"53.13770000","lon":"87.45380000"},{"id":101864,"name":"Tisul’","native":null,"lat":"55.76173000","lon":"88.31228000"},{"id":101894,"name":"Topki","native":null,"lat":"55.27690000","lon":"85.61630000"},{"id":101930,"name":"Trudarmeyskiy","native":null,"lat":"54.13200000","lon":"86.40980000"},{"id":101990,"name":"Tyazhinskiy","native":null,"lat":"56.11607000","lon":"88.52279000"},{"id":102085,"name":"Ursk","native":null,"lat":"54.45417000","lon":"85.40028000"},{"id":102230,"name":"Verkh-Chebula","native":null,"lat":"56.03062000","lon":"87.62215000"},{"id":102463,"name":"Yagunovo","native":null,"lat":"55.24645000","lon":"86.01097000"},{"id":102464,"name":"Yagunovskiy","native":null,"lat":"55.28280000","lon":"85.97800000"},{"id":102510,"name":"Yashkino","native":null,"lat":"55.87360000","lon":"85.42650000"},{"id":102517,"name":"Yaya","native":null,"lat":"56.20600000","lon":"86.44000000"},{"id":102593,"name":"Yurga","native":null,"lat":"55.72306000","lon":"84.88611000"},{"id":102595,"name":"Yurginskiy Rayon","native":null,"lat":"55.75000000","lon":"84.75000000"},{"id":102697,"name":"Zelenogorskiy","native":null,"lat":"55.03333000","lon":"87.00000000"}]},{"id":1873,"name":"Khabarovsk Krai","native":null,"cities":[{"id":97614,"name":"Amursk","native":null,"lat":"50.23685000","lon":"136.88136000"},{"id":97727,"name":"Ayan","native":null,"lat":"56.46314000","lon":"138.17777000"},{"id":97908,"name":"Berëzovyy","native":null,"lat":"51.66897000","lon":"135.66584000"},{"id":97926,"name":"Bikin","native":null,"lat":"46.81293000","lon":"134.25012000"},