[{"id":261,"name":"Eastern Province","native":null,"cities":[{"id":102798,"name":"Kibungo","native":null,"lat":"-2.15970000","lon":"30.54270000"},{"id":102803,"name":"Rwamagana","native":null,"lat":"-1.94870000","lon":"30.43470000"}]},{"id":262,"name":"Kigali district","native":null,"cities":[{"id":102800,"name":"Kigali","native":null,"lat":"-1.94995000","lon":"30.05885000"}]},{"id":263,"name":"Northern Province","native":null,"cities":[{"id":102793,"name":"Byumba","native":null,"lat":"-1.57630000","lon":"30.06750000"},{"id":102801,"name":"Musanze","native":null,"lat":"-1.49984000","lon":"29.63497000"}]},{"id":259,"name":"Southern Province","native":null,"cities":[{"id":102792,"name":"Butare","native":null,"lat":"-2.59667000","lon":"29.73944000"},{"id":102795,"name":"Eglise Catholique Centrale GIKO","native":null,"lat":"-1.93653000","lon":"29.80610000"},{"id":102797,"name":"Gitarama","native":null,"lat":"-2.07444000","lon":"29.75667000"},{"id":102802,"name":"Nzega","native":null,"lat":"-2.47900000","lon":"29.55640000"}]},{"id":260,"name":"Western Province","native":null,"cities":[{"id":102794,"name":"Cyangugu","native":null,"lat":"-2.48460000","lon":"28.90750000"},{"id":102796,"name":"Gisenyi","native":null,"lat":"-1.70278000","lon":"29.25639000"},{"id":102799,"name":"Kibuye","native":null,"lat":"-2.06028000","lon":"29.34778000"}]}]