[{"name":"Blekinge","native":null,"cities":[{"name":"Bräkne-Hoby","native":null,"lat":"56.23333000","lon":"15.11667000"},{"name":"Hällevik","native":null,"lat":"56.01667000","lon":"14.70000000"},{"name":"Hasslö","native":null,"lat":"56.11667000","lon":"15.48333000"},{"name":"Jämjö","native":null,"lat":"56.19187000","lon":"15.84115000"},{"name":"Jämshög","native":null,"lat":"56.23333000","lon":"14.51667000"},{"name":"Kallinge","native":null,"lat":"56.24841000","lon":"15.28721000"},{"name":"Karlshamn","native":null,"lat":"56.17060000","lon":"14.86188000"},{"name":"Karlskrona","native":null,"lat":"56.16156000","lon":"15.58661000"},{"name":"Mjällby","native":null,"lat":"56.05000000","lon":"14.68333000"},{"name":"Mörrum","native":null,"lat":"56.19281000","lon":"14.74739000"},{"name":"Nättraby","native":null,"lat":"56.20000000","lon":"15.51667000"},{"name":"Olofström","native":null,"lat":"56.27730000","lon":"14.53402000"},{"name":"Rödeby","native":null,"lat":"56.26078000","lon":"15.62143000"},{"name":"Ronneby","native":null,"lat":"56.20999000","lon":"15.27602000"},{"name":"Sölvesborg","native":null,"lat":"56.05205000","lon":"14.57525000"},{"name":"Sturkö","native":null,"lat":"56.08333000","lon":"15.70000000"},{"name":"Svängsta","native":null,"lat":"56.26667000","lon":"14.76667000"}]},{"name":"Dalarna County","native":null,"cities":[{"name":"Abborrberget","native":null,"lat":"60.15000000","lon":"14.80000000"},{"name":"Älvdalen","native":null,"lat":"61.22774000","lon":"14.03935000"},{"name":"Avesta","native":null,"lat":"60.14274000","lon":"16.16295000"},{"name":"Bjursås","native":null,"lat":"60.73726000","lon":"15.45291000"},{"name":"Borlänge","native":null,"lat":"60.48580000","lon":"15.43714000"},{"name":"Brunna","native":null,"lat":"60.26255000","lon":"16.01034000"},{"name":"Djurås","native":null,"lat":"60.56061000","lon":"15.13281000"},{"name":"Enbacka","native":null,"lat":"60.40993000","lon":"15.59575000"},{"name":"Falun","native":null,"lat":"60.60357000","lon":"15.62597000"},{"name":"Gagnef","native":null,"lat":"60.59856000","lon":"15.07745000"},{"name":"Grängesberg","native":null,"lat":"60.07465000","lon":"15.00784000"},{"name":"Grycksbo","native":null,"lat":"60.68751000","lon":"15.48507000"},{"name":"Hedemora","native":null,"lat":"60.27973000","lon":"15.98855000"},{"name":"Horndal","native":null,"lat":"60.30000000","lon":"16.41667000"},{"name":"Insjön","native":null,"lat":"60.67688000","lon":"15.09487000"},{"name":"Järna","native":null,"lat":"60.53333000","lon":"14.36667000"},{"name":"Krylbo","native":null,"lat":"60.13333000","lon":"16.21667000"},{"name":"Långshyttan","native":null,"lat":"60.45238000","lon":"16.03831000"},{"name":"Leksand","native":null,"lat":"60.73030000","lon":"14.99994000"},{"name":"Ludvika","native":null,"lat":"60.14959000","lon":"15.18776000"},{"name":"Malung","native":null,"lat":"60.68329000","lon":"13.71542000"},{"name":"Mockfjärd","native":null,"lat":"60.50000000","lon":"14.96667000"},{"name":"Mora","native":null,"lat":"61.00704000","lon":"14.54316000"},{"name":"Nyhammar","native":null,"lat":"60.28333000","lon":"14.96667000"},{"name":"Ornäs","native":null,"lat":"60.50944000","lon":"15.54128000"},{"name":"Orsa","native":null,"lat":"61.12034000","lon":"14.61550000"},{"name":"Rättvik","native":null,"lat":"60.88632000","lon":"15.11787000"},{"name":"Romme","native":null,"lat":"60.43333000","lon":"15.50000000"},{"name":"Säter","native":null,"lat":"60.34778000","lon":"15.75051000"},{"name":"Siljansnäs","native":null,"lat":"60.78333000","lon":"14.85000000"},{"name":"Smedby","native":null,"lat":"60.70000000","lon":"15.05000000"},{"name":"Smedjebacken","native":null,"lat":"60.14181000","lon":"15.41416000"},{"name":"Svärdsjö","native":null,"lat":"60.74022000","lon":"15.90173000"},{"name":"Vansbro","native":null,"lat":"60.50893000","lon":"14.22458000"},{"name":"Vikarbyn","native":null,"lat":"60.91667000","lon":"15.01667000"}]},{"name":"Gävleborg County","native":null,"cities":[{"name":"Alfta","native":null,"lat":"61.34675000","lon":"16.07499000"},{"name":"Arbrå","native":null,"lat":"61.46667000","lon":"16.38333000"},{"name":"Årsunda","native":null,"lat":"60.51644000","lon":"16.73436000"},{"name":"Bergby","native":null,"lat":"60.92931000","lon":"17.04194000"},{"name":"Bergsjö","native":null,"lat":"61.98253000","lon":"17.06368000"},{"name":"Bollnäs","native":null,"lat":"61.34817000","lon":"16.39464000"},{"name":"Delsbo","native":null,"lat":"61.80104000","lon":"16.55571000"},{"name":"Edsbyn","native":null,"lat":"61.37692000","lon":"15.81747000"},{"name":"Färila","native":null,"lat":"61.80011000","lon":"15.84422000"},{"name":"Forsbacka","native":null,"lat":"60.61667000","lon":"16.88333000"},{"name":"Gävle","native":null,"lat":"60.67452000","lon":"17.14174000"},{"name":"Gnarp","native":null,"lat":"62.04874000","lon":"17.25858000"},{"name":"Hedesunda","native":null,"lat":"60.40000000","lon":"17.00000000"},{"name":"Hofors","native":null,"lat":"60.54573000","lon":"16.28668000"},{"name":"Hudiksvall","native":null,"lat":"61.72744000","lon":"17.10558000"},{"name":"Iggesund","native":null,"lat":"61.64219000","lon":"17.07477000"},{"name":"Järbo","native":null,"lat":"60.71667000","lon":"16.60000000"},{"name":"Järvsö","native":null,"lat":"61.71667000","lon":"16.16667000"},{"name":"Kilafors","native":null,"lat":"61.23333000","lon":"16.56667000"},{"name":"Ljusdal","native":null,"lat":"61.82883000","lon":"16.09126000"},{"name":"Ljusne","native":null,"lat":"61.21170000","lon":"17.12790000"},{"name":"Ockelbo","native":null,"lat":"60.89120000","lon":"16.71846000"},{"name":"Sandarne","native":null,"lat":"61.25893000","lon":"17.15284000"},{"name":"Sandviken","native":null,"lat":"60.61667000","lon":"16.76667000"},{"name":"Söderhamn","native":null,"lat":"61.30373000","lon":"17.05921000"},{"name":"Sörforsa","native":null,"lat":"61.73333000","lon":"16.98333000"},{"name":"Storvik","native":null,"lat":"60.58333000","lon":"16.53333000"},{"name":"Valbo","native":null,"lat":"60.65000000","lon":"17.03333000"}]},{"name":"Gotland County","native":null,"cities":[{"name":"Gotland","native":null,"lat":"57.50000000","lon":"18.50000000"},{"name":"Hemse","native":null,"lat":"57.23788000","lon":"18.37443000"},{"name":"Klintehamn","native":null,"lat":"57.38667000","lon":"18.20371000"},{"name":"Vibble","native":null,"lat":"57.60452000","lon":"18.25601000"},{"name":"Visby","native":null,"lat":"57.64089000","lon":"18.29602000"}]},{"name":"Halland County","native":null,"cities":[{"name":"Åled","native":null,"lat":"56.75000000","lon":"12.93333000"},{"name":"Åsa","native":null,"lat":"57.35000000","lon":"12.11667000"},{"name":"Bua","native":null,"lat":"57.23780000","lon":"12.12187000"},{"name":"Falkenberg","native":null,"lat":"56.90552000","lon":"12.49118000"},{"name":"Fjärås kyrkby","native":null,"lat":"57.45913000","lon":"12.17508000"},{"name":"Frillesås","native":null,"lat":"57.31667000","lon":"12.16667000"},{"name":"Frösakull","native":null,"lat":"56.68333000","lon":"12.73333000"},{"name":"Fyllinge","native":null,"lat":"56.65000000","lon":"12.91667000"},{"name":"Getinge","native":null,"lat":"56.81667000","lon":"12.73333000"},{"name":"Glommen","native":null,"lat":"56.93333000","lon":"12.35000000"},{"name":"Gullbrandstorp","native":null,"lat":"56.70000000","lon":"12.73333000"},{"name":"Halmstad","native":null,"lat":"56.67446000","lon":"12.85676000"},{"name":"Harplinge","native":null,"lat":"56.74491000","lon":"12.72758000"},{"name":"Haverdal","native":null,"lat":"56.72222000","lon":"12.67194000"},{"name":"Hyltebruk","native":null,"lat":"56.99892000","lon":"13.23958000"},{"name":"Knäred","native":null,"lat":"56.51861000","lon":"13.32423000"},{"name":"Kungsbacka","native":null,"lat":"57.48719000","lon":"12.07612000"},{"name":"Laholm","native":null,"lat":"56.51207000","lon":"13.04371000"},{"name":"Mellbystrand","native":null,"lat":"56.48561000","lon":"12.93958000"},{"name":"Mjällby","native":null,"lat":"56.68333000","lon":"12.76667000"},{"name":"Onsala","native":null,"lat":"57.42531000","lon":"12.02903000"},{"name":"Oskarström","native":null,"lat":"56.80000000","lon":"12.96667000"},{"name":"Särö","native":null,"lat":"57.50577000","lon":"11.93210000"},{"name":"Skrea","native":null,"lat":"56.88333000","lon":"12.56667000"},{"name":"Steninge","native":null,"lat":"56.76900000","lon":"12.63034000"},{"name":"Torup","native":null,"lat":"56.95663000","lon":"13.07725000"},{"name":"Träslövsläge","native":null,"lat":"57.05417000","lon":"12.27899000"},{"name":"Trönninge","native":null,"lat":"56.61667000","lon":"12.93333000"},{"name":"Tvååker","native":null,"lat":"57.04147000","lon":"12.39950000"},{"name":"Vallda","native":null,"lat":"57.47750000","lon":"12.00139000"},{"name":"Varberg","native":null,"lat":"57.10557000","lon":"12.25078000"},{"name":"Västra Hagen","native":null,"lat":"57.42444000","lon":"11.93583000"},{"name":"Veddige","native":null,"lat":"57.26591000","lon":"12.33220000"},{"name":"Veinge","native":null,"lat":"56.55000000","lon":"13.06667000"}]},{"name":"Jönköping County","native":null,"cities":[{"name":"Anderstorp","native":null,"lat":"57.28333000","lon":"13.63333000"},{"name":"Aneby","native":null,"lat":"57.83895000","lon":"14.81016000"},{"name":"Bankeryd","native":null,"lat":"57.86021000","lon":"14.12400000"},{"name":"Bodafors","native":null,"lat":"57.50000000","lon":"14.70000000"},{"name":"Bor","native":null,"lat":"57.11667000","lon":"14.16667000"},{"name":"Bredaryd","native":null,"lat":"57.17343000","lon":"13.73789000"},{"name":"Ekenässjön","native":null,"lat":"57.49175000","lon":"15.02226000"},{"name":"Eksjö","native":null,"lat":"57.66643000","lon":"14.97205000"},{"name":"Forserum","native":null,"lat":"57.70000000","lon":"14.46667000"},{"name":"Forsheda","native":null,"lat":"57.16415000","lon":"13.83016000"},{"name":"Gislaved","native":null,"lat":"57.30440000","lon":"13.54078000"},{"name":"Gnosjö","native":null,"lat":"57.35850000","lon":"13.73686000"},{"name":"Gränna","native":null,"lat":"58.01667000","lon":"14.46667000"},{"name":"Habo","native":null,"lat":"57.91185000","lon":"14.07444000"},{"name":"Hestra","native":null,"lat":"57.44232000","lon":"13.59575000"},{"name":"Hillerstorp","native":null,"lat":"57.31293000","lon":"13.88437000"},{"name":"Huskvarna","native":null,"lat":"57.78596000","lon":"14.30214000"},{"name":"Jönköping","native":null,"lat":"57.78145000","lon":"14.15618000"},{"name":"Kaxholmen","native":null,"lat":"57.85345000","lon":"14.30457000"},{"name":"Landsbro","native":null,"lat":"57.36667000","lon":"14.90000000"},{"name":"Malmbäck","native":null,"lat":"57.57667000","lon":"14.46170000"},{"name":"Mariannelund","native":null,"lat":"57.61667000","lon":"15.56667000"},{"name":"Marieholm","native":null,"lat":"57.38333000","lon":"13.85000000"},{"name":"Mullsjö","native":null,"lat":"57.91710000","lon":"13.87831000"},{"name":"Nässjö","native":null,"lat":"57.65307000","lon":"14.69676000"},{"name":"Odensjö","native":null,"lat":"57.71667000","lon":"14.16667000"},{"name":"Reftele","native":null,"lat":"57.17467000","lon":"13.59498000"},{"name":"Rydaholm","native":null,"lat":"56.98388000","lon":"14.30849000"},{"name":"Sävsjö","native":null,"lat":"57.40327000","lon":"14.66244000"},{"name":"Skillingaryd","native":null,"lat":"57.43044000","lon":"14.09383000"},{"name":"Smålandsstenar","native":null,"lat":"57.16241000","lon":"13.41212000"},{"name":"Stockaryd","native":null,"lat":"57.31737000","lon":"14.59341000"},{"name":"Taberg","native":null,"lat":"57.67722000","lon":"14.08876000"},{"name":"Tenhult","native":null,"lat":"57.70761000","lon":"14.32205000"},{"name":"Tranås","native":null,"lat":"58.03717000","lon":"14.97820000"},{"name":"Vaggeryd","native":null,"lat":"57.49807000","lon":"14.14842000"},{"name":"Värnamo","native":null,"lat":"57.18604000","lon":"14.04001000"},{"name":"Vetlanda","native":null,"lat":"57.42887000","lon":"15.07762000"},{"name":"Vrigstad","native":null,"lat":"57.35000000","lon":"14.46667000"}]},{"name":"Kalmar County","native":null,"cities":[{"name":"Ankarsrum","native":null,"lat":"57.69896000","lon":"16.33407000"},{"name":"Bergkvara","native":null,"lat":"56.39063000","lon":"16.07274000"},{"name":"Blomstermåla","native":null,"lat":"56.98333000","lon":"16.33333000"},{"name":"Borgholm","native":null,"lat":"56.87930000","lon":"16.65634000"},{"name":"Emmaboda","native":null,"lat":"56.63268000","lon":"15.53648000"},{"name":"Färjestaden","native":null,"lat":"56.64990000","lon":"16.46859000"},{"name":"Gamleby","native":null,"lat":"57.89485000","lon":"16.40508000"},{"name":"Gunnebo","native":null,"lat":"57.71667000","lon":"16.53333000"},{"name":"Högsby","native":null,"lat":"57.16597000","lon":"16.02562000"},{"name":"Hultsfred","native":null,"lat":"57.48815000","lon":"15.84357000"},{"name":"Kalmar","native":null,"lat":"56.66157000","lon":"16.36163000"},{"name":"Kristdala","native":null,"lat":"57.40070000","lon":"16.20496000"},{"name":"Lindsdal","native":null,"lat":"56.73333000","lon":"16.30000000"},{"name":"Ljungbyholm","native":null,"lat":"56.63333000","lon":"16.16667000"},{"name":"Målilla","native":null,"lat":"57.38773000","lon":"15.80675000"},{"name":"Mönsterås","native":null,"lat":"57.04134000","lon":"16.44463000"},{"name":"Mörbylånga","native":null,"lat":"56.52480000","lon":"16.37877000"},{"name":"Nybro","native":null,"lat":"56.74461000","lon":"15.90714000"},{"name":"Oskarshamn","native":null,"lat":"57.26455000","lon":"16.44837000"},{"name":"Överum","native":null,"lat":"57.98856000","lon":"16.31390000"},{"name":"Påskallavik","native":null,"lat":"57.16667000","lon":"16.45000000"},{"name":"Rinkabyholm","native":null,"lat":"56.64972000","lon":"16.26667000"},{"name":"Smedby","native":null,"lat":"56.67413000","lon":"16.24320000"},{"name":"Södra Sandby","native":null,"lat":"56.56667000","lon":"16.61667000"},{"name":"Södra Vi","native":null,"lat":"57.73993000","lon":"15.79391000"},{"name":"Storebro","native":null,"lat":"57.58333000","lon":"15.85000000"},{"name":"Timmernabben","native":null,"lat":"56.96667000","lon":"16.43333000"},{"name":"Torsås","native":null,"lat":"56.41251000","lon":"15.99844000"},{"name":"Trekanten","native":null,"lat":"56.70000000","lon":"16.11667000"},{"name":"Västervik","native":null,"lat":"57.75840000","lon":"16.63733000"},{"name":"Vimmerby","native":null,"lat":"57.66588000","lon":"15.85515000"},{"name":"Virserum","native":null,"lat":"57.31667000","lon":"15.58333000"}]},{"name":"Kronoberg County","native":null,"cities":[{"name":"Älmhult","native":null,"lat":"56.55146000","lon":"14.13827000"},{"name":"Alvesta","native":null,"lat":"56.89935000","lon":"14.55559000"},{"name":"Åseda","native":null,"lat":"57.17010000","lon":"15.34430000"},{"name":"Braås","native":null,"lat":"57.06667000","lon":"15.05000000"},{"name":"Gemla","native":null,"lat":"56.86753000","lon":"14.64379000"},{"name":"Hovmantorp","native":null,"lat":"56.78685000","lon":"15.14023000"},{"name":"Ingelstad","native":null,"lat":"56.75000000","lon":"14.91667000"},{"name":"Lagan","native":null,"lat":"56.91667000","lon":"13.98333000"},{"name":"Lammhult","native":null,"lat":"57.16667000","lon":"14.58333000"},{"name":"Lenhovda","native":null,"lat":"57.00000000","lon":"15.28333000"},{"name":"Lessebo","native":null,"lat":"56.75185000","lon":"15.26969000"},{"name":"Ljungby","native":null,"lat":"56.83324000","lon":"13.94082000"},{"name":"Markaryd","native":null,"lat":"56.46135000","lon":"13.59644000"},{"name":"Moheda","native":null,"lat":"57.00000000","lon":"14.56667000"},{"name":"Rottne","native":null,"lat":"57.01667000","lon":"14.90000000"},{"name":"Ryd","native":null,"lat":"56.46667000","lon":"14.68333000"},{"name":"Strömsnäsbruk","native":null,"lat":"56.55000000","lon":"13.71667000"},{"name":"Tingsryd","native":null,"lat":"56.52470000","lon":"14.97902000"},{"name":"Växjö","native":null,"lat":"56.87767000","lon":"14.80906000"},{"name":"Vislanda","native":null,"lat":"56.78333000","lon":"14.45000000"}]},{"name":"Norrbotten County","native":null,"cities":[{"name":"Älvsbyn","native":null,"lat":"65.67624000","lon":"21.00162000"},{"name":"Arjeplog","native":null,"lat":"66.05173000","lon":"17.88606000"},{"name":"Arvidsjaur","native":null,"lat":"65.59033000","lon":"19.16682000"},{"name":"Bergnäset","native":null,"lat":"65.57791000","lon":"22.10844000"},{"name":"Bergsviken","native":null,"lat":"65.30000000","lon":"21.38333000"},{"name":"Björkskatan","native":null,"lat":"65.61373000","lon":"22.17702000"},{"name":"Boden","native":null,"lat":"65.82518000","lon":"21.68864000"},{"name":"Gällivare","native":null,"lat":"67.13387000","lon":"20.65278000"},{"name":"Gammelstad","native":null,"lat":"65.63931000","lon":"22.01145000"},{"name":"Haparanda","native":null,"lat":"65.83549000","lon":"24.13676000"},{"name":"Hortlax","native":null,"lat":"65.28188000","lon":"21.40544000"},{"name":"Jokkmokk","native":null,"lat":"66.60665000","lon":"19.82324000"},{"name":"Kalix","native":null,"lat":"65.85298000","lon":"23.15645000"},{"name":"Kiruna","native":null,"lat":"67.85572000","lon":"20.22513000"},{"name":"Luleå","native":null,"lat":"65.58415000","lon":"22.15465000"},{"name":"Malmberget","native":null,"lat":"67.17529000","lon":"20.65495000"},{"name":"Marielund","native":null,"lat":"65.85307000","lon":"24.10486000"},{"name":"Norrfjärden","native":null,"lat":"65.41805000","lon":"21.50151000"},{"name":"Överkalix","native":null,"lat":"66.32754000","lon":"22.84414000"},{"name":"Övertorneå","native":null,"lat":"66.38778000","lon":"23.65425000"},{"name":"Pajala","native":null,"lat":"67.21284000","lon":"23.36607000"},{"name":"Piteå","native":null,"lat":"65.31717000","lon":"21.47944000"},{"name":"Råneå","native":null,"lat":"65.85482000","lon":"22.29126000"},{"name":"Roknäs","native":null,"lat":"65.35000000","lon":"21.20000000"},{"name":"Rolfs","native":null,"lat":"65.85000000","lon":"23.11667000"},{"name":"Rosvik","native":null,"lat":"65.43333000","lon":"21.70000000"},{"name":"Sävast","native":null,"lat":"65.77002000","lon":"21.73113000"},{"name":"Södra Sunderbyn","native":null,"lat":"65.65983000","lon":"21.94004000"},{"name":"Töre","native":null,"lat":"65.91243000","lon":"22.65128000"}]},{"name":"Örebro County","native":null,"cities":[{"name":"Åsbro","native":null,"lat":"59.00000000","lon":"15.05000000"},{"name":"Askersund","native":null,"lat":"58.87988000","lon":"14.90230000"},{"name":"Degerfors","native":null,"lat":"59.23797000","lon":"14.43077000"},{"name":"Ekeby-Almby","native":null,"lat":"59.26000000","lon":"15.33000000"},{"name":"Fellingsbro","native":null,"lat":"59.43333000","lon":"15.58333000"},{"name":"Fjugesta","native":null,"lat":"59.17375000","lon":"14.87227000"},{"name":"Frövi","native":null,"lat":"59.46667000","lon":"15.36667000"},{"name":"Garphyttan","native":null,"lat":"59.30429000","lon":"14.94623000"},{"name":"Hällabrottet","native":null,"lat":"59.11667000","lon":"15.20000000"},{"name":"Hällefors","native":null,"lat":"59.78388000","lon":"14.52197000"},{"name":"Hallsberg","native":null,"lat":"59.06463000","lon":"15.10993000"},{"name":"Hovsta","native":null,"lat":"59.35000000","lon":"15.21667000"},{"name":"Karlskoga","native":null,"lat":"59.32667000","lon":"14.52386000"},{"name":"Kopparberg","native":null,"lat":"59.87597000","lon":"14.99436000"},{"name":"Kumla","native":null,"lat":"59.12770000","lon":"15.14341000"},{"name":"Laxå","native":null,"lat":"58.98630000","lon":"14.61904000"},{"name":"Lindesberg","native":null,"lat":"59.59202000","lon":"15.23040000"},{"name":"Nora","native":null,"lat":"59.51926000","lon":"15.03979000"},{"name":"Odensbacken","native":null,"lat":"59.16667000","lon":"15.53333000"},{"name":"Örebro","native":null,"lat":"59.27412000","lon":"15.20660000"},{"name":"Pålsboda","native":null,"lat":"59.06565000","lon":"15.33747000"},{"name":"Sköllersta","native":null,"lat":"59.13738000","lon":"15.33940000"},{"name":"Storå","native":null,"lat":"59.71409000","lon":"15.13169000"},{"name":"Vintrosa","native":null,"lat":"59.25000000","lon":"14.95000000"}]},{"name":"Östergötland County","native":null,"cities":[{"name":"Åby","native":null,"lat":"58.66667000","lon":"16.18333000"},{"name":"Åtvidaberg","native":null,"lat":"58.20152000","lon":"15.99770000"},{"name":"Berg","native":null,"lat":"58.48831000","lon":"15.52969000"},{"name":"Borensberg","native":null,"lat":"58.56667000","lon":"15.28333000"},{"name":"Boxholm","native":null,"lat":"58.19719000","lon":"15.05376000"},{"name":"Ekängen","native":null,"lat":"58.46667000","lon":"15.63333000"},{"name":"Finspång","native":null,"lat":"58.70578000","lon":"15.76739000"},{"name":"Grebo","native":null,"lat":"58.30145000","lon":"15.87085000"},{"name":"Gusum","native":null,"lat":"58.26880000","lon":"16.49894000"},{"name":"Herrestad","native":null,"lat":"58.38333000","lon":"14.80000000"},{"name":"Jursla","native":null,"lat":"58.66667000","lon":"16.18333000"},{"name":"Kimstad","native":null,"lat":"58.54967000","lon":"15.96296000"},{"name":"Kisa","native":null,"lat":"57.98781000","lon":"15.63303000"},{"name":"Krokek","native":null,"lat":"58.67231000","lon":"16.36741000"},{"name":"Lindö","native":null,"lat":"58.61667000","lon":"16.25000000"},{"name":"Linghem","native":null,"lat":"58.43333000","lon":"15.78333000"},{"name":"Linköping","native":null,"lat":"58.41086000","lon":"15.62157000"},{"name":"Ljungsbro","native":null,"lat":"58.51667000","lon":"15.50000000"},{"name":"Malmslätt","native":null,"lat":"58.41102000","lon":"15.51647000"},{"name":"Mantorp","native":null,"lat":"58.35000000","lon":"15.28333000"},{"name":"Mjölby","native":null,"lat":"58.32595000","lon":"15.12365000"},{"name":"Motala","native":null,"lat":"58.53706000","lon":"15.03649000"},{"name":"Norrköping","native":null,"lat":"58.59419000","lon":"16.18260000"},{"name":"Ödeshög","native":null,"lat":"58.22949000","lon":"14.65294000"},{"name":"Österbymo","native":null,"lat":"57.82465000","lon":"15.27357000"},{"name":"Rimforsa","native":null,"lat":"58.13624000","lon":"15.68650000"},{"name":"Ryd","native":null,"lat":"58.66667000","lon":"15.08333000"},{"name":"Skänninge","native":null,"lat":"58.39427000","lon":"15.08659000"},{"name":"Skärblacka","native":null,"lat":"58.56667000","lon":"15.90000000"},{"name":"Söderköping","native":null,"lat":"58.48057000","lon":"16.32221000"},{"name":"Stenstorp","native":null,"lat":"58.48333000","lon":"15.06667000"},{"name":"Sturefors","native":null,"lat":"58.33333000","lon":"15.73333000"},{"name":"Svärtinge","native":null,"lat":"58.65507000","lon":"16.02823000"},{"name":"Tallboda","native":null,"lat":"58.42521000","lon":"15.68154000"},{"name":"Vadstena","native":null,"lat":"58.44863000","lon":"14.88969000"},{"name":"Valdemarsvik","native":null,"lat":"58.20310000","lon":"16.60225000"},{"name":"Vikingstad","native":null,"lat":"58.38304000","lon":"15.43201000"}]},{"name":"Skåne County","native":null,"cities":[{"name":"Åhus","native":null,"lat":"55.91667000","lon":"14.28333000"},{"name":"Åkarp","native":null,"lat":"55.65396000","lon":"13.11107000"},{"name":"Anderslöv","native":null,"lat":"55.43836000","lon":"13.31966000"},{"name":"Ängelholm","native":null,"lat":"56.24280000","lon":"12.86219000"},{"name":"Arlöv","native":null,"lat":"55.63248000","lon":"13.07141000"},{"name":"Asmundtorp","native":null,"lat":"55.88333000","lon":"12.93333000"},{"name":"Åstorp","native":null,"lat":"56.13566000","lon":"12.94430000"},{"name":"Bara","native":null,"lat":"55.58155000","lon":"13.17862000"},{"name":"Bårslöv","native":null,"lat":"56.00910000","lon":"12.80580000"},{"name":"Båstad","native":null,"lat":"56.42689000","lon":"12.85339000"},{"name":"Billeberga","native":null,"lat":"55.88333000","lon":"13.00000000"},{"name":"Billesholm","native":null,"lat":"56.05000000","lon":"13.00000000"},{"name":"Bjärnum","native":null,"lat":"56.29032000","lon":"13.71128000"},{"name":"Bjärred","native":null,"lat":"55.71667000","lon":"13.01667000"},{"name":"Bjuv","native":null,"lat":"56.08372000","lon":"12.91914000"},{"name":"Blentarp","native":null,"lat":"55.58333000","lon":"13.60000000"},{"name":"Broby","native":null,"lat":"56.25521000","lon":"14.07797000"},{"name":"Bromölla","native":null,"lat":"56.07551000","lon":"14.46958000"},{"name":"Bunkeflostrand","native":null,"lat":"55.54478000","lon":"12.92375000"},{"name":"Dalby","native":null,"lat":"55.66655000","lon":"13.34976000"},{"name":"Degeberga","native":null,"lat":"55.83333000","lon":"14.08333000"},{"name":"Ekeby","native":null,"lat":"56.00000000","lon":"12.96667000"},{"name":"Eslöv","native":null,"lat":"55.83928000","lon":"13.30393000"},{"name":"Färlöv","native":null,"lat":"56.06667000","lon":"14.08333000"},{"name":"Fjälkinge","native":null,"lat":"56.04364000","lon":"14.27562000"},{"name":"Förslöv","native":null,"lat":"56.35000000","lon":"12.81667000"},{"name":"Furulund","native":null,"lat":"55.77380000","lon":"13.09022000"},{"name":"Gantofta","native":null,"lat":"55.98729000","lon":"12.80482000"},{"name":"Gärsnäs","native":null,"lat":"55.54949000","lon":"14.17923000"},{"name":"Genarp","native":null,"lat":"55.59907000","lon":"13.39820000"},{"name":"Glimåkra","native":null,"lat":"56.30000000","lon":"14.13333000"},{"name":"Glumslöv","native":null,"lat":"55.94091000","lon":"12.80929000"},{"name":"Häljarp","native":null,"lat":"55.85000000","lon":"12.91667000"},{"name":"Hammar","native":null,"lat":"56.01667000","lon":"14.21667000"},{"name":"Hanaskog","native":null,"lat":"56.16061000","lon":"14.09307000"},{"name":"Hässleholm","native":null,"lat":"56.15905000","lon":"13.76638000"},{"name":"Hästveda","native":null,"lat":"56.28468000","lon":"13.93547000"},{"name":"Helsingborg","native":null,"lat":"56.05648000","lon":"12.78718000"},{"name":"Hittarp","native":null,"lat":"56.10000000","lon":"12.63333000"},{"name":"Hjärnarp","native":null,"lat":"56.31667000","lon":"12.91667000"},{"name":"Hjärup","native":null,"lat":"55.66880000","lon":"13.13931000"},{"name":"Hofterup","native":null,"lat":"55.80485000","lon":"12.97970000"},{"name":"Höganäs","native":null,"lat":"56.19971000","lon":"12.55795000"},{"name":"Hököpinge","native":null,"lat":"55.49411000","lon":"13.00782000"},{"name":"Höllviken","native":null,"lat":"55.40982000","lon":"12.95580000"},{"name":"Höör","native":null,"lat":"55.93444000","lon":"13.53850000"},{"name":"Hörby","native":null,"lat":"55.85238000","lon":"13.66094000"},{"name":"Hyllinge","native":null,"lat":"56.10000000","lon":"12.85000000"},{"name":"Jonstorp","native":null,"lat":"56.23380000","lon":"12.67184000"},{"name":"Kågeröd","native":null,"lat":"55.99976000","lon":"13.08795000"},{"name":"Kävlinge","native":null,"lat":"55.79188000","lon":"13.11021000"},{"name":"Klågerup","native":null,"lat":"55.59416000","lon":"13.24574000"},{"name":"Klippan","native":null,"lat":"56.13559000","lon":"13.13086000"},{"name":"Knislinge","native":null,"lat":"56.18333000","lon":"14.08333000"},{"name":"Köpingebro","native":null,"lat":"55.45526000","lon":"13.93453000"},{"name":"Kristianstad","native":null,"lat":"56.03129000","lon":"14.15242000"},{"name":"Kvidinge","native":null,"lat":"56.13386000","lon":"13.04678000"},{"name":"Landskrona","native":null,"lat":"55.88620000","lon":"12.85880000"},{"name":"Ljungbyhed","native":null,"lat":"56.07437000","lon":"13.24010000"},{"name":"Ljunghusen","native":null,"lat":"55.39793000","lon":"12.92486000"},{"name":"Löberöd","native":null,"lat":"55.77610000","lon":"13.52414000"},{"name":"Löddeköpinge","native":null,"lat":"55.76667000","lon":"13.01667000"},{"name":"Lomma","native":null,"lat":"55.67244000","lon":"13.06849000"},{"name":"Lönsboda","native":null,"lat":"56.40000000","lon":"14.31667000"},{"name":"Lund","native":null,"lat":"55.70584000","lon":"13.19321000"},{"name":"Malmö","native":null,"lat":"55.60587000","lon":"13.00073000"},{"name":"Marieholm","native":null,"lat":"55.86667000","lon":"13.15000000"},{"name":"Mörarp","native":null,"lat":"56.05749000","lon":"12.88018000"},{"name":"Munka-Ljungby","native":null,"lat":"56.25000000","lon":"12.96667000"},{"name":"Näsum","native":null,"lat":"56.17693000","lon":"14.49706000"},{"name":"Norra Åsum","native":null,"lat":"55.98333000","lon":"14.15000000"},{"name":"Ödåkra","native":null,"lat":"56.10412000","lon":"12.74770000"},{"name":"Önnestad","native":null,"lat":"56.05747000","lon":"14.02233000"},{"name":"Örkelljunga","native":null,"lat":"56.28338000","lon":"13.27773000"},{"name":"Osby","native":null,"lat":"56.38165000","lon":"13.99364000"},{"name":"Östra Ljungby","native":null,"lat":"56.19601000","lon":"13.09199000"},{"name":"Oxie","native":null,"lat":"55.54014000","lon":"13.09605000"},{"name":"Påarp","native":null,"lat":"56.03333000","lon":"12.81667000"},{"name":"Perstorp","native":null,"lat":"56.13829000","lon":"13.39476000"},{"name":"Rydebäck","native":null,"lat":"55.96667000","lon":"12.76667000"},{"name":"Rydsgård","native":null,"lat":"55.47285000","lon":"13.58829000"},{"name":"Sätofta","native":null,"lat":"55.91667000","lon":"13.55000000"},{"name":"Saxtorpsskogen","native":null,"lat":"55.83208000","lon":"12.94429000"},{"name":"Sibbhult","native":null,"lat":"56.26667000","lon":"14.20000000"},{"name":"Simrishamn","native":null,"lat":"55.55653000","lon":"14.35037000"},{"name":"Sjöbo","native":null,"lat":"55.63135000","lon":"13.70622000"},{"name":"Skanör med Falsterbo","native":null,"lat":"55.40000000","lon":"12.85000000"},{"name":"Skåre","native":null,"lat":"55.38333000","lon":"13.05000000"},{"name":"Skegrie","native":null,"lat":"55.40633000","lon":"13.07693000"},{"name":"Skivarp","native":null,"lat":"55.41667000","lon":"13.56667000"},{"name":"Skurup","native":null,"lat":"55.47839000","lon":"13.50186000"},{"name":"Smygehamn","native":null,"lat":"55.34337000","lon":"13.36989000"},{"name":"Södra Sandby","native":null,"lat":"55.71677000","lon":"13.34659000"},{"name":"Sösdala","native":null,"lat":"56.03992000","lon":"13.67811000"},{"name":"Staffanstorp","native":null,"lat":"55.64277000","lon":"13.20638000"},{"name":"Stångby","native":null,"lat":"55.75030000","lon":"13.19797000"},{"name":"Stehag","native":null,"lat":"55.90188000","lon":"13.39577000"},{"name":"Strövelstorp","native":null,"lat":"56.16979000","lon":"12.83925000"},{"name":"Svalöv","native":null,"lat":"55.91340000","lon":"13.10762000"},{"name":"Svedala","native":null,"lat":"55.50788000","lon":"13.23515000"},{"name":"Teckomatorp","native":null,"lat":"55.86667000","lon":"13.08333000"},{"name":"Tollarp","native":null,"lat":"55.93333000","lon":"13.98333000"},{"name":"Tollarp1","native":null,"lat":"56.16667000","lon":"14.28333000"},{"name":"Tomelilla","native":null,"lat":"55.54293000","lon":"13.95460000"},{"name":"Torekov","native":null,"lat":"56.42500000","lon":"12.63333000"},{"name":"Tormestorp","native":null,"lat":"56.11350000","lon":"13.74516000"},{"name":"Trelleborg","native":null,"lat":"55.37514000","lon":"13.15691000"},{"name":"Tygelsjö","native":null,"lat":"55.51667000","lon":"13.00000000"},{"name":"Tyringe","native":null,"lat":"56.16037000","lon":"13.59811000"},{"name":"Valje","native":null,"lat":"56.06279000","lon":"14.54388000"},{"name":"Veberöd","native":null,"lat":"55.63333000","lon":"13.48333000"},{"name":"Vejbystrand","native":null,"lat":"56.31778000","lon":"12.76722000"},{"name":"Vellinge","native":null,"lat":"55.47124000","lon":"13.01971000"},{"name":"Viken","native":null,"lat":"56.15063000","lon":"12.57429000"},{"name":"Vinslöv","native":null,"lat":"56.10000000","lon":"13.91667000"},{"name":"Vittsjö","native":null,"lat":"56.34366000","lon":"13.66081000"},{"name":"Ystad","native":null,"lat":"55.42966000","lon":"13.82041000"}]},{"name":"Södermanland County","native":null,"cities":[{"name":"Åkers Styckebruk","native":null,"lat":"59.25000000","lon":"17.08333000"},{"name":"Ärla","native":null,"lat":"59.27983000","lon":"16.67896000"},{"name":"Arnö","native":null,"lat":"58.72675000","lon":"17.02322000"},{"name":"Bara","native":null,"lat":"58.68333000","lon":"17.06667000"},{"name":"Eskilstuna","native":null,"lat":"59.36661000","lon":"16.50770000"},{"name":"Flen","native":null,"lat":"59.05834000","lon":"16.58781000"},{"name":"Gnesta","native":null,"lat":"59.04751000","lon":"17.31191000"},{"name":"Hällbybrunn","native":null,"lat":"59.39152000","lon":"16.42229000"},{"name":"Hälleforsnäs","native":null,"lat":"59.15208000","lon":"16.49700000"},{"name":"Katrineholm","native":null,"lat":"58.99587000","lon":"16.20721000"},{"name":"Kvicksund","native":null,"lat":"59.45099000","lon":"16.32131000"},{"name":"Malmköping","native":null,"lat":"59.13333000","lon":"16.73333000"},{"name":"Mariefred","native":null,"lat":"59.25963000","lon":"17.22300000"},{"name":"Nyköping","native":null,"lat":"58.75300000","lon":"17.00788000"},{"name":"Olstorp","native":null,"lat":"58.81667000","lon":"16.63333000"},{"name":"Oxelösund","native":null,"lat":"58.67057000","lon":"17.10152000"},{"name":"Skogstorp","native":null,"lat":"59.32472000","lon":"16.48284000"},{"name":"Stallarholmen","native":null,"lat":"59.36667000","lon":"17.20000000"},{"name":"Stigtomta","native":null,"lat":"58.80000000","lon":"16.78333000"},{"name":"Strängnäs","native":null,"lat":"59.37741000","lon":"17.03119000"},{"name":"Svalsta","native":null,"lat":"58.74273000","lon":"16.86978000"},{"name":"Torshälla","native":null,"lat":"59.41667000","lon":"16.46667000"},{"name":"Trosa","native":null,"lat":"58.89621000","lon":"17.54812000"},{"name":"Vagnhärad","native":null,"lat":"58.94587000","lon":"17.48757000"},{"name":"Valla","native":null,"lat":"59.01667000","lon":"16.38333000"},{"name":"Vingåker","native":null,"lat":"59.04330000","lon":"15.87374000"}]},{"name":"Stockholm County","native":null,"cities":[{"name":"Akalla","native":null,"lat":"59.41465000","lon":"17.91398000"},{"name":"Åkersberga","native":null,"lat":"59.47944000","lon":"18.29967000"},{"name":"Alby","native":null,"lat":"59.23350000","lon":"17.85380000"},{"name":"Älmsta","native":null,"lat":"59.96667000","lon":"18.80000000"},{"name":"Älta","native":null,"lat":"59.26667000","lon":"18.18333000"},{"name":"Arnö","native":null,"lat":"60.11667000","lon":"18.63333000"},{"name":"Årsta","native":null,"lat":"59.29780000","lon":"18.05140000"},{"name":"Bergshamra","native":null,"lat":"59.38083000","lon":"18.03427000"},{"name":"Bollmora","native":null,"lat":"59.24196000","lon":"18.22762000"},{"name":"Boo","native":null,"lat":"59.33333000","lon":"18.28333000"},{"name":"Brevik","native":null,"lat":"59.35000000","lon":"18.20000000"},{"name":"Bro","native":null,"lat":"59.51667000","lon":"17.63333000"},{"name":"Bromma","native":null,"lat":"59.34000000","lon":"17.94000000"},{"name":"Brunn","native":null,"lat":"59.28000000","lon":"18.43000000"},{"name":"Brunna","native":null,"lat":"59.51667000","lon":"17.75000000"},{"name":"Dalarö","native":null,"lat":"59.13306000","lon":"18.40639000"},{"name":"Djurö","native":null,"lat":"59.32653000","lon":"18.71152000"},{"name":"Djursholm","native":null,"lat":"59.39926000","lon":"18.05619000"},{"name":"Ekerö","native":null,"lat":"59.29100000","lon":"17.81212000"},{"name":"Enebyberg","native":null,"lat":"59.43333000","lon":"18.05000000"},{"name":"Eriksberg","native":null,"lat":"59.24241000","lon":"17.81631000"},{"name":"Fisksätra","native":null,"lat":"59.29153000","lon":"18.25490000"},{"name":"Fittja","native":null,"lat":"59.24868000","lon":"17.85991000"},{"name":"Gamla Stan","native":null,"lat":"59.32627000","lon":"18.07251000"},{"name":"Gustavsberg","native":null,"lat":"59.32684000","lon":"18.38975000"},{"name":"Hallstavik","native":null,"lat":"60.05000000","lon":"18.60000000"},{"name":"Handen","native":null,"lat":"59.16809000","lon":"18.13796000"},{"name":"Haninge","native":null,"lat":"59.16775000","lon":"18.14478000"},{"name":"Hemmesta","native":null,"lat":"59.32273000","lon":"18.48675000"},{"name":"Hölö","native":null,"lat":"59.01667000","lon":"17.53333000"},{"name":"Huddinge","native":null,"lat":"59.23705000","lon":"17.98192000"},{"name":"Jakobsberg","native":null,"lat":"59.42268000","lon":"17.83508000"},{"name":"Järna","native":null,"lat":"59.09165000","lon":"17.56615000"},{"name":"Jordbro","native":null,"lat":"59.14972000","lon":"18.11667000"},{"name":"Kista","native":null,"lat":"59.40316000","lon":"17.94479000"},{"name":"Kopparmora","native":null,"lat":"59.33306000","lon":"18.58306000"},{"name":"Kummelnäs","native":null,"lat":"59.35000000","lon":"18.28333000"},{"name":"Kungsängen","native":null,"lat":"59.47857000","lon":"17.74834000"},{"name":"Kungsholmen","native":null,"lat":"59.33183000","lon":"18.04118000"},{"name":"Långvik","native":null,"lat":"59.24583000","lon":"18.51667000"},{"name":"Lidingö","native":null,"lat":"59.36303000","lon":"18.15096000"},{"name":"Lindholmen","native":null,"lat":"59.58333000","lon":"18.10000000"},{"name":"Märsta","native":null,"lat":"59.62157000","lon":"17.85476000"},{"name":"Mölnbo","native":null,"lat":"59.05000000","lon":"17.41667000"},{"name":"Mörtnäs","native":null,"lat":"59.31862000","lon":"18.44312000"},{"name":"Nacka","native":null,"lat":"59.31053000","lon":"18.16372000"},{"name":"Norrtälje","native":null,"lat":"59.75799000","lon":"18.70496000"},{"name":"Nykvarn","native":null,"lat":"59.80000000","lon":"18.30000000"},{"name":"Nynäshamn","native":null,"lat":"58.90337000","lon":"17.94793000"},{"name":"Ösmo","native":null,"lat":"58.98333000","lon":"17.90000000"},{"name":"Östermalm","native":null,"lat":"59.33879000","lon":"18.08487000"},{"name":"Pershagen","native":null,"lat":"59.15494000","lon":"17.65340000"},{"name":"Råsunda","native":null,"lat":"59.36588000","lon":"17.99569000"},{"name":"Resarö","native":null,"lat":"59.42910000","lon":"18.33386000"},{"name":"Rimbo","native":null,"lat":"59.75000000","lon":"18.36667000"},{"name":"Rindö","native":null,"lat":"59.39688000","lon":"18.39434000"},{"name":"Rönninge","native":null,"lat":"59.20000000","lon":"17.73333000"},{"name":"Rosersberg","native":null,"lat":"59.58333000","lon":"17.88333000"},{"name":"Saltsjöbaden","native":null,"lat":"59.28333000","lon":"18.30000000"},{"name":"Segeltorp","native":null,"lat":"59.27597000","lon":"17.93072000"},{"name":"Sigtuna","native":null,"lat":"59.61731000","lon":"17.72361000"},{"name":"Skänninge","native":null,"lat":"59.93333000","lon":"18.48333000"},{"name":"Södermalm","native":null,"lat":"59.31278000","lon":"18.07577000"},{"name":"Södertälje","native":null,"lat":"59.19554000","lon":"17.62525000"},{"name":"Sollentuna","native":null,"lat":"59.42804000","lon":"17.95093000"},{"name":"Solna","native":null,"lat":"59.36004000","lon":"18.00086000"},{"name":"Stavsnäs","native":null,"lat":"59.28333000","lon":"18.68333000"},{"name":"Stenhamra","native":null,"lat":"59.33440000","lon":"17.68842000"},{"name":"Stockholm","native":null,"lat":"59.33258000","lon":"18.06490000"},{"name":"Strömma","native":null,"lat":"59.28333000","lon":"18.53333000"},{"name":"Sundbyberg","native":null,"lat":"59.36128000","lon":"17.97114000"},{"name":"Tensta","native":null,"lat":"59.39390000","lon":"17.90111000"},{"name":"Tullinge","native":null,"lat":"59.20000000","lon":"17.90000000"},{"name":"Tumba","native":null,"lat":"59.19858000","lon":"17.83317000"},{"name":"Upplands Väsby","native":null,"lat":"59.51839000","lon":"17.91128000"},{"name":"Vallentuna","native":null,"lat":"59.53436000","lon":"18.07758000"},{"name":"Vårby","native":null,"lat":"59.26671000","lon":"17.88407000"},{"name":"Vårsta","native":null,"lat":"59.16528000","lon":"17.79722000"},{"name":"Vasastan","native":null,"lat":"59.34571000","lon":"18.04985000"},{"name":"Vaxholm","native":null,"lat":"59.40225000","lon":"18.35317000"}]},{"name":"Uppsala County","native":null,"cities":[{"name":"Alsike","native":null,"lat":"59.75324000","lon":"17.77331000"},{"name":"Alunda","native":null,"lat":"60.26667000","lon":"18.40000000"},{"name":"Älvkarleby","native":null,"lat":"60.57081000","lon":"17.44895000"},{"name":"Anneberg","native":null,"lat":"60.24167000","lon":"18.41667000"},{"name":"Bälinge","native":null,"lat":"59.95000000","lon":"17.53333000"},{"name":"Bålsta","native":null,"lat":"59.56710000","lon":"17.52781000"},{"name":"Björklinge","native":null,"lat":"60.03004000","lon":"17.55203000"},{"name":"Enköping","native":null,"lat":"59.63607000","lon":"17.07768000"},{"name":"Gamla Uppsala","native":null,"lat":"59.89817000","lon":"17.63386000"},{"name":"Gimo","native":null,"lat":"60.17304000","lon":"18.18507000"},{"name":"Grillby","native":null,"lat":"59.62603000","lon":"17.25787000"},{"name":"Heby","native":null,"lat":"59.93815000","lon":"16.86217000"},{"name":"Irsta","native":null,"lat":"59.70000000","lon":"16.93333000"},{"name":"Karlholmsbruk","native":null,"lat":"60.52091000","lon":"17.63152000"},{"name":"Knivsta","native":null,"lat":"59.72564000","lon":"17.78753000"},{"name":"Lövstalöt","native":null,"lat":"59.95740000","lon":"17.57826000"},{"name":"Marieberg","native":null,"lat":"60.23333000","lon":"18.50000000"},{"name":"Morgongåva","native":null,"lat":"59.93395000","lon":"16.96353000"},{"name":"Örbyhus","native":null,"lat":"60.22407000","lon":"17.70138000"},{"name":"Öregrund","native":null,"lat":"60.33333000","lon":"18.43333000"},{"name":"Örsundsbro","native":null,"lat":"59.73333000","lon":"17.30000000"},{"name":"Österbybruk","native":null,"lat":"60.20000000","lon":"17.90000000"},{"name":"Östervåla","native":null,"lat":"60.18333000","lon":"17.18333000"},{"name":"Östhammar","native":null,"lat":"60.25909000","lon":"18.37408000"},{"name":"Sävja","native":null,"lat":"59.81872000","lon":"17.69958000"},{"name":"Skutskär","native":null,"lat":"60.62507000","lon":"17.41552000"},{"name":"Söderfors","native":null,"lat":"60.38333000","lon":"17.23333000"},{"name":"Storvreta","native":null,"lat":"59.95933000","lon":"17.70588000"},{"name":"Tärnsjö","native":null,"lat":"60.15000000","lon":"16.93333000"},{"name":"Tierp","native":null,"lat":"60.34269000","lon":"17.51812000"},{"name":"Uppsala","native":null,"lat":"59.85882000","lon":"17.63889000"},{"name":"Vattholma","native":null,"lat":"60.01667000","lon":"17.73333000"}]},{"name":"Värmland County","native":null,"cities":[{"name":"Åmotfors","native":null,"lat":"59.76191000","lon":"12.36211000"},{"name":"Årjäng","native":null,"lat":"59.39217000","lon":"12.13336000"},{"name":"Arvika","native":null,"lat":"59.65528000","lon":"12.58518000"},{"name":"Björneborg","native":null,"lat":"59.24122000","lon":"14.24942000"},{"name":"Charlottenberg","native":null,"lat":"59.88422000","lon":"12.30398000"},{"name":"Deje","native":null,"lat":"59.60300000","lon":"13.47200000"},{"name":"Ekshärad","native":null,"lat":"60.17275000","lon":"13.49647000"},{"name":"Filipstad","native":null,"lat":"59.71236000","lon":"14.16831000"},{"name":"Forshaga","native":null,"lat":"59.52541000","lon":"13.48127000"},{"name":"Grums","native":null,"lat":"59.35141000","lon":"13.11105000"},{"name":"Hagfors","native":null,"lat":"60.02378000","lon":"13.67214000"},{"name":"Karlstad","native":null,"lat":"59.37930000","lon":"13.50357000"},{"name":"Kil","native":null,"lat":"59.50234000","lon":"13.31277000"},{"name":"Kristinehamn","native":null,"lat":"59.30978000","lon":"14.10808000"},{"name":"Molkom","native":null,"lat":"59.60057000","lon":"13.72115000"},{"name":"Munkfors","native":null,"lat":"59.83856000","lon":"13.54361000"},{"name":"Råtorp","native":null,"lat":"59.40197000","lon":"13.49144000"},{"name":"Säffle","native":null,"lat":"59.13229000","lon":"12.92888000"},{"name":"Skåre","native":null,"lat":"59.43333000","lon":"13.43333000"},{"name":"Skattkärr","native":null,"lat":"59.41208000","lon":"13.67078000"},{"name":"Skoghall","native":null,"lat":"59.32324000","lon":"13.46552000"},{"name":"Slottsbron","native":null,"lat":"59.32270000","lon":"13.10268000"},{"name":"Storfors","native":null,"lat":"59.53183000","lon":"14.27201000"},{"name":"Sunne","native":null,"lat":"59.83764000","lon":"13.14302000"},{"name":"Töcksfors","native":null,"lat":"59.50816000","lon":"11.84431000"},{"name":"Torsby","native":null,"lat":"60.13527000","lon":"13.00820000"},{"name":"Vålberg","native":null,"lat":"59.39145000","lon":"13.18633000"}]},{"name":"Västerbotten County","native":null,"cities":[{"name":"Åsele","native":null,"lat":"64.16026000","lon":"17.34762000"},{"name":"Backa","native":null,"lat":"64.98333000","lon":"21.06667000"},{"name":"Bjurholm","native":null,"lat":"63.93027000","lon":"19.21369000"},{"name":"Boliden","native":null,"lat":"64.86667000","lon":"20.38333000"},{"name":"Bureå","native":null,"lat":"64.61667000","lon":"21.20000000"},{"name":"Burträsk","native":null,"lat":"64.51667000","lon":"20.65000000"},{"name":"Byske","native":null,"lat":"64.95258000","lon":"21.20580000"},{"name":"Dorotea","native":null,"lat":"64.26185000","lon":"16.41306000"},{"name":"Ersmark","native":null,"lat":"63.88333000","lon":"20.31667000"},{"name":"Forsbacka","native":null,"lat":"64.76667000","lon":"20.50000000"},{"name":"Holmsund","native":null,"lat":"63.70602000","lon":"20.36409000"},{"name":"Hörnefors","native":null,"lat":"63.62312000","lon":"19.90856000"},{"name":"Insjön","native":null,"lat":"64.40000000","lon":"17.48333000"},{"name":"Kåge","native":null,"lat":"64.83571000","lon":"20.98453000"},{"name":"Långsele","native":null,"lat":"64.81667000","lon":"20.25000000"},{"name":"Lycksele","native":null,"lat":"64.59537000","lon":"18.67351000"},{"name":"Malå","native":null,"lat":"65.18501000","lon":"18.74243000"},{"name":"Nordmaling","native":null,"lat":"63.56852000","lon":"19.50244000"},{"name":"Norsjö","native":null,"lat":"64.91206000","lon":"19.48153000"},{"name":"Obbola","native":null,"lat":"63.70000000","lon":"20.31667000"},{"name":"Röbäck","native":null,"lat":"63.80879000","lon":"20.18901000"},{"name":"Robertsfors","native":null,"lat":"64.19324000","lon":"20.84806000"},{"name":"Sävar","native":null,"lat":"63.90383000","lon":"20.55014000"},{"name":"Skellefteå","native":null,"lat":"64.75067000","lon":"20.95279000"},{"name":"Skelleftehamn","native":null,"lat":"64.68333000","lon":"21.23333000"},{"name":"Söderfors","native":null,"lat":"64.81667000","lon":"18.05000000"},{"name":"Sorsele","native":null,"lat":"65.53484000","lon":"17.53702000"},{"name":"Storuman","native":null,"lat":"65.09590000","lon":"17.11731000"},{"name":"Storvik","native":null,"lat":"65.15000000","lon":"20.73333000"},{"name":"Täfteå","native":null,"lat":"63.83970000","lon":"20.47857000"},{"name":"Umeå","native":null,"lat":"63.82842000","lon":"20.25972000"},{"name":"Ursviken","native":null,"lat":"64.71261000","lon":"21.16580000"},{"name":"Vännäs","native":null,"lat":"63.90676000","lon":"19.75712000"},{"name":"Vännäsby","native":null,"lat":"63.91564000","lon":"19.82438000"},{"name":"Viken","native":null,"lat":"64.72587000","lon":"20.91548000"},{"name":"Vilhelmina","native":null,"lat":"64.62417000","lon":"16.65596000"},{"name":"Vindeln","native":null,"lat":"64.20175000","lon":"19.71945000"}]},{"name":"Västernorrland County","native":null,"cities":[{"name":"Ånge","native":null,"lat":"62.52495000","lon":"15.65904000"},{"name":"Ås","native":null,"lat":"63.36667000","lon":"16.58333000"},{"name":"Bergeforsen","native":null,"lat":"62.53074000","lon":"17.38123000"},{"name":"Bjästa","native":null,"lat":"63.20000000","lon":"18.50000000"},{"name":"Bollstabruk","native":null,"lat":"62.99777000","lon":"17.67348000"},{"name":"Bredbyn","native":null,"lat":"63.44655000","lon":"18.11019000"},{"name":"Fränsta","native":null,"lat":"62.49855000","lon":"16.17016000"},{"name":"Härnösand","native":null,"lat":"62.63228000","lon":"17.93794000"},{"name":"Husum","native":null,"lat":"63.33333000","lon":"19.16667000"},{"name":"Johannedal","native":null,"lat":"62.43424000","lon":"17.37273000"},{"name":"Köpmanholmen","native":null,"lat":"63.16667000","lon":"18.56667000"},{"name":"Kramfors","native":null,"lat":"62.93161000","lon":"17.77646000"},{"name":"Kvissleby","native":null,"lat":"62.29361000","lon":"17.37500000"},{"name":"Långsele","native":null,"lat":"63.18333000","lon":"17.06667000"},{"name":"Matfors","native":null,"lat":"62.34864000","lon":"17.03173000"},{"name":"Njurundabommen","native":null,"lat":"62.26339000","lon":"17.38354000"},{"name":"Nolby","native":null,"lat":"62.28750000","lon":"17.36917000"},{"name":"Örnsköldsvik","native":null,"lat":"63.29091000","lon":"18.71525000"},{"name":"Skottsund","native":null,"lat":"62.29056000","lon":"17.38694000"},{"name":"Sollefteå","native":null,"lat":"63.16667000","lon":"17.26667000"},{"name":"Söråker","native":null,"lat":"62.50561000","lon":"17.51032000"},{"name":"Stockvik","native":null,"lat":"62.33667000","lon":"17.36583000"},{"name":"Sundsbruk","native":null,"lat":"62.45806000","lon":"17.34889000"},{"name":"Sundsvall","native":null,"lat":"62.39129000","lon":"17.30630000"},{"name":"Timrå","native":null,"lat":"62.48654000","lon":"17.32613000"},{"name":"Vi","native":null,"lat":"62.43333000","lon":"17.41667000"}]},{"name":"Västmanland County","native":null,"cities":[{"name":"Arboga","native":null,"lat":"59.39387000","lon":"15.83882000"},{"name":"Barkarö","native":null,"lat":"59.54935000","lon":"16.50740000"},{"name":"Dingtuna","native":null,"lat":"59.57279000","lon":"16.38722000"},{"name":"Enhagen-Ekbacken","native":null,"lat":"59.56543000","lon":"16.53045000"},{"name":"Fagersta","native":null,"lat":"60.00418000","lon":"15.79316000"},{"name":"Hallstahammar","native":null,"lat":"59.61395000","lon":"16.22846000"},{"name":"Hökåsen","native":null,"lat":"59.66667000","lon":"16.58333000"},{"name":"Irsta","native":null,"lat":"59.60000000","lon":"16.70000000"},{"name":"Kolbäck","native":null,"lat":"59.56516000","lon":"16.23037000"},{"name":"Kolsva","native":null,"lat":"59.60000000","lon":"15.83333000"},{"name":"Köping","native":null,"lat":"59.51404000","lon":"15.99255000"},{"name":"Kungsör","native":null,"lat":"59.42245000","lon":"16.09656000"},{"name":"Norberg","native":null,"lat":"60.06505000","lon":"15.92366000"},{"name":"Ramnäs","native":null,"lat":"59.76667000","lon":"16.20000000"},{"name":"Sala","native":null,"lat":"59.91993000","lon":"16.60655000"},{"name":"Skinnskatteberg","native":null,"lat":"59.83028000","lon":"15.69337000"},{"name":"Skultuna","native":null,"lat":"59.71667000","lon":"16.41667000"},{"name":"Surahammar","native":null,"lat":"59.70725000","lon":"16.22188000"},{"name":"Tillberga","native":null,"lat":"59.68333000","lon":"16.61667000"},{"name":"Västerås","native":null,"lat":"59.64914000","lon":"16.56445000"}]},{"name":"Västra Götaland County","native":null,"cities":[{"name":"Åkarp","native":null,"lat":"58.23333000","lon":"13.65000000"},{"name":"Alafors","native":null,"lat":"57.92579000","lon":"12.07835000"},{"name":"Alingsås","native":null,"lat":"57.93033000","lon":"12.53345000"},{"name":"Älvängen","native":null,"lat":"57.95872000","lon":"12.12350000"},{"name":"Åmål","native":null,"lat":"59.05100000","lon":"12.70492000"},{"name":"Andalen","native":null,"lat":"57.70039000","lon":"11.76136000"},{"name":"Anderstorp","native":null,"lat":"58.88333000","lon":"14.28333000"},{"name":"Angered","native":null,"lat":"57.78628000","lon":"12.09852000"},{"name":"Annelund","native":null,"lat":"57.98843000","lon":"13.07483000"},{"name":"Axvall","native":null,"lat":"58.38333000","lon":"13.56667000"},{"name":"Bengtsfors","native":null,"lat":"59.02912000","lon":"12.23207000"},{"name":"Billdal","native":null,"lat":"57.56667000","lon":"11.93333000"},{"name":"Billingsfors","native":null,"lat":"58.98333000","lon":"12.25000000"},{"name":"Björboholm","native":null,"lat":"57.87096000","lon":"12.32546000"},{"name":"Björkö","native":null,"lat":"57.73221000","lon":"11.67916000"},{"name":"Björlanda","native":null,"lat":"57.76667000","lon":"11.83333000"},{"name":"Bollebygd","native":null,"lat":"57.66866000","lon":"12.57272000"},{"name":"Borås","native":null,"lat":"57.73783000","lon":"12.94076000"},{"name":"Brålanda","native":null,"lat":"58.56344000","lon":"12.34923000"},{"name":"Brastad","native":null,"lat":"58.38333000","lon":"11.48333000"},{"name":"Dals Långed","native":null,"lat":"58.92555000","lon":"12.30865000"},{"name":"Dalsjöfors","native":null,"lat":"57.71667000","lon":"13.08333000"},{"name":"Diseröd","native":null,"lat":"57.92636000","lon":"12.02598000"},{"name":"Donsö","native":null,"lat":"57.60000000","lon":"11.79917000"},{"name":"Ed","native":null,"lat":"58.91247000","lon":"11.93308000"},{"name":"Ellös","native":null,"lat":"58.18333000","lon":"11.46667000"},{"name":"Eriksbo","native":null,"lat":"57.77141000","lon":"12.04183000"},{"name":"Falköping","native":null,"lat":"58.17347000","lon":"13.55068000"},{"name":"Färgelanda","native":null,"lat":"58.56816000","lon":"11.99235000"},{"name":"Floby","native":null,"lat":"58.13333000","lon":"13.33333000"},{"name":"Fristad","native":null,"lat":"57.82483000","lon":"13.01064000"},{"name":"Fritsla","native":null,"lat":"57.55655000","lon":"12.78457000"},{"name":"Furulund","native":null,"lat":"57.71667000","lon":"12.13333000"},{"name":"Gånghester","native":null,"lat":"57.70000000","lon":"13.01667000"},{"name":"Gårdsten","native":null,"lat":"57.80480000","lon":"12.02883000"},{"name":"Göta","native":null,"lat":"58.10617000","lon":"12.15254000"},{"name":"Göteborg","native":null,"lat":"57.70716000","lon":"11.96679000"},{"name":"Göteborgs stad","native":null,"lat":"57.72288000","lon":"11.94577000"},{"name":"Götene","native":null,"lat":"58.52824000","lon":"13.49458000"},{"name":"Gråbo","native":null,"lat":"57.83625000","lon":"12.29954000"},{"name":"Grästorp","native":null,"lat":"58.33219000","lon":"12.68122000"},{"name":"Grebbestad","native":null,"lat":"58.70248000","lon":"11.25738000"},{"name":"Gullspång","native":null,"lat":"58.98615000","lon":"14.09644000"},{"name":"Hammarkullen","native":null,"lat":"57.78049000","lon":"12.03604000"},{"name":"Henån","native":null,"lat":"58.23848000","lon":"11.67598000"},{"name":"Herrljunga","native":null,"lat":"58.07739000","lon":"13.02662000"},{"name":"Hindås","native":null,"lat":"57.70338000","lon":"12.44657000"},{"name":"Hjo","native":null,"lat":"58.30133000","lon":"14.28784000"},{"name":"Hjuvik","native":null,"lat":"57.70167000","lon":"11.71639000"},{"name":"Hönö","native":null,"lat":"57.68972000","lon":"11.64972000"},{"name":"Horred","native":null,"lat":"57.35475000","lon":"12.47777000"},{"name":"Hova","native":null,"lat":"58.85363000","lon":"14.21914000"},{"name":"Höviksnäs","native":null,"lat":"58.03333000","lon":"11.76667000"},{"name":"Hunnebostrand","native":null,"lat":"58.44127000","lon":"11.30320000"},{"name":"Ingared","native":null,"lat":"57.85989000","lon":"12.45161000"},{"name":"Jonstorp","native":null,"lat":"58.00000000","lon":"12.71667000"},{"name":"Jörlanda","native":null,"lat":"57.98630000","lon":"11.82943000"},{"name":"Källby","native":null,"lat":"58.50999000","lon":"13.30582000"},{"name":"Kållered","native":null,"lat":"57.60992000","lon":"12.05106000"},{"name":"Karlsborg","native":null,"lat":"58.53724000","lon":"14.50470000"},{"name":"Kinna","native":null,"lat":"57.50728000","lon":"12.69463000"},{"name":"Kode","native":null,"lat":"57.94263000","lon":"11.85051000"},{"name":"Kungälv","native":null,"lat":"57.87096000","lon":"11.98054000"},{"name":"Kungshamn","native":null,"lat":"58.36305000","lon":"11.25938000"},{"name":"Kvänum","native":null,"lat":"58.30000000","lon":"13.18333000"},{"name":"Landvetter","native":null,"lat":"57.68665000","lon":"12.21169000"},{"name":"Länghem","native":null,"lat":"57.60000000","lon":"13.23333000"},{"name":"Lerum","native":null,"lat":"57.77051000","lon":"12.26904000"},{"name":"Lidköping","native":null,"lat":"58.50517000","lon":"13.15765000"},{"name":"Lilla Edet","native":null,"lat":"58.13333000","lon":"12.13333000"},{"name":"Limmared","native":null,"lat":"57.53592000","lon":"13.35566000"},{"name":"Lindome","native":null,"lat":"57.56667000","lon":"12.08333000"},{"name":"Ljungskile","native":null,"lat":"58.22452000","lon":"11.92014000"},{"name":"Lödöse","native":null,"lat":"58.02994000","lon":"12.15934000"},{"name":"Lövgärdet","native":null,"lat":"57.81555000","lon":"12.03861000"},{"name":"Lysekil","native":null,"lat":"58.27429000","lon":"11.43576000"},{"name":"Majorna","native":null,"lat":"57.69195000","lon":"11.91605000"},{"name":"Mariestad","native":null,"lat":"58.70971000","lon":"13.82367000"},{"name":"Mellerud","native":null,"lat":"58.69979000","lon":"12.45312000"},{"name":"Mölltorp","native":null,"lat":"58.50000000","lon":"14.40000000"},{"name":"Mölndal","native":null,"lat":"57.65540000","lon":"12.01378000"},{"name":"Mölnlycke","native":null,"lat":"57.65893000","lon":"12.11792000"},{"name":"Munkedal","native":null,"lat":"58.46634000","lon":"11.67345000"},{"name":"Myggenäs","native":null,"lat":"58.06176000","lon":"11.74936000"},{"name":"Nolvik","native":null,"lat":"57.77500000","lon":"11.83333000"},{"name":"Nossebro","native":null,"lat":"58.18808000","lon":"12.71599000"},{"name":"Öckerö","native":null,"lat":"57.70814000","lon":"11.65585000"},{"name":"Ödsmål","native":null,"lat":"58.10000000","lon":"11.85000000"},{"name":"Öjersjö","native":null,"lat":"57.69882000","lon":"12.13448000"},{"name":"Olofstorp","native":null,"lat":"57.80444000","lon":"12.17131000"},{"name":"Olstorp","native":null,"lat":"57.82277000","lon":"12.27696000"},{"name":"Orust","native":null,"lat":"58.18025000","lon":"11.63419000"},{"name":"Partille","native":null,"lat":"57.73950000","lon":"12.10642000"},{"name":"Rannebergen","native":null,"lat":"57.80236000","lon":"12.07131000"},{"name":"Rävlanda","native":null,"lat":"57.65338000","lon":"12.49791000"},{"name":"Rönnäng","native":null,"lat":"57.93333000","lon":"11.58333000"},{"name":"Sålanda","native":null,"lat":"57.98333000","lon":"12.21667000"},{"name":"Sandared","native":null,"lat":"57.70992000","lon":"12.79238000"},{"name":"Sätila","native":null,"lat":"57.54172000","lon":"12.43429000"},{"name":"Sjömarken","native":null,"lat":"57.71533000","lon":"12.83495000"},{"name":"Sjuntorp","native":null,"lat":"58.20000000","lon":"12.21667000"},{"name":"Skara","native":null,"lat":"58.38659000","lon":"13.43836000"},{"name":"Skärhamn","native":null,"lat":"57.98665000","lon":"11.55742000"},{"name":"Skepplanda","native":null,"lat":"57.98333000","lon":"12.20000000"},{"name":"Skövde","native":null,"lat":"58.39118000","lon":"13.84506000"},{"name":"Skultorp","native":null,"lat":"58.35000000","lon":"13.83333000"},{"name":"Smögen","native":null,"lat":"58.35593000","lon":"11.22411000"},{"name":"Sollebrunn","native":null,"lat":"58.11667000","lon":"12.53333000"},{"name":"Stenkullen","native":null,"lat":"57.79476000","lon":"12.31688000"},{"name":"Stenstorp","native":null,"lat":"58.27254000","lon":"13.71454000"},{"name":"Stenungsund","native":null,"lat":"58.07046000","lon":"11.81810000"},{"name":"Stöpen","native":null,"lat":"58.47802000","lon":"13.86611000"},{"name":"Stora Höga","native":null,"lat":"58.01667000","lon":"11.83333000"},{"name":"Strömstad","native":null,"lat":"58.93945000","lon":"11.17120000"},{"name":"Styrsö","native":null,"lat":"57.61639000","lon":"11.78556000"},{"name":"Surte","native":null,"lat":"57.82533000","lon":"12.01604000"},{"name":"Svanesund","native":null,"lat":"58.14292000","lon":"11.81821000"},{"name":"Svenljunga","native":null,"lat":"57.49551000","lon":"13.11078000"},{"name":"Tanumshede","native":null,"lat":"58.72385000","lon":"11.32587000"},{"name":"Tibro","native":null,"lat":"58.42453000","lon":"14.16162000"},{"name":"Tidaholm","native":null,"lat":"58.18035000","lon":"13.95824000"},{"name":"Tjuvkil","native":null,"lat":"57.90000000","lon":"11.73333000"},{"name":"Töreboda","native":null,"lat":"58.70739000","lon":"14.12597000"},{"name":"Torslanda","native":null,"lat":"57.72432000","lon":"11.77013000"},{"name":"Tranemo","native":null,"lat":"57.48333000","lon":"13.35000000"},{"name":"Trollhättan","native":null,"lat":"58.21208000","lon":"12.35033000"},{"name":"Uddevalla","native":null,"lat":"58.34784000","lon":"11.94240000"},{"name":"Ulricehamn","native":null,"lat":"57.79159000","lon":"13.41422000"},{"name":"Vänersborg","native":null,"lat":"58.38075000","lon":"12.32340000"},{"name":"Vara","native":null,"lat":"58.26234000","lon":"12.95413000"},{"name":"Vårgårda","native":null,"lat":"58.03706000","lon":"12.80907000"},{"name":"Vargön","native":null,"lat":"58.35599000","lon":"12.39060000"},{"name":"Västra Frölunda","native":null,"lat":"57.64667000","lon":"11.92944000"},{"name":"Vinninga","native":null,"lat":"58.45000000","lon":"13.26667000"},{"name":"Viskafors","native":null,"lat":"57.62941000","lon":"12.84890000"}]}]