[{"id":1537,"name":"Blekinge","native":null,"cities":[{"id":103094,"name":"Bräkne-Hoby","native":null,"lat":"56.23333000","lon":"15.11667000"},{"id":103321,"name":"Hällevik","native":null,"lat":"56.01667000","lon":"14.70000000"},{"id":103270,"name":"Hasslö","native":null,"lat":"56.11667000","lon":"15.48333000"},{"id":103359,"name":"Jämjö","native":null,"lat":"56.19187000","lon":"15.84115000"},{"id":103360,"name":"Jämshög","native":null,"lat":"56.23333000","lon":"14.51667000"},{"id":103371,"name":"Kallinge","native":null,"lat":"56.24841000","lon":"15.28721000"},{"id":103377,"name":"Karlshamn","native":null,"lat":"56.17060000","lon":"14.86188000"},{"id":103381,"name":"Karlskrona","native":null,"lat":"56.16156000","lon":"15.58661000"},{"id":103539,"name":"Mjällby","native":null,"lat":"56.05000000","lon":"14.68333000"},{"id":103570,"name":"Mörrum","native":null,"lat":"56.19281000","lon":"14.74739000"},{"id":103605,"name":"Nättraby","native":null,"lat":"56.20000000","lon":"15.51667000"},{"id":103612,"name":"Olofström","native":null,"lat":"56.27730000","lon":"14.53402000"},{"id":103672,"name":"Rödeby","native":null,"lat":"56.26078000","lon":"15.62143000"},{"id":103655,"name":"Ronneby","native":null,"lat":"56.20999000","lon":"15.27602000"},{"id":103830,"name":"Sölvesborg","native":null,"lat":"56.05205000","lon":"14.57525000"},{"id":103779,"name":"Sturkö","native":null,"lat":"56.08333000","lon":"15.70000000"},{"id":103801,"name":"Svängsta","native":null,"lat":"56.26667000","lon":"14.76667000"}]},{"id":1534,"name":"Dalarna County","native":null,"cities":[{"id":102985,"name":"Abborrberget","native":null,"lat":"60.15000000","lon":"14.80000000"},{"id":103989,"name":"Älvdalen","native":null,"lat":"61.22774000","lon":"14.03935000"},{"id":103022,"name":"Avesta","native":null,"lat":"60.14274000","lon":"16.16295000"},{"id":103046,"name":"Bjursås","native":null,"lat":"60.73726000","lon":"15.45291000"},{"id":103075,"name":"Borlänge","native":null,"lat":"60.48580000","lon":"15.43714000"},{"id":103093,"name":"Brunna","native":null,"lat":"60.26255000","lon":"16.01034000"},{"id":103122,"name":"Djurås","native":null,"lat":"60.56061000","lon":"15.13281000"},{"id":103142,"name":"Enbacka","native":null,"lat":"60.40993000","lon":"15.59575000"},{"id":103162,"name":"Falun","native":null,"lat":"60.60357000","lon":"15.62597000"},{"id":103197,"name":"Gagnef","native":null,"lat":"60.59856000","lon":"15.07745000"},{"id":103226,"name":"Grängesberg","native":null,"lat":"60.07465000","lon":"15.00784000"},{"id":103225,"name":"Grycksbo","native":null,"lat":"60.68751000","lon":"15.48507000"},{"id":103274,"name":"Hedemora","native":null,"lat":"60.27973000","lon":"15.98855000"},{"id":103297,"name":"Horndal","native":null,"lat":"60.30000000","lon":"16.41667000"},{"id":103347,"name":"Insjön","native":null,"lat":"60.67688000","lon":"15.09487000"},{"id":103364,"name":"Järna","native":null,"lat":"60.53333000","lon":"14.36667000"},{"id":103419,"name":"Krylbo","native":null,"lat":"60.13333000","lon":"16.21667000"},{"id":103504,"name":"Långshyttan","native":null,"lat":"60.45238000","lon":"16.03831000"},{"id":103456,"name":"Leksand","native":null,"lat":"60.73030000","lon":"14.99994000"},{"id":103491,"name":"Ludvika","native":null,"lat":"60.14959000","lon":"15.18776000"},{"id":103518,"name":"Malung","native":null,"lat":"60.68329000","lon":"13.71542000"},{"id":103542,"name":"Mockfjärd","native":null,"lat":"60.50000000","lon":"14.96667000"},{"id":103545,"name":"Mora","native":null,"lat":"61.00704000","lon":"14.54316000"},{"id":103595,"name":"Nyhammar","native":null,"lat":"60.28333000","lon":"14.96667000"},{"id":103617,"name":"Ornäs","native":null,"lat":"60.50944000","lon":"15.54128000"},{"id":103618,"name":"Orsa","native":null,"lat":"61.12034000","lon":"14.61550000"},{"id":103665,"name":"Rättvik","native":null,"lat":"60.88632000","lon":"15.11787000"},{"id":103654,"name":"Romme","native":null,"lat":"60.43333000","lon":"15.50000000"},{"id":103807,"name":"Säter","native":null,"lat":"60.34778000","lon":"15.75051000"},{"id":103688,"name":"Siljansnäs","native":null,"lat":"60.78333000","lon":"14.85000000"},{"id":103728,"name":"Smedby","native":null,"lat":"60.70000000","lon":"15.05000000"},{"id":103729,"name":"Smedjebacken","native":null,"lat":"60.14181000","lon":"15.41416000"},{"id":103802,"name":"Svärdsjö","native":null,"lat":"60.74022000","lon":"15.90173000"},{"id":103920,"name":"Vansbro","native":null,"lat":"60.50893000","lon":"14.22458000"},{"id":103941,"name":"Vikarbyn","native":null,"lat":"60.91667000","lon":"15.01667000"}]},{"id":1533,"name":"Gävleborg County","native":null,"cities":[{"id":102990,"name":"Alfta","native":null,"lat":"61.34675000","lon":"16.07499000"},{"id":103009,"name":"Arbrå","native":null,"lat":"61.46667000","lon":"16.38333000"},{"id":104014,"name":"Årsunda","native":null,"lat":"60.51644000","lon":"16.73436000"},{"id":103033,"name":"Bergby","native":null,"lat":"60.92931000","lon":"17.04194000"},{"id":103038,"name":"Bergsjö","native":null,"lat":"61.98253000","lon":"17.06368000"},{"id":103067,"name":"Bollnäs","native":null,"lat":"61.34817000","lon":"16.39464000"},{"id":103118,"name":"Delsbo","native":null,"lat":"61.80104000","lon":"16.55571000"},{"id":103129,"name":"Edsbyn","native":null,"lat":"61.37692000","lon":"15.81747000"},{"id":103193,"name":"Färila","native":null,"lat":"61.80011000","lon":"15.84422000"},{"id":103177,"name":"Forsbacka","native":null,"lat":"60.61667000","lon":"16.88333000"},{"id":103240,"name":"Gävle","native":null,"lat":"60.67452000","lon":"17.14174000"},{"id":103214,"name":"Gnarp","native":null,"lat":"62.04874000","lon":"17.25858000"},{"id":103276,"name":"Hedesunda","native":null,"lat":"60.40000000","lon":"17.00000000"},{"id":103293,"name":"Hofors","native":null,"lat":"60.54573000","lon":"16.28668000"},{"id":103305,"name":"Hudiksvall","native":null,"lat":"61.72744000","lon":"17.10558000"},{"id":103344,"name":"Iggesund","native":null,"lat":"61.64219000","lon":"17.07477000"},{"id":103361,"name":"Järbo","native":null,"lat":"60.71667000","lon":"16.60000000"},{"id":103365,"name":"Järvsö","native":null,"lat":"61.71667000","lon":"16.16667000"},{"id":103389,"name":"Kilafors","native":null,"lat":"61.23333000","lon":"16.56667000"},{"id":103485,"name":"Ljusdal","native":null,"lat":"61.82883000","lon":"16.09126000"},{"id":103488,"name":"Ljusne","native":null,"lat":"61.21170000","lon":"17.12790000"},{"id":103607,"name":"Ockelbo","native":null,"lat":"60.89120000","lon":"16.71846000"},{"id":103680,"name":"Sandarne","native":null,"lat":"61.25893000","lon":"17.15284000"},{"id":103681,"name":"Sandviken","native":null,"lat":"60.61667000","lon":"16.76667000"},{"id":103819,"name":"Söderhamn","native":null,"lat":"61.30373000","lon":"17.05921000"},{"id":103832,"name":"Sörforsa","native":null,"lat":"61.73333000","lon":"16.98333000"},{"id":103768,"name":"Storvik","native":null,"lat":"60.58333000","lon":"16.53333000"},{"id":103912,"name":"Valbo","native":null,"lat":"60.65000000","lon":"17.03333000"}]},{"id":1546,"name":"Gotland County","native":null,"cities":[{"id":103219,"name":"Gotland","native":null,"lat":"57.50000000","lon":"18.50000000"},{"id":103279,"name":"Hemse","native":null,"lat":"57.23788000","lon":"18.37443000"},{"id":103398,"name":"Klintehamn","native":null,"lat":"57.38667000","lon":"18.20371000"},{"id":103940,"name":"Vibble","native":null,"lat":"57.60452000","lon":"18.25601000"},{"id":103957,"name":"Visby","native":null,"lat":"57.64089000","lon":"18.29602000"}]},{"id":1548,"name":"Halland County","native":null,"cities":[{"id":104005,"name":"Åled","native":null,"lat":"56.75000000","lon":"12.93333000"},{"id":104016,"name":"Åsa","native":null,"lat":"57.35000000","lon":"12.11667000"},{"id":103096,"name":"Bua","native":null,"lat":"57.23780000","lon":"12.12187000"},{"id":103157,"name":"Falkenberg","native":null,"lat":"56.90552000","lon":"12.49118000"},{"id":103172,"name":"Fjärås kyrkby","native":null,"lat":"57.45913000","lon":"12.17508000"},{"id":103182,"name":"Frillesås","native":null,"lat":"57.31667000","lon":"12.16667000"},{"id":103186,"name":"Frösakull","native":null,"lat":"56.68333000","lon":"12.73333000"},{"id":103190,"name":"Fyllinge","native":null,"lat":"56.65000000","lon":"12.91667000"},{"id":103207,"name":"Getinge","native":null,"lat":"56.81667000","lon":"12.73333000"},{"id":103212,"name":"Glommen","native":null,"lat":"56.93333000","lon":"12.35000000"},{"id":103231,"name":"Gullbrandstorp","native":null,"lat":"56.70000000","lon":"12.73333000"},{"id":103258,"name":"Halmstad","native":null,"lat":"56.67446000","lon":"12.85676000"},{"id":103269,"name":"Harplinge","native":null,"lat":"56.74491000","lon":"12.72758000"},{"id":103271,"name":"Haverdal","native":null,"lat":"56.72222000","lon":"12.67194000"},{"id":103314,"name":"Hyltebruk","native":null,"lat":"56.99892000","lon":"13.23958000"},{"id":103405,"name":"Knäred","native":null,"lat":"56.51861000","lon":"13.32423000"},{"id":103423,"name":"Kungsbacka","native":null,"lat":"57.48719000","lon":"12.07612000"},{"id":103447,"name":"Laholm","native":null,"lat":"56.51207000","lon":"13.04371000"},{"id":103535,"name":"Mellbystrand","native":null,"lat":"56.48561000","lon":"12.93958000"},{"id":103538,"name":"Mjällby","native":null,"lat":"56.68333000","lon":"12.76667000"},{"id":103616,"name":"Onsala","native":null,"lat":"57.42531000","lon":"12.02903000"},{"id":103625,"name":"Oskarström","native":null,"lat":"56.80000000","lon":"12.96667000"},{"id":103806,"name":"Särö","native":null,"lat":"57.50577000","lon":"11.93210000"},{"id":103711,"name":"Skrea","native":null,"lat":"56.88333000","lon":"12.56667000"},{"id":103750,"name":"Steninge","native":null,"lat":"56.76900000","lon":"12.63034000"},{"id":103868,"name":"Torup","native":null,"lat":"56.95663000","lon":"13.07725000"},{"id":103879,"name":"Träslövsläge","native":null,"lat":"57.05417000","lon":"12.27899000"},{"id":103880,"name":"Trönninge","native":null,"lat":"56.61667000","lon":"12.93333000"},{"id":103883,"name":"Tvååker","native":null,"lat":"57.04147000","lon":"12.39950000"},{"id":103917,"name":"Vallda","native":null,"lat":"57.47750000","lon":"12.00139000"},{"id":103924,"name":"Varberg","native":null,"lat":"57.10557000","lon":"12.25078000"},{"id":103974,"name":"Västra Hagen","native":null,"lat":"57.42444000","lon":"11.93583000"},{"id":103932,"name":"Veddige","native":null,"lat":"57.26591000","lon":"12.33220000"},{"id":103933,"name":"Veinge","native":null,"lat":"56.55000000","lon":"13.06667000"}]},{"id":1550,"name":"Jönköping County","native":null,"cities":[{"id":102999,"name":"Anderstorp","native":null,"lat":"57.28333000","lon":"13.63333000"},{"id":103001,"name":"Aneby","native":null,"lat":"57.83895000","lon":"14.81016000"},{"id":103026,"name":"Bankeryd","native":null,"lat":"57.86021000","lon":"14.12400000"},{"id":103060,"name":"Bodafors","native":null,"lat":"57.50000000","lon":"14.70000000"},{"id":103071,"name":"Bor","native":null,"lat":"57.11667000","lon":"14.16667000"},{"id":103083,"name":"Bredaryd","native":null,"lat":"57.17343000","lon":"13.73789000"},{"id":103132,"name":"Ekenässjön","native":null,"lat":"57.49175000","lon":"15.02226000"},{"id":103136,"name":"Eksjö","native":null,"lat":"57.66643000","lon":"14.97205000"},{"id":103178,"name":"Forserum","native":null,"lat":"57.70000000","lon":"14.46667000"},{"id":103181,"name":"Forsheda","native":null,"lat":"57.16415000","lon":"13.83016000"},{"id":103209,"name":"Gislaved","native":null,"lat":"57.30440000","lon":"13.54078000"},{"id":103217,"name":"Gnosjö","native":null,"lat":"57.35850000","lon":"13.73686000"},{"id":103227,"name":"Gränna","native":null,"lat":"58.01667000","lon":"14.46667000"},{"id":103249,"name":"Habo","native":null,"lat":"57.91185000","lon":"14.07444000"},{"id":103284,"name":"Hestra","native":null,"lat":"57.44232000","lon":"13.59575000"},{"id":103285,"name":"Hillerstorp","native":null,"lat":"57.31293000","lon":"13.88437000"},{"id":103310,"name":"Huskvarna","native":null,"lat":"57.78596000","lon":"14.30214000"},{"id":103366,"name":"Jönköping","native":null,"lat":"57.78145000","lon":"14.15618000"},{"id":103387,"name":"Kaxholmen","native":null,"lat":"57.85345000","lon":"14.30457000"},{"id":103450,"name":"Landsbro","native":null,"lat":"57.36667000","lon":"14.90000000"},{"id":103514,"name":"Malmbäck","native":null,"lat":"57.57667000","lon":"14.46170000"},{"id":103523,"name":"Mariannelund","native":null,"lat":"57.61667000","lon":"15.56667000"},{"id":103526,"name":"Marieholm","native":null,"lat":"57.38333000","lon":"13.85000000"},{"id":103550,"name":"Mullsjö","native":null,"lat":"57.91710000","lon":"13.87831000"},{"id":103602,"name":"Nässjö","native":null,"lat":"57.65307000","lon":"14.69676000"},{"id":103610,"name":"Odensjö","native":null,"lat":"57.71667000","lon":"14.16667000"},{"id":103644,"name":"Reftele","native":null,"lat":"57.17467000","lon":"13.59498000"},{"id":103662,"name":"Rydaholm","native":null,"lat":"56.98388000","lon":"14.30849000"},{"id":103814,"name":"Sävsjö","native":null,"lat":"57.40327000","lon":"14.66244000"},{"id":103704,"name":"Skillingaryd","native":null,"lat":"57.43044000","lon":"14.09383000"},{"id":103732,"name":"Smålandsstenar","native":null,"lat":"57.16241000","lon":"13.41212000"},{"id":103757,"name":"Stockaryd","native":null,"lat":"57.31737000","lon":"14.59341000"},{"id":103835,"name":"Taberg","native":null,"lat":"57.67722000","lon":"14.08876000"},{"id":103840,"name":"Tenhult","native":null,"lat":"57.70761000","lon":"14.32205000"},{"id":103871,"name":"Tranås","native":null,"lat":"58.03717000","lon":"14.97820000"},{"id":103909,"name":"Vaggeryd","native":null,"lat":"57.49807000","lon":"14.14842000"},{"id":103968,"name":"Värnamo","native":null,"lat":"57.18604000","lon":"14.04001000"},{"id":103937,"name":"Vetlanda","native":null,"lat":"57.42887000","lon":"15.07762000"},{"id":103961,"name":"Vrigstad","native":null,"lat":"57.35000000","lon":"14.46667000"}]},{"id":1544,"name":"Kalmar County","native":null,"cities":[{"id":103004,"name":"Ankarsrum","native":null,"lat":"57.69896000","lon":"16.33407000"},{"id":103035,"name":"Bergkvara","native":null,"lat":"56.39063000","lon":"16.07274000"},{"id":103059,"name":"Blomstermåla","native":null,"lat":"56.98333000","lon":"16.33333000"},{"id":103073,"name":"Borgholm","native":null,"lat":"56.87930000","lon":"16.65634000"},{"id":103140,"name":"Emmaboda","native":null,"lat":"56.63268000","lon":"15.53648000"},{"id":103194,"name":"Färjestaden","native":null,"lat":"56.64990000","lon":"16.46859000"},{"id":103201,"name":"Gamleby","native":null,"lat":"57.89485000","lon":"16.40508000"},{"id":103234,"name":"Gunnebo","native":null,"lat":"57.71667000","lon":"16.53333000"},{"id":103331,"name":"Högsby","native":null,"lat":"57.16597000","lon":"16.02562000"},{"id":103307,"name":"Hultsfred","native":null,"lat":"57.48815000","lon":"15.84357000"},{"id":103372,"name":"Kalmar","native":null,"lat":"56.66157000","lon":"16.36163000"},{"id":103413,"name":"Kristdala","native":null,"lat":"57.40070000","lon":"16.20496000"},{"id":103473,"name":"Lindsdal","native":null,"lat":"56.73333000","lon":"16.30000000"},{"id":103481,"name":"Ljungbyholm","native":null,"lat":"56.63333000","lon":"16.16667000"},{"id":103559,"name":"Målilla","native":null,"lat":"57.38773000","lon":"15.80675000"},{"id":103565,"name":"Mönsterås","native":null,"lat":"57.04134000","lon":"16.44463000"},{"id":103568,"name":"Mörbylånga","native":null,"lat":"56.52480000","lon":"16.37877000"},{"id":103593,"name":"Nybro","native":null,"lat":"56.74461000","lon":"15.90714000"},{"id":103623,"name":"Oskarshamn","native":null,"lat":"57.26455000","lon":"16.44837000"},{"id":104056,"name":"Överum","native":null,"lat":"57.98856000","lon":"16.31390000"},{"id":103641,"name":"Påskallavik","native":null,"lat":"57.16667000","lon":"16.45000000"},{"id":103649,"name":"Rinkabyholm","native":null,"lat":"56.64972000","lon":"16.26667000"},{"id":103727,"name":"Smedby","native":null,"lat":"56.67413000","lon":"16.24320000"},{"id":103827,"name":"Södra Sandby","native":null,"lat":"56.56667000","lon":"16.61667000"},{"id":103829,"name":"Södra Vi","native":null,"lat":"57.73993000","lon":"15.79391000"},{"id":103762,"name":"Storebro","native":null,"lat":"57.58333000","lon":"15.85000000"},{"id":103849,"name":"Timmernabben","native":null,"lat":"56.96667000","lon":"16.43333000"},{"id":103866,"name":"Torsås","native":null,"lat":"56.41251000","lon":"15.99844000"},{"id":103873,"name":"Trekanten","native":null,"lat":"56.70000000","lon":"16.11667000"},{"id":103970,"name":"Västervik","native":null,"lat":"57.75840000","lon":"16.63733000"},{"id":103947,"name":"Vimmerby","native":null,"lat":"57.66588000","lon":"15.85515000"},{"id":103956,"name":"Virserum","native":null,"lat":"57.31667000","lon":"15.58333000"}]},{"id":1542,"name":"Kronoberg County","native":null,"cities":[{"id":103985,"name":"Älmhult","native":null,"lat":"56.55146000","lon":"14.13827000"},{"id":102995,"name":"Alvesta","native":null,"lat":"56.89935000","lon":"14.55559000"},{"id":104018,"name":"Åseda","native":null,"lat":"57.17010000","lon":"15.34430000"},{"id":103082,"name":"Braås","native":null,"lat":"57.06667000","lon":"15.05000000"},{"id":103205,"name":"Gemla","native":null,"lat":"56.86753000","lon":"14.64379000"},{"id":103301,"name":"Hovmantorp","native":null,"lat":"56.78685000","lon":"15.14023000"},{"id":103346,"name":"Ingelstad","native":null,"lat":"56.75000000","lon":"14.91667000"},{"id":103446,"name":"Lagan","native":null,"lat":"56.91667000","lon":"13.98333000"},{"id":103449,"name":"Lammhult","native":null,"lat":"57.16667000","lon":"14.58333000"},{"id":103458,"name":"Lenhovda","native":null,"lat":"57.00000000","lon":"15.28333000"},{"id":103461,"name":"Lessebo","native":null,"lat":"56.75185000","lon":"15.26969000"},{"id":103478,"name":"Ljungby","native":null,"lat":"56.83324000","lon":"13.94082000"},{"id":103531,"name":"Markaryd","native":null,"lat":"56.46135000","lon":"13.59644000"},{"id":103543,"name":"Moheda","native":null,"lat":"57.00000000","lon":"14.56667000"},{"id":103659,"name":"Rottne","native":null,"lat":"57.01667000","lon":"14.90000000"},{"id":103660,"name":"Ryd","native":null,"lat":"56.46667000","lon":"14.68333000"},{"id":103774,"name":"Strömsnäsbruk","native":null,"lat":"56.55000000","lon":"13.71667000"},{"id":103852,"name":"Tingsryd","native":null,"lat":"56.52470000","lon":"14.97902000"},{"id":103975,"name":"Växjö","native":null,"lat":"56.87767000","lon":"14.80906000"},{"id":103959,"name":"Vislanda","native":null,"lat":"56.78333000","lon":"14.45000000"}]},{"id":1538,"name":"Norrbotten County","native":null,"cities":[{"id":103993,"name":"Älvsbyn","native":null,"lat":"65.67624000","lon":"21.00162000"},{"id":103010,"name":"Arjeplog","native":null,"lat":"66.05173000","lon":"17.88606000"},{"id":103015,"name":"Arvidsjaur","native":null,"lat":"65.59033000","lon":"19.16682000"},{"id":103036,"name":"Bergnäset","native":null,"lat":"65.57791000","lon":"22.10844000"},{"id":103039,"name":"Bergsviken","native":null,"lat":"65.30000000","lon":"21.38333000"},{"id":103054,"name":"Björkskatan","native":null,"lat":"65.61373000","lon":"22.17702000"},{"id":103061,"name":"Boden","native":null,"lat":"65.82518000","lon":"21.68864000"},{"id":103237,"name":"Gällivare","native":null,"lat":"67.13387000","lon":"20.65278000"},{"id":103202,"name":"Gammelstad","native":null,"lat":"65.63931000","lon":"22.01145000"},{"id":103267,"name":"Haparanda","native":null,"lat":"65.83549000","lon":"24.13676000"},{"id":103299,"name":"Hortlax","native":null,"lat":"65.28188000","lon":"21.40544000"},{"id":103353,"name":"Jokkmokk","native":null,"lat":"66.60665000","lon":"19.82324000"},{"id":103369,"name":"Kalix","native":null,"lat":"65.85298000","lon":"23.15645000"},{"id":103394,"name":"Kiruna","native":null,"lat":"67.85572000","lon":"20.22513000"},{"id":103493,"name":"Luleå","native":null,"lat":"65.58415000","lon":"22.15465000"},{"id":103513,"name":"Malmberget","native":null,"lat":"67.17529000","lon":"20.65495000"},{"id":103528,"name":"Marielund","native":null,"lat":"65.85307000","lon":"24.10486000"},{"id":103585,"name":"Norrfjärden","native":null,"lat":"65.41805000","lon":"21.50151000"},{"id":104052,"name":"Överkalix","native":null,"lat":"66.32754000","lon":"22.84414000"},{"id":104054,"name":"Övertorneå","native":null,"lat":"66.38778000","lon":"23.65425000"},{"id":103630,"name":"Pajala","native":null,"lat":"67.21284000","lon":"23.36607000"},{"id":103637,"name":"Piteå","native":null,"lat":"65.31717000","lon":"21.47944000"},{"id":103668,"name":"Råneå","native":null,"lat":"65.85482000","lon":"22.29126000"},{"id":103652,"name":"Roknäs","native":null,"lat":"65.35000000","lon":"21.20000000"},{"id":103653,"name":"Rolfs","native":null,"lat":"65.85000000","lon":"23.11667000"},{"id":103658,"name":"Rosvik","native":null,"lat":"65.43333000","lon":"21.70000000"},{"id":103812,"name":"Sävast","native":null,"lat":"65.77002000","lon":"21.73113000"},{"id":103828,"name":"Södra Sunderbyn","native":null,"lat":"65.65983000","lon":"21.94004000"},{"id":103891,"name":"Töre","native":null,"lat":"65.91243000","lon":"22.65128000"}]},{"id":1539,"name":"Örebro County","native":null,"cities":[{"id":104017,"name":"Åsbro","native":null,"lat":"59.00000000","lon":"15.05000000"},{"id":103019,"name":"Askersund","native":null,"lat":"58.87988000","lon":"14.90230000"},{"id":103115,"name":"Degerfors","native":null,"lat":"59.23797000","lon":"14.43077000"},{"id":103131,"name":"Ekeby-Almby","native":null,"lat":"59.26000000","lon":"15.33000000"},{"id":103163,"name":"Fellingsbro","native":null,"lat":"59.43333000","lon":"15.58333000"},{"id":103170,"name":"Fjugesta","native":null,"lat":"59.17375000","lon":"14.87227000"},{"id":103187,"name":"Frövi","native":null,"lat":"59.46667000","lon":"15.36667000"},{"id":103204,"name":"Garphyttan","native":null,"lat":"59.30429000","lon":"14.94623000"},{"id":103316,"name":"Hällabrottet","native":null,"lat":"59.11667000","lon":"15.20000000"},{"id":103318,"name":"Hällefors","native":null,"lat":"59.78388000","lon":"14.52197000"},{"id":103253,"name":"Hallsberg","native":null,"lat":"59.06463000","lon":"15.10993000"},{"id":103302,"name":"Hovsta","native":null,"lat":"59.35000000","lon":"15.21667000"},{"id":103379,"name":"Karlskoga","native":null,"lat":"59.32667000","lon":"14.52386000"},{"id":103409,"name":"Kopparberg","native":null,"lat":"59.87597000","lon":"14.99436000"},{"id":103420,"name":"Kumla","native":null,"lat":"59.12770000","lon":"15.14341000"},{"id":103453,"name":"Laxå","native":null,"lat":"58.98630000","lon":"14.61904000"},{"id":103469,"name":"Lindesberg","native":null,"lat":"59.59202000","lon":"15.23040000"},{"id":103577,"name":"Nora","native":null,"lat":"59.51926000","lon":"15.03979000"},{"id":103609,"name":"Odensbacken","native":null,"lat":"59.16667000","lon":"15.53333000"},{"id":104034,"name":"Örebro","native":null,"lat":"59.27412000","lon":"15.20660000"},{"id":103640,"name":"Pålsboda","native":null,"lat":"59.06565000","lon":"15.33747000"},{"id":103723,"name":"Sköllersta","native":null,"lat":"59.13738000","lon":"15.33940000"},{"id":103770,"name":"Storå","native":null,"lat":"59.71409000","lon":"15.13169000"},{"id":103955,"name":"Vintrosa","native":null,"lat":"59.25000000","lon":"14.95000000"}]},{"id":1536,"name":"Östergötland County","native":null,"cities":[{"id":103999,"name":"Åby","native":null,"lat":"58.66667000","lon":"16.18333000"},{"id":104023,"name":"Åtvidaberg","native":null,"lat":"58.20152000","lon":"15.99770000"},{"id":103032,"name":"Berg","native":null,"lat":"58.48831000","lon":"15.52969000"},{"id":103072,"name":"Borensberg","native":null,"lat":"58.56667000","lon":"15.28333000"},{"id":103079,"name":"Boxholm","native":null,"lat":"58.19719000","lon":"15.05376000"},{"id":103138,"name":"Ekängen","native":null,"lat":"58.46667000","lon":"15.63333000"},{"id":103166,"name":"Finspång","native":null,"lat":"58.70578000","lon":"15.76739000"},{"id":103221,"name":"Grebo","native":null,"lat":"58.30145000","lon":"15.87085000"},{"id":103236,"name":"Gusum","native":null,"lat":"58.26880000","lon":"16.49894000"},{"id":103281,"name":"Herrestad","native":null,"lat":"58.38333000","lon":"14.80000000"},{"id":103358,"name":"Jursla","native":null,"lat":"58.66667000","lon":"16.18333000"},{"id":103391,"name":"Kimstad","native":null,"lat":"58.54967000","lon":"15.96296000"},{"id":103396,"name":"Kisa","native":null,"lat":"57.98781000","lon":"15.63303000"},{"id":103418,"name":"Krokek","native":null,"lat":"58.67231000","lon":"16.36741000"},{"id":103474,"name":"Lindö","native":null,"lat":"58.61667000","lon":"16.25000000"},{"id":103475,"name":"Linghem","native":null,"lat":"58.43333000","lon":"15.78333000"},{"id":103476,"name":"Linköping","native":null,"lat":"58.41086000","lon":"15.62157000"},{"id":103483,"name":"Ljungsbro","native":null,"lat":"58.51667000","lon":"15.50000000"},{"id":103516,"name":"Malmslätt","native":null,"lat":"58.41102000","lon":"15.51647000"},{"id":103522,"name":"Mantorp","native":null,"lat":"58.35000000","lon":"15.28333000"},{"id":103540,"name":"Mjölby","native":null,"lat":"58.32595000","lon":"15.12365000"},{"id":103548,"name":"Motala","native":null,"lat":"58.53706000","lon":"15.03649000"},{"id":103586,"name":"Norrköping","native":null,"lat":"58.59419000","lon":"16.18260000"},{"id":104027,"name":"Ödeshög","native":null,"lat":"58.22949000","lon":"14.65294000"},{"id":104044,"name":"Österbymo","native":null,"lat":"57.82465000","lon":"15.27357000"},{"id":103647,"name":"Rimforsa","native":null,"lat":"58.13624000","lon":"15.68650000"},{"id":103661,"name":"Ryd","native":null,"lat":"58.66667000","lon":"15.08333000"},{"id":103718,"name":"Skänninge","native":null,"lat":"58.39427000","lon":"15.08659000"},{"id":103719,"name":"Skärblacka","native":null,"lat":"58.56667000","lon":"15.90000000"},{"id":103821,"name":"Söderköping","native":null,"lat":"58.48057000","lon":"16.32221000"},{"id":103752,"name":"Stenstorp","native":null,"lat":"58.48333000","lon":"15.06667000"},{"id":103778,"name":"Sturefors","native":null,"lat":"58.33333000","lon":"15.73333000"},{"id":103803,"name":"Svärtinge","native":null,"lat":"58.65507000","lon":"16.02823000"},{"id":103836,"name":"Tallboda","native":null,"lat":"58.42521000","lon":"15.68154000"},{"id":103907,"name":"Vadstena","native":null,"lat":"58.44863000","lon":"14.88969000"},{"id":103913,"name":"Valdemarsvik","native":null,"lat":"58.20310000","lon":"16.60225000"},{"id":103944,"name":"Vikingstad","native":null,"lat":"58.38304000","lon":"15.43201000"}]},{"id":1541,"name":"Skåne County","native":null,"cities":[{"id":104000,"name":"Åhus","native":null,"lat":"55.91667000","lon":"14.28333000"},{"id":104002,"name":"Åkarp","native":null,"lat":"55.65396000","lon":"13.11107000"},{"id":102998,"name":"Anderslöv","native":null,"lat":"55.43836000","lon":"13.31966000"},{"id":103996,"name":"Ängelholm","native":null,"lat":"56.24280000","lon":"12.86219000"},{"id":103012,"name":"Arlöv","native":null,"lat":"55.63248000","lon":"13.07141000"},{"id":103021,"name":"Asmundtorp","native":null,"lat":"55.88333000","lon":"12.93333000"},{"id":104021,"name":"Åstorp","native":null,"lat":"56.13566000","lon":"12.94430000"},{"id":103028,"name":"Bara","native":null,"lat":"55.58155000","lon":"13.17862000"},{"id":103104,"name":"Bårslöv","native":null,"lat":"56.00910000","lon":"12.80580000"},{"id":103105,"name":"Båstad","native":null,"lat":"56.42689000","lon":"12.85339000"},{"id":103041,"name":"Billeberga","native":null,"lat":"55.88333000","lon":"13.00000000"},{"id":103042,"name":"Billesholm","native":null,"lat":"56.05000000","lon":"13.00000000"},{"id":103049,"name":"Bjärnum","native":null,"lat":"56.29032000","lon":"13.71128000"},{"id":103050,"name":"Bjärred","native":null,"lat":"55.71667000","lon":"13.01667000"},{"id":103047,"name":"Bjuv","native":null,"lat":"56.08372000","lon":"12.91914000"},{"id":103058,"name":"Blentarp","native":null,"lat":"55.58333000","lon":"13.60000000"},{"id":103087,"name":"Broby","native":null,"lat":"56.25521000","lon":"14.07797000"},{"id":103089,"name":"Bromölla","native":null,"lat":"56.07551000","lon":"14.46958000"},{"id":103097,"name":"Bunkeflostrand","native":null,"lat":"55.54478000","lon":"12.92375000"},{"id":103109,"name":"Dalby","native":null,"lat":"55.66655000","lon":"13.34976000"},{"id":103114,"name":"Degeberga","native":null,"lat":"55.83333000","lon":"14.08333000"},{"id":103130,"name":"Ekeby","native":null,"lat":"56.00000000","lon":"12.96667000"},{"id":103152,"name":"Eslöv","native":null,"lat":"55.83928000","lon":"13.30393000"},{"id":103195,"name":"Färlöv","native":null,"lat":"56.06667000","lon":"14.08333000"},{"id":103171,"name":"Fjälkinge","native":null,"lat":"56.04364000","lon":"14.27562000"},{"id":103196,"name":"Förslöv","native":null,"lat":"56.35000000","lon":"12.81667000"},{"id":103188,"name":"Furulund","native":null,"lat":"55.77380000","lon":"13.09022000"},{"id":103203,"name":"Gantofta","native":null,"lat":"55.98729000","lon":"12.80482000"},{"id":103239,"name":"Gärsnäs","native":null,"lat":"55.54949000","lon":"14.17923000"},{"id":103206,"name":"Genarp","native":null,"lat":"55.59907000","lon":"13.39820000"},{"id":103211,"name":"Glimåkra","native":null,"lat":"56.30000000","lon":"14.13333000"},{"id":103213,"name":"Glumslöv","native":null,"lat":"55.94091000","lon":"12.80929000"},{"id":103315,"name":"Häljarp","native":null,"lat":"55.85000000","lon":"12.91667000"},{"id":103260,"name":"Hammar","native":null,"lat":"56.01667000","lon":"14.21667000"},{"id":103263,"name":"Hanaskog","native":null,"lat":"56.16061000","lon":"14.09307000"},{"id":103325,"name":"Hässleholm","native":null,"lat":"56.15905000","lon":"13.76638000"},{"id":103327,"name":"Hästveda","native":null,"lat":"56.28468000","lon":"13.93547000"},{"id":103277,"name":"Helsingborg","native":null,"lat":"56.05648000","lon":"12.78718000"},{"id":103287,"name":"Hittarp","native":null,"lat":"56.10000000","lon":"12.63333000"},{"id":103291,"name":"Hjärnarp","native":null,"lat":"56.31667000","lon":"12.91667000"},{"id":103292,"name":"Hjärup","native":null,"lat":"55.66880000","lon":"13.13931000"},{"id":103295,"name":"Hofterup","native":null,"lat":"55.80485000","lon":"12.97970000"},{"id":103329,"name":"Höganäs","native":null,"lat":"56.19971000","lon":"12.55795000"},{"id":103334,"name":"Hököpinge","native":null,"lat":"55.49411000","lon":"13.00782000"},{"id":103335,"name":"Höllviken","native":null,"lat":"55.40982000","lon":"12.95580000"},{"id":103342,"name":"Höör","native":null,"lat":"55.93444000","lon":"13.53850000"},{"id":103338,"name":"Hörby","native":null,"lat":"55.85238000","lon":"13.66094000"},{"id":103312,"name":"Hyllinge","native":null,"lat":"56.10000000","lon":"12.85000000"},{"id":103356,"name":"Jonstorp","native":null,"lat":"56.23380000","lon":"12.67184000"},{"id":103440,"name":"Kågeröd","native":null,"lat":"55.99976000","lon":"13.08795000"},{"id":103437,"name":"Kävlinge","native":null,"lat":"55.79188000","lon":"13.11021000"},{"id":103401,"name":"Klågerup","native":null,"lat":"55.59416000","lon":"13.24574000"},{"id":103399,"name":"Klippan","native":null,"lat":"56.13559000","lon":"13.13086000"},{"id":103402,"name":"Knislinge","native":null,"lat":"56.18333000","lon":"14.08333000"},{"id":103443,"name":"Köpingebro","native":null,"lat":"55.45526000","lon":"13.93453000"},{"id":103414,"name":"Kristianstad","native":null,"lat":"56.03129000","lon":"14.15242000"},{"id":103433,"name":"Kvidinge","native":null,"lat":"56.13386000","lon":"13.04678000"},{"id":103451,"name":"Landskrona","native":null,"lat":"55.88620000","lon":"12.85880000"},{"id":103480,"name":"Ljungbyhed","native":null,"lat":"56.07437000","lon":"13.24010000"},{"id":103482,"name":"Ljunghusen","native":null,"lat":"55.39793000","lon":"12.92486000"},{"id":103506,"name":"Löberöd","native":null,"lat":"55.77610000","lon":"13.52414000"},{"id":103507,"name":"Löddeköpinge","native":null,"lat":"55.76667000","lon":"13.01667000"},{"id":103489,"name":"Lomma","native":null,"lat":"55.67244000","lon":"13.06849000"},{"id":103509,"name":"Lönsboda","native":null,"lat":"56.40000000","lon":"14.31667000"},{"id":103495,"name":"Lund","native":null,"lat":"55.70584000","lon":"13.19321000"},{"id":103517,"name":"Malmö","native":null,"lat":"55.60587000","lon":"13.00073000"},{"id":103527,"name":"Marieholm","native":null,"lat":"55.86667000","lon":"13.15000000"},{"id":103567,"name":"Mörarp","native":null,"lat":"56.05749000","lon":"12.88018000"},{"id":103552,"name":"Munka-Ljungby","native":null,"lat":"56.25000000","lon":"12.96667000"},{"id":103604,"name":"Näsum","native":null,"lat":"56.17693000","lon":"14.49706000"},{"id":103584,"name":"Norra Åsum","native":null,"lat":"55.98333000","lon":"14.15000000"},{"id":104030,"name":"Ödåkra","native":null,"lat":"56.10412000","lon":"12.74770000"},{"id":104032,"name":"Önnestad","native":null,"lat":"56.05747000","lon":"14.02233000"},{"id":104037,"name":"Örkelljunga","native":null,"lat":"56.28338000","lon":"13.27773000"},{"id":103621,"name":"Osby","native":null,"lat":"56.38165000","lon":"13.99364000"},{"id":104051,"name":"Östra Ljungby","native":null,"lat":"56.19601000","lon":"13.09199000"},{"id":103629,"name":"Oxie","native":null,"lat":"55.54014000","lon":"13.09605000"},{"id":103639,"name":"Påarp","native":null,"lat":"56.03333000","lon":"12.81667000"},{"id":103635,"name":"Perstorp","native":null,"lat":"56.13829000","lon":"13.39476000"},{"id":103663,"name":"Rydebäck","native":null,"lat":"55.96667000","lon":"12.76667000"},{"id":103664,"name":"Rydsgård","native":null,"lat":"55.47285000","lon":"13.58829000"},{"id":103810,"name":"Sätofta","native":null,"lat":"55.91667000","lon":"13.55000000"},{"id":103683,"name":"Saxtorpsskogen","native":null,"lat":"55.83208000","lon":"12.94429000"},{"id":103685,"name":"Sibbhult","native":null,"lat":"56.26667000","lon":"14.20000000"},{"id":103689,"name":"Simrishamn","native":null,"lat":"55.55653000","lon":"14.35037000"},{"id":103692,"name":"Sjöbo","native":null,"lat":"55.63135000","lon":"13.70622000"},{"id":103695,"name":"Skanör med Falsterbo","native":null,"lat":"55.40000000","lon":"12.85000000"},{"id":103721,"name":"Skåre","native":null,"lat":"55.38333000","lon":"13.05000000"},{"id":103699,"name":"Skegrie","native":null,"lat":"55.40633000","lon":"13.07693000"},{"id":103707,"name":"Skivarp","native":null,"lat":"55.41667000","lon":"13.56667000"},{"id":103714,"name":"Skurup","native":null,"lat":"55.47839000","lon":"13.50186000"},{"id":103731,"name":"Smygehamn","native":null,"lat":"55.34337000","lon":"13.36989000"},{"id":103826,"name":"Södra Sandby","native":null,"lat":"55.71677000","lon":"13.34659000"},{"id":103834,"name":"Sösdala","native":null,"lat":"56.03992000","lon":"13.67811000"},{"id":103744,"name":"Staffanstorp","native":null,"lat":"55.64277000","lon":"13.20638000"},{"id":103781,"name":"Stångby","native":null,"lat":"55.75030000","lon":"13.19797000"},{"id":103748,"name":"Stehag","native":null,"lat":"55.90188000","lon":"13.39577000"},{"id":103777,"name":"Strövelstorp","native":null,"lat":"56.16979000","lon":"12.83925000"},{"id":103794,"name":"Svalöv","native":null,"lat":"55.91340000","lon":"13.10762000"},{"id":103797,"name":"Svedala","native":null,"lat":"55.50788000","lon":"13.23515000"},{"id":103839,"name":"Teckomatorp","native":null,"lat":"55.86667000","lon":"13.08333000"},{"id":103856,"name":"Tollarp","native":null,"lat":"55.93333000","lon":"13.98333000"},{"id":103857,"name":"Tollarp1","native":null,"lat":"56.16667000","lon":"14.28333000"},{"id":103858,"name":"Tomelilla","native":null,"lat":"55.54293000","lon":"13.95460000"},{"id":103860,"name":"Torekov","native":null,"lat":"56.42500000","lon":"12.63333000"},{"id":103861,"name":"Tormestorp","native":null,"lat":"56.11350000","lon":"13.74516000"},{"id":103874,"name":"Trelleborg","native":null,"lat":"55.37514000","lon":"13.15691000"},{"id":103884,"name":"Tygelsjö","native":null,"lat":"55.51667000","lon":"13.00000000"},{"id":103886,"name":"Tyringe","native":null,"lat":"56.16037000","lon":"13.59811000"},{"id":103915,"name":"Valje","native":null,"lat":"56.06279000","lon":"14.54388000"},{"id":103931,"name":"Veberöd","native":null,"lat":"55.63333000","lon":"13.48333000"},{"id":103934,"name":"Vejbystrand","native":null,"lat":"56.31778000","lon":"12.76722000"},{"id":103935,"name":"Vellinge","native":null,"lat":"55.47124000","lon":"13.01971000"},{"id":103943,"name":"Viken","native":null,"lat":"56.15063000","lon":"12.57429000"},{"id":103954,"name":"Vinslöv","native":null,"lat":"56.10000000","lon":"13.91667000"},{"id":103960,"name":"Vittsjö","native":null,"lat":"56.34366000","lon":"13.66081000"},{"id":103983,"name":"Ystad","native":null,"lat":"55.42966000","lon":"13.82041000"}]},{"id":1540,"name":"Södermanland County","native":null,"cities":[{"id":104003,"name":"Åkers Styckebruk","native":null,"lat":"59.25000000","lon":"17.08333000"},{"id":103998,"name":"Ärla","native":null,"lat":"59.27983000","lon":"16.67896000"},{"id":103013,"name":"Arnö","native":null,"lat":"58.72675000","lon":"17.02322000"},{"id":103027,"name":"Bara","native":null,"lat":"58.68333000","lon":"17.06667000"},{"id":103150,"name":"Eskilstuna","native":null,"lat":"59.36661000","lon":"16.50770000"},{"id":103173,"name":"Flen","native":null,"lat":"59.05834000","lon":"16.58781000"},{"id":103215,"name":"Gnesta","native":null,"lat":"59.04751000","lon":"17.31191000"},{"id":103317,"name":"Hällbybrunn","native":null,"lat":"59.39152000","lon":"16.42229000"},{"id":103320,"name":"Hälleforsnäs","native":null,"lat":"59.15208000","lon":"16.49700000"},{"id":103385,"name":"Katrineholm","native":null,"lat":"58.99587000","lon":"16.20721000"},{"id":103432,"name":"Kvicksund","native":null,"lat":"59.45099000","lon":"16.32131000"},{"id":103515,"name":"Malmköping","native":null,"lat":"59.13333000","lon":"16.73333000"},{"id":103525,"name":"Mariefred","native":null,"lat":"59.25963000","lon":"17.22300000"},{"id":103598,"name":"Nyköping","native":null,"lat":"58.75300000","lon":"17.00788000"},{"id":103614,"name":"Olstorp","native":null,"lat":"58.81667000","lon":"16.63333000"},{"id":103627,"name":"Oxelösund","native":null,"lat":"58.67057000","lon":"17.10152000"},{"id":103709,"name":"Skogstorp","native":null,"lat":"59.32472000","lon":"16.48284000"},{"id":103746,"name":"Stallarholmen","native":null,"lat":"59.36667000","lon":"17.20000000"},{"id":103756,"name":"Stigtomta","native":null,"lat":"58.80000000","lon":"16.78333000"},{"id":103771,"name":"Strängnäs","native":null,"lat":"59.37741000","lon":"17.03119000"},{"id":103793,"name":"Svalsta","native":null,"lat":"58.74273000","lon":"16.86978000"},{"id":103864,"name":"Torshälla","native":null,"lat":"59.41667000","lon":"16.46667000"},{"id":103877,"name":"Trosa","native":null,"lat":"58.89621000","lon":"17.54812000"},{"id":103911,"name":"Vagnhärad","native":null,"lat":"58.94587000","lon":"17.48757000"},{"id":103916,"name":"Valla","native":null,"lat":"59.01667000","lon":"16.38333000"},{"id":103951,"name":"Vingåker","native":null,"lat":"59.04330000","lon":"15.87374000"}]},{"id":1551,"name":"Stockholm County","native":null,"cities":[{"id":102986,"name":"Akalla","native":null,"lat":"59.41465000","lon":"17.91398000"},{"id":104004,"name":"Åkersberga","native":null,"lat":"59.47944000","lon":"18.29967000"},{"id":102988,"name":"Alby","native":null,"lat":"59.23350000","lon":"17.85380000"},{"id":103987,"name":"Älmsta","native":null,"lat":"59.96667000","lon":"18.80000000"},{"id":103988,"name":"Älta","native":null,"lat":"59.26667000","lon":"18.18333000"},{"id":103014,"name":"Arnö","native":null,"lat":"60.11667000","lon":"18.63333000"},{"id":104013,"name":"Årsta","native":null,"lat":"59.29780000","lon":"18.05140000"},{"id":103037,"name":"Bergshamra","native":null,"lat":"59.38083000","lon":"18.03427000"},{"id":103066,"name":"Bollmora","native":null,"lat":"59.24196000","lon":"18.22762000"},{"id":103070,"name":"Boo","native":null,"lat":"59.33333000","lon":"18.28333000"},{"id":103085,"name":"Brevik","native":null,"lat":"59.35000000","lon":"18.20000000"},{"id":103086,"name":"Bro","native":null,"lat":"59.51667000","lon":"17.63333000"},{"id":103088,"name":"Bromma","native":null,"lat":"59.34000000","lon":"17.94000000"},{"id":103091,"name":"Brunn","native":null,"lat":"59.28000000","lon":"18.43000000"},{"id":103092,"name":"Brunna","native":null,"lat":"59.51667000","lon":"17.75000000"},{"id":103108,"name":"Dalarö","native":null,"lat":"59.13306000","lon":"18.40639000"},{"id":103123,"name":"Djurö","native":null,"lat":"59.32653000","lon":"18.71152000"},{"id":103121,"name":"Djursholm","native":null,"lat":"59.39926000","lon":"18.05619000"},{"id":103133,"name":"Ekerö","native":null,"lat":"59.29100000","lon":"17.81212000"},{"id":103143,"name":"Enebyberg","native":null,"lat":"59.43333000","lon":"18.05000000"},{"id":103147,"name":"Eriksberg","native":null,"lat":"59.24241000","lon":"17.81631000"},{"id":103168,"name":"Fisksätra","native":null,"lat":"59.29153000","lon":"18.25490000"},{"id":103169,"name":"Fittja","native":null,"lat":"59.24868000","lon":"17.85991000"},{"id":103199,"name":"Gamla Stan","native":null,"lat":"59.32627000","lon":"18.07251000"},{"id":103235,"name":"Gustavsberg","native":null,"lat":"59.32684000","lon":"18.38975000"},{"id":103257,"name":"Hallstavik","native":null,"lat":"60.05000000","lon":"18.60000000"},{"id":103264,"name":"Handen","native":null,"lat":"59.16809000","lon":"18.13796000"},{"id":103265,"name":"Haninge","native":null,"lat":"59.16775000","lon":"18.14478000"},{"id":103278,"name":"Hemmesta","native":null,"lat":"59.32273000","lon":"18.48675000"},{"id":103336,"name":"Hölö","native":null,"lat":"59.01667000","lon":"17.53333000"},{"id":103303,"name":"Huddinge","native":null,"lat":"59.23705000","lon":"17.98192000"},{"id":103351,"name":"Jakobsberg","native":null,"lat":"59.42268000","lon":"17.83508000"},{"id":103363,"name":"Järna","native":null,"lat":"59.09165000","lon":"17.56615000"},{"id":103357,"name":"Jordbro","native":null,"lat":"59.14972000","lon":"18.11667000"},{"id":103397,"name":"Kista","native":null,"lat":"59.40316000","lon":"17.94479000"},{"id":103410,"name":"Kopparmora","native":null,"lat":"59.33306000","lon":"18.58306000"},{"id":103422,"name":"Kummelnäs","native":null,"lat":"59.35000000","lon":"18.28333000"},{"id":103427,"name":"Kungsängen","native":null,"lat":"59.47857000","lon":"17.74834000"},{"id":103426,"name":"Kungsholmen","native":null,"lat":"59.33183000","lon":"18.04118000"},{"id":103505,"name":"Långvik","native":null,"lat":"59.24583000","lon":"18.51667000"},{"id":103463,"name":"Lidingö","native":null,"lat":"59.36303000","lon":"18.15096000"},{"id":103471,"name":"Lindholmen","native":null,"lat":"59.58333000","lon":"18.10000000"},{"id":103558,"name":"Märsta","native":null,"lat":"59.62157000","lon":"17.85476000"},{"id":103561,"name":"Mölnbo","native":null,"lat":"59.05000000","lon":"17.41667000"},{"id":103571,"name":"Mörtnäs","native":null,"lat":"59.31862000","lon":"18.44312000"},{"id":103572,"name":"Nacka","native":null,"lat":"59.31053000","lon":"18.16372000"},{"id":103588,"name":"Norrtälje","native":null,"lat":"59.75799000","lon":"18.70496000"},{"id":103596,"name":"Nykvarn","native":null,"lat":"59.80000000","lon":"18.30000000"},{"id":103600,"name":"Nynäshamn","native":null,"lat":"58.90337000","lon":"17.94793000"},{"id":104042,"name":"Ösmo","native":null,"lat":"58.98333000","lon":"17.90000000"},{"id":104045,"name":"Östermalm","native":null,"lat":"59.33879000","lon":"18.08487000"},{"id":103634,"name":"Pershagen","native":null,"lat":"59.15494000","lon":"17.65340000"},{"id":103669,"name":"Råsunda","native":null,"lat":"59.36588000","lon":"17.99569000"},{"id":103645,"name":"Resarö","native":null,"lat":"59.42910000","lon":"18.33386000"},{"id":103646,"name":"Rimbo","native":null,"lat":"59.75000000","lon":"18.36667000"},{"id":103648,"name":"Rindö","native":null,"lat":"59.39688000","lon":"18.39434000"},{"id":103673,"name":"Rönninge","native":null,"lat":"59.20000000","lon":"17.73333000"},{"id":103657,"name":"Rosersberg","native":null,"lat":"59.58333000","lon":"17.88333000"},{"id":103678,"name":"Saltsjöbaden","native":null,"lat":"59.28333000","lon":"18.30000000"},{"id":103684,"name":"Segeltorp","native":null,"lat":"59.27597000","lon":"17.93072000"},{"id":103686,"name":"Sigtuna","native":null,"lat":"59.61731000","lon":"17.72361000"},{"id":103717,"name":"Skänninge","native":null,"lat":"59.93333000","lon":"18.48333000"},{"id":103823,"name":"Södermalm","native":null,"lat":"59.31278000","lon":"18.07577000"},{"id":103824,"name":"Södertälje","native":null,"lat":"59.19554000","lon":"17.62525000"},{"id":103737,"name":"Sollentuna","native":null,"lat":"59.42804000","lon":"17.95093000"},{"id":103739,"name":"Solna","native":null,"lat":"59.36004000","lon":"18.00086000"},{"id":103747,"name":"Stavsnäs","native":null,"lat":"59.28333000","lon":"18.68333000"},{"id":103749,"name":"Stenhamra","native":null,"lat":"59.33440000","lon":"17.68842000"},{"id":103758,"name":"Stockholm","native":null,"lat":"59.33258000","lon":"18.06490000"},{"id":103773,"name":"Strömma","native":null,"lat":"59.28333000","lon":"18.53333000"},{"id":103783,"name":"Sundbyberg","native":null,"lat":"59.36128000","lon":"17.97114000"},{"id":103841,"name":"Tensta","native":null,"lat":"59.39390000","lon":"17.90111000"},{"id":103881,"name":"Tullinge","native":null,"lat":"59.20000000","lon":"17.90000000"},{"id":103882,"name":"Tumba","native":null,"lat":"59.19858000","lon":"17.83317000"},{"id":103900,"name":"Upplands Väsby","native":null,"lat":"59.51839000","lon":"17.91128000"},{"id":103918,"name":"Vallentuna","native":null,"lat":"59.53436000","lon":"18.07758000"},{"id":103978,"name":"Vårby","native":null,"lat":"59.26671000","lon":"17.88407000"},{"id":103981,"name":"Vårsta","native":null,"lat":"59.16528000","lon":"17.79722000"},{"id":103927,"name":"Vasastan","native":null,"lat":"59.34571000","lon":"18.04985000"},{"id":103929,"name":"Vaxholm","native":null,"lat":"59.40225000","lon":"18.35317000"}]},{"id":1545,"name":"Uppsala County","native":null,"cities":[{"id":102993,"name":"Alsike","native":null,"lat":"59.75324000","lon":"17.77331000"},{"id":102994,"name":"Alunda","native":null,"lat":"60.26667000","lon":"18.40000000"},{"id":103991,"name":"Älvkarleby","native":null,"lat":"60.57081000","lon":"17.44895000"},{"id":103005,"name":"Anneberg","native":null,"lat":"60.24167000","lon":"18.41667000"},{"id":103102,"name":"Bälinge","native":null,"lat":"59.95000000","lon":"17.53333000"},{"id":103103,"name":"Bålsta","native":null,"lat":"59.56710000","lon":"17.52781000"},{"id":103053,"name":"Björklinge","native":null,"lat":"60.03004000","lon":"17.55203000"},{"id":103145,"name":"Enköping","native":null,"lat":"59.63607000","lon":"17.07768000"},{"id":103200,"name":"Gamla Uppsala","native":null,"lat":"59.89817000","lon":"17.63386000"},{"id":103208,"name":"Gimo","native":null,"lat":"60.17304000","lon":"18.18507000"},{"id":103222,"name":"Grillby","native":null,"lat":"59.62603000","lon":"17.25787000"},{"id":103272,"name":"Heby","native":null,"lat":"59.93815000","lon":"16.86217000"},{"id":103350,"name":"Irsta","native":null,"lat":"59.70000000","lon":"16.93333000"},{"id":103374,"name":"Karlholmsbruk","native":null,"lat":"60.52091000","lon":"17.63152000"},{"id":103403,"name":"Knivsta","native":null,"lat":"59.72564000","lon":"17.78753000"},{"id":103511,"name":"Lövstalöt","native":null,"lat":"59.95740000","lon":"17.57826000"},{"id":103524,"name":"Marieberg","native":null,"lat":"60.23333000","lon":"18.50000000"},{"id":103547,"name":"Morgongåva","native":null,"lat":"59.93395000","lon":"16.96353000"},{"id":104033,"name":"Örbyhus","native":null,"lat":"60.22407000","lon":"17.70138000"},{"id":104036,"name":"Öregrund","native":null,"lat":"60.33333000","lon":"18.43333000"},{"id":104041,"name":"Örsundsbro","native":null,"lat":"59.73333000","lon":"17.30000000"},{"id":104043,"name":"Österbybruk","native":null,"lat":"60.20000000","lon":"17.90000000"},{"id":104046,"name":"Östervåla","native":null,"lat":"60.18333000","lon":"17.18333000"},{"id":104048,"name":"Östhammar","native":null,"lat":"60.25909000","lon":"18.37408000"},{"id":103813,"name":"Sävja","native":null,"lat":"59.81872000","lon":"17.69958000"},{"id":103716,"name":"Skutskär","native":null,"lat":"60.62507000","lon":"17.41552000"},{"id":103817,"name":"Söderfors","native":null,"lat":"60.38333000","lon":"17.23333000"},{"id":103769,"name":"Storvreta","native":null,"lat":"59.95933000","lon":"17.70588000"},{"id":103889,"name":"Tärnsjö","native":null,"lat":"60.15000000","lon":"16.93333000"},{"id":103846,"name":"Tierp","native":null,"lat":"60.34269000","lon":"17.51812000"},{"id":103903,"name":"Uppsala","native":null,"lat":"59.85882000","lon":"17.63889000"},{"id":103928,"name":"Vattholma","native":null,"lat":"60.01667000","lon":"17.73333000"}]},{"id":1535,"name":"Värmland County","native":null,"cities":[{"id":104006,"name":"Åmotfors","native":null,"lat":"59.76191000","lon":"12.36211000"},{"id":104011,"name":"Årjäng","native":null,"lat":"59.39217000","lon":"12.13336000"},{"id":103017,"name":"Arvika","native":null,"lat":"59.65528000","lon":"12.58518000"},{"id":103057,"name":"Björneborg","native":null,"lat":"59.24122000","lon":"14.24942000"},{"id":103107,"name":"Charlottenberg","native":null,"lat":"59.88422000","lon":"12.30398000"},{"id":103117,"name":"Deje","native":null,"lat":"59.60300000","lon":"13.47200000"},{"id":103135,"name":"Ekshärad","native":null,"lat":"60.17275000","lon":"13.49647000"},{"id":103164,"name":"Filipstad","native":null,"lat":"59.71236000","lon":"14.16831000"},{"id":103179,"name":"Forshaga","native":null,"lat":"59.52541000","lon":"13.48127000"},{"id":103223,"name":"Grums","native":null,"lat":"59.35141000","lon":"13.11105000"},{"id":103251,"name":"Hagfors","native":null,"lat":"60.02378000","lon":"13.67214000"},{"id":103383,"name":"Karlstad","native":null,"lat":"59.37930000","lon":"13.50357000"},{"id":103388,"name":"Kil","native":null,"lat":"59.50234000","lon":"13.31277000"},{"id":103416,"name":"Kristinehamn","native":null,"lat":"59.30978000","lon":"14.10808000"},{"id":103544,"name":"Molkom","native":null,"lat":"59.60057000","lon":"13.72115000"},{"id":103555,"name":"Munkfors","native":null,"lat":"59.83856000","lon":"13.54361000"},{"id":103670,"name":"Råtorp","native":null,"lat":"59.40197000","lon":"13.49144000"},{"id":103804,"name":"Säffle","native":null,"lat":"59.13229000","lon":"12.92888000"},{"id":103722,"name":"Skåre","native":null,"lat":"59.43333000","lon":"13.43333000"},{"id":103698,"name":"Skattkärr","native":null,"lat":"59.41208000","lon":"13.67078000"},{"id":103708,"name":"Skoghall","native":null,"lat":"59.32324000","lon":"13.46552000"},{"id":103726,"name":"Slottsbron","native":null,"lat":"59.32270000","lon":"13.10268000"},{"id":103763,"name":"Storfors","native":null,"lat":"59.53183000","lon":"14.27201000"},{"id":103788,"name":"Sunne","native":null,"lat":"59.83764000","lon":"13.14302000"},{"id":103890,"name":"Töcksfors","native":null,"lat":"59.50816000","lon":"11.84431000"},{"id":103862,"name":"Torsby","native":null,"lat":"60.13527000","lon":"13.00820000"},{"id":103977,"name":"Vålberg","native":null,"lat":"59.39145000","lon":"13.18633000"}]},{"id":1543,"name":"Västerbotten County","native":null,"cities":[{"id":104019,"name":"Åsele","native":null,"lat":"64.16026000","lon":"17.34762000"},{"id":103025,"name":"Backa","native":null,"lat":"64.98333000","lon":"21.06667000"},{"id":103044,"name":"Bjurholm","native":null,"lat":"63.93027000","lon":"19.21369000"},{"id":103063,"name":"Boliden","native":null,"lat":"64.86667000","lon":"20.38333000"},{"id":103098,"name":"Bureå","native":null,"lat":"64.61667000","lon":"21.20000000"},{"id":103100,"name":"Burträsk","native":null,"lat":"64.51667000","lon":"20.65000000"},{"id":103101,"name":"Byske","native":null,"lat":"64.95258000","lon":"21.20580000"},{"id":103125,"name":"Dorotea","native":null,"lat":"64.26185000","lon":"16.41306000"},{"id":103149,"name":"Ersmark","native":null,"lat":"63.88333000","lon":"20.31667000"},{"id":103176,"name":"Forsbacka","native":null,"lat":"64.76667000","lon":"20.50000000"},{"id":103296,"name":"Holmsund","native":null,"lat":"63.70602000","lon":"20.36409000"},{"id":103340,"name":"Hörnefors","native":null,"lat":"63.62312000","lon":"19.90856000"},{"id":103348,"name":"Insjön","native":null,"lat":"64.40000000","lon":"17.48333000"},{"id":103439,"name":"Kåge","native":null,"lat":"64.83571000","lon":"20.98453000"},{"id":103503,"name":"Långsele","native":null,"lat":"64.81667000","lon":"20.25000000"},{"id":103497,"name":"Lycksele","native":null,"lat":"64.59537000","lon":"18.67351000"},{"id":103520,"name":"Malå","native":null,"lat":"65.18501000","lon":"18.74243000"},{"id":103582,"name":"Nordmaling","native":null,"lat":"63.56852000","lon":"19.50244000"},{"id":103590,"name":"Norsjö","native":null,"lat":"64.91206000","lon":"19.48153000"},{"id":103606,"name":"Obbola","native":null,"lat":"63.70000000","lon":"20.31667000"},{"id":103671,"name":"Röbäck","native":null,"lat":"63.80879000","lon":"20.18901000"},{"id":103650,"name":"Robertsfors","native":null,"lat":"64.19324000","lon":"20.84806000"},{"id":103811,"name":"Sävar","native":null,"lat":"63.90383000","lon":"20.55014000"},{"id":103701,"name":"Skellefteå","native":null,"lat":"64.75067000","lon":"20.95279000"},{"id":103700,"name":"Skelleftehamn","native":null,"lat":"64.68333000","lon":"21.23333000"},{"id":103818,"name":"Söderfors","native":null,"lat":"64.81667000","lon":"18.05000000"},{"id":103741,"name":"Sorsele","native":null,"lat":"65.53484000","lon":"17.53702000"},{"id":103765,"name":"Storuman","native":null,"lat":"65.09590000","lon":"17.11731000"},{"id":103767,"name":"Storvik","native":null,"lat":"65.15000000","lon":"20.73333000"},{"id":103888,"name":"Täfteå","native":null,"lat":"63.83970000","lon":"20.47857000"},{"id":103898,"name":"Umeå","native":null,"lat":"63.82842000","lon":"20.25972000"},{"id":103906,"name":"Ursviken","native":null,"lat":"64.71261000","lon":"21.16580000"},{"id":103964,"name":"Vännäs","native":null,"lat":"63.90676000","lon":"19.75712000"},{"id":103966,"name":"Vännäsby","native":null,"lat":"63.91564000","lon":"19.82438000"},{"id":103942,"name":"Viken","native":null,"lat":"64.72587000","lon":"20.91548000"},{"id":103945,"name":"Vilhelmina","native":null,"lat":"64.62417000","lon":"16.65596000"},{"id":103949,"name":"Vindeln","native":null,"lat":"64.20175000","lon":"19.71945000"}]},{"id":1552,"name":"Västernorrland County","native":null,"cities":[{"id":104009,"name":"Ånge","native":null,"lat":"62.52495000","lon":"15.65904000"},{"id":104015,"name":"Ås","native":null,"lat":"63.36667000","lon":"16.58333000"},{"id":103034,"name":"Bergeforsen","native":null,"lat":"62.53074000","lon":"17.38123000"},{"id":103051,"name":"Bjästa","native":null,"lat":"63.20000000","lon":"18.50000000"},{"id":103069,"name":"Bollstabruk","native":null,"lat":"62.99777000","lon":"17.67348000"},{"id":103084,"name":"Bredbyn","native":null,"lat":"63.44655000","lon":"18.11019000"},{"id":103185,"name":"Fränsta","native":null,"lat":"62.49855000","lon":"16.17016000"},{"id":103322,"name":"Härnösand","native":null,"lat":"62.63228000","lon":"17.93794000"},{"id":103311,"name":"Husum","native":null,"lat":"63.33333000","lon":"19.16667000"},{"id":103352,"name":"Johannedal","native":null,"lat":"62.43424000","lon":"17.37273000"},{"id":103445,"name":"Köpmanholmen","native":null,"lat":"63.16667000","lon":"18.56667000"},{"id":103411,"name":"Kramfors","native":null,"lat":"62.93161000","lon":"17.77646000"},{"id":103434,"name":"Kvissleby","native":null,"lat":"62.29361000","lon":"17.37500000"},{"id":103502,"name":"Långsele","native":null,"lat":"63.18333000","lon":"17.06667000"},{"id":103534,"name":"Matfors","native":null,"lat":"62.34864000","lon":"17.03173000"},{"id":103574,"name":"Njurundabommen","native":null,"lat":"62.26339000","lon":"17.38354000"},{"id":103575,"name":"Nolby","native":null,"lat":"62.28750000","lon":"17.36917000"},{"id":104039,"name":"Örnsköldsvik","native":null,"lat":"63.29091000","lon":"18.71525000"},{"id":103710,"name":"Skottsund","native":null,"lat":"62.29056000","lon":"17.38694000"},{"id":103735,"name":"Sollefteå","native":null,"lat":"63.16667000","lon":"17.26667000"},{"id":103833,"name":"Söråker","native":null,"lat":"62.50561000","lon":"17.51032000"},{"id":103760,"name":"Stockvik","native":null,"lat":"62.33667000","lon":"17.36583000"},{"id":103785,"name":"Sundsbruk","native":null,"lat":"62.45806000","lon":"17.34889000"},{"id":103786,"name":"Sundsvall","native":null,"lat":"62.39129000","lon":"17.30630000"},{"id":103850,"name":"Timrå","native":null,"lat":"62.48654000","lon":"17.32613000"},{"id":103939,"name":"Vi","native":null,"lat":"62.43333000","lon":"17.41667000"}]},{"id":1549,"name":"Västmanland County","native":null,"cities":[{"id":103007,"name":"Arboga","native":null,"lat":"59.39387000","lon":"15.83882000"},{"id":103029,"name":"Barkarö","native":null,"lat":"59.54935000","lon":"16.50740000"},{"id":103119,"name":"Dingtuna","native":null,"lat":"59.57279000","lon":"16.38722000"},{"id":103144,"name":"Enhagen-Ekbacken","native":null,"lat":"59.56543000","lon":"16.53045000"},{"id":103155,"name":"Fagersta","native":null,"lat":"60.00418000","lon":"15.79316000"},{"id":103255,"name":"Hallstahammar","native":null,"lat":"59.61395000","lon":"16.22846000"},{"id":103333,"name":"Hökåsen","native":null,"lat":"59.66667000","lon":"16.58333000"},{"id":103349,"name":"Irsta","native":null,"lat":"59.60000000","lon":"16.70000000"},{"id":103407,"name":"Kolbäck","native":null,"lat":"59.56516000","lon":"16.23037000"},{"id":103408,"name":"Kolsva","native":null,"lat":"59.60000000","lon":"15.83333000"},{"id":103442,"name":"Köping","native":null,"lat":"59.51404000","lon":"15.99255000"},{"id":103428,"name":"Kungsör","native":null,"lat":"59.42245000","lon":"16.09656000"},{"id":103579,"name":"Norberg","native":null,"lat":"60.06505000","lon":"15.92366000"},{"id":103642,"name":"Ramnäs","native":null,"lat":"59.76667000","lon":"16.20000000"},{"id":103675,"name":"Sala","native":null,"lat":"59.91993000","lon":"16.60655000"},{"id":103705,"name":"Skinnskatteberg","native":null,"lat":"59.83028000","lon":"15.69337000"},{"id":103713,"name":"Skultuna","native":null,"lat":"59.71667000","lon":"16.41667000"},{"id":103790,"name":"Surahammar","native":null,"lat":"59.70725000","lon":"16.22188000"},{"id":103848,"name":"Tillberga","native":null,"lat":"59.68333000","lon":"16.61667000"},{"id":103972,"name":"Västerås","native":null,"lat":"59.64914000","lon":"16.56445000"}]},{"id":1547,"name":"Västra Götaland County","native":null,"cities":[{"id":104001,"name":"Åkarp","native":null,"lat":"58.23333000","lon":"13.65000000"},{"id":102987,"name":"Alafors","native":null,"lat":"57.92579000","lon":"12.07835000"},{"id":102991,"name":"Alingsås","native":null,"lat":"57.93033000","lon":"12.53345000"},{"id":103995,"name":"Älvängen","native":null,"lat":"57.95872000","lon":"12.12350000"},{"id":104007,"name":"Åmål","native":null,"lat":"59.05100000","lon":"12.70492000"},{"id":102997,"name":"Andalen","native":null,"lat":"57.70039000","lon":"11.76136000"},{"id":103000,"name":"Anderstorp","native":null,"lat":"58.88333000","lon":"14.28333000"},{"id":103003,"name":"Angered","native":null,"lat":"57.78628000","lon":"12.09852000"},{"id":103006,"name":"Annelund","native":null,"lat":"57.98843000","lon":"13.07483000"},{"id":103024,"name":"Axvall","native":null,"lat":"58.38333000","lon":"13.56667000"},{"id":103030,"name":"Bengtsfors","native":null,"lat":"59.02912000","lon":"12.23207000"},{"id":103040,"name":"Billdal","native":null,"lat":"57.56667000","lon":"11.93333000"},{"id":103043,"name":"Billingsfors","native":null,"lat":"58.98333000","lon":"12.25000000"},{"id":103052,"name":"Björboholm","native":null,"lat":"57.87096000","lon":"12.32546000"},{"id":103055,"name":"Björkö","native":null,"lat":"57.73221000","lon":"11.67916000"},{"id":103056,"name":"Björlanda","native":null,"lat":"57.76667000","lon":"11.83333000"},{"id":103064,"name":"Bollebygd","native":null,"lat":"57.66866000","lon":"12.57272000"},{"id":103077,"name":"Borås","native":null,"lat":"57.73783000","lon":"12.94076000"},{"id":103095,"name":"Brålanda","native":null,"lat":"58.56344000","lon":"12.34923000"},{"id":103081,"name":"Brastad","native":null,"lat":"58.38333000","lon":"11.48333000"},{"id":103110,"name":"Dals Långed","native":null,"lat":"58.92555000","lon":"12.30865000"},{"id":103112,"name":"Dalsjöfors","native":null,"lat":"57.71667000","lon":"13.08333000"},{"id":103120,"name":"Diseröd","native":null,"lat":"57.92636000","lon":"12.02598000"},{"id":103124,"name":"Donsö","native":null,"lat":"57.60000000","lon":"11.79917000"},{"id":103127,"name":"Ed","native":null,"lat":"58.91247000","lon":"11.93308000"},{"id":103139,"name":"Ellös","native":null,"lat":"58.18333000","lon":"11.46667000"},{"id":103148,"name":"Eriksbo","native":null,"lat":"57.77141000","lon":"12.04183000"},{"id":103159,"name":"Falköping","native":null,"lat":"58.17347000","lon":"13.55068000"},{"id":103191,"name":"Färgelanda","native":null,"lat":"58.56816000","lon":"11.99235000"},{"id":103175,"name":"Floby","native":null,"lat":"58.13333000","lon":"13.33333000"},{"id":103183,"name":"Fristad","native":null,"lat":"57.82483000","lon":"13.01064000"},{"id":103184,"name":"Fritsla","native":null,"lat":"57.55655000","lon":"12.78457000"},{"id":103189,"name":"Furulund","native":null,"lat":"57.71667000","lon":"12.13333000"},{"id":103242,"name":"Gånghester","native":null,"lat":"57.70000000","lon":"13.01667000"},{"id":103243,"name":"Gårdsten","native":null,"lat":"57.80480000","lon":"12.02883000"},{"id":103244,"name":"Göta","native":null,"lat":"58.10617000","lon":"12.15254000"},{"id":103245,"name":"Göteborg","native":null,"lat":"57.70716000","lon":"11.96679000"},{"id":103246,"name":"Göteborgs stad","native":null,"lat":"57.72288000","lon":"11.94577000"},{"id":103247,"name":"Götene","native":null,"lat":"58.52824000","lon":"13.49458000"},{"id":103230,"name":"Gråbo","native":null,"lat":"57.83625000","lon":"12.29954000"},{"id":103228,"name":"Grästorp","native":null,"lat":"58.33219000","lon":"12.68122000"},{"id":103220,"name":"Grebbestad","native":null,"lat":"58.70248000","lon":"11.25738000"},{"id":103232,"name":"Gullspång","native":null,"lat":"58.98615000","lon":"14.09644000"},{"id":103261,"name":"Hammarkullen","native":null,"lat":"57.78049000","lon":"12.03604000"},{"id":103280,"name":"Henån","native":null,"lat":"58.23848000","lon":"11.67598000"},{"id":103282,"name":"Herrljunga","native":null,"lat":"58.07739000","lon":"13.02662000"},{"id":103286,"name":"Hindås","native":null,"lat":"57.70338000","lon":"12.44657000"},{"id":103288,"name":"Hjo","native":null,"lat":"58.30133000","lon":"14.28784000"},{"id":103290,"name":"Hjuvik","native":null,"lat":"57.70167000","lon":"11.71639000"},{"id":103337,"name":"Hönö","native":null,"lat":"57.68972000","lon":"11.64972000"},{"id":103298,"name":"Horred","native":null,"lat":"57.35475000","lon":"12.47777000"},{"id":103300,"name":"Hova","native":null,"lat":"58.85363000","lon":"14.21914000"},{"id":103341,"name":"Höviksnäs","native":null,"lat":"58.03333000","lon":"11.76667000"},{"id":103309,"name":"Hunnebostrand","native":null,"lat":"58.44127000","lon":"11.30320000"},{"id":103345,"name":"Ingared","native":null,"lat":"57.85989000","lon":"12.45161000"},{"id":103355,"name":"Jonstorp","native":null,"lat":"58.00000000","lon":"12.71667000"},{"id":103368,"name":"Jörlanda","native":null,"lat":"57.98630000","lon":"11.82943000"},{"id":103436,"name":"Källby","native":null,"lat":"58.50999000","lon":"13.30582000"},{"id":103441,"name":"Kållered","native":null,"lat":"57.60992000","lon":"12.05106000"},{"id":103375,"name":"Karlsborg","native":null,"lat":"58.53724000","lon":"14.50470000"},{"id":103393,"name":"Kinna","native":null,"lat":"57.50728000","lon":"12.69463000"},{"id":103406,"name":"Kode","native":null,"lat":"57.94263000","lon":"11.85051000"},{"id":103430,"name":"Kungälv","native":null,"lat":"57.87096000","lon":"11.98054000"},{"id":103425,"name":"Kungshamn","native":null,"lat":"58.36305000","lon":"11.25938000"},{"id":103435,"name":"Kvänum","native":null,"lat":"58.30000000","lon":"13.18333000"},{"id":103452,"name":"Landvetter","native":null,"lat":"57.68665000","lon":"12.21169000"},{"id":103501,"name":"Länghem","native":null,"lat":"57.60000000","lon":"13.23333000"},{"id":103459,"name":"Lerum","native":null,"lat":"57.77051000","lon":"12.26904000"},{"id":103464,"name":"Lidköping","native":null,"lat":"58.50517000","lon":"13.15765000"},{"id":103466,"name":"Lilla Edet","native":null,"lat":"58.13333000","lon":"12.13333000"},{"id":103468,"name":"Limmared","native":null,"lat":"57.53592000","lon":"13.35566000"},{"id":103472,"name":"Lindome","native":null,"lat":"57.56667000","lon":"12.08333000"},{"id":103484,"name":"Ljungskile","native":null,"lat":"58.22452000","lon":"11.92014000"},{"id":103508,"name":"Lödöse","native":null,"lat":"58.02994000","lon":"12.15934000"},{"id":103510,"name":"Lövgärdet","native":null,"lat":"57.81555000","lon":"12.03861000"},{"id":103499,"name":"Lysekil","native":null,"lat":"58.27429000","lon":"11.43576000"},{"id":103512,"name":"Majorna","native":null,"lat":"57.69195000","lon":"11.91605000"},{"id":103529,"name":"Mariestad","native":null,"lat":"58.70971000","lon":"13.82367000"},{"id":103536,"name":"Mellerud","native":null,"lat":"58.69979000","lon":"12.45312000"},{"id":103560,"name":"Mölltorp","native":null,"lat":"58.50000000","lon":"14.40000000"},{"id":103562,"name":"Mölndal","native":null,"lat":"57.65540000","lon":"12.01378000"},{"id":103564,"name":"Mölnlycke","native":null,"lat":"57.65893000","lon":"12.11792000"},{"id":103553,"name":"Munkedal","native":null,"lat":"58.46634000","lon":"11.67345000"},{"id":103557,"name":"Myggenäs","native":null,"lat":"58.06176000","lon":"11.74936000"},{"id":103576,"name":"Nolvik","native":null,"lat":"57.77500000","lon":"11.83333000"},{"id":103592,"name":"Nossebro","native":null,"lat":"58.18808000","lon":"12.71599000"},{"id":104025,"name":"Öckerö","native":null,"lat":"57.70814000","lon":"11.65585000"},{"id":104029,"name":"Ödsmål","native":null,"lat":"58.10000000","lon":"11.85000000"},{"id":104031,"name":"Öjersjö","native":null,"lat":"57.69882000","lon":"12.13448000"},{"id":103611,"name":"Olofstorp","native":null,"lat":"57.80444000","lon":"12.17131000"},{"id":103615,"name":"Olstorp","native":null,"lat":"57.82277000","lon":"12.27696000"},{"id":103620,"name":"Orust","native":null,"lat":"58.18025000","lon":"11.63419000"},{"id":103632,"name":"Partille","native":null,"lat":"57.73950000","lon":"12.10642000"},{"id":103643,"name":"Rannebergen","native":null,"lat":"57.80236000","lon":"12.07131000"},{"id":103667,"name":"Rävlanda","native":null,"lat":"57.65338000","lon":"12.49791000"},{"id":103674,"name":"Rönnäng","native":null,"lat":"57.93333000","lon":"11.58333000"},{"id":103816,"name":"Sålanda","native":null,"lat":"57.98333000","lon":"12.21667000"},{"id":103679,"name":"Sandared","native":null,"lat":"57.70992000","lon":"12.79238000"},{"id":103809,"name":"Sätila","native":null,"lat":"57.54172000","lon":"12.43429000"},{"id":103694,"name":"Sjömarken","native":null,"lat":"57.71533000","lon":"12.83495000"},{"id":103691,"name":"Sjuntorp","native":null,"lat":"58.20000000","lon":"12.21667000"},{"id":103696,"name":"Skara","native":null,"lat":"58.38659000","lon":"13.43836000"},{"id":103720,"name":"Skärhamn","native":null,"lat":"57.98665000","lon":"11.55742000"},{"id":103703,"name":"Skepplanda","native":null,"lat":"57.98333000","lon":"12.20000000"},{"id":103724,"name":"Skövde","native":null,"lat":"58.39118000","lon":"13.84506000"},{"id":103712,"name":"Skultorp","native":null,"lat":"58.35000000","lon":"13.83333000"},{"id":103733,"name":"Smögen","native":null,"lat":"58.35593000","lon":"11.22411000"},{"id":103734,"name":"Sollebrunn","native":null,"lat":"58.11667000","lon":"12.53333000"},{"id":103751,"name":"Stenkullen","native":null,"lat":"57.79476000","lon":"12.31688000"},{"id":103753,"name":"Stenstorp","native":null,"lat":"58.27254000","lon":"13.71454000"},{"id":103754,"name":"Stenungsund","native":null,"lat":"58.07046000","lon":"11.81810000"},{"id":103782,"name":"Stöpen","native":null,"lat":"58.47802000","lon":"13.86611000"},{"id":103761,"name":"Stora Höga","native":null,"lat":"58.01667000","lon":"11.83333000"},{"id":103775,"name":"Strömstad","native":null,"lat":"58.93945000","lon":"11.17120000"},{"id":103780,"name":"Styrsö","native":null,"lat":"57.61639000","lon":"11.78556000"},{"id":103792,"name":"Surte","native":null,"lat":"57.82533000","lon":"12.01604000"},{"id":103796,"name":"Svanesund","native":null,"lat":"58.14292000","lon":"11.81821000"},{"id":103799,"name":"Svenljunga","native":null,"lat":"57.49551000","lon":"13.11078000"},{"id":103838,"name":"Tanumshede","native":null,"lat":"58.72385000","lon":"11.32587000"},{"id":103842,"name":"Tibro","native":null,"lat":"58.42453000","lon":"14.16162000"},{"id":103844,"name":"Tidaholm","native":null,"lat":"58.18035000","lon":"13.95824000"},{"id":103854,"name":"Tjuvkil","native":null,"lat":"57.90000000","lon":"11.73333000"},{"id":103892,"name":"Töreboda","native":null,"lat":"58.70739000","lon":"14.12597000"},{"id":103865,"name":"Torslanda","native":null,"lat":"57.72432000","lon":"11.77013000"},{"id":103869,"name":"Tranemo","native":null,"lat":"57.48333000","lon":"13.35000000"},{"id":103876,"name":"Trollhättan","native":null,"lat":"58.21208000","lon":"12.35033000"},{"id":103894,"name":"Uddevalla","native":null,"lat":"58.34784000","lon":"11.94240000"},{"id":103896,"name":"Ulricehamn","native":null,"lat":"57.79159000","lon":"13.41422000"},{"id":103962,"name":"Vänersborg","native":null,"lat":"58.38075000","lon":"12.32340000"},{"id":103922,"name":"Vara","native":null,"lat":"58.26234000","lon":"12.95413000"},{"id":103979,"name":"Vårgårda","native":null,"lat":"58.03706000","lon":"12.80907000"},{"id":103926,"name":"Vargön","native":null,"lat":"58.35599000","lon":"12.39060000"},{"id":103973,"name":"Västra Frölunda","native":null,"lat":"57.64667000","lon":"11.92944000"},{"id":103953,"name":"Vinninga","native":null,"lat":"58.45000000","lon":"13.26667000"},{"id":103958,"name":"Viskafors","native":null,"lat":"57.62941000","lon":"12.84890000"}]}]