[{"id":59,"name":"Acquaviva","native":null,"cities":[{"id":104693,"name":"Acquaviva","native":null,"lat":"43.94593000","lon":"12.41850000"}]},{"id":61,"name":"Borgo Maggiore","native":null,"cities":[{"id":104694,"name":"Borgo Maggiore","native":null,"lat":"43.94193000","lon":"12.44738000"}]},{"id":60,"name":"Chiesanuova","native":null,"cities":[{"id":104699,"name":"Poggio di Chiesanuova","native":null,"lat":"43.90451000","lon":"12.42142000"}]},{"id":64,"name":"Domagnano","native":null,"cities":[{"id":104695,"name":"Domagnano","native":null,"lat":"43.94961000","lon":"12.46828000"}]},{"id":62,"name":"Faetano","native":null,"cities":[{"id":104696,"name":"Faetano","native":null,"lat":"43.92831000","lon":"12.49798000"}]},{"id":66,"name":"Fiorentino","native":null,"cities":[{"id":104697,"name":"Fiorentino","native":null,"lat":"43.91001000","lon":"12.45738000"}]},{"id":63,"name":"Montegiardino","native":null,"cities":[{"id":104698,"name":"Monte Giardino","native":null,"lat":"43.90878000","lon":"12.48201000"}]},{"id":58,"name":"San Marino","native":null,"cities":[{"id":104700,"name":"San Marino","native":null,"lat":"43.93667000","lon":"12.44639000"}]},{"id":65,"name":"Serravalle","native":null,"cities":[{"id":104701,"name":"Serravalle","native":null,"lat":"43.96897000","lon":"12.48167000"}]}]