[{"id":270,"name":"Príncipe Province","native":null,"cities":[{"id":104837,"name":"Santo António","native":null,"lat":"1.63943000","lon":"7.41951000"}]},{"id":271,"name":"São Tomé Province","native":null,"cities":[{"id":104835,"name":"Cantagalo District","native":null,"lat":"0.21667000","lon":"6.70000000"},{"id":104836,"name":"Caué District","native":null,"lat":"0.13415000","lon":"6.63825000"},{"id":104838,"name":"São Tomé","native":null,"lat":"0.33654000","lon":"6.72732000"},{"id":104839,"name":"Trindade","native":null,"lat":"0.29667000","lon":"6.68139000"}]}]