[{"id":969,"name":"Hhohho District","native":null,"cities":[{"id":105084,"name":"Bulembu","native":null,"lat":"-25.96667000","lon":"31.13333000"},{"id":105087,"name":"Hhukwini","native":null,"lat":"-26.31972000","lon":"31.22222000"},{"id":105093,"name":"Lobamba","native":null,"lat":"-26.46667000","lon":"31.20000000"},{"id":105099,"name":"Mbabane","native":null,"lat":"-26.31667000","lon":"31.13333000"},{"id":105105,"name":"Nkhaba","native":null,"lat":"-26.15728000","lon":"31.16391000"},{"id":105109,"name":"Piggs Peak","native":null,"lat":"-25.96082000","lon":"31.24666000"}]},{"id":970,"name":"Lubombo District","native":null,"cities":[{"id":105083,"name":"Big Bend","native":null,"lat":"-26.81667000","lon":"31.93333000"},{"id":105085,"name":"Dvokodvweni Inkhundla","native":null,"lat":"-26.45398000","lon":"31.76456000"},{"id":105094,"name":"Lomashasha","native":null,"lat":"-26.06644000","lon":"32.00768000"},{"id":105101,"name":"Mhlume","native":null,"lat":"-26.03333000","lon":"31.85000000"},{"id":105107,"name":"Nsoko","native":null,"lat":"-27.03333000","lon":"31.95000000"},{"id":105112,"name":"Siteki","native":null,"lat":"-26.45250000","lon":"31.94722000"},{"id":105113,"name":"Tshaneni","native":null,"lat":"-25.98333000","lon":"31.71667000"},{"id":105114,"name":"Vuvulane","native":null,"lat":"-26.07427000","lon":"31.87672000"}]},{"id":968,"name":"Manzini District","native":null,"cities":[{"id":105082,"name":"Bhunya","native":null,"lat":"-26.55000000","lon":"31.01667000"},{"id":105086,"name":"Ekukhanyeni","native":null,"lat":"-26.38750000","lon":"31.52806000"},{"id":105091,"name":"Kwaluseni","native":null,"lat":"-26.48333000","lon":"31.33333000"},{"id":105095,"name":"Malkerns","native":null,"lat":"-26.56667000","lon":"31.18333000"},{"id":105096,"name":"Manzini","native":null,"lat":"-26.49884000","lon":"31.38004000"},{"id":105097,"name":"Manzini South","native":null,"lat":"-26.48333000","lon":"31.36667000"},{"id":105100,"name":"Mhlambanyatsi","native":null,"lat":"-26.45000000","lon":"31.01667000"},{"id":105103,"name":"Ngwempisi","native":null,"lat":"-26.69990000","lon":"31.28876000"},{"id":105108,"name":"Ntondozi","native":null,"lat":"-26.63500000","lon":"31.22556000"},{"id":105110,"name":"Sidvokodvo","native":null,"lat":"-26.62820000","lon":"31.42021000"}]},{"id":971,"name":"Shiselweni District","native":null,"cities":[{"id":105088,"name":"Hlatikulu","native":null,"lat":"-26.97917000","lon":"31.32444000"},{"id":105089,"name":"Hluti","native":null,"lat":"-27.21667000","lon":"31.61667000"},{"id":105090,"name":"Kubuta","native":null,"lat":"-26.88333000","lon":"31.48333000"},{"id":105092,"name":"Lavumisa","native":null,"lat":"-27.31005000","lon":"31.89198000"},{"id":105098,"name":"Matsanjeni","native":null,"lat":"-27.21585000","lon":"31.72309000"},{"id":105102,"name":"Ngudzeni","native":null,"lat":"-27.03583000","lon":"31.55111000"},{"id":105104,"name":"Nhlangano","native":null,"lat":"-27.11222000","lon":"31.19833000"},{"id":105106,"name":"Nkwene","native":null,"lat":"-26.89778000","lon":"31.24972000"},{"id":105111,"name":"Sigwe Inkhundla","native":null,"lat":"-27.05821000","lon":"31.64543000"},{"id":105115,"name":"Zombodze Ikhundla","native":null,"lat":"-27.22746000","lon":"31.33799000"}]}]