[{"id":3583,"name":"Bahr el Gazel","native":null,"cities":[{"id":105152,"name":"Moussoro","native":null,"lat":"13.64143000","lon":"16.48941000"}]},{"id":3590,"name":"Batha","native":null,"cities":[{"id":105120,"name":"Ati","native":null,"lat":"13.21540000","lon":"18.33530000"},{"id":105154,"name":"Oum Hadjer","native":null,"lat":"13.29540000","lon":"19.69660000"}]},{"id":3574,"name":"Borkou","native":null,"cities":[{"id":105133,"name":"Faya-Largeau","native":null,"lat":"17.92570000","lon":"19.10428000"}]},{"id":5114,"name":"Chari-Baguirmi","native":null,"cities":[{"id":153256,"name":"Baguirmi Department","native":null,"lat":"11.39833333","lon":"16.16750000"},{"id":153257,"name":"Bousso","native":null,"lat":"10.48250000","lon":"16.71611111"},{"id":153258,"name":"Chari Department","native":null,"lat":"12.05000000","lon":"15.30000000"},{"id":153259,"name":"Dababa","native":null,"lat":"12.38000000","lon":"17.06000000"},{"id":153260,"name":"Gaoui","native":null,"lat":"12.18070000","lon":"15.14760000"},{"id":153261,"name":"Linia","native":null,"lat":"12.05000000","lon":"15.30000000"},{"id":153262,"name":"Mandjafa","native":null,"lat":"11.19861111","lon":"15.36111111"},{"id":153263,"name":"Massenya","native":null,"lat":"11.40277778","lon":"16.17000000"}]},{"id":3575,"name":"Ennedi-Est","native":null,"cities":[]},{"id":3584,"name":"Ennedi-Ouest","native":null,"cities":[{"id":105132,"name":"Fada","native":null,"lat":"17.18535000","lon":"21.58114000"}]},{"id":3576,"name":"Guéra","native":null,"cities":[{"id":105124,"name":"Bitkine","native":null,"lat":"11.98010000","lon":"18.21380000"},{"id":105149,"name":"Melfi","native":null,"lat":"11.05980000","lon":"17.93550000"},{"id":105150,"name":"Mongo","native":null,"lat":"12.18441000","lon":"18.69303000"}]},{"id":3573,"name":"Hadjer-Lamis","native":null,"cities":[{"id":105125,"name":"Bokoro","native":null,"lat":"12.37813000","lon":"17.05876000"},{"id":105146,"name":"Massaguet","native":null,"lat":"12.47554000","lon":"15.43647000"},{"id":105147,"name":"Massakory","native":null,"lat":"12.99600000","lon":"15.72927000"}]},{"id":3588,"name":"Kanem","native":null,"cities":[{"id":105145,"name":"Mao","native":null,"lat":"14.12116000","lon":"15.31030000"}]},{"id":3577,"name":"Lac","native":null,"cities":[{"id":105126,"name":"Bol","native":null,"lat":"13.46706000","lon":"14.71363000"}]},{"id":3585,"name":"Logone Occidental","native":null,"cities":[{"id":105122,"name":"Beïnamar","native":null,"lat":"8.66980000","lon":"15.38130000"},{"id":105121,"name":"Benoy","native":null,"lat":"8.98327000","lon":"16.31991000"},{"id":105143,"name":"Lac Wey","native":null,"lat":"8.70502000","lon":"15.98303000"},{"id":105151,"name":"Moundou","native":null,"lat":"8.56667000","lon":"16.08333000"}]},{"id":3591,"name":"Logone Oriental","native":null,"cities":[{"id":105129,"name":"Bébédja","native":null,"lat":"8.67610000","lon":"16.56600000"},{"id":105128,"name":"Béboto","native":null,"lat":"8.26681000","lon":"16.93898000"},{"id":105131,"name":"Doba","native":null,"lat":"8.65000000","lon":"16.85000000"}]},{"id":3589,"name":"Mandoul","native":null,"cities":[{"id":105134,"name":"Goundi","native":null,"lat":"9.36267000","lon":"17.36597000"},{"id":105141,"name":"Koumra","native":null,"lat":"8.91256000","lon":"17.55392000"},{"id":105153,"name":"Moïssala","native":null,"lat":"8.34040000","lon":"17.76630000"}]},{"id":3580,"name":"Mayo-Kebbi Est","native":null,"cities":[{"id":105127,"name":"Bongor","native":null,"lat":"10.28056000","lon":"15.37222000"},{"id":105135,"name":"Gounou Gaya","native":null,"lat":"9.62940000","lon":"15.51320000"},{"id":105138,"name":"Guelendeng","native":null,"lat":"10.91762000","lon":"15.55011000"}]},{"id":3571,"name":"Mayo-Kebbi Ouest","native":null,"cities":[{"id":105148,"name":"Mboursou Léré","native":null,"lat":"9.76390000","lon":"14.15390000"},{"id":105155,"name":"Pala","native":null,"lat":"9.36420000","lon":"14.90460000"}]},{"id":3570,"name":"Moyen-Chari","native":null,"cities":[{"id":105142,"name":"Kyabé","native":null,"lat":"9.45149000","lon":"18.94493000"},{"id":105156,"name":"Sarh","native":null,"lat":"9.14290000","lon":"18.39230000"}]},{"id":3586,"name":"N'Djamena","native":null,"cities":[{"id":153264,"name":"N'Djamena","native":null,"lat":"12.11000000","lon":"15.05000000"}]},{"id":3582,"name":"Ouaddaï","native":null,"cities":[{"id":105116,"name":"Abéché","native":null,"lat":"13.82916000","lon":"20.83240000"},{"id":105117,"name":"Adré","native":null,"lat":"13.46648000","lon":"22.19875000"},{"id":105137,"name":"Goz Béïda","native":null,"lat":"13.94563000","lon":"20.54680000"}]},{"id":3592,"name":"Salamat","native":null,"cities":[{"id":105118,"name":"Am Timan","native":null,"lat":"11.02970000","lon":"20.28270000"}]},{"id":3572,"name":"Sila","native":null,"cities":[{"id":105136,"name":"Goz Beïda","native":null,"lat":"12.22484000","lon":"21.41034000"}]},{"id":3579,"name":"Tandjilé","native":null,"cities":[{"id":105130,"name":"Béré","native":null,"lat":"9.32020000","lon":"16.15520000"},{"id":105140,"name":"Kelo","native":null,"lat":"9.30859000","lon":"15.80658000"},{"id":105144,"name":"Laï","native":null,"lat":"9.39720000","lon":"16.30066000"}]},{"id":3587,"name":"Tibesti","native":null,"cities":[{"id":105119,"name":"Aozou","native":null,"lat":"21.83750000","lon":"17.42750000"}]},{"id":3581,"name":"Wadi Fira","native":null,"cities":[{"id":105123,"name":"Biltine","native":null,"lat":"14.52791000","lon":"20.92749000"},{"id":105139,"name":"Iriba","native":null,"lat":"15.11667000","lon":"22.25000000"}]}]