[{"id":4520,"name":"Aileu municipality","native":null,"cities":[{"id":106830,"name":"Aileu","native":null,"lat":"-8.72806000","lon":"125.56639000"},{"id":106854,"name":"Lequidoe","native":null,"lat":"-8.69139000","lon":"125.63611000"},{"id":106868,"name":"Remexio","native":null,"lat":"-8.61667000","lon":"125.66667000"}]},{"id":4518,"name":"Ainaro Municipality","native":null,"cities":[{"id":106831,"name":"Ainaro","native":null,"lat":"-8.99241000","lon":"125.50816000"},{"id":106846,"name":"Hato-Udo","native":null,"lat":"-9.12036000","lon":"125.58935000"}]},{"id":4521,"name":"Baucau Municipality","native":null,"cities":[{"id":106834,"name":"Baguia","native":null,"lat":"-8.62787000","lon":"126.65743000"},{"id":106836,"name":"Baucau","native":null,"lat":"-8.46667000","lon":"126.45000000"},{"id":106837,"name":"Baukau","native":null,"lat":"-8.47572000","lon":"126.45633000"},{"id":106852,"name":"Laga","native":null,"lat":"-8.47411000","lon":"126.59228000"},{"id":106866,"name":"Quelicai","native":null,"lat":"-8.60135000","lon":"126.55904000"},{"id":106877,"name":"Vemasse","native":null,"lat":"-8.51036000","lon":"126.20823000"},{"id":106878,"name":"Venilale","native":null,"lat":"-8.64306000","lon":"126.37833000"}]},{"id":4525,"name":"Bobonaro Municipality","native":null,"cities":[{"id":106859,"name":"Maliana","native":null,"lat":"-8.99167000","lon":"125.21972000"}]},{"id":4522,"name":"Cova Lima Municipality","native":null,"cities":[{"id":106843,"name":"Fatumean","native":null,"lat":"-9.22917000","lon":"125.03583000"},{"id":106844,"name":"Fohorem","native":null,"lat":"-9.28361000","lon":"125.08944000"},{"id":106863,"name":"Maucatar","native":null,"lat":"-9.21772000","lon":"125.22981000"},{"id":106871,"name":"Suai","native":null,"lat":"-9.30000000","lon":"125.25000000"},{"id":106872,"name":"Tilomar","native":null,"lat":"-9.34182000","lon":"125.10887000"}]},{"id":4524,"name":"Dili municipality","native":null,"cities":[{"id":106833,"name":"Atauro Island","native":null,"lat":"-8.26785000","lon":"125.59699000"},{"id":106839,"name":"Cristo Rei","native":null,"lat":"-8.52047000","lon":"125.60837000"},{"id":106840,"name":"Dili","native":null,"lat":"-8.55861000","lon":"125.57361000"},{"id":106864,"name":"Metinaro","native":null,"lat":"-8.53007000","lon":"125.74163000"}]},{"id":4516,"name":"Ermera District","native":null,"cities":[{"id":106841,"name":"Ermera Villa","native":null,"lat":"-8.75222000","lon":"125.39694000"},{"id":106845,"name":"Gleno","native":null,"lat":"-8.72389000","lon":"125.43611000"},{"id":106847,"name":"Hatulia","native":null,"lat":"-8.81667000","lon":"125.31667000"},{"id":106855,"name":"Letefoho","native":null,"lat":"-8.83444000","lon":"125.42639000"},{"id":106867,"name":"Railaco","native":null,"lat":"-8.67237000","lon":"125.42546000"}]},{"id":4523,"name":"Lautém Municipality","native":null,"cities":[{"id":106848,"name":"Iliomar","native":null,"lat":"-8.70917000","lon":"126.82833000"},{"id":106853,"name":"Lautem","native":null,"lat":"-8.36514000","lon":"126.90389000"},{"id":106857,"name":"Lospalos","native":null,"lat":"-8.52167000","lon":"126.99833000"},{"id":106858,"name":"Luro","native":null,"lat":"-8.54359000","lon":"126.83003000"},{"id":106874,"name":"Tutuala","native":null,"lat":"-8.39597000","lon":"127.25923000"}]},{"id":4515,"name":"Liquiçá Municipality","native":null,"cities":[{"id":106838,"name":"Bazartete","native":null,"lat":"-8.62464000","lon":"125.38168000"},{"id":106856,"name":"Likisá","native":null,"lat":"-8.58750000","lon":"125.34194000"},{"id":106862,"name":"Maubara","native":null,"lat":"-8.61194000","lon":"125.20611000"}]},{"id":4517,"name":"Manatuto District","native":null,"cities":[{"id":106835,"name":"Barique","native":null,"lat":"-8.85472000","lon":"126.06556000"},{"id":106849,"name":"Laclo","native":null,"lat":"-8.55000000","lon":"125.91667000"},{"id":106850,"name":"Laclubar","native":null,"lat":"-8.74975000","lon":"125.91186000"},{"id":106860,"name":"Manatuto","native":null,"lat":"-8.52207000","lon":"126.01516000"},{"id":106861,"name":"Manatutu","native":null,"lat":"-8.51139000","lon":"126.01306000"},{"id":106870,"name":"Soibada","native":null,"lat":"-8.86000000","lon":"125.94000000"}]},{"id":4519,"name":"Manufahi Municipality","native":null,"cities":[{"id":106832,"name":"Alas","native":null,"lat":"-9.02730000","lon":"125.78680000"},{"id":106842,"name":"Fatuberliu","native":null,"lat":"-8.94790000","lon":"125.86633000"},{"id":106869,"name":"Same","native":null,"lat":"-9.00000000","lon":"125.65000000"},{"id":106873,"name":"Turiscai","native":null,"lat":"-8.82371000","lon":"125.70454000"}]},{"id":4514,"name":"Viqueque Municipality","native":null,"cities":[{"id":106851,"name":"Lacluta","native":null,"lat":"-8.80000000","lon":"126.13333000"},{"id":106865,"name":"Ossu","native":null,"lat":"-8.73477000","lon":"126.38324000"},{"id":106875,"name":"Uatocarabau","native":null,"lat":"-8.75658000","lon":"126.68060000"},{"id":106876,"name":"Uatolari","native":null,"lat":"-8.76277000","lon":"126.57353000"},{"id":106879,"name":"Viqueque","native":null,"lat":"-8.85908000","lon":"126.36972000"}]}]