[{"id":3913,"name":"Haʻapai","native":null,"cities":[{"id":107049,"name":"Pangai","native":null,"lat":"-19.81468000","lon":"-174.35423000"}]},{"id":3915,"name":"ʻEua","native":null,"cities":[{"id":107051,"name":"‘Ohonua","native":null,"lat":"-21.33333000","lon":"-174.95000000"}]},{"id":3914,"name":"Niuas","native":null,"cities":[{"id":107045,"name":"Hihifo","native":null,"lat":"-15.95440000","lon":"-173.79616000"}]},{"id":3912,"name":"Tongatapu","native":null,"cities":[{"id":107044,"name":"Haveluloto","native":null,"lat":"-21.15216000","lon":"-175.21333000"},{"id":107046,"name":"Kolonga","native":null,"lat":"-21.13333000","lon":"-175.06667000"},{"id":107048,"name":"Nuku‘alofa","native":null,"lat":"-21.13938000","lon":"-175.20180000"},{"id":107050,"name":"Vaini","native":null,"lat":"-21.19292000","lon":"-175.17678000"}]},{"id":3911,"name":"Vavaʻu","native":null,"cities":[{"id":107047,"name":"Neiafu","native":null,"lat":"-18.65060000","lon":"-173.98404000"}]}]