[{"id":2212,"name":"Adana","native":null,"cities":[{"id":107063,"name":"Adana","native":null,"lat":"37.00167000","lon":"35.32889000"},{"id":107120,"name":"Aladağ","native":null,"lat":"37.55854000","lon":"35.40196000"},{"id":107258,"name":"Bahçe","native":null,"lat":"37.19724000","lon":"36.57658000"},{"id":107427,"name":"Ceyhan","native":null,"lat":"37.02472000","lon":"35.81750000"},{"id":108848,"name":"Çukurova","native":null,"lat":"37.05627000","lon":"35.13119000"},{"id":107635,"name":"Feke","native":null,"lat":"37.82405000","lon":"35.91826000"},{"id":108893,"name":"İmamoğlu","native":null,"lat":"37.27500000","lon":"35.66649000"},{"id":107896,"name":"Karaisalı","native":null,"lat":"37.26655000","lon":"35.05033000"},{"id":107918,"name":"Karataş","native":null,"lat":"36.57186000","lon":"35.36784000"},{"id":108033,"name":"Kozan","native":null,"lat":"37.50000000","lon":"35.75000000"},{"id":108349,"name":"Pozantı","native":null,"lat":"37.43671000","lon":"34.88057000"},{"id":108374,"name":"Saimbeyli","native":null,"lat":"37.99615000","lon":"36.09909000"},{"id":108414,"name":"Sarıçam","native":null,"lat":"37.14971000","lon":"35.50949000"},{"id":108452,"name":"Seyhan","native":null,"lat":"36.95540000","lon":"35.21637000"},{"id":108597,"name":"Tufanbeyli","native":null,"lat":"38.27343000","lon":"36.22731000"},{"id":108737,"name":"Yumurtalık","native":null,"lat":"36.78245000","lon":"35.79949000"},{"id":108745,"name":"Yüreğir","native":null,"lat":"36.99205000","lon":"35.45402000"}]},{"id":2155,"name":"Adıyaman","native":null,"cities":[{"id":107067,"name":"Adıyaman","native":null,"lat":"37.76441000","lon":"38.27629000"},{"id":107173,"name":"Aralık İlçesi","native":null,"lat":"39.88314000","lon":"44.52330000"},{"id":107332,"name":"Besni","native":null,"lat":"37.69278000","lon":"37.86111000"},{"id":108814,"name":"Çelikhan","native":null,"lat":"38.02560000","lon":"38.23665000"},{"id":107666,"name":"Gerger","native":null,"lat":"37.95000000","lon":"39.01667000"},{"id":107688,"name":"Gölbaşı","native":null,"lat":"37.78361000","lon":"37.63667000"},{"id":108069,"name":"Kâhta","native":null,"lat":"37.78552000","lon":"38.62370000"},{"id":108194,"name":"Merkez","native":null,"lat":"37.74454000","lon":"38.26801000"},{"id":108379,"name":"Samsat","native":null,"lat":"37.58194000","lon":"38.47417000"},{"id":108471,"name":"Sincik","native":null,"lat":"38.03645000","lon":"38.61257000"},{"id":108606,"name":"Tut","native":null,"lat":"37.79529000","lon":"37.91610000"}]},{"id":2179,"name":"Afyonkarahisar","native":null,"cities":[{"id":107068,"name":"Afyonkarahisar","native":null,"lat":"38.75667000","lon":"30.54333000"},{"id":107318,"name":"Başmakçı","native":null,"lat":"37.89722000","lon":"30.01167000"},{"id":107293,"name":"Bayat","native":null,"lat":"38.98306000","lon":"30.92472000"},{"id":107367,"name":"Bolvadin","native":null,"lat":"38.71111000","lon":"31.04861000"},{"id":108795,"name":"Çay","native":null,"lat":"38.59167000","lon":"31.02861000"},{"id":108841,"name":"Çobanlar İlçesi","native":null,"lat":"38.71085000","lon":"30.78874000"},{"id":107455,"name":"Dazkırı","native":null,"lat":"37.91861000","lon":"29.86056000"},{"id":107498,"name":"Dinar","native":null,"lat":"38.06500000","lon":"30.16557000"},{"id":107576,"name":"Emirdağ","native":null,"lat":"39.01972000","lon":"31.15000000"},{"id":107612,"name":"Evciler","native":null,"lat":"38.04139000","lon":"29.88667000"},{"id":107831,"name":"Hocalar","native":null,"lat":"38.57824000","lon":"29.96768000"},{"id":108883,"name":"İhsaniye","native":null,"lat":"39.02916000","lon":"30.41639000"},{"id":108912,"name":"İscehisar","native":null,"lat":"38.93900000","lon":"30.75002000"},{"id":107854,"name":"Işıklar","native":null,"lat":"38.67101000","lon":"30.74098000"},{"id":108120,"name":"Kızılören","native":null,"lat":"38.25806000","lon":"30.15167000"},{"id":108190,"name":"Merkez","native":null,"lat":"38.79698000","lon":"30.51951000"},{"id":108383,"name":"Sandıklı","native":null,"lat":"38.46472000","lon":"30.26946000"},{"id":108468,"name":"Sinanpaşa","native":null,"lat":"38.74444000","lon":"30.24278000"},{"id":108964,"name":"Şuhut","native":null,"lat":"38.53111000","lon":"30.54583000"},{"id":108493,"name":"Sultandağı","native":null,"lat":"38.53111000","lon":"31.22806000"}]},{"id":2193,"name":"Ağrı","native":null,"cities":[{"id":107244,"name":"Ağrı","native":null,"lat":"39.71944000","lon":"43.05139000"},{"id":107502,"name":"Diyadin","native":null,"lat":"39.54056000","lon":"43.67135000"},{"id":107527,"name":"Doğubayazıt","native":null,"lat":"39.54694000","lon":"44.08417000"},{"id":107566,"name":"Eleşkirt","native":null,"lat":"39.79803000","lon":"42.67574000"},{"id":107783,"name":"Hamur","native":null,"lat":"39.60561000","lon":"42.98500000"},{"id":108316,"name":"Patnos","native":null,"lat":"39.22493000","lon":"42.85693000"},{"id":108552,"name":"Taşlıçay","native":null,"lat":"39.62966000","lon":"43.36878000"},{"id":108608,"name":"Tutak İlçesi","native":null,"lat":"39.55042000","lon":"42.77572000"}]},{"id":2210,"name":"Aksaray","native":null,"cities":[{"id":107239,"name":"Ağaçören","native":null,"lat":"38.87484000","lon":"33.91674000"},{"id":107091,"name":"Aksaray","native":null,"lat":"38.37255000","lon":"34.02537000"},{"id":107606,"name":"Eskil İlçesi","native":null,"lat":"38.41158000","lon":"33.41994000"},{"id":107727,"name":"Gülağaç İlçesi","native":null,"lat":"38.40641000","lon":"34.35071000"},{"id":107761,"name":"Güzelyurt","native":null,"lat":"38.27722000","lon":"34.37194000"},{"id":108178,"name":"Merkez","native":null,"lat":"38.37060000","lon":"34.02843000"},{"id":108283,"name":"Ortaköy","native":null,"lat":"38.73728000","lon":"34.03866000"},{"id":108409,"name":"Sarıyahşi","native":null,"lat":"38.98349000","lon":"33.84136000"},{"id":108496,"name":"Sultanhanı","native":null,"lat":"38.24710000","lon":"33.54961000"}]},{"id":2161,"name":"Amasya","native":null,"cities":[{"id":107157,"name":"Amasya","native":null,"lat":"40.65333000","lon":"35.83306000"},{"id":107457,"name":"Dedeköy","native":null,"lat":"40.74752000","lon":"35.04249000"},{"id":107716,"name":"Göynücek","native":null,"lat":"40.39917000","lon":"35.52500000"},{"id":107737,"name":"Gümüşhacıköy","native":null,"lat":"40.87306000","lon":"35.21472000"},{"id":107781,"name":"Hamamözü İlçesi","native":null,"lat":"40.79539000","lon":"35.03367000"},{"id":108195,"name":"Merkez","native":null,"lat":"40.61939000","lon":"35.87016000"},{"id":108200,"name":"Merzifon İlçesi","native":null,"lat":"40.88348000","lon":"35.47116000"},{"id":108500,"name":"Suluova","native":null,"lat":"40.83129000","lon":"35.64788000"},{"id":108554,"name":"Taşova","native":null,"lat":"40.75972000","lon":"36.32250000"}]},{"id":2217,"name":"Ankara","native":null,"cities":[{"id":107102,"name":"Akyurt","native":null,"lat":"40.13512000","lon":"33.08614000"},{"id":107139,"name":"Altındağ","native":null,"lat":"40.00110000","lon":"32.97022000"},{"id":107135,"name":"Altpınar","native":null,"lat":"39.20417000","lon":"32.74778000"},{"id":107166,"name":"Ankara","native":null,"lat":"39.91987000","lon":"32.85427000"},{"id":107217,"name":"Ayaş","native":null,"lat":"40.01933000","lon":"32.33221000"},{"id":107268,"name":"Bala İlçesi","native":null,"lat":"39.56374000","lon":"33.12962000"},{"id":107290,"name":"Batikent","native":null,"lat":"39.96833000","lon":"32.73083000"},{"id":107342,"name":"Beypazari","native":null,"lat":"40.14695000","lon":"31.91911000"},{"id":107343,"name":"Beypazarı","native":null,"lat":"40.16750000","lon":"31.92111000"},{"id":108768,"name":"Çamlıdere","native":null,"lat":"40.48958000","lon":"32.47499000"},{"id":108779,"name":"Çankaya","native":null,"lat":"39.91790000","lon":"32.86268000"},{"id":108844,"name":"Çubuk","native":null,"lat":"40.23861000","lon":"33.03222000"},{"id":107568,"name":"Elmadağ","native":null,"lat":"39.92083000","lon":"33.23083000"},{"id":107611,"name":"Etimesgut İlçesi","native":null,"lat":"39.96335000","lon":"32.63744000"},{"id":107614,"name":"Evren","native":null,"lat":"39.02402000","lon":"33.80626000"},{"id":107687,"name":"Gölbaşı","native":null,"lat":"39.79043000","lon":"32.80903000"},{"id":107725,"name":"Güdül","native":null,"lat":"40.21051000","lon":"32.24552000"},{"id":107811,"name":"Haymana","native":null,"lat":"39.43212000","lon":"32.49732000"},{"id":107868,"name":"Kahramankazan","native":null,"lat":"40.16502000","lon":"32.63904000"},{"id":107874,"name":"Kalecik","native":null,"lat":"40.09722000","lon":"33.40833000"},{"id":107956,"name":"Kazan","native":null,"lat":"40.23167000","lon":"32.68389000"},{"id":107991,"name":"Keçiören","native":null,"lat":"40.02106000","lon":"32.83102000"},{"id":108113,"name":"Kızılcahamam","native":null,"lat":"40.46972000","lon":"32.65056000"},{"id":108147,"name":"Mamak İlçesi","native":null,"lat":"39.94587000","lon":"32.90811000"},{"id":108237,"name":"Nallıhan","native":null,"lat":"40.18593000","lon":"31.35179000"},{"id":108346,"name":"Polatlı","native":null,"lat":"39.57715000","lon":"32.14132000"},{"id":108352,"name":"Pursaklar","native":null,"lat":"40.03961000","lon":"32.90139000"},{"id":108956,"name":"Şereflikoçhisar","native":null,"lat":"38.93925000","lon":"33.53860000"},{"id":108470,"name":"Sincan İlçesi","native":null,"lat":"39.95943000","lon":"32.49567000"},{"id":108703,"name":"Yenimahalle","native":null,"lat":"39.99043000","lon":"32.69555000"}]},{"id":2169,"name":"Antalya","native":null,"cities":[{"id":107092,"name":"Akseki","native":null,"lat":"37.04861000","lon":"31.79000000"},{"id":107095,"name":"Aksu","native":null,"lat":"36.95389000","lon":"30.84778000"},{"id":107122,"name":"Alanya","native":null,"lat":"36.54375000","lon":"31.99982000"},{"id":107169,"name":"Antalya","native":null,"lat":"36.90812000","lon":"30.69556000"},{"id":107216,"name":"Avsallar","native":null,"lat":"36.62448000","lon":"31.76941000"},{"id":107327,"name":"Belek","native":null,"lat":"36.86278000","lon":"31.05556000"},{"id":107336,"name":"Beykonak","native":null,"lat":"36.32573000","lon":"30.30302000"},{"id":107396,"name":"Boğazkent","native":null,"lat":"36.85319000","lon":"31.16388000"},{"id":107467,"name":"Demre","native":null,"lat":"36.24444000","lon":"29.98500000"},{"id":107541,"name":"Döşemealtı İlçesi","native":null,"lat":"37.02366000","lon":"30.59040000"},{"id":107557,"name":"Eksere","native":null,"lat":"36.81339000","lon":"31.99971000"},{"id":107570,"name":"Elmalı","native":null,"lat":"36.73583000","lon":"29.91775000"},{"id":107617,"name":"Evrenseki","native":null,"lat":"36.83868000","lon":"31.35559000"},{"id":107641,"name":"Finike","native":null,"lat":"36.42355000","lon":"30.06645000"},{"id":107648,"name":"Gazipaşa","native":null,"lat":"36.26942000","lon":"32.31792000"},{"id":107718,"name":"Göynük","native":null,"lat":"36.66000000","lon":"30.55000000"},{"id":107740,"name":"Gündoğmuş İlçesi","native":null,"lat":"36.82446000","lon":"32.00679000"},{"id":108877,"name":"İbradı","native":null,"lat":"37.09694000","lon":"31.59917000"},{"id":107876,"name":"Kalkan","native":null,"lat":"36.26510000","lon":"29.41369000"},{"id":107962,"name":"Kaş","native":null,"lat":"36.20176000","lon":"29.63766000"},{"id":107978,"name":"Kemer","native":null,"lat":"36.59778000","lon":"30.56056000"},{"id":107981,"name":"Kepez İlçesi","native":null,"lat":"37.01187000","lon":"30.75966000"},{"id":108112,"name":"Kızılağaç","native":null,"lat":"36.73055000","lon":"31.53517000"},{"id":108017,"name":"Konyaaltı","native":null,"lat":"36.86424000","lon":"30.62714000"},{"id":108024,"name":"Korkuteli","native":null,"lat":"37.06498000","lon":"30.19565000"},{"id":108048,"name":"Kumköy","native":null,"lat":"36.88286000","lon":"30.95178000"},{"id":108051,"name":"Kumluca","native":null,"lat":"36.58000000","lon":"30.30000000"},{"id":108139,"name":"Mahmutlar","native":null,"lat":"36.49463000","lon":"32.09085000"},{"id":108148,"name":"Manavgat","native":null,"lat":"36.78667000","lon":"31.44306000"},{"id":108224,"name":"Muratpaşa","native":null,"lat":"36.89157000","lon":"30.76498000"},{"id":108263,"name":"Okurcalar","native":null,"lat":"36.64876000","lon":"31.70387000"},{"id":108319,"name":"Payallar","native":null,"lat":"36.60160000","lon":"31.85057000"},{"id":108441,"name":"Serik","native":null,"lat":"37.07743000","lon":"31.00677000"},{"id":108456,"name":"Side","native":null,"lat":"36.76667000","lon":"31.38889000"},{"id":108560,"name":"Tekirova","native":null,"lat":"36.50170000","lon":"30.52723000"},{"id":108614,"name":"Türkler","native":null,"lat":"36.60198000","lon":"31.82067000"},{"id":108605,"name":"Turunçova","native":null,"lat":"36.36889000","lon":"30.13750000"}]},{"id":2185,"name":"Ardahan","native":null,"cities":[{"id":107179,"name":"Ardahan","native":null,"lat":"41.10871000","lon":"42.70222000"},{"id":108853,"name":"Çıldır İlçesi","native":null,"lat":"41.13783000","lon":"43.14169000"},{"id":107444,"name":"Damal","native":null,"lat":"41.34145000","lon":"42.83680000"},{"id":107692,"name":"Göle","native":null,"lat":"40.78746000","lon":"42.60603000"},{"id":107788,"name":"Hanak","native":null,"lat":"41.23344000","lon":"42.84037000"},{"id":108347,"name":"Posof","native":null,"lat":"41.51111000","lon":"42.72917000"}]},{"id":2191,"name":"Artvin","native":null,"cities":[{"id":107180,"name":"Ardanuç","native":null,"lat":"41.12738000","lon":"42.06292000"},{"id":107184,"name":"Arhavi","native":null,"lat":"41.35121000","lon":"41.30456000"},{"id":107196,"name":"Artvin","native":null,"lat":"41.18161000","lon":"41.82172000"},{"id":107371,"name":"Borçka","native":null,"lat":"41.35792000","lon":"41.66579000"},{"id":107834,"name":"Hopa","native":null,"lat":"41.39046000","lon":"41.41966000"},{"id":107975,"name":"Kemalpaşa","native":null,"lat":"41.48336000","lon":"41.52750000"},{"id":108226,"name":"Murgul","native":null,"lat":"41.27937000","lon":"41.55514000"},{"id":108940,"name":"Şavşat","native":null,"lat":"41.24027000","lon":"42.36109000"},{"id":108455,"name":"Seyitler","native":null,"lat":"41.19484000","lon":"41.83696000"},{"id":108741,"name":"Yusufeli","native":null,"lat":"40.82042000","lon":"41.53743000"}]},{"id":2187,"name":"Aydın","native":null,"cities":[{"id":107054,"name":"Acarlar","native":null,"lat":"37.82444000","lon":"27.74667000"},{"id":107210,"name":"Atça","native":null,"lat":"37.88859000","lon":"28.21528000"},{"id":107220,"name":"Aydın","native":null,"lat":"37.84501000","lon":"27.83963000"},{"id":107381,"name":"Bozdoğan","native":null,"lat":"37.67134000","lon":"28.31395000"},{"id":107402,"name":"Buharkent","native":null,"lat":"37.96397000","lon":"28.74270000"},{"id":108834,"name":"Çine","native":null,"lat":"37.61266000","lon":"28.05912000"},{"id":107441,"name":"Dalama","native":null,"lat":"37.79028000","lon":"28.06639000"},{"id":107454,"name":"Davutlar","native":null,"lat":"37.73392000","lon":"27.29283000"},{"id":107493,"name":"Didim","native":null,"lat":"37.39305000","lon":"27.29357000"},{"id":107553,"name":"Efeler","native":null,"lat":"37.83835000","lon":"27.84557000"},{"id":107668,"name":"Germencik","native":null,"lat":"37.87056000","lon":"27.60283000"},{"id":108897,"name":"İncirliova","native":null,"lat":"37.85222000","lon":"27.72361000"},{"id":108911,"name":"İsabeyli","native":null,"lat":"37.90147000","lon":"28.26475000"},{"id":107893,"name":"Karacasu","native":null,"lat":"37.74731000","lon":"28.59402000"},{"id":107929,"name":"Karpuzlu","native":null,"lat":"37.55861000","lon":"27.83528000"},{"id":108036,"name":"Koçarlı","native":null,"lat":"37.76113000","lon":"27.70583000"},{"id":108084,"name":"Köşk","native":null,"lat":"37.85333000","lon":"28.05167000"},{"id":108067,"name":"Kuşadası","native":null,"lat":"37.86014000","lon":"27.25713000"},{"id":108063,"name":"Kuyucak","native":null,"lat":"37.91330000","lon":"28.45917000"},{"id":108243,"name":"Nazilli","native":null,"lat":"37.93570000","lon":"28.30609000"},{"id":108404,"name":"Sarıkemer","native":null,"lat":"37.56609000","lon":"27.36430000"},{"id":108515,"name":"Söke","native":null,"lat":"37.74820000","lon":"27.40614000"},{"id":108497,"name":"Sultanhisar","native":null,"lat":"37.88989000","lon":"28.15436000"},{"id":108567,"name":"Tepecik","native":null,"lat":"37.82358000","lon":"27.87496000"},{"id":108704,"name":"Yenipazar","native":null,"lat":"37.82332000","lon":"28.19573000"}]},{"id":2175,"name":"Balıkesir","native":null,"cities":[{"id":107138,"name":"Altıeylül İlçesi","native":null,"lat":"39.64099000","lon":"27.88639000"},{"id":107143,"name":"Altınoluk","native":null,"lat":"39.57944000","lon":"26.73722000"},{"id":107233,"name":"Ayvalık","native":null,"lat":"39.31927000","lon":"26.69341000"},{"id":107277,"name":"Balıkesir","native":null,"lat":"39.64917000","lon":"27.88611000"},{"id":107273,"name":"Balya","native":null,"lat":"39.74861000","lon":"27.57889000"},{"id":107283,"name":"Bandırma","native":null,"lat":"40.35222000","lon":"27.97667000"},{"id":107354,"name":"Bigadiç","native":null,"lat":"39.39250000","lon":"28.13111000"},{"id":107412,"name":"Burhaniye","native":null,"lat":"39.50041000","lon":"26.97269000"},{"id":107532,"name":"Dursunbey","native":null,"lat":"39.58596000","lon":"28.62568000"},{"id":107550,"name":"Edremit","native":null,"lat":"39.59611000","lon":"27.02444000"},{"id":107584,"name":"Erdek","native":null,"lat":"40.39960000","lon":"27.79348000"},{"id":107705,"name":"Gömeç","native":null,"lat":"39.39016000","lon":"26.84127000"},{"id":107708,"name":"Gönen","native":null,"lat":"40.10490000","lon":"27.65399000"},{"id":107806,"name":"Havran","native":null,"lat":"39.55833000","lon":"27.09833000"},{"id":108920,"name":"İvrindi","native":null,"lat":"39.58389000","lon":"27.48639000"},{"id":107982,"name":"Kepsut","native":null,"lat":"39.68889000","lon":"28.15222000"},{"id":108151,"name":"Manyas","native":null,"lat":"40.04639000","lon":"27.97000000"},{"id":108155,"name":"Marmara","native":null,"lat":"40.58633000","lon":"27.55541000"},{"id":108417,"name":"Savaştepe","native":null,"lat":"39.38319000","lon":"27.65612000"},{"id":108527,"name":"Sındırgı","native":null,"lat":"39.24128000","lon":"28.17842000"},{"id":108509,"name":"Susurluk","native":null,"lat":"39.91361000","lon":"28.15778000"}]},{"id":2148,"name":"Bartın","native":null,"cities":[{"id":107155,"name":"Amasra","native":null,"lat":"41.74633000","lon":"32.38633000"},{"id":107286,"name":"Bartın","native":null,"lat":"41.63583000","lon":"32.33750000"},{"id":108057,"name":"Kurucaşile","native":null,"lat":"41.83781000","lon":"32.71621000"},{"id":108629,"name":"Ulus İlçesi","native":null,"lat":"41.59373000","lon":"32.65066000"}]},{"id":2194,"name":"Batman","native":null,"cities":[{"id":107215,"name":"Aviski","native":null,"lat":"37.96459000","lon":"41.33119000"},{"id":107225,"name":"Aydınkonak","native":null,"lat":"37.89461000","lon":"41.16405000"},{"id":107271,"name":"Balpınar","native":null,"lat":"37.86804000","lon":"41.05536000"},{"id":107291,"name":"Batman","native":null,"lat":"37.88738000","lon":"41.13221000"},{"id":107350,"name":"Beşiri","native":null,"lat":"37.91573000","lon":"41.28650000"},{"id":107352,"name":"Beşpınar","native":null,"lat":"37.83709000","lon":"41.60219000"},{"id":107357,"name":"Binatlı","native":null,"lat":"37.84708000","lon":"41.21608000"},{"id":108824,"name":"Çevrimova","native":null,"lat":"37.84003000","lon":"41.27288000"},{"id":107465,"name":"Demiryol","native":null,"lat":"37.91751000","lon":"41.14984000"},{"id":107515,"name":"Doğankavak","native":null,"lat":"37.96265000","lon":"41.22675000"},{"id":107595,"name":"Erköklü","native":null,"lat":"37.86182000","lon":"41.14413000"},{"id":107663,"name":"Gercüş İlçesi","native":null,"lat":"37.59139000","lon":"41.33278000"},{"id":107664,"name":"Gerdzhyush","native":null,"lat":"37.56249000","lon":"41.37753000"},{"id":107800,"name":"Hasankeyf","native":null,"lat":"37.70612000","lon":"41.40480000"},{"id":107827,"name":"Hisar","native":null,"lat":"37.60094000","lon":"41.22799000"},{"id":107947,"name":"Kayapınar","native":null,"lat":"37.55762000","lon":"41.16231000"},{"id":108035,"name":"Kozluk İlçesi","native":null,"lat":"38.19249000","lon":"41.48705000"},{"id":108186,"name":"Merkez","native":null,"lat":"37.84362000","lon":"41.18341000"},{"id":108302,"name":"Oymataş","native":null,"lat":"37.79856000","lon":"41.02083000"},{"id":108415,"name":"Sason","native":null,"lat":"38.32767000","lon":"41.41377000"},{"id":108700,"name":"Yeniköy","native":null,"lat":"37.88042000","lon":"41.05004000"},{"id":108708,"name":"Yenipınar","native":null,"lat":"37.84291000","lon":"41.30137000"},{"id":108731,"name":"Yolağzı","native":null,"lat":"37.52554000","lon":"41.35340000"}]},{"id":2177,"name":"Bayburt","native":null,"cities":[{"id":107226,"name":"Aydıntepe","native":null,"lat":"40.38325000","lon":"40.14272000"},{"id":107297,"name":"Bayburt","native":null,"lat":"40.25631000","lon":"40.22289000"},{"id":107466,"name":"Demirözü İlçesi","native":null,"lat":"40.16560000","lon":"39.89343000"},{"id":108351,"name":"Pulur","native":null,"lat":"40.16023000","lon":"39.89239000"}]},{"id":2221,"name":"Bilecik","native":null,"cities":[{"id":107356,"name":"Bilecik","native":null,"lat":"40.14192000","lon":"29.97932000"},{"id":107393,"name":"Bozüyük","native":null,"lat":"39.90778000","lon":"30.03667000"},{"id":107505,"name":"Dodurga","native":null,"lat":"39.79972000","lon":"29.91722000"},{"id":107702,"name":"Gölpazarı","native":null,"lat":"40.28472000","lon":"30.31722000"},{"id":108903,"name":"İnhisar","native":null,"lat":"40.04932000","lon":"30.38521000"},{"id":108086,"name":"Küplü","native":null,"lat":"40.09837000","lon":"30.00010000"},{"id":108291,"name":"Osmaneli","native":null,"lat":"40.35722000","lon":"30.01417000"},{"id":108329,"name":"Pazaryeri","native":null,"lat":"39.99395000","lon":"29.90424000"},{"id":108518,"name":"Söğüt İlçesi","native":null,"lat":"40.02479000","lon":"30.17300000"},{"id":108650,"name":"Vezirhan","native":null,"lat":"40.24472000","lon":"30.02000000"},{"id":108705,"name":"Yenipazar","native":null,"lat":"40.17833000","lon":"30.52000000"}]},{"id":2153,"name":"Bingöl","native":null,"cities":[{"id":107060,"name":"Adaklı İlçesi","native":null,"lat":"39.22870000","lon":"40.48252000"},{"id":107358,"name":"Bingöl","native":null,"lat":"38.88472000","lon":"40.49389000"},{"id":107661,"name":"Genç","native":null,"lat":"38.74773000","lon":"40.55343000"},{"id":107927,"name":"Karlıova","native":null,"lat":"39.29044000","lon":"41.00594000"},{"id":108002,"name":"Kiğı İlçesi","native":null,"lat":"39.30894000","lon":"40.34995000"},{"id":108182,"name":"Merkez","native":null,"lat":"38.95025000","lon":"40.52802000"},{"id":108483,"name":"Solhan","native":null,"lat":"38.96525000","lon":"41.05443000"},{"id":108681,"name":"Yayladere","native":null,"lat":"39.22614000","lon":"40.06950000"},{"id":108688,"name":"Yedisu","native":null,"lat":"39.43277000","lon":"40.53368000"}]},{"id":2215,"name":"Bitlis","native":null,"cities":[{"id":107065,"name":"Adilcevaz","native":null,"lat":"38.79911000","lon":"42.73159000"},{"id":107071,"name":"Ahlat","native":null,"lat":"38.74890000","lon":"42.48007000"},{"id":107347,"name":"Beğendik","native":null,"lat":"37.97557000","lon":"42.64823000"},{"id":107364,"name":"Bitlis","native":null,"lat":"38.40115000","lon":"42.10784000"},{"id":107751,"name":"Güroymak","native":null,"lat":"38.57580000","lon":"42.01558000"},{"id":107829,"name":"Hizan","native":null,"lat":"38.22498000","lon":"42.41830000"},{"id":108189,"name":"Merkez","native":null,"lat":"38.31702000","lon":"42.10065000"},{"id":108233,"name":"Mutki","native":null,"lat":"38.40624000","lon":"41.92018000"},{"id":108538,"name":"Tatvan","native":null,"lat":"38.49221000","lon":"42.28269000"}]},{"id":2172,"name":"Bolu","native":null,"cities":[{"id":107366,"name":"Bolu","native":null,"lat":"40.73583000","lon":"31.60611000"},{"id":107537,"name":"Dörtdivan","native":null,"lat":"40.72052000","lon":"32.06314000"},{"id":107665,"name":"Gerede","native":null,"lat":"40.71364000","lon":"32.31263000"},{"id":107719,"name":"Göynük","native":null,"lat":"40.40028000","lon":"30.78833000"},{"id":108096,"name":"Kıbrıscık","native":null,"lat":"40.40778000","lon":"31.85194000"},{"id":108172,"name":"Mengen","native":null,"lat":"40.93877000","lon":"32.07642000"},{"id":108218,"name":"Mudurnu","native":null,"lat":"40.47300000","lon":"31.20755000"},{"id":108421,"name":"Seben","native":null,"lat":"40.41134000","lon":"31.57359000"},{"id":108709,"name":"Yeniçağa","native":null,"lat":"40.77115000","lon":"32.03375000"}]},{"id":2209,"name":"Burdur","native":null,"cities":[{"id":107241,"name":"Ağlasun","native":null,"lat":"37.64944000","lon":"30.53417000"},{"id":107148,"name":"Altınyayla","native":null,"lat":"36.99722000","lon":"29.54579000"},{"id":107400,"name":"Bucak","native":null,"lat":"37.45917000","lon":"30.59500000"},{"id":107411,"name":"Burdur","native":null,"lat":"37.72028000","lon":"30.29083000"},{"id":108793,"name":"Çavdır İlçesi","native":null,"lat":"37.16483000","lon":"29.69937000"},{"id":108817,"name":"Çeltikçi İlçesi","native":null,"lat":"37.53885000","lon":"30.46823000"},{"id":107695,"name":"Gölhisar","native":null,"lat":"37.14590000","lon":"29.50876000"},{"id":107906,"name":"Karamanlı","native":null,"lat":"37.37301000","lon":"29.82308000"},{"id":107977,"name":"Kemer","native":null,"lat":"37.35222000","lon":"30.06306000"},{"id":108116,"name":"Kızılkaya","native":null,"lat":"37.30361000","lon":"30.44417000"},{"id":108005,"name":"Kocaaliler","native":null,"lat":"37.31694000","lon":"30.74000000"},{"id":108180,"name":"Merkez","native":null,"lat":"37.62762000","lon":"30.20408000"},{"id":108556,"name":"Tefenni","native":null,"lat":"37.30968000","lon":"29.77538000"},{"id":108726,"name":"Yeşilova","native":null,"lat":"37.50806000","lon":"29.75472000"}]},{"id":2163,"name":"Bursa","native":null,"cities":[{"id":107123,"name":"Alanyurt","native":null,"lat":"40.10881000","lon":"29.51871000"},{"id":107269,"name":"Balarim","native":null,"lat":"40.37381000","lon":"29.59025000"},{"id":107374,"name":"Boyalıca","native":null,"lat":"40.48194000","lon":"29.56083000"},{"id":107414,"name":"Bursa","native":null,"lat":"40.19559000","lon":"29.06013000"},{"id":107419,"name":"Büyükorhan İlçesi","native":null,"lat":"39.78223000","lon":"28.89338000"},{"id":108757,"name":"Çakırca","native":null,"lat":"40.47056000","lon":"29.66333000"},{"id":108758,"name":"Çakırlı","native":null,"lat":"40.51806000","lon":"29.45222000"},{"id":107426,"name":"Cerrah","native":null,"lat":"40.07124000","lon":"29.44661000"},{"id":107464,"name":"Demirtaş","native":null,"lat":"40.27194000","lon":"29.09833000"},{"id":107560,"name":"Elbeyli","native":null,"lat":"40.48611000","lon":"29.72472000"},{"id":107660,"name":"Gemlik","native":null,"lat":"40.43510000","lon":"29.14943000"},{"id":107756,"name":"Gürsu","native":null,"lat":"40.25498000","lon":"29.21183000"},{"id":107785,"name":"Hamzabey","native":null,"lat":"40.13583000","lon":"29.52639000"},{"id":107795,"name":"Harmancık İlçesi","native":null,"lat":"39.67743000","lon":"29.15523000"},{"id":108901,"name":"İnegol","native":null,"lat":"40.07806000","lon":"29.51333000"},{"id":108925,"name":"İznik","native":null,"lat":"40.42861000","lon":"29.72111000"},{"id":107890,"name":"Karacabey","native":null,"lat":"40.21323000","lon":"28.36120000"},{"id":107935,"name":"Karıncalı","native":null,"lat":"39.97118000","lon":"28.85894000"},{"id":107967,"name":"Keles","native":null,"lat":"39.91361000","lon":"29.22944000"},{"id":107987,"name":"Kestel","native":null,"lat":"40.19828000","lon":"29.21237000"},{"id":108001,"name":"Kirazlı","native":null,"lat":"40.09964000","lon":"29.04163000"},{"id":108094,"name":"Küçükkumla","native":null,"lat":"40.47047000","lon":"29.10152000"},{"id":108059,"name":"Kurşunlu","native":null,"lat":"40.03712000","lon":"29.65972000"},{"id":108217,"name":"Mudanya","native":null,"lat":"40.33342000","lon":"28.77218000"},{"id":108230,"name":"Mustafakemalpaşa","native":null,"lat":"40.03815000","lon":"28.40866000"},{"id":108239,"name":"Narlıca","native":null,"lat":"40.38583000","lon":"29.48111000"},{"id":108249,"name":"Nilüfer","native":null,"lat":"40.21375000","lon":"28.98464000"},{"id":108272,"name":"Orhaneli","native":null,"lat":"39.90333000","lon":"28.99056000"},{"id":108274,"name":"Orhangazi","native":null,"lat":"40.48917000","lon":"29.30889000"},{"id":108293,"name":"Osmangazi","native":null,"lat":"40.15644000","lon":"29.08753000"},{"id":108517,"name":"Sölöz","native":null,"lat":"40.39480000","lon":"29.41559000"},{"id":108529,"name":"Tacir","native":null,"lat":"40.52556000","lon":"29.73972000"},{"id":108530,"name":"Tahtaköprü","native":null,"lat":"39.95000000","lon":"29.65000000"},{"id":108537,"name":"Tatkavaklı","native":null,"lat":"40.03333000","lon":"28.36667000"},{"id":108632,"name":"Umurbey","native":null,"lat":"40.41472000","lon":"29.18306000"},{"id":108692,"name":"Yenice","native":null,"lat":"40.08778000","lon":"29.42194000"},{"id":108702,"name":"Yeniköy","native":null,"lat":"40.53568000","lon":"29.35364000"},{"id":108714,"name":"Yenişehir","native":null,"lat":"40.26444000","lon":"29.65306000"},{"id":108746,"name":"Yıldırım İlçesi","native":null,"lat":"40.19567000","lon":"29.03640000"}]},{"id":2216,"name":"Çanakkale","native":null,"cities":[{"id":107229,"name":"Ayvacık","native":null,"lat":"39.60111000","lon":"26.40472000"},{"id":107301,"name":"Bayramiç İlçesi","native":null,"lat":"39.81951000","lon":"26.62490000"},{"id":107325,"name":"Behram","native":null,"lat":"39.49344000","lon":"26.33316000"},{"id":107353,"name":"Biga","native":null,"lat":"40.26921000","lon":"27.20841000"},{"id":107380,"name":"Bozcaada","native":null,"lat":"39.82409000","lon":"26.04069000"},{"id":108773,"name":"Çan","native":null,"lat":"40.03328000","lon":"27.05236000"},{"id":108775,"name":"Çanakkale","native":null,"lat":"40.15552000","lon":"26.41271000"},{"id":107548,"name":"Eceabat","native":null,"lat":"40.18416000","lon":"26.35740000"},{"id":107623,"name":"Ezine","native":null,"lat":"39.78561000","lon":"26.34083000"},{"id":107655,"name":"Gelibolu","native":null,"lat":"40.41028000","lon":"26.67083000"},{"id":107672,"name":"Geyikli","native":null,"lat":"39.80472000","lon":"26.20750000"},{"id":107683,"name":"Gökçeada","native":null,"lat":"40.16523000","lon":"25.85907000"},{"id":107782,"name":"Hamdibey","native":null,"lat":"39.84944000","lon":"27.24806000"},{"id":107878,"name":"Kalkım","native":null,"lat":"39.81167000","lon":"27.21500000"},{"id":108127,"name":"Lapseki","native":null,"lat":"40.34417000","lon":"26.68556000"},{"id":108135,"name":"Lâpseki İlçesi","native":null,"lat":"40.35280000","lon":"26.70657000"},{"id":108193,"name":"Merkez","native":null,"lat":"40.05093000","lon":"26.49489000"},{"id":108691,"name":"Yenice","native":null,"lat":"39.93083000","lon":"27.25806000"}]},{"id":2168,"name":"Çankırı","native":null,"cities":[{"id":107208,"name":"Atkaracalar","native":null,"lat":"40.81593000","lon":"33.07556000"},{"id":107303,"name":"Bayramören","native":null,"lat":"40.94329000","lon":"33.20300000"},{"id":108820,"name":"Çerkeş","native":null,"lat":"40.81164000","lon":"32.89358000"},{"id":107564,"name":"Eldivan","native":null,"lat":"40.52975000","lon":"33.49903000"},{"id":107844,"name":"Ilgaz","native":null,"lat":"40.92511000","lon":"33.62586000"},{"id":107995,"name":"Khanjarah","native":null,"lat":"40.59995000","lon":"33.61530000"},{"id":108122,"name":"Kızılırmak","native":null,"lat":"40.34556000","lon":"33.98639000"},{"id":108020,"name":"Korgun","native":null,"lat":"40.73479000","lon":"33.51844000"},{"id":108060,"name":"Kurşunlu","native":null,"lat":"40.84101000","lon":"33.26028000"},{"id":108276,"name":"Orta","native":null,"lat":"40.62420000","lon":"33.10928000"},{"id":108928,"name":"Şabanözü","native":null,"lat":"40.48333000","lon":"33.28333000"},{"id":108673,"name":"Yapraklı","native":null,"lat":"40.75785000","lon":"33.77819000"}]},{"id":2173,"name":"Çorum","native":null,"cities":[{"id":107117,"name":"Alaca","native":null,"lat":"40.16833000","lon":"34.84250000"},{"id":107294,"name":"Bayat","native":null,"lat":"40.64583000","lon":"34.26139000"},{"id":107395,"name":"Boğazkale İlçesi","native":null,"lat":"40.03031000","lon":"34.61745000"},{"id":108843,"name":"Çorum","native":null,"lat":"40.54889000","lon":"34.95333000"},{"id":107506,"name":"Dodurga","native":null,"lat":"40.85489000","lon":"34.80703000"},{"id":108915,"name":"İskilip","native":null,"lat":"40.73528000","lon":"34.47389000"},{"id":107924,"name":"Kargı İlçesi","native":null,"lat":"41.14377000","lon":"34.49342000"},{"id":108128,"name":"Laçin","native":null,"lat":"40.77486000","lon":"34.88068000"},{"id":108167,"name":"Mecitözü","native":null,"lat":"40.52000000","lon":"35.29528000"},{"id":108185,"name":"Merkez","native":null,"lat":"40.50905000","lon":"34.85791000"},{"id":108305,"name":"Oğuzlar İlçesi","native":null,"lat":"40.76323000","lon":"34.70813000"},{"id":108286,"name":"Ortaköy","native":null,"lat":"40.27352000","lon":"35.25175000"},{"id":108290,"name":"Osmancık","native":null,"lat":"41.00240000","lon":"34.78243000"},{"id":108505,"name":"Sungurlu","native":null,"lat":"40.18213000","lon":"34.28217000"},{"id":108642,"name":"Uğurludağ","native":null,"lat":"40.44631000","lon":"34.45259000"}]},{"id":2157,"name":"Denizli","native":null,"cities":[{"id":107057,"name":"Acıpayam","native":null,"lat":"37.42385000","lon":"29.34941000"},{"id":107084,"name":"Akkent","native":null,"lat":"38.15268000","lon":"29.37890000"},{"id":107086,"name":"Akköy","native":null,"lat":"37.95694000","lon":"29.07813000"},{"id":107252,"name":"Babadağ","native":null,"lat":"37.80764000","lon":"28.85665000"},{"id":107265,"name":"Baklan","native":null,"lat":"37.97694000","lon":"29.60861000"},{"id":107326,"name":"Bekilli","native":null,"lat":"38.24027000","lon":"29.42559000"},{"id":107334,"name":"Beyağaç İlçesi","native":null,"lat":"37.24546000","lon":"28.90041000"},{"id":107384,"name":"Bozkurt","native":null,"lat":"37.77583000","lon":"29.60811000"},{"id":107408,"name":"Buldan","native":null,"lat":"38.04500000","lon":"28.83056000"},{"id":108759,"name":"Çal İlçesi","native":null,"lat":"38.09371000","lon":"29.40467000"},{"id":108767,"name":"Çameli İlçesi","native":null,"lat":"37.08660000","lon":"29.35225000"},{"id":108781,"name":"Çardak","native":null,"lat":"37.77485000","lon":"29.70593000"},{"id":108836,"name":"Çivril","native":null,"lat":"38.30139000","lon":"29.73861000"},{"id":107470,"name":"Denizli","native":null,"lat":"37.77417000","lon":"29.08750000"},{"id":107721,"name":"Gözler","native":null,"lat":"38.10679000","lon":"29.15375000"},{"id":107742,"name":"Güney İlçesi","native":null,"lat":"38.16454000","lon":"29.07324000"},{"id":107833,"name":"Honaz","native":null,"lat":"37.77146000","lon":"29.34466000"},{"id":107871,"name":"Kale","native":null,"lat":"37.43917000","lon":"28.84528000"},{"id":108196,"name":"Merkezefendi","native":null,"lat":"37.80544000","lon":"29.04236000"},{"id":108247,"name":"Nikfer","native":null,"lat":"37.40542000","lon":"29.13727000"},{"id":108310,"name":"Pamukkale","native":null,"lat":"37.91644000","lon":"29.11729000"},{"id":108393,"name":"Sarayköy","native":null,"lat":"37.91580000","lon":"28.87999000"},{"id":108442,"name":"Serinhisar","native":null,"lat":"37.58105000","lon":"29.26639000"},{"id":108540,"name":"Tavas","native":null,"lat":"37.57351000","lon":"29.07058000"}]},{"id":2226,"name":"Diyarbakır","native":null,"cities":[{"id":107119,"name":"Alacakaya İlçesi","native":null,"lat":"38.46326000","lon":"39.85514000"},{"id":107142,"name":"Altınkum","native":null,"lat":"38.26374000","lon":"41.06250000"},{"id":107158,"name":"Ambar","native":null,"lat":"37.85305000","lon":"40.52798000"},{"id":107172,"name":"Aralık","native":null,"lat":"37.82945000","lon":"40.68025000"},{"id":107309,"name":"Bağlar","native":null,"lat":"37.91068000","lon":"40.22627000"},{"id":107362,"name":"Bismil","native":null,"lat":"37.84514000","lon":"40.65931000"},{"id":108822,"name":"Çermik","native":null,"lat":"38.13538000","lon":"39.44500000"},{"id":108854,"name":"Çınar İlçesi","native":null,"lat":"37.72562000","lon":"40.41484000"},{"id":108851,"name":"Çüngüş","native":null,"lat":"38.20798000","lon":"39.28554000"},{"id":107491,"name":"Dicle","native":null,"lat":"38.36571000","lon":"40.06450000"},{"id":107504,"name":"Diyarbakır","native":null,"lat":"37.91363000","lon":"40.21721000"},{"id":107625,"name":"Eğil","native":null,"lat":"38.25748000","lon":"40.07435000"},{"id":107592,"name":"Ergani","native":null,"lat":"38.26899000","lon":"39.75446000"},{"id":107790,"name":"Hani","native":null,"lat":"38.40741000","lon":"40.38578000"},{"id":107817,"name":"Hazro","native":null,"lat":"38.24903000","lon":"40.77129000"},{"id":107948,"name":"Kayapınar","native":null,"lat":"37.93800000","lon":"40.17310000"},{"id":107957,"name":"Kazancı","native":null,"lat":"37.77106000","lon":"40.60000000"},{"id":107984,"name":"Kerh","native":null,"lat":"37.82570000","lon":"40.54402000"},{"id":108008,"name":"Kocaköy","native":null,"lat":"38.28889000","lon":"40.49786000"},{"id":108082,"name":"Köseli","native":null,"lat":"37.83879000","lon":"40.60811000"},{"id":108040,"name":"Kulp","native":null,"lat":"38.49754000","lon":"41.00668000"},{"id":108130,"name":"Lice","native":null,"lat":"38.45821000","lon":"40.63888000"},{"id":108375,"name":"Salat","native":null,"lat":"37.84172000","lon":"40.88650000"},{"id":108463,"name":"Silvan","native":null,"lat":"38.13708000","lon":"41.00817000"},{"id":108467,"name":"Sinanköy","native":null,"lat":"37.86166000","lon":"40.99283000"},{"id":108506,"name":"Sur","native":null,"lat":"37.91356000","lon":"40.23743000"},{"id":108672,"name":"Yaprakbaşı","native":null,"lat":"37.65409000","lon":"40.54635000"},{"id":108716,"name":"Yenişehir","native":null,"lat":"37.91373000","lon":"40.20610000"}]},{"id":2202,"name":"Düzce","native":null,"cities":[{"id":107110,"name":"Akçakoca","native":null,"lat":"41.08663000","lon":"31.11623000"},{"id":108833,"name":"Çilimli İlçesi","native":null,"lat":"40.90267000","lon":"31.05913000"},{"id":107438,"name":"Cumayeri İlçesi","native":null,"lat":"40.88176000","lon":"30.94094000"},{"id":107542,"name":"Düzce","native":null,"lat":"40.83889000","lon":"31.16389000"},{"id":107704,"name":"Gölyaka İlçesi","native":null,"lat":"40.78644000","lon":"31.00276000"},{"id":107739,"name":"Gümüşova İlçesi","native":null,"lat":"40.85640000","lon":"30.94935000"},{"id":107953,"name":"Kaynaşlı İlçesi","native":null,"lat":"40.77908000","lon":"31.31135000"},{"id":108748,"name":"Yığılca İlçesi","native":null,"lat":"40.96497000","lon":"31.45672000"}]},{"id":2151,"name":"Edirne","native":null,"cities":[{"id":107549,"name":"Edirne","native":null,"lat":"41.67719000","lon":"26.55597000"},{"id":107580,"name":"Enez","native":null,"lat":"40.72472000","lon":"26.08250000"},{"id":107807,"name":"Havsa","native":null,"lat":"41.54898000","lon":"26.82207000"},{"id":108909,"name":"İpsala","native":null,"lat":"40.92115000","lon":"26.38273000"},{"id":107992,"name":"Keşan","native":null,"lat":"40.85583000","lon":"26.63028000"},{"id":108087,"name":"Küplü","native":null,"lat":"41.10694000","lon":"26.35194000"},{"id":108133,"name":"Lâlapaşa","native":null,"lat":"41.83951000","lon":"26.73561000"},{"id":108176,"name":"Meriç","native":null,"lat":"41.19183000","lon":"26.42097000"},{"id":108523,"name":"Süloğlu İlçesi","native":null,"lat":"41.77956000","lon":"26.92602000"},{"id":108640,"name":"Uzunköprü","native":null,"lat":"41.26597000","lon":"26.68850000"}]},{"id":2159,"name":"Elazığ","native":null,"cities":[{"id":107246,"name":"Ağın","native":null,"lat":"38.93792000","lon":"38.71155000"},{"id":107197,"name":"Arıcak","native":null,"lat":"38.56340000","lon":"40.12480000"},{"id":107288,"name":"Baskil","native":null,"lat":"38.56866000","lon":"38.81634000"},{"id":107558,"name":"Elazığ","native":null,"lat":"38.67431000","lon":"39.22321000"},{"id":107901,"name":"Karakoçan","native":null,"lat":"38.95178000","lon":"40.02706000"},{"id":107902,"name":"Karakoçan / Elazığ","native":null,"lat":"38.95527000","lon":"40.04053000"},{"id":107964,"name":"Keban","native":null,"lat":"38.79380000","lon":"38.73517000"},{"id":108027,"name":"Kovancılar","native":null,"lat":"38.71882000","lon":"39.86268000"},{"id":108137,"name":"Maden İlçesi","native":null,"lat":"38.39354000","lon":"39.67252000"},{"id":108188,"name":"Merkez","native":null,"lat":"38.66790000","lon":"39.21567000"},{"id":108308,"name":"Palu","native":null,"lat":"38.69135000","lon":"39.91984000"},{"id":108479,"name":"Sivrice","native":null,"lat":"38.44223000","lon":"39.30938000"},{"id":108604,"name":"Turluk","native":null,"lat":"39.44034000","lon":"39.87773000"}]},{"id":2160,"name":"Erzincan","native":null,"cities":[{"id":108806,"name":"Çayırlı İlçesi","native":null,"lat":"39.80454000","lon":"40.03724000"},{"id":107433,"name":"Cimin","native":null,"lat":"39.70947000","lon":"39.70015000"},{"id":107602,"name":"Erzincan","native":null,"lat":"39.73919000","lon":"39.49015000"},{"id":108890,"name":"İliç İlçesi","native":null,"lat":"39.45587000","lon":"38.56409000"},{"id":107971,"name":"Kemah","native":null,"lat":"39.59606000","lon":"39.02329000"},{"id":107973,"name":"Kemaliye","native":null,"lat":"39.26288000","lon":"38.49674000"},{"id":108295,"name":"Otlukbeli","native":null,"lat":"39.97000000","lon":"40.01872000"},{"id":108365,"name":"Refahiye","native":null,"lat":"39.89315000","lon":"38.76607000"},{"id":108570,"name":"Tercan","native":null,"lat":"39.77709000","lon":"40.37783000"},{"id":108876,"name":"Üzümlü İlçesi","native":null,"lat":"39.70943000","lon":"39.70125000"}]},{"id":2165,"name":"Erzurum","native":null,"cities":[{"id":107250,"name":"Aşkale","native":null,"lat":"39.92083000","lon":"40.69500000"},{"id":107237,"name":"Aziziye","native":null,"lat":"39.94028000","lon":"41.11153000"},{"id":108786,"name":"Çat İlçesi","native":null,"lat":"39.61055000","lon":"40.97851000"},{"id":107603,"name":"Erzurum","native":null,"lat":"39.90861000","lon":"41.27694000"},{"id":107842,"name":"Hınıs","native":null,"lat":"39.35766000","lon":"41.69253000"},{"id":107836,"name":"Horasan","native":null,"lat":"40.03885000","lon":"42.16366000"},{"id":107848,"name":"Ilıca","native":null,"lat":"39.94653000","lon":"41.09520000"},{"id":108918,"name":"İspir","native":null,"lat":"40.47981000","lon":"40.99373000"},{"id":107921,"name":"Karaçoban","native":null,"lat":"39.34364000","lon":"42.09918000"},{"id":107919,"name":"Karayazı","native":null,"lat":"39.69604000","lon":"42.14277000"},{"id":108076,"name":"Köprüköy İlçesi","native":null,"lat":"39.97178000","lon":"41.86804000"},{"id":108241,"name":"Narman","native":null,"lat":"40.34449000","lon":"41.86088000"},{"id":108265,"name":"Oltu","native":null,"lat":"40.53945000","lon":"41.98722000"},{"id":108267,"name":"Olur","native":null,"lat":"40.82165000","lon":"42.13055000"},{"id":108307,"name":"Palandöken","native":null,"lat":"39.85560000","lon":"41.27975000"},{"id":108314,"name":"Pasinler","native":null,"lat":"39.97975000","lon":"41.66997000"},{"id":108331,"name":"Pazaryolu","native":null,"lat":"40.41142000","lon":"40.76780000"},{"id":108950,"name":"Şenkaya","native":null,"lat":"40.55652000","lon":"42.34266000"},{"id":108562,"name":"Tekman","native":null,"lat":"39.64111000","lon":"41.50542000"},{"id":108589,"name":"Tortum","native":null,"lat":"40.28892000","lon":"41.54096000"},{"id":108636,"name":"Uzundere","native":null,"lat":"40.53218000","lon":"41.53832000"},{"id":108663,"name":"Yakutiye","native":null,"lat":"40.00132000","lon":"41.30997000"}]},{"id":2164,"name":"Eskişehir","native":null,"cities":[{"id":107133,"name":"Alpu","native":null,"lat":"39.76903000","lon":"30.96060000"},{"id":107339,"name":"Beylikova","native":null,"lat":"39.68694000","lon":"31.20556000"},{"id":107378,"name":"Bozan","native":null,"lat":"39.78806000","lon":"31.10167000"},{"id":108827,"name":"Çifteler","native":null,"lat":"39.38306000","lon":"31.03917000"},{"id":107608,"name":"Eskişehir","native":null,"lat":"39.77667000","lon":"30.52056000"},{"id":107748,"name":"Günyüzü İlçesi","native":null,"lat":"39.39410000","lon":"31.81400000"},{"id":107786,"name":"Han","native":null,"lat":"39.15917000","lon":"30.86139000"},{"id":108906,"name":"İnönü","native":null,"lat":"39.81534000","lon":"30.14549000"},{"id":108103,"name":"Kırka","native":null,"lat":"39.27944000","lon":"30.52639000"},{"id":108138,"name":"Mahmudiye İlçesi","native":null,"lat":"39.50724000","lon":"30.99247000"},{"id":108208,"name":"Mihalgazi","native":null,"lat":"40.02621000","lon":"30.57707000"},{"id":108210,"name":"Mihalıçcık İlçesi","native":null,"lat":"39.87564000","lon":"31.50091000"},{"id":108260,"name":"Odunpazarı","native":null,"lat":"39.76699000","lon":"30.54113000"},{"id":108398,"name":"Sarıcakaya İlçesi","native":null,"lat":"40.04671000","lon":"30.61994000"},{"id":108446,"name":"Sevinç","native":null,"lat":"39.78000000","lon":"30.68889000"},{"id":108453,"name":"Seyitgazi","native":null,"lat":"39.44472000","lon":"30.69472000"},{"id":108481,"name":"Sivrihisar","native":null,"lat":"39.45037000","lon":"31.53409000"},{"id":108566,"name":"Tepebaşı","native":null,"lat":"39.78430000","lon":"30.50206000"}]},{"id":2203,"name":"Gaziantep","native":null,"cities":[{"id":107170,"name":"Araban","native":null,"lat":"37.42559000","lon":"37.78175000"},{"id":107519,"name":"Doğanpınar","native":null,"lat":"36.84321000","lon":"37.61759000"},{"id":107645,"name":"Gaziantep","native":null,"lat":"37.05944000","lon":"37.38250000"},{"id":108886,"name":"İkizce","native":null,"lat":"36.86262000","lon":"37.77432000"},{"id":108917,"name":"İslahiye İlçesi","native":null,"lat":"36.96528000","lon":"36.70972000"},{"id":107925,"name":"Karkamış","native":null,"lat":"36.83452000","lon":"37.99830000"},{"id":108250,"name":"Nizip","native":null,"lat":"37.00972000","lon":"37.79417000"},{"id":108253,"name":"Nurdağı","native":null,"lat":"37.16821000","lon":"36.73623000"},{"id":108303,"name":"Oğuzeli","native":null,"lat":"36.96572000","lon":"37.51339000"},{"id":108929,"name":"Şahinbey İlçesi","native":null,"lat":"37.03741000","lon":"37.37822000"},{"id":108946,"name":"Şehitkamil","native":null,"lat":"37.17217000","lon":"37.36974000"},{"id":108424,"name":"Sekili","native":null,"lat":"36.97876000","lon":"37.67174000"},{"id":108630,"name":"Uluyatır","native":null,"lat":"36.96333000","lon":"37.69361000"},{"id":108677,"name":"Yavuzeli","native":null,"lat":"37.31772000","lon":"37.56824000"},{"id":108722,"name":"Yeşildere","native":null,"lat":"36.97300000","lon":"37.49488000"}]},{"id":2186,"name":"Giresun","native":null,"cities":[{"id":107154,"name":"Alucra İlçesi","native":null,"lat":"40.31924000","lon":"38.76528000"},{"id":107404,"name":"Bulancak","native":null,"lat":"40.93805000","lon":"38.23148000"},{"id":108772,"name":"Çamoluk İlçesi","native":null,"lat":"40.13418000","lon":"38.73389000"},{"id":108776,"name":"Çanakçı","native":null,"lat":"40.86000000","lon":"39.05000000"},{"id":107475,"name":"Dereli","native":null,"lat":"40.61300000","lon":"38.39000000"},{"id":107516,"name":"Doğankent","native":null,"lat":"40.80750000","lon":"38.91722000"},{"id":107609,"name":"Espiye","native":null,"lat":"40.94705000","lon":"38.70299000"},{"id":107619,"name":"Eynesil","native":null,"lat":"41.06436000","lon":"39.14274000"},{"id":107675,"name":"Giresun","native":null,"lat":"40.91698000","lon":"38.38741000"},{"id":107713,"name":"Görele","native":null,"lat":"41.03083000","lon":"39.00306000"},{"id":107724,"name":"Güce İlçesi","native":null,"lat":"40.89368000","lon":"38.80855000"},{"id":107994,"name":"Keşap","native":null,"lat":"40.91387000","lon":"38.51442000"},{"id":108184,"name":"Merkez","native":null,"lat":"40.82660000","lon":"38.36085000"},{"id":108343,"name":"Piraziz","native":null,"lat":"40.92244000","lon":"38.12458000"},{"id":108942,"name":"Şebin Karahisar","native":null,"lat":"40.28833000","lon":"38.42361000"},{"id":108579,"name":"Tirebolu","native":null,"lat":"41.00633000","lon":"38.84980000"},{"id":108687,"name":"Yağlıdere İlçesi","native":null,"lat":"40.85711000","lon":"38.63242000"}]},{"id":2204,"name":"Gümüşhane","native":null,"cities":[{"id":107615,"name":"Evren","native":null,"lat":"40.24527000","lon":"39.17535000"},{"id":107677,"name":"Gumushkhane","native":null,"lat":"40.46001000","lon":"39.47176000"},{"id":107969,"name":"Kelkit","native":null,"lat":"40.12682000","lon":"39.43424000"},{"id":108079,"name":"Köse","native":null,"lat":"40.20692000","lon":"39.64626000"},{"id":108090,"name":"Kürtün","native":null,"lat":"40.69516000","lon":"39.09468000"},{"id":108181,"name":"Merkez","native":null,"lat":"40.46843000","lon":"39.67441000"},{"id":108959,"name":"Şiran","native":null,"lat":"40.19064000","lon":"39.11747000"},{"id":108591,"name":"Torul","native":null,"lat":"40.55071000","lon":"39.28344000"},{"id":108686,"name":"Yağlıdere","native":null,"lat":"40.54432000","lon":"39.52762000"}]},{"id":2190,"name":"Hakkâri","native":null,"cities":[{"id":108846,"name":"Çukurca","native":null,"lat":"37.24806000","lon":"43.61361000"},{"id":107774,"name":"Hakkâri","native":null,"lat":"37.57444000","lon":"43.74083000"},{"id":107932,"name":"Karsani","native":null,"lat":"37.30716000","lon":"43.45410000"},{"id":108948,"name":"Şemdinli","native":null,"lat":"37.30514000","lon":"44.57420000"},{"id":108949,"name":"Şemdinni İlçesi","native":null,"lat":"37.31325000","lon":"44.58016000"},{"id":108744,"name":"Yüksekova","native":null,"lat":"37.54627000","lon":"44.25827000"}]},{"id":2211,"name":"Hatay","native":null,"cities":[{"id":107238,"name":"Açıkdere","native":null,"lat":"36.21909000","lon":"36.25992000"},{"id":107152,"name":"Altınözü","native":null,"lat":"36.11244000","lon":"36.24488000"},{"id":107162,"name":"Anayazı","native":null,"lat":"36.32107000","lon":"36.19061000"},{"id":107167,"name":"Antakya","native":null,"lat":"36.20655000","lon":"36.15722000"},{"id":107192,"name":"Arsuz","native":null,"lat":"36.41305000","lon":"35.89033000"},{"id":107248,"name":"Aşağı Karafakılı","native":null,"lat":"36.77885000","lon":"36.55776000"},{"id":107249,"name":"Aşağıokçular","native":null,"lat":"36.17802000","lon":"36.14033000"},{"id":107278,"name":"Balıklıdere","native":null,"lat":"36.12096000","lon":"36.10481000"},{"id":107328,"name":"Belen","native":null,"lat":"36.48866000","lon":"36.19489000"},{"id":107376,"name":"Boynuyoğun","native":null,"lat":"36.16935000","lon":"36.34249000"},{"id":107418,"name":"Büyük Dalyan","native":null,"lat":"36.28824000","lon":"36.20903000"},{"id":107420,"name":"Büyükçat","native":null,"lat":"36.11500000","lon":"36.07740000"},{"id":108859,"name":"Çırtıman","native":null,"lat":"36.52531000","lon":"36.18129000"},{"id":107458,"name":"Defne","native":null,"lat":"36.23739000","lon":"36.16364000"},{"id":107469,"name":"Denizciler","native":null,"lat":"36.64110000","lon":"36.21418000"},{"id":107539,"name":"Dörtyol","native":null,"lat":"36.83917000","lon":"36.23025000"},{"id":107534,"name":"Dursunlu","native":null,"lat":"36.16736000","lon":"36.15788000"},{"id":107600,"name":"Erzin","native":null,"lat":"36.95348000","lon":"36.19839000"},{"id":107736,"name":"Gümüşgöze","native":null,"lat":"36.14785000","lon":"36.13284000"},{"id":107747,"name":"Günyazı","native":null,"lat":"36.23307000","lon":"36.11702000"},{"id":107769,"name":"Hacıpaşa","native":null,"lat":"36.06907000","lon":"36.37076000"},{"id":107804,"name":"Hassa","native":null,"lat":"36.79944000","lon":"36.51778000"},{"id":108913,"name":"İskenderun","native":null,"lat":"36.58718000","lon":"36.17347000"},{"id":107916,"name":"Karasüleymanlı","native":null,"lat":"36.34191000","lon":"36.41431000"},{"id":107938,"name":"Kastal","native":null,"lat":"36.24760000","lon":"36.24090000"},{"id":108107,"name":"Kırıkhan","native":null,"lat":"36.49939000","lon":"36.35755000"},{"id":108124,"name":"Kışlak","native":null,"lat":"35.96750000","lon":"36.15749000"},{"id":108111,"name":"Kızkalesi","native":null,"lat":"36.46192000","lon":"34.14199000"},{"id":108050,"name":"Kumlu İlçesi","native":null,"lat":"36.36508000","lon":"36.45526000"},{"id":108066,"name":"Kuzeytepe","native":null,"lat":"36.26505000","lon":"36.15350000"},{"id":108140,"name":"Mahmutlar","native":null,"lat":"36.94900000","lon":"36.19231000"},{"id":108320,"name":"Payas","native":null,"lat":"36.75600000","lon":"36.21432000"},{"id":108368,"name":"Reyhanlı","native":null,"lat":"36.26791000","lon":"36.56747000"},{"id":108378,"name":"Samankaya","native":null,"lat":"36.15027000","lon":"36.12829000"},{"id":108444,"name":"Serinyol","native":null,"lat":"36.36139000","lon":"36.21361000"},{"id":108569,"name":"Tepehan","native":null,"lat":"36.15853000","lon":"36.22860000"},{"id":108595,"name":"Toygarlı","native":null,"lat":"36.21261000","lon":"36.07262000"},{"id":108635,"name":"Uzunbağ","native":null,"lat":"36.14023000","lon":"36.03603000"},{"id":108639,"name":"Uzunkavak","native":null,"lat":"36.35240000","lon":"36.41952000"},{"id":108679,"name":"Yayladağı","native":null,"lat":"35.90250000","lon":"36.06272000"}]},{"id":2166,"name":"Iğdır","native":null,"cities":[{"id":107852,"name":"Iğdır","native":null,"lat":"39.92371000","lon":"44.04500000"},{"id":107899,"name":"Karakoyunlu","native":null,"lat":"39.87036000","lon":"43.63014000"},{"id":108610,"name":"Tuzluca İlçesi","native":null,"lat":"40.03863000","lon":"43.65212000"}]},{"id":2222,"name":"Isparta","native":null,"cities":[{"id":107094,"name":"Aksu","native":null,"lat":"37.79889000","lon":"31.07111000"},{"id":107159,"name":"Anamas","native":null,"lat":"37.76667000","lon":"30.80000000"},{"id":107204,"name":"Atabey","native":null,"lat":"37.95083000","lon":"30.63861000"},{"id":107627,"name":"Eğirdir","native":null,"lat":"37.87462000","lon":"30.85042000"},{"id":107653,"name":"Gelendost","native":null,"lat":"38.12083000","lon":"31.01528000"},{"id":107707,"name":"Gönen","native":null,"lat":"37.95639000","lon":"30.51140000"},{"id":107850,"name":"Isparta","native":null,"lat":"37.76444000","lon":"30.55222000"},{"id":107989,"name":"Keçiborlu","native":null,"lat":"37.94250000","lon":"30.30222000"},{"id":108318,"name":"Pavlu Cebel","native":null,"lat":"37.49737000","lon":"30.97727000"},{"id":108935,"name":"Şarkîkaraağaç","native":null,"lat":"38.07944000","lon":"31.36639000"},{"id":108436,"name":"Senirkent","native":null,"lat":"38.10444000","lon":"30.54861000"},{"id":108526,"name":"Sütçüler İlçesi","native":null,"lat":"37.51120000","lon":"30.95661000"},{"id":108624,"name":"Uluborlu","native":null,"lat":"38.07825000","lon":"30.45019000"},{"id":108666,"name":"Yalvaç","native":null,"lat":"38.29556000","lon":"31.17778000"},{"id":108712,"name":"Yenişarbademli","native":null,"lat":"37.70778000","lon":"31.38639000"}]},{"id":2170,"name":"İstanbul","native":null,"cities":[{"id":107062,"name":"Adalar","native":null,"lat":"40.86913000","lon":"29.12064000"},{"id":107188,"name":"Arnavutköy","native":null,"lat":"41.19674000","lon":"28.73405000"},{"id":107207,"name":"Ataşehir","native":null,"lat":"40.99104000","lon":"29.13471000"},{"id":107213,"name":"Avcılar","native":null,"lat":"41.02355000","lon":"28.71860000"},{"id":107308,"name":"Bağcılar","native":null,"lat":"41.04275000","lon":"28.83625000"},{"id":107261,"name":"Bahçelievler","native":null,"lat":"41.00652000","lon":"28.84099000"},{"id":107267,"name":"Bakırköy","native":null,"lat":"40.98388000","lon":"28.83541000"},{"id":107312,"name":"Başakşehir","native":null,"lat":"41.09203000","lon":"28.80203000"},{"id":107302,"name":"Bayrampaşa","native":null,"lat":"41.04691000","lon":"28.90278000"},{"id":107349,"name":"Beşiktaş","native":null,"lat":"41.07122000","lon":"29.02321000"},{"id":107337,"name":"Beykoz","native":null,"lat":"41.13774000","lon":"29.16932000"},{"id":107338,"name":"Beylikdüzü","native":null,"lat":"41.00322000","lon":"28.64067000"},{"id":107341,"name":"Beyoğlu","native":null,"lat":"41.03786000","lon":"28.96767000"},{"id":107422,"name":"Büyükçekmece","native":null,"lat":"41.04521000","lon":"28.59573000"},{"id":108788,"name":"Çatalca","native":null,"lat":"41.29651000","lon":"28.45419000"},{"id":108812,"name":"Çekmeköy","native":null,"lat":"41.03819000","lon":"29.20029000"},{"id":107575,"name":"Eminönü","native":null,"lat":"41.01766000","lon":"28.97438000"},{"id":107604,"name":"Esenler","native":null,"lat":"41.07925000","lon":"28.85235000"},{"id":107605,"name":"Esenyurt","native":null,"lat":"41.04000000","lon":"28.66161000"},{"id":107622,"name":"Eyüpsultan","native":null,"lat":"41.19904000","lon":"28.88667000"},{"id":107632,"name":"Fatih","native":null,"lat":"41.01746000","lon":"28.94053000"},{"id":107647,"name":"Gaziosmanpaşa","native":null,"lat":"41.07857000","lon":"28.89679000"},{"id":107746,"name":"Güngören","native":null,"lat":"41.01787000","lon":"28.87882000"},{"id":107863,"name":"Kadıköy","native":null,"lat":"40.98229000","lon":"29.09032000"},{"id":108071,"name":"Kâğıthane","native":null,"lat":"41.08319000","lon":"28.97826000"},{"id":107933,"name":"Kartal","native":null,"lat":"40.91197000","lon":"29.21190000"},{"id":108095,"name":"Küçükçekmece","native":null,"lat":"41.06947000","lon":"28.76983000"},{"id":108146,"name":"Maltepe","native":null,"lat":"40.95890000","lon":"29.17866000"},{"id":108336,"name":"Pendik","native":null,"lat":"40.94577000","lon":"29.33019000"},{"id":108382,"name":"Sancaktepe","native":null,"lat":"40.98949000","lon":"29.24320000"},{"id":108411,"name":"Sarıyer","native":null,"lat":"41.21482000","lon":"29.05678000"},{"id":108958,"name":"Şile","native":null,"lat":"41.12902000","lon":"29.61845000"},{"id":108460,"name":"Silivri","native":null,"lat":"41.18116000","lon":"28.19890000"},{"id":108963,"name":"Şişli","native":null,"lat":"41.12514000","lon":"29.00013000"},{"id":108492,"name":"Sultanbeyli","native":null,"lat":"40.95264000","lon":"29.26797000"},{"id":108495,"name":"Sultangazi","native":null,"lat":"41.21792000","lon":"28.71740000"},{"id":108609,"name":"Tuzla","native":null,"lat":"40.86368000","lon":"29.31942000"},{"id":108631,"name":"Ümraniye","native":null,"lat":"41.01643000","lon":"29.12476000"},{"id":108874,"name":"Üsküdar","native":null,"lat":"41.02274000","lon":"29.01366000"},{"id":108750,"name":"Zeytinburnu","native":null,"lat":"41.00824000","lon":"28.90952000"}]},{"id":2205,"name":"İzmir","native":null,"cities":[{"id":107127,"name":"Alaçatı","native":null,"lat":"38.28246000","lon":"26.37459000"},{"id":107130,"name":"Aliağa","native":null,"lat":"38.80078000","lon":"27.04375000"},{"id":107256,"name":"Bademli","native":null,"lat":"38.08167000","lon":"28.05778000"},{"id":107275,"name":"Balçova","native":null,"lat":"38.37302000","lon":"27.08714000"},{"id":107305,"name":"Bayındır","native":null,"lat":"38.21741000","lon":"27.64744000"},{"id":107300,"name":"Bayraklı","native":null,"lat":"38.46222000","lon":"27.16667000"},{"id":107330,"name":"Belevi","native":null,"lat":"38.01500000","lon":"27.45028000"},{"id":107331,"name":"Bergama","native":null,"lat":"39.17088000","lon":"27.18918000"},{"id":107335,"name":"Beydağ","native":null,"lat":"38.08241000","lon":"28.21609000"},{"id":107370,"name":"Bornova","native":null,"lat":"38.48492000","lon":"27.25235000"},{"id":107399,"name":"Buca","native":null,"lat":"38.34813000","lon":"27.25053000"},{"id":108777,"name":"Çandarlı","native":null,"lat":"38.93503000","lon":"26.93400000"},{"id":108803,"name":"Çaylı","native":null,"lat":"38.15330000","lon":"28.14406000"},{"id":108825,"name":"Çeşme","native":null,"lat":"38.32614000","lon":"26.30574000"},{"id":108840,"name":"Çiğli","native":null,"lat":"38.48802000","lon":"26.96596000"},{"id":107495,"name":"Dikili","native":null,"lat":"39.07100000","lon":"26.89017000"},{"id":107642,"name":"Foça","native":null,"lat":"38.67030000","lon":"26.75656000"},{"id":107646,"name":"Gaziemir","native":null,"lat":"38.31098000","lon":"27.15178000"},{"id":107686,"name":"Gökçen","native":null,"lat":"38.11367000","lon":"27.87144000"},{"id":107760,"name":"Güzelbahçe","native":null,"lat":"38.37046000","lon":"26.86930000"},{"id":108923,"name":"İzmir","native":null,"lat":"38.41273000","lon":"27.13838000"},{"id":107886,"name":"Karabağlar","native":null,"lat":"38.36912000","lon":"27.12696000"},{"id":107887,"name":"Karaburun","native":null,"lat":"38.63640000","lon":"26.51094000"},{"id":107937,"name":"Karşıyaka İlçesi","native":null,"lat":"38.46775000","lon":"27.11502000"},{"id":107949,"name":"Kaymakçı","native":null,"lat":"38.16778000","lon":"28.11528000"},{"id":107976,"name":"Kemalpaşa","native":null,"lat":"38.40883000","lon":"27.49100000"},{"id":107999,"name":"Kiraz","native":null,"lat":"38.23056000","lon":"28.20444000"},{"id":108101,"name":"Kınık","native":null,"lat":"39.08722000","lon":"27.38333000"},{"id":108013,"name":"Konak","native":null,"lat":"38.41448000","lon":"27.14412000"},{"id":108014,"name":"Konaklı","native":null,"lat":"38.11278000","lon":"27.99611000"},{"id":108170,"name":"Menderes","native":null,"lat":"38.24963000","lon":"27.13429000"},{"id":108171,"name":"Menemen","native":null,"lat":"38.61608000","lon":"27.06315000"},{"id":108240,"name":"Narlıdere","native":null,"lat":"38.38957000","lon":"27.02431000"},{"id":108860,"name":"Ödemiş","native":null,"lat":"38.22780000","lon":"27.96955000"},{"id":108869,"name":"Özdere","native":null,"lat":"38.01611000","lon":"27.12806000"},{"id":108423,"name":"Seferihisar","native":null,"lat":"38.18144000","lon":"26.88877000"},{"id":108434,"name":"Selçuk","native":null,"lat":"37.95137000","lon":"27.36849000"},{"id":108578,"name":"Tire","native":null,"lat":"38.06582000","lon":"27.72730000"},{"id":108587,"name":"Torbalı","native":null,"lat":"38.17603000","lon":"27.37182000"},{"id":108633,"name":"Urla","native":null,"lat":"38.32292000","lon":"26.76403000"},{"id":108699,"name":"Yenifoça","native":null,"lat":"38.73333000","lon":"26.83333000"},{"id":108711,"name":"Yenişakran","native":null,"lat":"38.88639000","lon":"27.06694000"},{"id":108751,"name":"Zeytindağ","native":null,"lat":"38.96722000","lon":"27.07222000"}]},{"id":2227,"name":"Kahramanmaraş","native":null,"cities":[{"id":107069,"name":"Afşin","native":null,"lat":"38.24769000","lon":"36.91399000"},{"id":107164,"name":"Andırın","native":null,"lat":"37.57757000","lon":"36.35492000"},{"id":108808,"name":"Çağlayancerit","native":null,"lat":"37.74523000","lon":"37.28618000"},{"id":107424,"name":"Celeyke","native":null,"lat":"38.05974000","lon":"37.18786000"},{"id":107529,"name":"Dulkadiroğlu","native":null,"lat":"37.58254000","lon":"36.91973000"},{"id":107556,"name":"Ekinözü İlçesi","native":null,"lat":"38.07007000","lon":"37.19414000"},{"id":107562,"name":"Elbistan","native":null,"lat":"38.20591000","lon":"37.19830000"},{"id":107681,"name":"Göksun","native":null,"lat":"38.02096000","lon":"36.49730000"},{"id":107869,"name":"Kahramanmaraş","native":null,"lat":"37.58470000","lon":"36.92641000"},{"id":108255,"name":"Nurhak","native":null,"lat":"37.96366000","lon":"37.44047000"},{"id":108270,"name":"Onikişubat","native":null,"lat":"37.59002000","lon":"36.90548000"},{"id":108325,"name":"Pazarcık","native":null,"lat":"37.48685000","lon":"37.29961000"},{"id":108521,"name":"Süleymanlı","native":null,"lat":"37.87264000","lon":"36.81714000"},{"id":108615,"name":"Türkoğlu İlçesi","native":null,"lat":"37.38417000","lon":"36.84626000"}]},{"id":2223,"name":"Karabük","native":null,"cities":[{"id":107554,"name":"Eflani","native":null,"lat":"41.42289000","lon":"32.95761000"},{"id":107607,"name":"Eskipazar İlçesi","native":null,"lat":"40.95207000","lon":"32.54604000"},{"id":107723,"name":"Gözyeri","native":null,"lat":"40.86596000","lon":"32.54167000"},{"id":107889,"name":"Karabük","native":null,"lat":"41.20488000","lon":"32.62768000"},{"id":108299,"name":"Ovacık İlçesi","native":null,"lat":"41.08029000","lon":"32.93224000"},{"id":108372,"name":"Safranbolu","native":null,"lat":"41.25083000","lon":"32.69417000"},{"id":108693,"name":"Yenice","native":null,"lat":"41.19962000","lon":"32.33133000"}]},{"id":2184,"name":"Karaman","native":null,"cities":[{"id":107228,"name":"Ayrancı İlçesi","native":null,"lat":"37.37111000","lon":"33.69291000"},{"id":107320,"name":"Başyayla","native":null,"lat":"36.75337000","lon":"32.68018000"},{"id":107596,"name":"Ermenek","native":null,"lat":"36.64043000","lon":"32.89179000"},{"id":108905,"name":"İnönü","native":null,"lat":"37.31667000","lon":"33.76667000"},{"id":107905,"name":"Karaman","native":null,"lat":"37.18111000","lon":"33.21500000"},{"id":107958,"name":"Kazımkarabekir","native":null,"lat":"37.23028000","lon":"32.95889000"},{"id":108407,"name":"Sarıveliler","native":null,"lat":"36.69705000","lon":"32.61203000"}]},{"id":2208,"name":"Kars","native":null,"cities":[{"id":107098,"name":"Akyaka","native":null,"lat":"40.74093000","lon":"43.61432000"},{"id":107189,"name":"Arpaçay","native":null,"lat":"40.84522000","lon":"43.32747000"},{"id":107494,"name":"Digor İlçesi","native":null,"lat":"40.37515000","lon":"43.41361000"},{"id":107960,"name":"Kağızman","native":null,"lat":"40.15669000","lon":"43.13424000"},{"id":107931,"name":"Kars","native":null,"lat":"40.59825000","lon":"43.08548000"},{"id":108401,"name":"Sarıkamış","native":null,"lat":"40.32769000","lon":"42.58705000"},{"id":108430,"name":"Selim","native":null,"lat":"40.45772000","lon":"42.78287000"},{"id":108511,"name":"Susuz","native":null,"lat":"40.77910000","lon":"43.12769000"}]},{"id":2197,"name":"Kastamonu","native":null,"cities":[{"id":107052,"name":"Abana","native":null,"lat":"41.97858000","lon":"34.01100000"},{"id":107243,"name":"Ağlı İlçesi","native":null,"lat":"41.69283000","lon":"33.54487000"},{"id":107177,"name":"Araç","native":null,"lat":"41.24222000","lon":"33.32767000"},{"id":107235,"name":"Azdavay","native":null,"lat":"41.64267000","lon":"33.30000000"},{"id":107383,"name":"Bozkurt","native":null,"lat":"41.95769000","lon":"34.01087000"},{"id":108791,"name":"Çatalzeytin İlçesi","native":null,"lat":"41.93795000","lon":"34.20285000"},{"id":107430,"name":"Cide","native":null,"lat":"41.85583000","lon":"33.03977000"},{"id":107439,"name":"Daday","native":null,"lat":"41.47866000","lon":"33.46667000"},{"id":107488,"name":"Devrekani","native":null,"lat":"41.60303000","lon":"33.83922000"},{"id":107521,"name":"Doğanyurt","native":null,"lat":"42.00457000","lon":"33.46029000"},{"id":107793,"name":"Hanönü","native":null,"lat":"41.62705000","lon":"34.46667000"},{"id":108881,"name":"İhsangazi","native":null,"lat":"41.20432000","lon":"33.55455000"},{"id":108899,"name":"İnebolu","native":null,"lat":"41.97472000","lon":"33.76083000"},{"id":107939,"name":"Kastamonu","native":null,"lat":"41.37805000","lon":"33.77528000"},{"id":108088,"name":"Küre","native":null,"lat":"41.80578000","lon":"33.71161000"},{"id":108358,"name":"Pınarbaşı","native":null,"lat":"41.60388000","lon":"33.11099000"},{"id":108954,"name":"Şenpazar İlçesi","native":null,"lat":"41.81651000","lon":"33.21766000"},{"id":108448,"name":"Seydiler","native":null,"lat":"41.62005000","lon":"33.71815000"},{"id":108548,"name":"Taşköprü","native":null,"lat":"41.50980000","lon":"34.21414000"},{"id":108593,"name":"Tosya","native":null,"lat":"41.01545000","lon":"34.04013000"}]},{"id":2200,"name":"Kayseri","native":null,"cities":[{"id":107087,"name":"Akkışla","native":null,"lat":"39.00222000","lon":"36.17381000"},{"id":107416,"name":"Bünyan","native":null,"lat":"38.84630000","lon":"35.86033000"},{"id":107485,"name":"Develi","native":null,"lat":"38.26789000","lon":"35.59161000"},{"id":107636,"name":"Felahiye","native":null,"lat":"39.09056000","lon":"35.56722000"},{"id":107767,"name":"Hacılar","native":null,"lat":"38.64631000","lon":"35.44937000"},{"id":107849,"name":"Incesu","native":null,"lat":"38.63789000","lon":"35.19394000"},{"id":107954,"name":"Kayseri","native":null,"lat":"38.73222000","lon":"35.48528000"},{"id":108010,"name":"Kocasinan","native":null,"lat":"38.87959000","lon":"35.35540000"},{"id":108169,"name":"Melikgazi","native":null,"lat":"38.77933000","lon":"35.66076000"},{"id":108870,"name":"Özvatan İlçesi","native":null,"lat":"39.11737000","lon":"35.71149000"},{"id":108355,"name":"Pınarbaşı","native":null,"lat":"38.72285000","lon":"36.39314000"},{"id":108405,"name":"Sarıoğlan","native":null,"lat":"39.07694000","lon":"35.96671000"},{"id":108412,"name":"Sarız","native":null,"lat":"38.47917000","lon":"36.49898000"},{"id":108531,"name":"Talas","native":null,"lat":"38.69080000","lon":"35.55380000"},{"id":108581,"name":"Tomarza","native":null,"lat":"38.44722000","lon":"35.79917000"},{"id":108657,"name":"Yahyali","native":null,"lat":"37.96660000","lon":"35.44012000"},{"id":108658,"name":"Yahyalı","native":null,"lat":"38.10228000","lon":"35.35704000"},{"id":108720,"name":"Yesilhisar","native":null,"lat":"38.33475000","lon":"35.11795000"}]},{"id":2154,"name":"Kilis","native":null,"cities":[{"id":107559,"name":"Elbeyli","native":null,"lat":"36.67417000","lon":"37.46667000"},{"id":107997,"name":"Kilis","native":null,"lat":"36.71611000","lon":"37.11500000"},{"id":108228,"name":"Musabeyli","native":null,"lat":"36.88639000","lon":"36.91861000"},{"id":108345,"name":"Polateli İlçesi","native":null,"lat":"36.83694000","lon":"37.15083000"}]},{"id":2178,"name":"Kırıkkale","native":null,"cities":[{"id":107264,"name":"Bahşılı İlçesi","native":null,"lat":"39.80979000","lon":"33.44080000"},{"id":107279,"name":"Balışeyh","native":null,"lat":"39.91411000","lon":"33.72333000"},{"id":108813,"name":"Çelebi İlçesi","native":null,"lat":"39.47470000","lon":"33.52895000"},{"id":107459,"name":"Delice","native":null,"lat":"39.95371000","lon":"34.02587000"},{"id":107897,"name":"Karakeçili","native":null,"lat":"39.59417000","lon":"33.37778000"},{"id":107985,"name":"Keskin","native":null,"lat":"39.67306000","lon":"33.61361000"},{"id":108109,"name":"Kırıkkale","native":null,"lat":"39.84528000","lon":"33.50639000"},{"id":108490,"name":"Sulakyurt","native":null,"lat":"40.15733000","lon":"33.71600000"},{"id":108659,"name":"Yahşihan İlçesi","native":null,"lat":"39.85992000","lon":"33.45615000"}]},{"id":2176,"name":"Kırklareli","native":null,"cities":[{"id":107254,"name":"Babaeski","native":null,"lat":"41.43250000","lon":"27.09306000"},{"id":107463,"name":"Demirköy İlçesi","native":null,"lat":"41.83567000","lon":"27.77137000"},{"id":108106,"name":"Kırklareli","native":null,"lat":"41.73508000","lon":"27.22521000"},{"id":108011,"name":"Kofçaz","native":null,"lat":"41.94481000","lon":"27.15829000"},{"id":108136,"name":"Lüleburgaz İlçesi","native":null,"lat":"41.41495000","lon":"27.37325000"},{"id":108333,"name":"Pehlivanköy","native":null,"lat":"41.34812000","lon":"26.92522000"},{"id":108362,"name":"Pınarhisar","native":null,"lat":"41.62417000","lon":"27.52000000"},{"id":108875,"name":"Üsküp","native":null,"lat":"41.73583000","lon":"27.40528000"},{"id":108655,"name":"Vize","native":null,"lat":"41.57250000","lon":"27.76583000"}]},{"id":2180,"name":"Kırşehir","native":null,"cities":[{"id":107109,"name":"Akçakent İlçesi","native":null,"lat":"39.63184000","lon":"34.08468000"},{"id":107089,"name":"Akpınar","native":null,"lat":"39.45005000","lon":"33.96484000"},{"id":107390,"name":"Boztepe İlçesi","native":null,"lat":"39.27979000","lon":"34.26657000"},{"id":108838,"name":"Çiçekdağı","native":null,"lat":"39.60694000","lon":"34.40861000"},{"id":107879,"name":"Kaman","native":null,"lat":"39.35750000","lon":"33.72389000"},{"id":108110,"name":"Kırşehir","native":null,"lat":"39.14583000","lon":"34.16389000"},{"id":108215,"name":"Mucur","native":null,"lat":"39.06147000","lon":"34.38286000"}]},{"id":2195,"name":"Kocaeli","native":null,"cities":[{"id":107260,"name":"Bahçecik","native":null,"lat":"40.66810000","lon":"29.91478000"},{"id":107276,"name":"Balçık","native":null,"lat":"40.87250000","lon":"29.42833000"},{"id":107314,"name":"Başiskele","native":null,"lat":"40.64574000","lon":"29.90015000"},{"id":108807,"name":"Çayırova","native":null,"lat":"40.82784000","lon":"29.39014000"},{"id":107451,"name":"Darıca","native":null,"lat":"40.76780000","lon":"29.37126000"},{"id":107479,"name":"Derince","native":null,"lat":"40.75694000","lon":"29.81472000"},{"id":107497,"name":"Dilovası","native":null,"lat":"40.77972000","lon":"29.53500000"},{"id":107650,"name":"Gebze","native":null,"lat":"40.80276000","lon":"29.43068000"},{"id":107690,"name":"Gölcük","native":null,"lat":"40.70323000","lon":"29.87216000"},{"id":107780,"name":"Halıdere","native":null,"lat":"40.71604000","lon":"29.75223000"},{"id":108884,"name":"İhsaniye","native":null,"lat":"40.69087000","lon":"29.83472000"},{"id":108924,"name":"İzmit","native":null,"lat":"40.77521000","lon":"29.94624000"},{"id":107881,"name":"Kandıra","native":null,"lat":"41.07000000","lon":"30.15262000"},{"id":107908,"name":"Karamürsel","native":null,"lat":"40.69129000","lon":"29.61649000"},{"id":107936,"name":"Karşıyaka","native":null,"lat":"40.69360000","lon":"29.94154000"},{"id":107934,"name":"Kartepe","native":null,"lat":"40.75246000","lon":"30.02787000"},{"id":107966,"name":"Kefken","native":null,"lat":"41.16833000","lon":"30.22972000"},{"id":108077,"name":"Körfez","native":null,"lat":"40.76704000","lon":"29.78275000"},{"id":108081,"name":"Köseköy","native":null,"lat":"40.74012000","lon":"30.00556000"},{"id":108039,"name":"Kullar","native":null,"lat":"40.72419000","lon":"29.98943000"},{"id":108542,"name":"Tavşancıl","native":null,"lat":"40.77083000","lon":"29.57194000"},{"id":108544,"name":"Tavşanlı","native":null,"lat":"40.81876000","lon":"29.51136000"},{"id":108620,"name":"Ulaşlı","native":null,"lat":"40.70583000","lon":"29.69608000"},{"id":108664,"name":"Yalakdere","native":null,"lat":"40.60636000","lon":"29.56225000"},{"id":108743,"name":"Yuvacık","native":null,"lat":"40.68815000","lon":"29.96738000"}]},{"id":2171,"name":"Konya","native":null,"cities":[{"id":107075,"name":"Ahırlı İlçesi","native":null,"lat":"37.24828000","lon":"32.12419000"},{"id":107112,"name":"Akören İlçesi","native":null,"lat":"37.46265000","lon":"32.37489000"},{"id":107115,"name":"Akşehir","native":null,"lat":"38.35750000","lon":"31.41639000"},{"id":107140,"name":"Altınekin","native":null,"lat":"38.30778000","lon":"32.86861000"},{"id":107345,"name":"Beyşehir","native":null,"lat":"37.67735000","lon":"31.72458000"},{"id":107386,"name":"Bozkır","native":null,"lat":"37.18963000","lon":"32.24736000"},{"id":108789,"name":"Çatalhöyük","native":null,"lat":"37.66847000","lon":"32.82689000"},{"id":108816,"name":"Çeltik İlçesi","native":null,"lat":"39.03388000","lon":"31.79408000"},{"id":107431,"name":"Cihanbeyli","native":null,"lat":"38.66072000","lon":"32.92437000"},{"id":107432,"name":"Cihanbeyli District","native":null,"lat":"38.67131000","lon":"32.92522000"},{"id":108849,"name":"Çumra","native":null,"lat":"37.57320000","lon":"32.77446000"},{"id":107471,"name":"Derbent","native":null,"lat":"38.01422000","lon":"32.01639000"},{"id":107473,"name":"Derebucak","native":null,"lat":"37.39179000","lon":"31.50918000"},{"id":107513,"name":"Doğanhisar","native":null,"lat":"38.14630000","lon":"31.67648000"},{"id":107578,"name":"Emirgazi","native":null,"lat":"37.90222000","lon":"33.83722000"},{"id":107589,"name":"Ereğli","native":null,"lat":"37.51333000","lon":"34.04672000"},{"id":107745,"name":"Güneysınır İlçesi","native":null,"lat":"37.27977000","lon":"32.73735000"},{"id":107770,"name":"Hadim","native":null,"lat":"36.98776000","lon":"32.45674000"},{"id":107778,"name":"Halkapınar","native":null,"lat":"37.43394000","lon":"34.18743000"},{"id":107840,"name":"Hüyük","native":null,"lat":"37.95388000","lon":"31.59639000"},{"id":107846,"name":"Ilgın","native":null,"lat":"38.27917000","lon":"31.91389000"},{"id":107864,"name":"Kadınhanı","native":null,"lat":"38.23972000","lon":"32.21139000"},{"id":107912,"name":"Karapınar","native":null,"lat":"37.71596000","lon":"33.55064000"},{"id":107917,"name":"Karatay","native":null,"lat":"37.94001000","lon":"32.99828000"},{"id":108016,"name":"Konya","native":null,"lat":"37.87135000","lon":"32.48464000"},{"id":108042,"name":"Kulu","native":null,"lat":"39.09513000","lon":"33.07989000"},{"id":108065,"name":"Kuyulusebil","native":null,"lat":"38.65389000","lon":"32.52972000"},{"id":108175,"name":"Meram İlçesi","native":null,"lat":"37.83984000","lon":"32.47111000"},{"id":108300,"name":"Ovakavağı","native":null,"lat":"37.71079000","lon":"32.93482000"},{"id":108394,"name":"Sarayönü","native":null,"lat":"38.26201000","lon":"32.40457000"},{"id":108427,"name":"Selcuklu","native":null,"lat":"38.05761000","lon":"32.54088000"},{"id":108450,"name":"Seydişehir","native":null,"lat":"37.41926000","lon":"31.84527000"},{"id":108546,"name":"Taşkent","native":null,"lat":"36.92430000","lon":"32.49131000"},{"id":108611,"name":"Tuzlukçu","native":null,"lat":"38.47778000","lon":"31.62639000"},{"id":108668,"name":"Yalıhüyük","native":null,"lat":"37.30077000","lon":"32.08548000"},{"id":108675,"name":"Yarma","native":null,"lat":"37.81149000","lon":"32.88278000"},{"id":108696,"name":"Yeniceoba","native":null,"lat":"38.86972000","lon":"32.78833000"},{"id":108738,"name":"Yunak","native":null,"lat":"38.81418000","lon":"31.73223000"}]},{"id":2149,"name":"Kütahya","native":null,"cities":[{"id":107147,"name":"Altıntaş İlçesi","native":null,"lat":"39.06932000","lon":"30.12048000"},{"id":107202,"name":"Aslanapa","native":null,"lat":"39.21581000","lon":"29.86990000"},{"id":108792,"name":"Çavdarhisar İlçesi","native":null,"lat":"39.20333000","lon":"29.63094000"},{"id":107508,"name":"Domaniç","native":null,"lat":"39.80194000","lon":"29.60918000"},{"id":107530,"name":"Dumlupınar","native":null,"lat":"38.85408000","lon":"29.97720000"},{"id":107573,"name":"Emet","native":null,"lat":"39.34300000","lon":"29.25847000"},{"id":107651,"name":"Gediz","native":null,"lat":"38.99389000","lon":"29.39131000"},{"id":107828,"name":"Hisarcık İlçesi","native":null,"lat":"39.25987000","lon":"29.24134000"},{"id":108092,"name":"Kütahya","native":null,"lat":"39.42417000","lon":"29.98333000"},{"id":108327,"name":"Pazarlar","native":null,"lat":"38.99500000","lon":"29.12583000"},{"id":108933,"name":"Şaphane","native":null,"lat":"39.02730000","lon":"29.22218000"},{"id":108465,"name":"Simav","native":null,"lat":"39.08820000","lon":"28.97767000"},{"id":108543,"name":"Tavşanlı","native":null,"lat":"39.54237000","lon":"29.49866000"}]},{"id":2158,"name":"Malatya","native":null,"cities":[{"id":107105,"name":"Akçadağ","native":null,"lat":"38.33899000","lon":"37.97021000"},{"id":107175,"name":"Arapgir","native":null,"lat":"39.04117000","lon":"38.49516000"},{"id":107183,"name":"Arguvan","native":null,"lat":"38.78172000","lon":"38.26349000"},{"id":107292,"name":"Battalgazi","native":null,"lat":"38.43932000","lon":"38.45764000"},{"id":107447,"name":"Darende","native":null,"lat":"38.54583000","lon":"37.50583000"},{"id":107525,"name":"Doğanşehir","native":null,"lat":"38.08574000","lon":"37.87116000"},{"id":107520,"name":"Doğanyol","native":null,"lat":"38.30746000","lon":"39.03431000"},{"id":107819,"name":"Hekimhan","native":null,"lat":"38.81622000","lon":"37.92882000"},{"id":107870,"name":"Kale","native":null,"lat":"39.03333000","lon":"38.00000000"},{"id":108044,"name":"Kuluncak","native":null,"lat":"38.87656000","lon":"37.66279000"},{"id":108141,"name":"Malatya","native":null,"lat":"38.35018000","lon":"38.31667000"},{"id":108354,"name":"Pütürge","native":null,"lat":"38.19630000","lon":"38.87418000"},{"id":108684,"name":"Yazıhan","native":null,"lat":"38.59292000","lon":"38.17327000"},{"id":108728,"name":"Yeşilyurt","native":null,"lat":"38.29602000","lon":"38.24526000"}]},{"id":2198,"name":"Manisa","native":null,"cities":[{"id":107073,"name":"Ahmetli","native":null,"lat":"38.51960000","lon":"27.93865000"},{"id":107082,"name":"Akhisar","native":null,"lat":"38.91852000","lon":"27.84006000"},{"id":107128,"name":"Alaşehir","native":null,"lat":"38.35083000","lon":"28.51718000"},{"id":107461,"name":"Demirci","native":null,"lat":"39.04607000","lon":"28.65889000"},{"id":107698,"name":"Gölmarmara","native":null,"lat":"38.71389000","lon":"27.91417000"},{"id":107711,"name":"Gördes","native":null,"lat":"38.93278000","lon":"28.28942000"},{"id":108104,"name":"Kırkağaç","native":null,"lat":"39.10638000","lon":"27.66925000"},{"id":108072,"name":"Köprübaşı","native":null,"lat":"38.74972000","lon":"28.40472000"},{"id":108038,"name":"Kula","native":null,"lat":"38.56775000","lon":"28.64146000"},{"id":108150,"name":"Manisa","native":null,"lat":"38.61202000","lon":"27.42647000"},{"id":108376,"name":"Salihli İlçesi","native":null,"lat":"38.49254000","lon":"28.15264000"},{"id":108399,"name":"Sarıgöl","native":null,"lat":"38.23953000","lon":"28.69663000"},{"id":108397,"name":"Saruhanlı","native":null,"lat":"38.76778000","lon":"27.64714000"},{"id":108947,"name":"Şehzadeler","native":null,"lat":"38.61660000","lon":"27.43861000"},{"id":108428,"name":"Selendi","native":null,"lat":"38.74444000","lon":"28.86778000"},{"id":108485,"name":"Soma","native":null,"lat":"39.18554000","lon":"27.60945000"},{"id":108600,"name":"Turgutlu İlçesi","native":null,"lat":"38.51515000","lon":"27.73515000"},{"id":108740,"name":"Yunusemre","native":null,"lat":"38.62063000","lon":"27.40806000"},{"id":108752,"name":"Zeytinliova","native":null,"lat":"38.99118000","lon":"27.67635000"}]},{"id":2224,"name":"Mardin","native":null,"cities":[{"id":107059,"name":"Acırlı","native":null,"lat":"37.45549000","lon":"41.29499000"},{"id":107076,"name":"Akarsu","native":null,"lat":"37.22616000","lon":"41.05138000"},{"id":107121,"name":"Alakamış","native":null,"lat":"37.15898000","lon":"41.78915000"},{"id":107174,"name":"Aran","native":null,"lat":"37.44768000","lon":"40.74755000"},{"id":107195,"name":"Artuklu","native":null,"lat":"37.31714000","lon":"40.72473000"},{"id":107214,"name":"Avine","native":null,"lat":"37.57373000","lon":"40.73252000"},{"id":107311,"name":"Bağlıca","native":null,"lat":"37.52705000","lon":"40.68618000"},{"id":107287,"name":"Barıştepe","native":null,"lat":"37.48320000","lon":"41.40251000"},{"id":107317,"name":"Başkavak","native":null,"lat":"37.56468000","lon":"40.88757000"},{"id":108762,"name":"Çalpınar","native":null,"lat":"37.36542000","lon":"41.18576000"},{"id":108794,"name":"Çavuşlu","native":null,"lat":"37.50179000","lon":"41.24877000"},{"id":107434,"name":"Cinatamiho","native":null,"lat":"37.27304000","lon":"41.03364000"},{"id":108855,"name":"Çınaraltı","native":null,"lat":"37.38490000","lon":"40.85938000"},{"id":108858,"name":"Çıplak","native":null,"lat":"36.94472000","lon":"40.23750000"},{"id":107446,"name":"Dara","native":null,"lat":"37.17902000","lon":"40.95455000"},{"id":107449,"name":"Dargeçit","native":null,"lat":"37.54616000","lon":"41.71652000"},{"id":107477,"name":"Dereyanı","native":null,"lat":"37.42746000","lon":"40.86096000"},{"id":107478,"name":"Derik İlçesi","native":null,"lat":"37.36431000","lon":"40.26883000"},{"id":107535,"name":"Duruca","native":null,"lat":"37.09309000","lon":"41.30986000"},{"id":107547,"name":"Ebish","native":null,"lat":"37.46347000","lon":"41.18863000"},{"id":107630,"name":"Eşme","native":null,"lat":"37.15569000","lon":"40.64142000"},{"id":107618,"name":"Eymirli","native":null,"lat":"37.17030000","lon":"40.68684000"},{"id":107657,"name":"Gelinkaya","native":null,"lat":"37.41683000","lon":"41.26994000"},{"id":107732,"name":"Gülveren","native":null,"lat":"37.48711000","lon":"41.49446000"},{"id":107678,"name":"Gyundyukoru","native":null,"lat":"37.14207000","lon":"40.50149000"},{"id":107764,"name":"Haberli","native":null,"lat":"37.30510000","lon":"41.61758000"},{"id":107857,"name":"Kabala","native":null,"lat":"37.34585000","lon":"40.80059000"},{"id":107904,"name":"Karalar","native":null,"lat":"37.30073000","lon":"41.67582000"},{"id":107944,"name":"Kavsan","native":null,"lat":"37.65653000","lon":"40.65806000"},{"id":107946,"name":"Kayalıpınar","native":null,"lat":"37.32983000","lon":"41.22760000"},{"id":107950,"name":"Kaynakkaya","native":null,"lat":"37.33968000","lon":"40.93274000"},{"id":107998,"name":"Kindirip","native":null,"lat":"37.44706000","lon":"41.21976000"},{"id":108098,"name":"Kılavuz","native":null,"lat":"37.47960000","lon":"41.78374000"},{"id":108118,"name":"Kızıltepe","native":null,"lat":"37.18836000","lon":"40.57723000"},{"id":108049,"name":"Kumlu","native":null,"lat":"37.17222000","lon":"40.73536000"},{"id":108062,"name":"Kutlubey","native":null,"lat":"37.30719000","lon":"41.17720000"},{"id":108153,"name":"Mardin","native":null,"lat":"37.31309000","lon":"40.74357000"},{"id":108154,"name":"Mardin Merkez","native":null,"lat":"37.31256000","lon":"40.73439000"},{"id":108163,"name":"Mazıdağı","native":null,"lat":"37.47801000","lon":"40.48152000"},{"id":108206,"name":"Midyat","native":null,"lat":"37.41908000","lon":"41.33909000"},{"id":108258,"name":"Nusaybin","native":null,"lat":"37.07028000","lon":"41.21465000"},{"id":108863,"name":"Ömerli","native":null,"lat":"37.39903000","lon":"40.95442000"},{"id":108280,"name":"Ortaca","native":null,"lat":"37.47394000","lon":"41.55598000"},{"id":108285,"name":"Ortaköy","native":null,"lat":"37.22089000","lon":"40.78476000"},{"id":108301,"name":"Oyalı","native":null,"lat":"37.22126000","lon":"41.73862000"},{"id":108868,"name":"Özbek","native":null,"lat":"37.17704000","lon":"41.69322000"},{"id":108361,"name":"Pınardere","native":null,"lat":"37.47231000","lon":"40.83402000"},{"id":108367,"name":"Reshidi","native":null,"lat":"37.49471000","lon":"40.96806000"},{"id":108419,"name":"Savur","native":null,"lat":"37.53544000","lon":"40.87876000"},{"id":108426,"name":"Selah","native":null,"lat":"37.20541000","lon":"40.69748000"},{"id":108953,"name":"Şenocak","native":null,"lat":"37.65035000","lon":"40.69441000"},{"id":108955,"name":"Şenyurt","native":null,"lat":"37.07932000","lon":"40.64246000"},{"id":108440,"name":"Seri","native":null,"lat":"37.36001000","lon":"41.30055000"},{"id":108445,"name":"Serkan","native":null,"lat":"37.15878000","lon":"41.74132000"},{"id":108478,"name":"Sivrice","native":null,"lat":"37.27675000","lon":"41.33569000"},{"id":108558,"name":"Teffi","native":null,"lat":"37.55781000","lon":"41.09551000"},{"id":108564,"name":"Telminar","native":null,"lat":"37.11129000","lon":"41.38359000"},{"id":108565,"name":"Tepealtı","native":null,"lat":"37.09595000","lon":"41.36834000"},{"id":108586,"name":"Toptepe","native":null,"lat":"37.26113000","lon":"41.24948000"},{"id":108682,"name":"Yaylı","native":null,"lat":"37.20293000","lon":"40.75375000"},{"id":108683,"name":"Yayvantepe","native":null,"lat":"37.30131000","lon":"41.52061000"},{"id":108721,"name":"Yeşilalan","native":null,"lat":"37.46066000","lon":"40.78441000"},{"id":108724,"name":"Yeşilli","native":null,"lat":"37.33813000","lon":"40.81739000"},{"id":108732,"name":"Yolbaşı","native":null,"lat":"37.38717000","lon":"41.31778000"}]},{"id":2156,"name":"Mersin","native":null,"cities":[{"id":107079,"name":"Akdeniz","native":null,"lat":"36.86424000","lon":"34.67731000"},{"id":107080,"name":"Akdere","native":null,"lat":"36.24083000","lon":"33.75041000"},{"id":107160,"name":"Anamur","native":null,"lat":"36.07508000","lon":"32.83691000"},{"id":107221,"name":"Aydıncık","native":null,"lat":"36.14370000","lon":"33.32016000"},{"id":107391,"name":"Bozyazı","native":null,"lat":"36.10820000","lon":"32.96113000"},{"id":108771,"name":"Çamlıyayla İlçesi","native":null,"lat":"37.18000000","lon":"34.60678000"},{"id":107572,"name":"Elvanlı","native":null,"lat":"36.70401000","lon":"34.37374000"},{"id":107586,"name":"Erdemli","native":null,"lat":"36.60498000","lon":"34.30836000"},{"id":107730,"name":"Gülnar","native":null,"lat":"36.34148000","lon":"33.39921000"},{"id":108007,"name":"Kocahasanlı","native":null,"lat":"36.58417000","lon":"34.27359000"},{"id":108198,"name":"Mersin","native":null,"lat":"36.81196000","lon":"34.63886000"},{"id":108204,"name":"Mezitli İlçesi","native":null,"lat":"36.89400000","lon":"34.42987000"},{"id":108232,"name":"Mut","native":null,"lat":"36.71842000","lon":"33.38718000"},{"id":108357,"name":"Pınarbaşı","native":null,"lat":"36.70340000","lon":"34.36270000"},{"id":108458,"name":"Silifke","native":null,"lat":"36.37778000","lon":"33.93444000"},{"id":108536,"name":"Tarsus","native":null,"lat":"36.91766000","lon":"34.89277000"},{"id":108588,"name":"Toroslar","native":null,"lat":"36.87083000","lon":"34.60299000"},{"id":108715,"name":"Yenişehir","native":null,"lat":"36.81602000","lon":"34.57621000"}]},{"id":2182,"name":"Muğla","native":null,"cities":[{"id":107307,"name":"Bayır","native":null,"lat":"37.26774000","lon":"28.21677000"},{"id":107365,"name":"Bodrum","native":null,"lat":"37.06500000","lon":"27.49819000"},{"id":107379,"name":"Bozarmut","native":null,"lat":"37.30917000","lon":"28.16972000"},{"id":107442,"name":"Dalaman","native":null,"lat":"36.81691000","lon":"28.87815000"},{"id":107443,"name":"Dalyan","native":null,"lat":"36.83429000","lon":"28.64460000"},{"id":107452,"name":"Datça","native":null,"lat":"36.73778000","lon":"27.68417000"},{"id":107640,"name":"Fethiye","native":null,"lat":"36.64038000","lon":"29.12758000"},{"id":107679,"name":"Göcek","native":null,"lat":"36.75345000","lon":"28.94571000"},{"id":107759,"name":"Güvercinlik","native":null,"lat":"37.13706000","lon":"27.58186000"},{"id":107923,"name":"Kargı","native":null,"lat":"36.70132000","lon":"29.07557000"},{"id":107943,"name":"Kavaklıdere","native":null,"lat":"37.43929000","lon":"28.38402000"},{"id":108083,"name":"Köyceğiz İlçesi","native":null,"lat":"36.97798000","lon":"28.72418000"},{"id":108160,"name":"Marmaris","native":null,"lat":"36.85500000","lon":"28.27417000"},{"id":108174,"name":"Menteşe","native":null,"lat":"37.21447000","lon":"28.36168000"},{"id":108211,"name":"Milas","native":null,"lat":"37.31639000","lon":"27.78389000"},{"id":108235,"name":"Muğla","native":null,"lat":"37.21807000","lon":"28.36650000"},{"id":108862,"name":"Ölüdeniz","native":null,"lat":"36.56674000","lon":"29.14467000"},{"id":108279,"name":"Ortaca","native":null,"lat":"36.83915000","lon":"28.76457000"},{"id":108396,"name":"Sarigerme","native":null,"lat":"36.71549000","lon":"28.70436000"},{"id":108447,"name":"Seydikemer","native":null,"lat":"36.64308000","lon":"29.34929000"},{"id":108599,"name":"Turgut","native":null,"lat":"37.37500000","lon":"28.03111000"},{"id":108601,"name":"Turgutreis","native":null,"lat":"37.01667000","lon":"27.26667000"},{"id":108616,"name":"Ula","native":null,"lat":"37.10491000","lon":"28.41667000"},{"id":108670,"name":"Yalıkavak","native":null,"lat":"37.10528000","lon":"27.29722000"},{"id":108671,"name":"Yaniklar","native":null,"lat":"36.70827000","lon":"29.05081000"},{"id":108676,"name":"Yatağan","native":null,"lat":"37.35864000","lon":"28.11441000"}]},{"id":2162,"name":"Muş","native":null,"cities":[{"id":107406,"name":"Bulanık","native":null,"lat":"39.08656000","lon":"42.27158000"},{"id":107802,"name":"Hasköy","native":null,"lat":"38.68231000","lon":"41.67851000"},{"id":108022,"name":"Korkut","native":null,"lat":"38.73390000","lon":"41.78396000"},{"id":108142,"name":"Malazgirt","native":null,"lat":"39.14650000","lon":"42.53536000"},{"id":108191,"name":"Merkez","native":null,"lat":"38.83793000","lon":"41.48332000"},{"id":108236,"name":"Muş","native":null,"lat":"38.73163000","lon":"41.48482000"},{"id":108647,"name":"Varto","native":null,"lat":"39.17375000","lon":"41.45402000"}]},{"id":2196,"name":"Nevşehir","native":null,"cities":[{"id":107055,"name":"Acıgöl","native":null,"lat":"38.55028000","lon":"34.50917000"},{"id":107211,"name":"Avanos","native":null,"lat":"38.71500000","lon":"34.84667000"},{"id":107481,"name":"Derinkuyu","native":null,"lat":"38.37510000","lon":"34.73419000"},{"id":107715,"name":"Göreme","native":null,"lat":"38.64370000","lon":"34.83529000"},{"id":107734,"name":"Gülşehir","native":null,"lat":"38.74594000","lon":"34.62524000"},{"id":107765,"name":"Hacıbektaş","native":null,"lat":"38.94077000","lon":"34.55770000"},{"id":108032,"name":"Kozaklı İlçesi","native":null,"lat":"39.23204000","lon":"34.85585000"},{"id":108192,"name":"Merkez","native":null,"lat":"38.60039000","lon":"34.68537000"},{"id":108246,"name":"Nevşehir","native":null,"lat":"38.62500000","lon":"34.71222000"},{"id":108873,"name":"Ürgüp","native":null,"lat":"38.57342000","lon":"34.94020000"}]},{"id":2189,"name":"Niğde","native":null,"cities":[{"id":107136,"name":"Altunhisar","native":null,"lat":"37.99159000","lon":"34.37334000"},{"id":107369,"name":"Bor","native":null,"lat":"37.89056000","lon":"34.55889000"},{"id":108764,"name":"Çamardı İlçesi","native":null,"lat":"37.84157000","lon":"34.99005000"},{"id":108829,"name":"Çiftlik","native":null,"lat":"38.17580000","lon":"34.48535000"},{"id":108252,"name":"Niğde","native":null,"lat":"37.96583000","lon":"34.67935000"},{"id":108628,"name":"Ulukisla","native":null,"lat":"37.54592000","lon":"34.58737000"}]},{"id":2174,"name":"Ordu","native":null,"cities":[{"id":107085,"name":"Akkuş","native":null,"lat":"40.81000000","lon":"36.96000000"},{"id":107144,"name":"Altınordu","native":null,"lat":"40.94879000","lon":"37.79572000"},{"id":107219,"name":"Aybastı İlçesi","native":null,"lat":"40.69690000","lon":"37.40794000"},{"id":108765,"name":"Çamaş","native":null,"lat":"40.90200000","lon":"37.52786000"},{"id":108790,"name":"Çatalpınar İlçesi","native":null,"lat":"40.88678000","lon":"37.44329000"},{"id":108797,"name":"Çaybaşı İlçesi","native":null,"lat":"41.02532000","lon":"37.10867000"},{"id":107633,"name":"Fatsa","native":null,"lat":"41.02778000","lon":"37.50139000"},{"id":107697,"name":"Gölköy İlçesi","native":null,"lat":"40.68726000","lon":"37.61660000"},{"id":107733,"name":"Gülyalı İlçesi","native":null,"lat":"40.96682000","lon":"38.05679000"},{"id":107749,"name":"Gürgentepe","native":null,"lat":"40.78567000","lon":"37.58969000"},{"id":108887,"name":"İkizce","native":null,"lat":"41.05833000","lon":"37.08028000"},{"id":107855,"name":"Kabadüz","native":null,"lat":"40.86096000","lon":"37.88470000"},{"id":107858,"name":"Kabataş","native":null,"lat":"40.75000000","lon":"37.45000000"},{"id":108018,"name":"Korgan","native":null,"lat":"40.82472000","lon":"37.34667000"},{"id":108052,"name":"Kumru","native":null,"lat":"40.87444000","lon":"37.26389000"},{"id":108201,"name":"Mesudiye","native":null,"lat":"40.45446000","lon":"37.77353000"},{"id":108271,"name":"Ordu","native":null,"lat":"40.97782000","lon":"37.89047000"},{"id":108341,"name":"Perşembe","native":null,"lat":"41.06556000","lon":"37.77139000"},{"id":108344,"name":"Piraziz İlçesi","native":null,"lat":"40.95643000","lon":"38.11667000"},{"id":108622,"name":"Ulubey","native":null,"lat":"40.86863000","lon":"37.75405000"},{"id":108872,"name":"Ünye İlçesi","native":null,"lat":"41.13921000","lon":"37.27246000"}]},{"id":2214,"name":"Osmaniye","native":null,"cities":[{"id":107259,"name":"Bahçe İlçesi","native":null,"lat":"37.20105000","lon":"36.57687000"},{"id":107543,"name":"Düziçi İlçesi","native":null,"lat":"37.25062000","lon":"36.47051000"},{"id":107798,"name":"Hasanbeyli","native":null,"lat":"37.12838000","lon":"36.54608000"},{"id":107860,"name":"Kadirli","native":null,"lat":"37.37389000","lon":"36.09611000"},{"id":108294,"name":"Osmaniye","native":null,"lat":"37.07417000","lon":"36.24778000"},{"id":108504,"name":"Sumbas İlçesi","native":null,"lat":"37.46169000","lon":"36.02914000"},{"id":108585,"name":"Toprakkale","native":null,"lat":"37.06855000","lon":"36.14661000"}]},{"id":2219,"name":"Rize","native":null,"cities":[{"id":107182,"name":"Ardeşen","native":null,"lat":"41.19111000","lon":"40.98750000"},{"id":108800,"name":"Çayeli","native":null,"lat":"41.08941000","lon":"40.73696000"},{"id":107644,"name":"Fındıklı","native":null,"lat":"41.27110000","lon":"41.14449000"},{"id":107743,"name":"Güneysu","native":null,"lat":"40.98130000","lon":"40.60465000"},{"id":107821,"name":"Hemşin İlçesi","native":null,"lat":"41.05922000","lon":"40.90140000"},{"id":108889,"name":"İkizdere İlçesi","native":null,"lat":"40.77713000","lon":"40.56076000"},{"id":108922,"name":"İyidere","native":null,"lat":"41.00905000","lon":"40.37776000"},{"id":107877,"name":"Kalkandere","native":null,"lat":"40.92143000","lon":"40.43999000"},{"id":108257,"name":"Nurluca","native":null,"lat":"41.03519000","lon":"40.90584000"},{"id":108321,"name":"Pazar","native":null,"lat":"41.17917000","lon":"40.88417000"},{"id":108371,"name":"Rize","native":null,"lat":"41.02083000","lon":"40.52194000"}]},{"id":2150,"name":"Sakarya","native":null,"cities":[{"id":107064,"name":"Adapazarı","native":null,"lat":"40.78056000","lon":"30.40333000"},{"id":107100,"name":"Akyazı","native":null,"lat":"40.68500000","lon":"30.62222000"},{"id":107186,"name":"Arifiye","native":null,"lat":"40.71327000","lon":"30.36128000"},{"id":107588,"name":"Erenler","native":null,"lat":"40.75564000","lon":"30.41453000"},{"id":107638,"name":"Ferizli","native":null,"lat":"40.94082000","lon":"30.48583000"},{"id":107673,"name":"Geyve","native":null,"lat":"40.50750000","lon":"30.29250000"},{"id":107822,"name":"Hendek","native":null,"lat":"40.79944000","lon":"30.74806000"},{"id":107910,"name":"Karapürçek","native":null,"lat":"40.64194000","lon":"30.53944000"},{"id":107915,"name":"Karasu İlçesi","native":null,"lat":"41.09983000","lon":"30.68241000"},{"id":107914,"name":"Karasu Mahallesi","native":null,"lat":"41.07096000","lon":"30.78543000"},{"id":107951,"name":"Kaynarca","native":null,"lat":"41.03083000","lon":"30.30750000"},{"id":108003,"name":"Kocaali","native":null,"lat":"41.05336000","lon":"30.85278000"},{"id":108312,"name":"Pamukova","native":null,"lat":"40.50810000","lon":"30.16732000"},{"id":108385,"name":"Sapanca","native":null,"lat":"40.69141000","lon":"30.26738000"},{"id":108438,"name":"Serdivan","native":null,"lat":"40.76371000","lon":"30.36784000"},{"id":108519,"name":"Söğütlü","native":null,"lat":"40.90590000","lon":"30.47448000"},{"id":108534,"name":"Taraklı","native":null,"lat":"40.39694000","lon":"30.49278000"}]},{"id":2220,"name":"Samsun","native":null,"cities":[{"id":107126,"name":"Alaçam İlçesi","native":null,"lat":"41.61563000","lon":"35.60632000"},{"id":107200,"name":"Asarcık","native":null,"lat":"41.03556000","lon":"36.23556000"},{"id":107206,"name":"Atakum","native":null,"lat":"41.34730000","lon":"36.23051000"},{"id":107230,"name":"Ayvacık","native":null,"lat":"40.99111000","lon":"36.63139000"},{"id":107257,"name":"Bafra","native":null,"lat":"41.46082000","lon":"35.84435000"},{"id":107423,"name":"Canik","native":null,"lat":"41.23858000","lon":"36.33694000"},{"id":108783,"name":"Çarşamba","native":null,"lat":"41.19889000","lon":"36.72194000"},{"id":107809,"name":"Havza","native":null,"lat":"40.97056000","lon":"35.66222000"},{"id":108891,"name":"İlkadım","native":null,"lat":"41.29161000","lon":"36.30106000"},{"id":107940,"name":"Kavak","native":null,"lat":"41.07833000","lon":"36.04250000"},{"id":108125,"name":"Ladik","native":null,"lat":"40.91056000","lon":"35.89194000"},{"id":108269,"name":"Ondokuzmayıs İlçesi","native":null,"lat":"41.51188000","lon":"36.07298000"},{"id":108377,"name":"Salıpazarı İlçesi","native":null,"lat":"41.09352000","lon":"36.81718000"},{"id":108381,"name":"Samsun","native":null,"lat":"41.27976000","lon":"36.33610000"},{"id":108561,"name":"Tekkeköy","native":null,"lat":"41.14493000","lon":"36.46205000"},{"id":108573,"name":"Terme","native":null,"lat":"41.20917000","lon":"36.97389000"},{"id":108651,"name":"Vezirköprü","native":null,"lat":"41.14361000","lon":"35.45472000"},{"id":108660,"name":"Yakakent","native":null,"lat":"41.63250000","lon":"35.52889000"}]},{"id":2183,"name":"Şanlıurfa","native":null,"cities":[{"id":107107,"name":"Akçakale","native":null,"lat":"36.71111000","lon":"38.94750000"},{"id":107081,"name":"Akdiken","native":null,"lat":"36.72500000","lon":"39.30861000"},{"id":107247,"name":"Aşağı Beğdeş","native":null,"lat":"36.81472000","lon":"38.91917000"},{"id":107359,"name":"Birecik","native":null,"lat":"37.02577000","lon":"37.97841000"},{"id":107388,"name":"Bozova","native":null,"lat":"37.36250000","lon":"38.52667000"},{"id":107410,"name":"Bulutlu","native":null,"lat":"36.73583000","lon":"39.39389000"},{"id":107428,"name":"Ceylanpınar","native":null,"lat":"36.84722000","lon":"40.05000000"},{"id":107511,"name":"Dorumali","native":null,"lat":"36.80500000","lon":"38.85306000"},{"id":107621,"name":"Eyyübiye","native":null,"lat":"37.21434000","lon":"38.79358000"},{"id":107741,"name":"Güneren","native":null,"lat":"36.73417000","lon":"39.08861000"},{"id":107775,"name":"Halfeti","native":null,"lat":"37.24529000","lon":"37.86874000"},{"id":107777,"name":"Haliliye","native":null,"lat":"37.14144000","lon":"38.79599000"},