[{"id":3404,"name":"Changhua","native":null,"cities":[{"id":109003,"name":"Changhua","native":null,"lat":"23.95361000","lon":"120.49083000"},{"id":109038,"name":"Yuanlin","native":null,"lat":"23.95671000","lon":"120.57608000"}]},{"id":3408,"name":"Chiayi","native":null,"cities":[{"id":109004,"name":"Chiayi","native":null,"lat":"23.47722000","lon":"120.44527000"},{"id":109026,"name":"Pizitou","native":null,"lat":"23.48556000","lon":"120.44472000"}]},{"id":3418,"name":"Chiayi","native":null,"cities":[{"id":109005,"name":"Chiayi County","native":null,"lat":"23.46333000","lon":"120.58166000"}]},{"id":3423,"name":"Hsinchu","native":null,"cities":[{"id":109010,"name":"Hsinchu","native":null,"lat":"24.80361000","lon":"120.96861000"}]},{"id":3417,"name":"Hsinchu","native":null,"cities":[{"id":109011,"name":"Hsinchu County","native":null,"lat":"24.67416000","lon":"121.16111000"}]},{"id":3411,"name":"Hualien","native":null,"cities":[{"id":109012,"name":"Hualien","native":null,"lat":"23.78166000","lon":"121.39333000"},{"id":109013,"name":"Hualien City","native":null,"lat":"23.97694000","lon":"121.60444000"}]},{"id":3412,"name":"Kaohsiung","native":null,"cities":[{"id":109016,"name":"Kaohsiung","native":null,"lat":"22.61626000","lon":"120.31333000"}]},{"id":4965,"name":"Keelung","native":null,"cities":[]},{"id":3415,"name":"Kinmen","native":null,"cities":[{"id":109014,"name":"Jincheng","native":null,"lat":"24.43415000","lon":"118.31712000"},{"id":109017,"name":"Kinmen County","native":null,"lat":"24.45333000","lon":"118.38861000"}]},{"id":3420,"name":"Lienchiang","native":null,"cities":[{"id":109018,"name":"Lienchiang","native":null,"lat":"26.37004000","lon":"120.49545000"},{"id":109022,"name":"Nangan","native":null,"lat":"26.15039000","lon":"119.93284000"}]},{"id":3413,"name":"Miaoli","native":null,"cities":[{"id":109021,"name":"Miaoli","native":null,"lat":"24.48972000","lon":"120.90638000"}]},{"id":3407,"name":"Nantou","native":null,"cities":[{"id":109019,"name":"Lugu","native":null,"lat":"23.74639000","lon":"120.75250000"},{"id":109023,"name":"Nantou","native":null,"lat":"23.83419000","lon":"120.92704000"},{"id":109027,"name":"Puli","native":null,"lat":"23.96639000","lon":"120.96952000"},{"id":109041,"name":"Zhongxing New Village","native":null,"lat":"23.95908000","lon":"120.68516000"}]},{"id":4966,"name":"New Taipei","native":null,"cities":[]},{"id":3403,"name":"Penghu","native":null,"cities":[{"id":109020,"name":"Magong","native":null,"lat":"23.56540000","lon":"119.58627000"},{"id":109024,"name":"Penghu County","native":null,"lat":"23.57111000","lon":"119.61138000"}]},{"id":3405,"name":"Pingtung","native":null,"cities":[{"id":109007,"name":"Donggang","native":null,"lat":"22.46515000","lon":"120.44927000"},{"id":109009,"name":"Hengchun","native":null,"lat":"22.00417000","lon":"120.74389000"},{"id":109025,"name":"Pingtung","native":null,"lat":"22.49555000","lon":"120.61444000"}]},{"id":3406,"name":"Taichung","native":null,"cities":[{"id":109028,"name":"Taichung","native":null,"lat":"24.14690000","lon":"120.68390000"},{"id":109029,"name":"Taichung City","native":null,"lat":"24.15472000","lon":"120.67297000"}]},{"id":3421,"name":"Tainan","native":null,"cities":[{"id":109030,"name":"Tainan","native":null,"lat":"22.99083000","lon":"120.21333000"},{"id":109039,"name":"Yujing","native":null,"lat":"23.12493000","lon":"120.46138000"}]},{"id":3422,"name":"Taipei","native":null,"cities":[{"id":109002,"name":"Banqiao","native":null,"lat":"25.01427000","lon":"121.46719000"},{"id":109015,"name":"Jiufen","native":null,"lat":"25.10957000","lon":"121.84424000"},{"id":109031,"name":"Taipei","native":null,"lat":"25.04776000","lon":"121.53185000"},{"id":109032,"name":"Taipei City","native":null,"lat":"25.08300000","lon":"121.55331000"}]},{"id":3410,"name":"Taitung","native":null,"cities":[{"id":109033,"name":"Taitung","native":null,"lat":"22.88361000","lon":"121.04833000"},{"id":109034,"name":"Taitung City","native":null,"lat":"22.75830000","lon":"121.14440000"}]},{"id":3419,"name":"Taoyuan","native":null,"cities":[{"id":109006,"name":"Daxi","native":null,"lat":"24.88373000","lon":"121.29043000"},{"id":109035,"name":"Taoyuan","native":null,"lat":"24.89500000","lon":"121.24611000"},{"id":109036,"name":"Taoyuan City","native":null,"lat":"24.99368000","lon":"121.29696000"}]},{"id":3402,"name":"Yilan","native":null,"cities":[{"id":109037,"name":"Yilan","native":null,"lat":"24.54250000","lon":"121.63361000"}]},{"id":3416,"name":"Yunlin","native":null,"cities":[{"id":109008,"name":"Douliu","native":null,"lat":"23.70944000","lon":"120.54333000"},{"id":109040,"name":"Yunlin","native":null,"lat":"23.70701000","lon":"120.38481000"}]}]