[{"id":4689,"name":"Autonomous Republic of Crimea","native":null,"cities":[{"id":109305,"name":"Abrikosovka","native":null,"lat":"45.10759000","lon":"35.10139000"},{"id":109306,"name":"Abrikosovo","native":null,"lat":"45.69236000","lon":"34.10156000"},{"id":109308,"name":"Aeroflotskiy","native":null,"lat":"45.01816000","lon":"33.99961000"},{"id":109309,"name":"Agrarnoye","native":null,"lat":"45.01596000","lon":"34.05725000"},{"id":109310,"name":"Akimovka","native":null,"lat":"45.51981000","lon":"34.82438000"},{"id":109313,"name":"Aleksandrovka","native":null,"lat":"45.57654000","lon":"34.09947000"},{"id":109314,"name":"Alekseyevka","native":null,"lat":"45.58194000","lon":"33.62980000"},{"id":109315,"name":"Alupka","native":null,"lat":"44.41808000","lon":"34.04531000"},{"id":109316,"name":"Alushta","native":null,"lat":"44.67728000","lon":"34.40970000"},{"id":109317,"name":"Amurskoye","native":null,"lat":"45.27822000","lon":"34.12823000"},{"id":109327,"name":"Armyansk","native":null,"lat":"46.10919000","lon":"33.69206000"},{"id":109328,"name":"Aromatnoye","native":null,"lat":"45.03678000","lon":"34.39921000"},{"id":109336,"name":"Azovskoye","native":null,"lat":"45.58604000","lon":"34.56680000"},{"id":109338,"name":"Baherove","native":null,"lat":"45.37417000","lon":"36.29705000"},{"id":109339,"name":"Bakhchysarai","native":null,"lat":"44.75525000","lon":"33.85782000"},{"id":109340,"name":"Bakhchysarai Raion","native":null,"lat":"44.75002000","lon":"33.86330000"},{"id":109356,"name":"Batal’noye","native":null,"lat":"45.19402000","lon":"35.61583000"},{"id":109363,"name":"Belinskoye","native":null,"lat":"45.37465000","lon":"36.08212000"},{"id":109364,"name":"Beloglinka","native":null,"lat":"44.99490000","lon":"34.04167000"},{"id":109365,"name":"Belogorskiy rayon","native":null,"lat":"45.06300000","lon":"34.55675000"},{"id":109372,"name":"Beregovoye","native":null,"lat":"45.09470000","lon":"35.43385000"},{"id":109384,"name":"Berezovka","native":null,"lat":"45.57471000","lon":"33.34397000"},{"id":109399,"name":"Bilohirsk","native":null,"lat":"45.05462000","lon":"34.60185000"},{"id":109412,"name":"Blizhneye","native":null,"lat":"45.05694000","lon":"35.33056000"},{"id":109417,"name":"Bogatoye","native":null,"lat":"45.02933000","lon":"34.76732000"},{"id":109438,"name":"Botanicheskoye","native":null,"lat":"45.78656000","lon":"33.54856000"},{"id":109444,"name":"Bratskoye","native":null,"lat":"45.83170000","lon":"33.92151000"},{"id":109470,"name":"Chapayevka","native":null,"lat":"45.28119000","lon":"34.89428000"},{"id":109474,"name":"Chaykino","native":null,"lat":"45.08223000","lon":"34.08673000"},{"id":109476,"name":"Chelyadinovo","native":null,"lat":"45.20729000","lon":"36.37620000"},{"id":109489,"name":"Chernomorskiy rayon","native":null,"lat":"45.48798000","lon":"32.92614000"},{"id":109490,"name":"Chernomorskoye","native":null,"lat":"45.50657000","lon":"32.69776000"},{"id":109491,"name":"Chernopolye","native":null,"lat":"45.04399000","lon":"34.63916000"},{"id":109492,"name":"Chernovo","native":null,"lat":"45.50833000","lon":"33.93397000"},{"id":109493,"name":"Chernozemnoye","native":null,"lat":"45.40808000","lon":"34.81990000"},{"id":109497,"name":"Chernyshevo","native":null,"lat":"45.78202000","lon":"33.42825000"},{"id":109503,"name":"Chervonoye","native":null,"lat":"45.12294000","lon":"33.68662000"},{"id":109505,"name":"Chisten’koye","native":null,"lat":"44.88152000","lon":"34.04716000"},{"id":109506,"name":"Chistopolye","native":null,"lat":"45.36541000","lon":"36.18312000"},{"id":109507,"name":"Chkalovo","native":null,"lat":"45.60474000","lon":"34.83395000"},{"id":109527,"name":"Dachnoye","native":null,"lat":"44.88448000","lon":"34.98333000"},{"id":109528,"name":"Dalekoye","native":null,"lat":"45.66006000","lon":"33.08059000"},{"id":109543,"name":"Dmitrovka","native":null,"lat":"45.48411000","lon":"35.05880000"},{"id":109547,"name":"Dneprovka","native":null,"lat":"45.71373000","lon":"34.36256000"},{"id":109560,"name":"Dobroye","native":null,"lat":"44.86632000","lon":"34.22661000"},{"id":109561,"name":"Dobrushino","native":null,"lat":"45.37441000","lon":"33.36547000"},{"id":109564,"name":"Dolinnoye","native":null,"lat":"44.75320000","lon":"33.77766000"},{"id":109571,"name":"Donskoye","native":null,"lat":"45.04509000","lon":"34.21413000"},{"id":109577,"name":"Drofino","native":null,"lat":"45.28629000","lon":"34.61589000"},{"id":109582,"name":"Dubki","native":null,"lat":"44.93581000","lon":"34.02355000"},{"id":109592,"name":"Dzhankoy","native":null,"lat":"45.71168000","lon":"34.39274000"},{"id":109593,"name":"Dzhankoyskiy rayon","native":null,"lat":"45.78706000","lon":"34.39197000"},{"id":109599,"name":"Feodosiya","native":null,"lat":"45.03677000","lon":"35.37789000"},{"id":109600,"name":"Filatovka","native":null,"lat":"46.08192000","lon":"33.78510000"},{"id":109602,"name":"Fontany","native":null,"lat":"44.89717000","lon":"34.07297000"},{"id":109603,"name":"Foros","native":null,"lat":"44.39214000","lon":"33.78798000"},{"id":109604,"name":"Frunze","native":null,"lat":"45.02688000","lon":"33.62956000"},{"id":109605,"name":"Gaspra","native":null,"lat":"44.43364000","lon":"34.10297000"},{"id":109606,"name":"Geroyskoye","native":null,"lat":"45.13857000","lon":"33.74675000"},{"id":109607,"name":"Glazovka","native":null,"lat":"45.38792000","lon":"36.57965000"},{"id":109608,"name":"Golubinka","native":null,"lat":"44.59382000","lon":"33.91521000"},{"id":109609,"name":"Gornostayevka","native":null,"lat":"45.27819000","lon":"36.18601000"},{"id":109610,"name":"Gorodskoy okrug Alushta","native":null,"lat":"44.67256000","lon":"34.41467000"},{"id":109611,"name":"Gorodskoy okrug Armyansk","native":null,"lat":"46.10871000","lon":"33.69095000"},{"id":109612,"name":"Gorodskoy okrug Dzhankoy","native":null,"lat":"45.70810000","lon":"34.39407000"},{"id":109613,"name":"Gorodskoy okrug Feodosiya","native":null,"lat":"45.04612000","lon":"35.37289000"},{"id":109614,"name":"Gorodskoy okrug Krasnoperekopsk","native":null,"lat":"45.95330000","lon":"33.79669000"},{"id":109615,"name":"Gorodskoy okrug Saki","native":null,"lat":"45.12780000","lon":"33.60134000"},{"id":109616,"name":"Gorodskoy okrug Simferopol","native":null,"lat":"44.94803000","lon":"34.10912000"},{"id":109617,"name":"Gorodskoy okrug Sudak","native":null,"lat":"44.91667000","lon":"35.00202000"},{"id":109618,"name":"Gorodskoy okrug Yalta","native":null,"lat":"44.49638000","lon":"34.16336000"},{"id":109619,"name":"Gorodskoy okrug Yevpatoriya","native":null,"lat":"45.19559000","lon":"33.36342000"},{"id":109620,"name":"Gresovskiy","native":null,"lat":"45.00804000","lon":"34.02657000"},{"id":109621,"name":"Grishino","native":null,"lat":"45.64219000","lon":"33.83098000"},{"id":109622,"name":"Grushevka","native":null,"lat":"45.02281000","lon":"34.97301000"},{"id":109623,"name":"Gurzuf","native":null,"lat":"44.54624000","lon":"34.27841000"},{"id":109664,"name":"Hvardiiske","native":null,"lat":"45.11692000","lon":"34.02188000"},{"id":109669,"name":"Ilychyovo","native":null,"lat":"45.28348000","lon":"35.73864000"},{"id":109670,"name":"Ilyichevo","native":null,"lat":"45.24524000","lon":"35.07127000"},{"id":109671,"name":"Ilyinka","native":null,"lat":"45.81784000","lon":"33.79482000"},{"id":109676,"name":"Ishun’","native":null,"lat":"45.92403000","lon":"33.82364000"},{"id":109685,"name":"Ivanovka","native":null,"lat":"45.07200000","lon":"33.66130000"},{"id":109688,"name":"Izobil’noye","native":null,"lat":"44.70276000","lon":"34.35357000"},{"id":109689,"name":"Izumrudnoye","native":null,"lat":"45.73704000","lon":"34.41299000"},{"id":109692,"name":"Izyumovka","native":null,"lat":"45.04437000","lon":"35.13717000"},{"id":109700,"name":"Kalinino","native":null,"lat":"45.59521000","lon":"34.22030000"},{"id":109701,"name":"Kalinovka","native":null,"lat":"45.31658000","lon":"35.74643000"},{"id":109707,"name":"Kamenolomnya","native":null,"lat":"45.24804000","lon":"33.41773000"},{"id":109718,"name":"Kashtanovoye","native":null,"lat":"44.83210000","lon":"34.05912000"},{"id":109719,"name":"Kashtany","native":null,"lat":"44.86760000","lon":"33.78995000"},{"id":109725,"name":"Kerch","native":null,"lat":"45.35310000","lon":"36.47429000"},{"id":109726,"name":"Kerchens'ka Mis'ka Rada","native":null,"lat":"45.35307000","lon":"36.47414000"},{"id":109734,"name":"Kholmovka","native":null,"lat":"44.65830000","lon":"33.75456000"},{"id":109750,"name":"Kirovo","native":null,"lat":"45.22106000","lon":"35.84227000"},{"id":109752,"name":"Kirovske Raion","native":null,"lat":"45.15522000","lon":"35.17696000"},{"id":109753,"name":"Kirovskoye","native":null,"lat":"45.22967000","lon":"35.19987000"},{"id":109761,"name":"Klepinino","native":null,"lat":"45.52800000","lon":"34.18315000"},{"id":109771,"name":"Koktebel","native":null,"lat":"44.96155000","lon":"35.24660000"},{"id":109780,"name":"Kol’chugino","native":null,"lat":"44.94367000","lon":"33.78865000"},{"id":109781,"name":"Kol’tsovo","native":null,"lat":"45.32807000","lon":"33.44992000"},{"id":109774,"name":"Kolodeznoye","native":null,"lat":"45.22682000","lon":"34.33698000"},{"id":109779,"name":"Koloski","native":null,"lat":"45.26936000","lon":"33.29386000"},{"id":109784,"name":"Komsomol’skoye","native":null,"lat":"45.01900000","lon":"34.03049000"},{"id":109788,"name":"Kondratyevo","native":null,"lat":"45.63125000","lon":"34.47387000"},{"id":109790,"name":"Konstantinovka","native":null,"lat":"44.85511000","lon":"34.12069000"},{"id":109794,"name":"Koreiz","native":null,"lat":"44.43374000","lon":"34.08516000"},{"id":109796,"name":"Kormovoye","native":null,"lat":"45.50001000","lon":"33.61192000"},{"id":109812,"name":"Kostochkovka","native":null,"lat":"45.31747000","lon":"34.67418000"},{"id":109818,"name":"Kotel’nikovo","native":null,"lat":"45.36584000","lon":"34.02575000"},{"id":109822,"name":"Kovyl’noye","native":null,"lat":"45.69028000","lon":"33.52775000"},{"id":109830,"name":"Krasna Zor'ka","native":null,"lat":"45.13432000","lon":"34.04015000"},{"id":109831,"name":"Krasnaya Polyana","native":null,"lat":"45.48241000","lon":"32.93790000"},{"id":109834,"name":"Krasnoarmeyskoye","native":null,"lat":"45.99103000","lon":"34.03037000"},{"id":109835,"name":"Krasnoflotskoye","native":null,"lat":"45.31572000","lon":"34.94756000"},{"id":109836,"name":"Krasnogorka","native":null,"lat":"45.24513000","lon":"35.80739000"},{"id":109837,"name":"Krasnogvardeyskoye","native":null,"lat":"45.50271000","lon":"34.30134000"},{"id":109839,"name":"Krasnohvardiiske Raion","native":null,"lat":"45.40230000","lon":"34.25464000"},{"id":109840,"name":"Krasnokamenka","native":null,"lat":"44.56383000","lon":"34.28877000"},{"id":109842,"name":"Krasnolesye","native":null,"lat":"44.83259000","lon":"34.23086000"},{"id":109845,"name":"Krasnoperekops’k","native":null,"lat":"45.95716000","lon":"33.79650000"},{"id":109844,"name":"Krasnoperekopsk Raion","native":null,"lat":"45.96992000","lon":"33.87990000"},{"id":109849,"name":"Krasnoyarskoye","native":null,"lat":"45.50661000","lon":"33.26641000"},{"id":109850,"name":"Krasnoye","native":null,"lat":"45.13999000","lon":"34.09452000"},{"id":109851,"name":"Krasnoznamenka","native":null,"lat":"45.28676000","lon":"34.00036000"},{"id":109852,"name":"Krasnyi Mak","native":null,"lat":"44.64218000","lon":"33.78130000"},{"id":109857,"name":"Krayneye","native":null,"lat":"45.22993000","lon":"33.83239000"},{"id":109861,"name":"Krest’yanovka","native":null,"lat":"45.72268000","lon":"33.93938000"},{"id":109863,"name":"Krinichnoye","native":null,"lat":"45.02428000","lon":"34.61202000"},{"id":109869,"name":"Krymka","native":null,"lat":"45.70453000","lon":"34.18782000"},{"id":109870,"name":"Krymskaya Roza","native":null,"lat":"45.05776000","lon":"34.35631000"},{"id":109871,"name":"Krymskoye","native":null,"lat":"45.18836000","lon":"33.80106000"},{"id":109881,"name":"Kuibyshevo","native":null,"lat":"44.62900000","lon":"33.86895000"},{"id":109882,"name":"Kukushkino","native":null,"lat":"45.71924000","lon":"33.39030000"},{"id":109890,"name":"Kurskoye","native":null,"lat":"45.02908000","lon":"34.93623000"},{"id":109968,"name":"L’govskoye","native":null,"lat":"45.09801000","lon":"34.95770000"},{"id":109910,"name":"Lekarstvennoye","native":null,"lat":"44.94194000","lon":"33.82229000"},{"id":109912,"name":"Lenine Raion","native":null,"lat":"45.24693000","lon":"36.00540000"},{"id":109913,"name":"Lenino","native":null,"lat":"45.29857000","lon":"35.77708000"},{"id":109914,"name":"Leninskoye","native":null,"lat":"45.26844000","lon":"34.05023000"},{"id":109915,"name":"Lesnovka","native":null,"lat":"45.15350000","lon":"33.61889000"},{"id":109917,"name":"Levadki","native":null,"lat":"44.87083000","lon":"34.04278000"},{"id":109919,"name":"Listvennoye","native":null,"lat":"45.48086000","lon":"34.81087000"},{"id":109920,"name":"Litvinenkovo","native":null,"lat":"45.08648000","lon":"34.31107000"},{"id":109926,"name":"Livadia","native":null,"lat":"44.47021000","lon":"34.14272000"},{"id":109927,"name":"Lobanovo","native":null,"lat":"45.77552000","lon":"34.24236000"},{"id":109933,"name":"Lozovoye","native":null,"lat":"44.90600000","lon":"34.16414000"},{"id":109935,"name":"Luchistoye","native":null,"lat":"44.73646000","lon":"34.40063000"},{"id":109936,"name":"Luganskoye","native":null,"lat":"45.80190000","lon":"34.23786000"},{"id":109937,"name":"Lugovoye","native":null,"lat":"45.23469000","lon":"35.72202000"},{"id":109969,"name":"Magazinka","native":null,"lat":"45.86312000","lon":"34.04969000"},{"id":109982,"name":"Malen’koye","native":null,"lat":"45.07585000","lon":"33.99942000"},{"id":109985,"name":"Malorechenskoye","native":null,"lat":"44.75888000","lon":"34.55789000"},{"id":109987,"name":"Maly Mayak","native":null,"lat":"44.61356000","lon":"34.36469000"},{"id":110005,"name":"Mar’yanovka","native":null,"lat":"45.44627000","lon":"34.29474000"},{"id":109998,"name":"Marfovka","native":null,"lat":"45.19853000","lon":"36.09144000"},{"id":110004,"name":"Maryevka","native":null,"lat":"45.11330000","lon":"36.23992000"},{"id":110006,"name":"Maslovo","native":null,"lat":"45.79197000","lon":"34.36298000"},{"id":110007,"name":"Massandra","native":null,"lat":"44.50958000","lon":"34.18817000"},{"id":110010,"name":"Mayskoye","native":null,"lat":"45.59555000","lon":"34.55213000"},{"id":110011,"name":"Mazanka","native":null,"lat":"45.00550000","lon":"34.25581000"},{"id":110013,"name":"Medvedevka","native":null,"lat":"45.88389000","lon":"34.55562000"},{"id":110014,"name":"Medvedevo","native":null,"lat":"45.38597000","lon":"33.00400000"},{"id":110020,"name":"Mel’nichnoye","native":null,"lat":"45.19885000","lon":"34.42012000"},{"id":110026,"name":"Mezhvodnoye","native":null,"lat":"45.58751000","lon":"32.84501000"},{"id":110027,"name":"Michurinskoye","native":null,"lat":"45.07430000","lon":"34.70672000"},{"id":110028,"name":"Mikhaylovka","native":null,"lat":"45.11325000","lon":"33.61071000"},{"id":110032,"name":"Mirnovka","native":null,"lat":"45.69083000","lon":"34.30966000"},{"id":110033,"name":"Mirnoye","native":null,"lat":"44.98330000","lon":"34.06160000"},{"id":110034,"name":"Mirny","native":null,"lat":"45.30788000","lon":"33.03501000"},{"id":110036,"name":"Mitrofanovka","native":null,"lat":"45.45114000","lon":"34.67883000"},{"id":110037,"name":"Mityayevo","native":null,"lat":"45.23423000","lon":"33.70150000"},{"id":110046,"name":"Molochnoye","native":null,"lat":"45.19960000","lon":"33.22233000"},{"id":110050,"name":"Molodyozhnoye","native":null,"lat":"45.00354000","lon":"34.05634000"},{"id":110053,"name":"Morskoye","native":null,"lat":"44.82593000","lon":"34.80314000"},{"id":110061,"name":"Muromskoye","native":null,"lat":"45.09051000","lon":"34.84900000"},{"id":110064,"name":"Muskatnoye","native":null,"lat":"45.46586000","lon":"34.54316000"},{"id":110077,"name":"Mysovoe","native":null,"lat":"45.44788000","lon":"35.83528000"},{"id":110083,"name":"Nasypnoe","native":null,"lat":"45.05285000","lon":"35.29415000"},{"id":110085,"name":"Naydenovka","native":null,"lat":"45.27088000","lon":"34.44898000"},{"id":110088,"name":"Nekrasovka","native":null,"lat":"45.44085000","lon":"34.98584000"},{"id":110089,"name":"Nekrasovo","native":null,"lat":"45.42453000","lon":"34.28545000"},{"id":110095,"name":"Nikita","native":null,"lat":"44.51564000","lon":"34.23840000"},{"id":110096,"name":"Nikolayevka","native":null,"lat":"44.96213000","lon":"33.61061000"},{"id":110099,"name":"Nizhnegorskiy","native":null,"lat":"45.44789000","lon":"34.73839000"},{"id":110100,"name":"Nizhnegorskiy rayon","native":null,"lat":"45.48430000","lon":"34.76798000"},{"id":110118,"name":"Novoandreyevka","native":null,"lat":"45.19904000","lon":"34.09384000"},{"id":110124,"name":"Novoestoniya","native":null,"lat":"45.49960000","lon":"34.24298000"},{"id":110126,"name":"Novofedorovka","native":null,"lat":"45.09473000","lon":"33.57211000"},{"id":110127,"name":"Novogrigoryevka","native":null,"lat":"45.45200000","lon":"34.60378000"},{"id":110129,"name":"Novoivanovka","native":null,"lat":"45.44914000","lon":"33.09833000"},{"id":110130,"name":"Novokrymskoye","native":null,"lat":"45.78007000","lon":"34.15543000"},{"id":110136,"name":"Novonikolayevka","native":null,"lat":"45.30855000","lon":"36.05749000"},{"id":110138,"name":"Novoozyornoye","native":null,"lat":"45.38314000","lon":"33.11715000"},{"id":110139,"name":"Novopavlovka","native":null,"lat":"45.86634000","lon":"33.89018000"},{"id":110140,"name":"Novopokrovka","native":null,"lat":"45.16517000","lon":"35.25304000"},{"id":110147,"name":"Novosel’skoye","native":null,"lat":"45.50357000","lon":"32.72250000"},{"id":110144,"name":"Novoselovskoye","native":null,"lat":"45.44276000","lon":"33.59795000"},{"id":110148,"name":"Novostepnoye","native":null,"lat":"45.66206000","lon":"34.38700000"},{"id":110149,"name":"Novosyolovka","native":null,"lat":"44.99377000","lon":"33.83525000"},{"id":110155,"name":"Novozhilovka","native":null,"lat":"45.15960000","lon":"34.23270000"},{"id":110156,"name":"Novy Svet","native":null,"lat":"44.83087000","lon":"34.91370000"},{"id":110178,"name":"Okhotnikovo","native":null,"lat":"45.23985000","lon":"33.59405000"},{"id":110179,"name":"Okhotskoye","native":null,"lat":"45.48612000","lon":"34.86401000"},{"id":110182,"name":"Oktyabr'skoye","native":null,"lat":"45.36215000","lon":"36.36803000"},{"id":110183,"name":"Oktyabr’skoye","native":null,"lat":"45.28866000","lon":"34.13521000"},{"id":110184,"name":"Okunevka","native":null,"lat":"45.36855000","lon":"32.76357000"},{"id":110191,"name":"Olenevka","native":null,"lat":"45.38333000","lon":"32.53333000"},{"id":110201,"name":"Ordzhonikidze","native":null,"lat":"44.96401000","lon":"35.35576000"},{"id":110202,"name":"Orekhovo","native":null,"lat":"45.12944000","lon":"33.63180000"},{"id":110204,"name":"Orlovskoye","native":null,"lat":"45.81070000","lon":"33.97308000"},{"id":110206,"name":"Ostanino","native":null,"lat":"45.32731000","lon":"35.91295000"},{"id":110209,"name":"Ostrovskoye","native":null,"lat":"45.74232000","lon":"34.06607000"},{"id":110220,"name":"Pakharevka","native":null,"lat":"45.83472000","lon":"34.16129000"},{"id":110223,"name":"Partenit","native":null,"lat":"44.57800000","lon":"34.34464000"},{"id":110224,"name":"Partizanskoye","native":null,"lat":"44.83379000","lon":"34.08465000"},{"id":110225,"name":"Partizany","native":null,"lat":"45.14373000","lon":"35.15509000"},{"id":110243,"name":"Pereval'noye","native":null,"lat":"44.84838000","lon":"34.31271000"},{"id":110245,"name":"Perovo","native":null,"lat":"44.92513000","lon":"34.05753000"},{"id":110248,"name":"Pervomayskiy rayon","native":null,"lat":"45.59825000","lon":"33.83249000"},{"id":110249,"name":"Pervomayskoye","native":null,"lat":"45.71744000","lon":"33.85596000"},{"id":110254,"name":"Peschanoye","native":null,"lat":"44.84342000","lon":"33.60921000"},{"id":110260,"name":"Petrovka","native":null,"lat":"45.49776000","lon":"34.28816000"},{"id":110272,"name":"Pionerskoye","native":null,"lat":"44.88083000","lon":"34.20194000"},{"id":110277,"name":"Plodovoye","native":null,"lat":"44.87156000","lon":"33.85615000"},{"id":110280,"name":"Pobednoye","native":null,"lat":"45.70109000","lon":"34.44805000"},{"id":110283,"name":"Pochetnoye","native":null,"lat":"45.99495000","lon":"33.76588000"},{"id":110295,"name":"Poltavka","native":null,"lat":"45.35133000","lon":"34.18371000"},{"id":110305,"name":"Poshtove","native":null,"lat":"44.83540000","lon":"33.96159000"},{"id":110307,"name":"Pozharskoye","native":null,"lat":"44.93554000","lon":"33.87109000"},{"id":110308,"name":"Pravda","native":null,"lat":"45.77903000","lon":"33.84649000"},{"id":110310,"name":"Primorskiy","native":null,"lat":"45.11904000","lon":"35.48025000"},{"id":110311,"name":"Priozyornoye","native":null,"lat":"45.26990000","lon":"36.33405000"},{"id":110312,"name":"Privetnoye","native":null,"lat":"45.11969000","lon":"35.05960000"},{"id":110314,"name":"Prostornoye","native":null,"lat":"45.65597000","lon":"34.69837000"},{"id":110315,"name":"Prudovoye","native":null,"lat":"44.90424000","lon":"33.78114000"},{"id":110316,"name":"Prudy","native":null,"lat":"45.23922000","lon":"34.70217000"},{"id":110326,"name":"Pshenichnoye","native":null,"lat":"45.64627000","lon":"34.83767000"},{"id":110329,"name":"Pushkino","native":null,"lat":"45.20373000","lon":"34.97642000"},{"id":110333,"name":"Pyatikhatka","native":null,"lat":"45.32347000","lon":"34.25516000"},{"id":110348,"name":"Razdol’nenskiy rayon","native":null,"lat":"45.67086000","lon":"33.44075000"},{"id":110349,"name":"Razdol’noye","native":null,"lat":"45.77083000","lon":"33.48777000"},{"id":110358,"name":"Rodnikovo","native":null,"lat":"45.04296000","lon":"33.95407000"},{"id":110367,"name":"Romashkino","native":null,"lat":"45.25647000","lon":"33.25517000"},{"id":110371,"name":"Roshchino","native":null,"lat":"45.60916000","lon":"34.37992000"},{"id":110372,"name":"Roskoshnoye","native":null,"lat":"45.65187000","lon":"34.11552000"},{"id":110375,"name":"Rovnoye","native":null,"lat":"45.35134000","lon":"34.35230000"},{"id":110389,"name":"Ruch’i","native":null,"lat":"45.78564000","lon":"33.66093000"},{"id":110392,"name":"Rusakovka","native":null,"lat":"45.12369000","lon":"34.47458000"},{"id":110395,"name":"Rybach'e","native":null,"lat":"44.77331000","lon":"34.59609000"},{"id":110399,"name":"Sadovoye","native":null,"lat":"45.31037000","lon":"34.65260000"},{"id":110402,"name":"Saki","native":null,"lat":"45.13424000","lon":"33.59996000"},{"id":110403,"name":"Sakskiy rayon","native":null,"lat":"45.27799000","lon":"33.52911000"},{"id":110409,"name":"Sary-Bash","native":null,"lat":"45.57142000","lon":"33.78728000"},{"id":110416,"name":"Semisotka","native":null,"lat":"45.24676000","lon":"35.56500000"},{"id":110418,"name":"Senokosnoye","native":null,"lat":"45.73277000","lon":"33.51552000"},{"id":110421,"name":"Serebryanka","native":null,"lat":"45.63937000","lon":"33.49632000"},{"id":110434,"name":"Shchebetovka","native":null,"lat":"44.93821000","lon":"35.15800000"},{"id":110437,"name":"Shchyolkino","native":null,"lat":"45.42985000","lon":"35.82250000"},{"id":110439,"name":"Shelkovichnoye","native":null,"lat":"45.18748000","lon":"33.68807000"},{"id":110446,"name":"Shirokoye","native":null,"lat":"45.20029000","lon":"34.05069000"},{"id":110448,"name":"Shkol’noye","native":null,"lat":"45.05758000","lon":"33.89737000"},{"id":110452,"name":"Shtormovoye","native":null,"lat":"45.26717000","lon":"33.08693000"},{"id":110459,"name":"Simeiz","native":null,"lat":"44.40646000","lon":"34.00704000"},{"id":110461,"name":"Simferopol","native":null,"lat":"44.95719000","lon":"34.11079000"},{"id":110462,"name":"Simferopol Raion","native":null,"lat":"44.95690000","lon":"34.10225000"},{"id":110463,"name":"Sinitsyno","native":null,"lat":"45.23862000","lon":"35.24659000"},{"id":110465,"name":"Sizovka","native":null,"lat":"45.34892000","lon":"33.87669000"},{"id":110469,"name":"Skalistoye","native":null,"lat":"44.81686000","lon":"33.97791000"},{"id":110473,"name":"Skvortsovo","native":null,"lat":"45.07542000","lon":"33.82084000"},{"id":110477,"name":"Slavnoye","native":null,"lat":"45.72176000","lon":"33.23689000"},{"id":110481,"name":"Slavyanskoye","native":null,"lat":"45.72768000","lon":"33.32165000"},{"id":110497,"name":"Sofiivka","native":null,"lat":"45.08985000","lon":"33.99887000"},{"id":110501,"name":"Sokolinoye","native":null,"lat":"44.55041000","lon":"33.95897000"},{"id":110504,"name":"Solnechnaya Dolina","native":null,"lat":"44.87185000","lon":"35.10622000"},{"id":110505,"name":"Solnechnogorskoye","native":null,"lat":"44.74722000","lon":"34.53999000"},{"id":110506,"name":"Solnechnoye","native":null,"lat":"45.04767000","lon":"34.08380000"},{"id":110517,"name":"Sovetskiy","native":null,"lat":"45.34267000","lon":"34.92463000"},{"id":110518,"name":"Sovietskyi Raion","native":null,"lat":"45.31516000","lon":"34.92914000"},{"id":110519,"name":"Sovkhoznoye","native":null,"lat":"45.96005000","lon":"33.77155000"},{"id":110523,"name":"Stakhanovka","native":null,"lat":"45.37062000","lon":"33.94883000"},{"id":110524,"name":"Stal’noye","native":null,"lat":"45.70814000","lon":"34.56238000"},{"id":110536,"name":"Stary Krym","native":null,"lat":"45.02887000","lon":"35.09174000"},{"id":110549,"name":"Stepnoye","native":null,"lat":"45.65212000","lon":"33.77441000"},{"id":110553,"name":"Stolbovoye","native":null,"lat":"45.36270000","lon":"33.49584000"},{"id":110556,"name":"Strogonovka","native":null,"lat":"44.94970000","lon":"34.17924000"},{"id":110560,"name":"Sudak","native":null,"lat":"44.84924000","lon":"34.97471000"},{"id":110565,"name":"Susanino","native":null,"lat":"45.49898000","lon":"33.69854000"},{"id":110567,"name":"Suvorovo","native":null,"lat":"46.08865000","lon":"33.68800000"},{"id":110568,"name":"Suvorovskoye","native":null,"lat":"45.25171000","lon":"33.37194000"},{"id":110576,"name":"Svetloye","native":null,"lat":"45.63320000","lon":"34.66264000"},{"id":110586,"name":"Tabachnoye","native":null,"lat":"44.90175000","lon":"33.67638000"},{"id":110588,"name":"Tankovoye","native":null,"lat":"44.65829000","lon":"33.80929000"},{"id":110596,"name":"Tenistoye","native":null,"lat":"44.74303000","lon":"33.66812000"},{"id":110599,"name":"Teplovka","native":null,"lat":"45.03239000","lon":"33.69588000"},{"id":110610,"name":"Tokarevo","native":null,"lat":"45.28367000","lon":"35.15244000"},{"id":110622,"name":"Trudovoye","native":null,"lat":"44.99133000","lon":"34.20311000"},{"id":110628,"name":"Tselinnoye","native":null,"lat":"45.90633000","lon":"34.18063000"},{"id":110630,"name":"Tsvetochnoye","native":null,"lat":"45.08655000","lon":"34.38521000"},{"id":110638,"name":"Turgenevka","native":null,"lat":"44.69747000","lon":"33.83007000"},{"id":110648,"name":"Uglovoye","native":null,"lat":"44.82146000","lon":"33.60452000"},{"id":110652,"name":"Ukrainka","native":null,"lat":"44.88730000","lon":"34.13973000"},{"id":110653,"name":"Ukromnoye","native":null,"lat":"45.04272000","lon":"34.00312000"},{"id":110658,"name":"Urozhaynoye","native":null,"lat":"45.04522000","lon":"34.13511000"},{"id":110664,"name":"Uvarovka","native":null,"lat":"45.45108000","lon":"34.78812000"},{"id":110665,"name":"Uvarovo","native":null,"lat":"45.26260000","lon":"35.66506000"},{"id":110666,"name":"Uyutnoye","native":null,"lat":"45.19769000","lon":"33.29796000"},{"id":110676,"name":"Vasilyevka","native":null,"lat":"45.13938000","lon":"34.72291000"},{"id":110703,"name":"Veresayevo","native":null,"lat":"45.30551000","lon":"33.50004000"},{"id":110711,"name":"Verkhorechye","native":null,"lat":"44.69738000","lon":"33.98696000"},{"id":110714,"name":"Vesele","native":null,"lat":"44.85807000","lon":"34.87952000"},{"id":110715,"name":"Veselovka","native":null,"lat":"45.37733000","lon":"33.21385000"},{"id":110717,"name":"Vilino","native":null,"lat":"44.84560000","lon":"33.67161000"},{"id":110721,"name":"Vinnitskoye","native":null,"lat":"44.98129000","lon":"33.73920000"},{"id":110723,"name":"Vinogradnoye","native":null,"lat":"44.48149000","lon":"34.12973000"},{"id":110724,"name":"Vinogradovo","native":null,"lat":"45.39264000","lon":"33.64668000"},{"id":110725,"name":"Vishennoye","native":null,"lat":"45.14509000","lon":"34.59691000"},{"id":110726,"name":"Vishnyovka","native":null,"lat":"45.95966000","lon":"33.95289000"},{"id":110728,"name":"Vladimirovka","native":null,"lat":"45.14760000","lon":"33.57583000"},{"id":110729,"name":"Vladislavovka","native":null,"lat":"45.16828000","lon":"35.37658000"},{"id":110731,"name":"Voinka","native":null,"lat":"45.86990000","lon":"33.99138000"},{"id":110739,"name":"Vol’noye","native":null,"lat":"45.56570000","lon":"34.30360000"},{"id":110740,"name":"Vorobyovo","native":null,"lat":"45.32895000","lon":"33.24654000"},{"id":110746,"name":"Voskhod","native":null,"lat":"45.50999000","lon":"34.39355000"},{"id":110748,"name":"Voykovo","native":null,"lat":"45.38329000","lon":"36.43739000"},{"id":110778,"name":"Yalta","native":null,"lat":"44.50218000","lon":"34.16624000"},{"id":110782,"name":"Yantarnoye","native":null,"lat":"45.43473000","lon":"34.22134000"},{"id":110785,"name":"Yarkoye","native":null,"lat":"45.69120000","lon":"34.26323000"},{"id":110786,"name":"Yarkoye Pole","native":null,"lat":"45.20581000","lon":"35.19848000"},{"id":110789,"name":"Yasnopolyanskoye","native":null,"lat":"45.94097000","lon":"34.35262000"},{"id":110794,"name":"Yemelyanovka","native":null,"lat":"45.53287000","lon":"34.89624000"},{"id":110798,"name":"Yermakovo","native":null,"lat":"45.85364000","lon":"34.48644000"},{"id":110800,"name":"Yevpatoriya","native":null,"lat":"45.20091000","lon":"33.36655000"},{"id":110813,"name":"Zalesye","native":null,"lat":"44.88687000","lon":"34.10168000"},{"id":110819,"name":"Zaozyornoye","native":null,"lat":"45.15816000","lon":"33.27866000"},{"id":110822,"name":"Zarechnoye","native":null,"lat":"44.85048000","lon":"34.26426000"},{"id":110829,"name":"Zavet-Leninskiy","native":null,"lat":"45.86258000","lon":"34.39160000"},{"id":110830,"name":"Zavetnoye","native":null,"lat":"45.32697000","lon":"34.80837000"},{"id":110835,"name":"Zelenogorskoye","native":null,"lat":"45.01249000","lon":"34.46848000"},{"id":110836,"name":"Zelyonoye","native":null,"lat":"44.59583000","lon":"34.00921000"},{"id":110837,"name":"Zemlyanichnoye","native":null,"lat":"44.97444000","lon":"34.83553000"},{"id":110838,"name":"Zernovoye","native":null,"lat":"45.32364000","lon":"34.48099000"},{"id":110841,"name":"Zheleznodorozhnoye","native":null,"lat":"44.71710000","lon":"33.80417000"},{"id":110842,"name":"Zhelyabovka","native":null,"lat":"45.39877000","lon":"34.75776000"},{"id":110843,"name":"Zhemchuzhina","native":null,"lat":"45.27466000","lon":"34.65778000"},{"id":110848,"name":"Zhuravki","native":null,"lat":"45.12629000","lon":"35.21513000"},{"id":110849,"name":"Zhuravli","native":null,"lat":"45.25246000","lon":"33.64104000"},{"id":110850,"name":"Zhuravlyovka","native":null,"lat":"45.17680000","lon":"33.99680000"},{"id":110855,"name":"Zimino","native":null,"lat":"45.50797000","lon":"33.51431000"},{"id":110862,"name":"Zolotoye Pole","native":null,"lat":"45.12774000","lon":"34.99148000"},{"id":110864,"name":"Zorkino","native":null,"lat":"45.54762000","lon":"34.71028000"},{"id":110868,"name":"Zuya","native":null,"lat":"45.05418000","lon":"34.32152000"},{"id":110870,"name":"Zybiny","native":null,"lat":"45.23674000","lon":"34.64987000"}]},{"id":4680,"name":"Cherkaska oblast","native":null,"cities":[{"id":109337,"name":"Babanka","native":null,"lat":"48.70971000","lon":"30.44827000"},{"id":109459,"name":"Buky","native":null,"lat":"49.09252000","lon":"30.40355000"},{"id":109477,"name":"Cherkasy","native":null,"lat":"49.42854000","lon":"32.06207000"},{"id":109498,"name":"Chervona Sloboda","native":null,"lat":"49.37281000","lon":"32.15742000"},{"id":109510,"name":"Chornobay","native":null,"lat":"49.66644000","lon":"32.32932000"},{"id":109524,"name":"Chyhyryn","native":null,"lat":"49.08376000","lon":"32.65549000"},{"id":109575,"name":"Drabiv","native":null,"lat":"49.96029000","lon":"32.14070000"},{"id":109651,"name":"Horodyshche","native":null,"lat":"49.28489000","lon":"31.44513000"},{"id":109709,"name":"Kamianka","native":null,"lat":"49.03180000","lon":"32.10396000"},{"id":109714,"name":"Kaniv","native":null,"lat":"49.75182000","lon":"31.46004000"},{"id":109741,"name":"Khrystynivka","native":null,"lat":"48.81577000","lon":"29.97703000"},{"id":109805,"name":"Korsun-Shevchenkivskyi","native":null,"lat":"49.41894000","lon":"31.25865000"},{"id":109909,"name":"Lebedyn","native":null,"lat":"48.96242000","lon":"31.52696000"},{"id":109959,"name":"Lysianka","native":null,"lat":"49.25229000","lon":"30.82946000"},{"id":109995,"name":"Mankivka","native":null,"lat":"48.96349000","lon":"30.33366000"},{"id":110042,"name":"Mliiv","native":null,"lat":"49.33691000","lon":"31.51704000"},{"id":110051,"name":"Monastyryshche","native":null,"lat":"48.99090000","lon":"29.80470000"},{"id":110054,"name":"Moshny","native":null,"lat":"49.52754000","lon":"31.73708000"},{"id":110112,"name":"Nove-Misto","native":null,"lat":"48.98113000","lon":"29.82813000"},{"id":110393,"name":"Ruska Poliana","native":null,"lat":"49.41700000","lon":"31.92009000"},{"id":110451,"name":"Shpola","native":null,"lat":"49.00687000","lon":"31.39471000"},{"id":110488,"name":"Smila","native":null,"lat":"49.22242000","lon":"31.88714000"},{"id":110546,"name":"Stebliv","native":null,"lat":"49.40186000","lon":"31.09764000"},{"id":110587,"name":"Talne","native":null,"lat":"48.88877000","lon":"30.69482000"},{"id":110629,"name":"Tsibulev","native":null,"lat":"49.07907000","lon":"29.84727000"},{"id":110631,"name":"Tsvitkove","native":null,"lat":"49.15231000","lon":"31.53739000"},{"id":110656,"name":"Uman","native":null,"lat":"48.74838000","lon":"30.22184000"},{"id":110681,"name":"Vatutine","native":null,"lat":"49.01502000","lon":"31.06211000"},{"id":110704,"name":"Verkhniachka","native":null,"lat":"48.82849000","lon":"30.03957000"},{"id":110797,"name":"Yerky","native":null,"lat":"48.99062000","lon":"30.98818000"},{"id":110802,"name":"Yurkivka","native":null,"lat":"49.01082000","lon":"31.08797000"},{"id":110840,"name":"Zhashkiv","native":null,"lat":"49.24545000","lon":"30.11020000"},{"id":110861,"name":"Zolotonosha","native":null,"lat":"49.66832000","lon":"32.04047000"},{"id":110869,"name":"Zvenihorodka","native":null,"lat":"49.07866000","lon":"30.96755000"}]},{"id":4692,"name":"Chernihivska oblast","native":null,"cities":[{"id":109334,"name":"Avdiyivka","native":null,"lat":"51.77660000","lon":"32.79988000"},{"id":109341,"name":"Bakhmach","native":null,"lat":"51.18144000","lon":"32.83463000"},{"id":109358,"name":"Baturyn","native":null,"lat":"51.34567000","lon":"32.87794000"},{"id":109381,"name":"Berezna","native":null,"lat":"51.57160000","lon":"31.78456000"},{"id":109415,"name":"Bobrovytsya","native":null,"lat":"50.74693000","lon":"31.39480000"},{"id":109437,"name":"Borzna","native":null,"lat":"51.25464000","lon":"32.42690000"},{"id":109480,"name":"Chernihiv","native":null,"lat":"51.50551000","lon":"31.28487000"},{"id":109481,"name":"Chernihiv Raion","native":null,"lat":"51.58333000","lon":"31.33333000"},{"id":109483,"name":"Chernihivs’ka Mis’krada","native":null,"lat":"51.49923000","lon":"31.28805000"},{"id":109540,"name":"Desna","native":null,"lat":"50.92731000","lon":"30.76048000"},{"id":109542,"name":"Dihtyari","native":null,"lat":"50.58264000","lon":"32.77012000"},{"id":109562,"name":"Dobryanka","native":null,"lat":"52.06314000","lon":"31.18567000"},{"id":109645,"name":"Horodnya","native":null,"lat":"51.89085000","lon":"31.59741000"},{"id":109666,"name":"Ichnya","native":null,"lat":"50.86258000","lon":"32.39425000"},{"id":109735,"name":"Kholmy","native":null,"lat":"51.87096000","lon":"32.60063000"},{"id":109766,"name":"Kobyzhcha","native":null,"lat":"50.82854000","lon":"31.50439000"},{"id":109800,"name":"Korop","native":null,"lat":"51.56638000","lon":"32.95861000"},{"id":109806,"name":"Koryukivka","native":null,"lat":"51.76877000","lon":"32.24813000"},{"id":109824,"name":"Kozelets’","native":null,"lat":"50.91334000","lon":"31.12140000"},{"id":109868,"name":"Kruty","native":null,"lat":"51.05974000","lon":"32.10634000"},{"id":109885,"name":"Kulykivka","native":null,"lat":"51.37345000","lon":"31.64661000"},{"id":109901,"name":"Ladan","native":null,"lat":"50.51959000","lon":"32.58178000"},{"id":109918,"name":"Lisovi Sorochyntsi","native":null,"lat":"50.68920000","lon":"32.32919000"},{"id":109963,"name":"Lyubech","native":null,"lat":"51.70260000","lon":"30.65692000"},{"id":110021,"name":"Mena","native":null,"lat":"51.52170000","lon":"32.21568000"},{"id":110022,"name":"Mens’kyy Rayon","native":null,"lat":"51.52148000","lon":"32.02166000"},{"id":110101,"name":"Nizhyn","native":null,"lat":"51.04801000","lon":"31.88688000"},{"id":110102,"name":"Nosivka","native":null,"lat":"50.93152000","lon":"31.58282000"},{"id":110113,"name":"Novhorod-Sivers’kyy","native":null,"lat":"52.00577000","lon":"33.26150000"},{"id":110196,"name":"Olyshivka","native":null,"lat":"51.22266000","lon":"31.33314000"},{"id":110207,"name":"Oster","native":null,"lat":"50.95060000","lon":"30.88229000"},{"id":110320,"name":"Pryluky","native":null,"lat":"50.59323000","lon":"32.38761000"},{"id":110353,"name":"Ripky","native":null,"lat":"51.80105000","lon":"31.08383000"},{"id":110412,"name":"Sedniv","native":null,"lat":"51.64473000","lon":"31.56497000"},{"id":110415,"name":"Semenivka","native":null,"lat":"52.17827000","lon":"32.58183000"},{"id":110436,"name":"Shchors","native":null,"lat":"51.81865000","lon":"31.94504000"},{"id":110494,"name":"Snovs'kyy Rayon","native":null,"lat":"51.83333000","lon":"32.00000000"},{"id":110516,"name":"Sosnytsya","native":null,"lat":"51.52387000","lon":"32.49985000"},{"id":110522,"name":"Sribne","native":null,"lat":"50.66384000","lon":"32.91867000"},{"id":110673,"name":"Varva","native":null,"lat":"50.49503000","lon":"32.71968000"},{"id":110847,"name":"Zhuravka","native":null,"lat":"50.48108000","lon":"32.59490000"}]},{"id":4678,"name":"Chernivetska oblast","native":null,"cities":[{"id":109348,"name":"Banyliv","native":null,"lat":"48.36612000","lon":"25.34549000"},{"id":109374,"name":"Berehomet","native":null,"lat":"48.17882000","lon":"25.34855000"},{"id":109439,"name":"Boyany","native":null,"lat":"48.27077000","lon":"26.12624000"},{"id":109486,"name":"Chernivtsi","native":null,"lat":"48.29149000","lon":"25.94034000"},{"id":109487,"name":"Chernivtsi Municipality","native":null,"lat":"48.31932000","lon":"25.94104000"},{"id":109519,"name":"Chudey","native":null,"lat":"48.05247000","lon":"25.62208000"},{"id":109531,"name":"Davydivka","native":null,"lat":"48.12099000","lon":"25.56461000"},{"id":109633,"name":"Hlyboka","native":null,"lat":"48.08971000","lon":"25.92933000"},{"id":109677,"name":"Ispas","native":null,"lat":"48.29734000","lon":"25.27406000"},{"id":109694,"name":"Kadubivtsi","native":null,"lat":"48.58337000","lon":"25.76871000"},{"id":109740,"name":"Khotyn","native":null,"lat":"48.50693000","lon":"26.49121000"},{"id":109763,"name":"Klishkivtsi","native":null,"lat":"48.43161000","lon":"26.26231000"},{"id":109814,"name":"Kostryzhivka","native":null,"lat":"48.65455000","lon":"25.71316000"},{"id":109947,"name":"Luzhany","native":null,"lat":"48.36492000","lon":"25.77173000"},{"id":110003,"name":"Marshintsy","native":null,"lat":"48.21751000","lon":"26.29133000"},{"id":110047,"name":"Molodiya","native":null,"lat":"48.22326000","lon":"26.02139000"},{"id":110067,"name":"Myhove","native":null,"lat":"48.15749000","lon":"25.37904000"},{"id":110122,"name":"Novodnistrovs’k","native":null,"lat":"48.58303000","lon":"27.44070000"},{"id":110145,"name":"Novoselytsya","native":null,"lat":"48.21931000","lon":"26.26531000"},{"id":110164,"name":"Nyzhni Petrivtsi","native":null,"lat":"48.02847000","lon":"25.72327000"},{"id":110331,"name":"Putyla Raion","native":null,"lat":"48.00000000","lon":"25.00000000"},{"id":110370,"name":"Ropcha","native":null,"lat":"48.11988000","lon":"25.77421000"},{"id":110453,"name":"Shypyntsi","native":null,"lat":"48.37677000","lon":"25.74664000"},{"id":110502,"name":"Sokyryany","native":null,"lat":"48.44747000","lon":"27.41678000"},{"id":110675,"name":"Vashkivtsi","native":null,"lat":"48.38491000","lon":"25.51023000"},{"id":110702,"name":"Verenchanka","native":null,"lat":"48.54653000","lon":"25.74533000"},{"id":110736,"name":"Voloka","native":null,"lat":"48.19225000","lon":"25.93074000"},{"id":110769,"name":"Vyzhnytsya","native":null,"lat":"48.24801000","lon":"25.19452000"},{"id":110801,"name":"Yizhivtsi","native":null,"lat":"48.03962000","lon":"25.66232000"},{"id":110825,"name":"Zastavna","native":null,"lat":"48.52307000","lon":"25.84369000"}]},{"id":4675,"name":"Dnipropetrovska oblast","native":null,"cities":[{"id":109325,"name":"Apostolove","native":null,"lat":"47.66003000","lon":"33.71369000"},{"id":109332,"name":"Auly","native":null,"lat":"48.56660000","lon":"34.46111000"},{"id":109335,"name":"Aviatorske","native":null,"lat":"48.36714000","lon":"35.08132000"},{"id":109501,"name":"Chervonohryhorivka","native":null,"lat":"47.62298000","lon":"34.53887000"},{"id":109518,"name":"Chortomlyk","native":null,"lat":"47.62315000","lon":"34.14198000"},{"id":109548,"name":"Dnipro","native":null,"lat":"48.45930000","lon":"35.03865000"},{"id":109549,"name":"Dnipro Raion","native":null,"lat":"48.45608000","lon":"35.02167000"},{"id":109553,"name":"Dniprovs’ka Mis’ka Rada","native":null,"lat":"48.46726000","lon":"34.99898000"},{"id":109659,"name":"Hubynykha","native":null,"lat":"48.80980000","lon":"35.25602000"},{"id":109661,"name":"Hupalivka","native":null,"lat":"49.11139000","lon":"34.73556000"},{"id":109710,"name":"Kamianske","native":null,"lat":"48.51134000","lon":"34.60210000"},{"id":109721,"name":"Kaydaki","native":null,"lat":"48.37678000","lon":"35.12398000"},{"id":109872,"name":"Krynychky","native":null,"lat":"48.37551000","lon":"34.46701000"},{"id":109876,"name":"Kryvoriz’ka Mis’krada","native":null,"lat":"47.94730000","lon":"33.42489000"},{"id":109877,"name":"Kryvyi Rih","native":null,"lat":"47.90966000","lon":"33.38044000"},{"id":109949,"name":"Lykhivka","native":null,"lat":"48.68735000","lon":"33.92279000"},{"id":109970,"name":"Mahdalynivka","native":null,"lat":"48.92111000","lon":"34.91491000"},{"id":109971,"name":"Mahdalynivs’kyy Rayon","native":null,"lat":"48.97612000","lon":"34.96762000"},{"id":109999,"name":"Marhanets’","native":null,"lat":"47.63543000","lon":"34.62769000"},{"id":110017,"name":"Melioratyvne","native":null,"lat":"48.63009000","lon":"35.41558000"},{"id":110025,"name":"Mezhova","native":null,"lat":"48.25318000","lon":"36.73468000"},{"id":110098,"name":"Nikopol","native":null,"lat":"47.57119000","lon":"34.39637000"},{"id":110132,"name":"Novomoskovs’k","native":null,"lat":"48.63799000","lon":"35.24548000"},{"id":110131,"name":"Novomoskovsk Raion","native":null,"lat":"48.66667000","lon":"35.41667000"},{"id":110134,"name":"Novomykolayivka","native":null,"lat":"48.55625000","lon":"34.37399000"},{"id":110142,"name":"Novopokrovka","native":null,"lat":"48.05918000","lon":"34.60619000"},{"id":110200,"name":"Ordzhonikidze","native":null,"lat":"47.66763000","lon":"34.05957000"},{"id":110226,"name":"Partyzans’ke","native":null,"lat":"48.58680000","lon":"34.80948000"},{"id":110232,"name":"Pavlohrad","native":null,"lat":"48.53426000","lon":"35.87098000"},{"id":110258,"name":"Petropavlivka","native":null,"lat":"48.45643000","lon":"36.43670000"},{"id":110261,"name":"Petrykivka","native":null,"lat":"48.72933000","lon":"34.63358000"},{"id":110262,"name":"Petrykivs’kyy Rayon","native":null,"lat":"48.68914000","lon":"34.61098000"},{"id":110263,"name":"Piatykhatky","native":null,"lat":"48.41333000","lon":"33.71056000"},{"id":110268,"name":"Pidhorodne","native":null,"lat":"48.57528000","lon":"35.10680000"},{"id":110449,"name":"Sholokhove","native":null,"lat":"47.69453000","lon":"34.03119000"},{"id":110455,"name":"Shyroke","native":null,"lat":"47.69173000","lon":"33.25715000"},{"id":110456,"name":"Shyroke Raion","native":null,"lat":"47.66667000","lon":"33.33333000"},{"id":110498,"name":"Sofiyivka","native":null,"lat":"48.04865000","lon":"33.87618000"},{"id":110508,"name":"Solone","native":null,"lat":"48.20805000","lon":"34.87208000"},{"id":110509,"name":"Solone Raion","native":null,"lat":"48.16667000","lon":"35.00000000"},{"id":110521,"name":"Spas’ke","native":null,"lat":"48.66667000","lon":"35.05385000"},{"id":110564,"name":"Surs’ko-Mykhaylivka","native":null,"lat":"48.27202000","lon":"34.72759000"},{"id":110583,"name":"Synel’nykove","native":null,"lat":"48.32044000","lon":"35.51792000"},{"id":110613,"name":"Tomakivka","native":null,"lat":"47.81569000","lon":"34.74137000"},{"id":110626,"name":"Tsarychanka","native":null,"lat":"48.93697000","lon":"34.47860000"},{"id":110627,"name":"Tsarychans’kyy Rayon","native":null,"lat":"48.93329000","lon":"34.53043000"},{"id":110710,"name":"Verkhn’odniprovs’k","native":null,"lat":"48.65242000","lon":"34.33457000"},{"id":110719,"name":"Vil’ne","native":null,"lat":"47.63645000","lon":"34.81387000"},{"id":110761,"name":"Vyshchetarasivka","native":null,"lat":"47.56851000","lon":"34.88096000"},{"id":110766,"name":"Vyshneve","native":null,"lat":"48.43611000","lon":"33.91556000"},{"id":110803,"name":"Yur”yivs’kyy Rayon","native":null,"lat":"48.80743000","lon":"35.91325000"},{"id":110846,"name":"Zhovti Vody","native":null,"lat":"48.34493000","lon":"33.50374000"}]},{"id":4691,"name":"Donetska oblast","native":null,"cities":[{"id":109318,"name":"Amvrosiivka Raion","native":null,"lat":"47.75000000","lon":"38.50000000"},{"id":109319,"name":"Amvrosiyivka","native":null,"lat":"47.79348000","lon":"38.47768000"},{"id":109333,"name":"Avdiyivka","native":null,"lat":"48.13989000","lon":"37.74255000"},{"id":109342,"name":"Bakhmut","native":null,"lat":"48.59559000","lon":"37.99987000"},{"id":109343,"name":"Bakhmut Raion","native":null,"lat":"48.58333000","lon":"38.00000000"},{"id":109389,"name":"Bezimenne","native":null,"lat":"47.10716000","lon":"37.93815000"},{"id":109407,"name":"Bilyts’ke","native":null,"lat":"48.40642000","lon":"37.18111000"},{"id":109410,"name":"Blahodatne","native":null,"lat":"47.87928000","lon":"38.48492000"},{"id":109441,"name":"Boykivske","native":null,"lat":"47.40994000","lon":"38.02476000"},{"id":109442,"name":"Boykivske Raion","native":null,"lat":"47.41667000","lon":"38.00000000"},{"id":109473,"name":"Chasiv Yar","native":null,"lat":"48.59348000","lon":"37.85724000"},{"id":109526,"name":"Chystyakove","native":null,"lat":"48.03876000","lon":"38.59685000"},{"id":109532,"name":"Debal’tseve","native":null,"lat":"48.34072000","lon":"38.40490000"},{"id":109546,"name":"Dmytrivka","native":null,"lat":"47.93611000","lon":"38.93661000"},{"id":109556,"name":"Dobropillia Raion","native":null,"lat":"48.41667000","lon":"37.16667000"},{"id":109557,"name":"Dobropillya","native":null,"lat":"48.46147000","lon":"37.08524000"},{"id":109563,"name":"Dokuchayevs’k","native":null,"lat":"47.75046000","lon":"37.67936000"},{"id":109570,"name":"Donetsk","native":null,"lat":"48.02300000","lon":"37.80224000"},{"id":109581,"name":"Druzhkivka","native":null,"lat":"48.63013000","lon":"37.55259000"},{"id":109641,"name":"Horlivka","native":null,"lat":"48.33576000","lon":"38.05325000"},{"id":109668,"name":"Ilovays’k","native":null,"lat":"47.92498000","lon":"38.20235000"},{"id":109728,"name":"Khartsyz’k","native":null,"lat":"48.04243000","lon":"38.14728000"},{"id":109811,"name":"Kostiantynivka Raion","native":null,"lat":"48.50000000","lon":"37.75000000"},{"id":109817,"name":"Kostyantynivka","native":null,"lat":"48.52770000","lon":"37.70690000"},{"id":109828,"name":"Kramators’k","native":null,"lat":"48.72305000","lon":"37.55629000"},{"id":109848,"name":"Krasnotorka","native":null,"lat":"48.68204000","lon":"37.53266000"},{"id":109862,"name":"Krinichnaya","native":null,"lat":"48.12899000","lon":"38.02597000"},{"id":109888,"name":"Kurakhovo","native":null,"lat":"47.98522000","lon":"37.28210000"},{"id":109893,"name":"Kuteynykove","native":null,"lat":"47.81227000","lon":"38.28822000"},{"id":109940,"name":"Luhans’ke","native":null,"lat":"48.44574000","lon":"38.26153000"},{"id":109950,"name":"Lyman","native":null,"lat":"48.98837000","lon":"37.80225000"},{"id":109952,"name":"Lyman Raion","native":null,"lat":"49.00000000","lon":"37.83333000"},{"id":109976,"name":"Makiyivka","native":null,"lat":"48.04782000","lon":"37.92576000"},{"id":109977,"name":"Makiyivs’ka Mis’krada","native":null,"lat":"48.06287000","lon":"38.03075000"},{"id":109994,"name":"Manhush","native":null,"lat":"47.05582000","lon":"37.31068000"},{"id":109997,"name":"Mar'yinka","native":null,"lat":"47.94527000","lon":"37.50544000"},{"id":110000,"name":"Mariupol","native":null,"lat":"47.09514000","lon":"37.54131000"},{"id":110016,"name":"Melekyne","native":null,"lat":"46.95957000","lon":"37.39981000"},{"id":110055,"name":"Mospyne","native":null,"lat":"47.89081000","lon":"38.06395000"},{"id":110075,"name":"Myrnohrad","native":null,"lat":"48.30523000","lon":"37.26091000"},{"id":110097,"name":"Nikolske Raion","native":null,"lat":"47.25000000","lon":"37.25000000"},{"id":110120,"name":"Novoazovs'k","native":null,"lat":"47.11389000","lon":"38.08599000"},{"id":110123,"name":"Novodonets’ke","native":null,"lat":"48.63526000","lon":"36.98477000"},{"id":110161,"name":"Novyy Svit","native":null,"lat":"47.80591000","lon":"38.02112000"},{"id":110167,"name":"Nyzhnya Krynka","native":null,"lat":"48.11350000","lon":"38.16064000"},{"id":110219,"name":"P'yatypill'ya","native":null,"lat":"48.01590000","lon":"38.09979000"},{"id":110291,"name":"Pokrovsk","native":null,"lat":"48.28198000","lon":"37.17585000"},{"id":110292,"name":"Pokrovsk Raion","native":null,"lat":"48.25000000","lon":"37.16667000"},{"id":110359,"name":"Rodyns’ke","native":null,"lat":"48.35199000","lon":"37.20602000"},{"id":110385,"name":"Rozsypne","native":null,"lat":"48.14966000","lon":"38.57619000"},{"id":110408,"name":"Sartana","native":null,"lat":"47.17436000","lon":"37.69266000"},{"id":110413,"name":"Selydivs’ka Mis’krada","native":null,"lat":"48.14530000","lon":"37.29962000"},{"id":110414,"name":"Selydove","native":null,"lat":"48.14708000","lon":"37.30032000"},{"id":110420,"name":"Serebryanka","native":null,"lat":"48.91917000","lon":"38.13494000"},{"id":110428,"name":"Shakhtars’k","native":null,"lat":"48.05657000","lon":"38.43826000"},{"id":110435,"name":"Shcherbynivka","native":null,"lat":"48.39489000","lon":"37.79102000"},{"id":110454,"name":"Shyroke","native":null,"lat":"47.95711000","lon":"38.23160000"},{"id":110464,"name":"Sivers’k","native":null,"lat":"48.86699000","lon":"38.10007000"},{"id":110486,"name":"Sloviansk","native":null,"lat":"48.86667000","lon":"37.61667000"},{"id":110487,"name":"Sloviansk Raion","native":null,"lat":"48.91667000","lon":"37.50000000"},{"id":110493,"name":"Snizhne","native":null,"lat":"48.02612000","lon":"38.77225000"},{"id":110503,"name":"Soledar","native":null,"lat":"48.67935000","lon":"38.08902000"},{"id":110531,"name":"Starobesheve","native":null,"lat":"47.75038000","lon":"38.03051000"},{"id":110539,"name":"Staryy Krym","native":null,"lat":"47.16146000","lon":"37.48934000"},{"id":110552,"name":"Stizhkivs’ke","native":null,"lat":"48.11333000","lon":"38.49250000"},{"id":110575,"name":"Svetlodarsk","native":null,"lat":"48.43374000","lon":"38.22331000"},{"id":110579,"name":"Svyatogorsk","native":null,"lat":"49.03333000","lon":"37.56667000"},{"id":110581,"name":"Syedove","native":null,"lat":"47.07678000","lon":"38.15602000"},{"id":110595,"name":"Temriuk","native":null,"lat":"47.26857000","lon":"36.98115000"},{"id":110616,"name":"Toretsk","native":null,"lat":"48.39869000","lon":"37.84787000"},{"id":110659,"name":"Urzuf","native":null,"lat":"46.91562000","lon":"37.09961000"},{"id":110732,"name":"Volnovakha","native":null,"lat":"47.60103000","lon":"37.49674000"},{"id":110753,"name":"Vuhlehirs’k","native":null,"lat":"48.31474000","lon":"38.27423000"},{"id":110777,"name":"Yalta","native":null,"lat":"46.96279000","lon":"37.27365000"},{"id":110790,"name":"Yasynuvata","native":null,"lat":"48.12980000","lon":"37.85940000"},{"id":110791,"name":"Yasynuvata Raion","native":null,"lat":"48.16667000","lon":"37.83333000"},{"id":110796,"name":"Yenakiyeve","native":null,"lat":"48.23331000","lon":"38.21137000"},{"id":110867,"name":"Zuhres","native":null,"lat":"48.01140000","lon":"38.26444000"}]},{"id":4682,"name":"Ivano-Frankivska oblast","native":null,"cities":[{"id":109397,"name":"Bili Oslavy","native":null,"lat":"48.48722000","lon":"24.70078000"},{"id":109405,"name":"Bilshivtsi","native":null,"lat":"49.18333000","lon":"24.75000000"},{"id":109420,"name":"Bohorodchans’kyy Rayon","native":null,"lat":"48.72278000","lon":"24.38042000"},{"id":109421,"name":"Bohorodchany","native":null,"lat":"48.80700000","lon":"24.53834000"},{"id":109423,"name":"Bolekhiv","native":null,"lat":"49.06607000","lon":"23.86435000"},{"id":109424,"name":"Bolekhivs’ka Mis’krada","native":null,"lat":"49.06255000","lon":"23.84339000"},{"id":109433,"name":"Borshchevskiy Rayon","native":null,"lat":"48.75000000","lon":"26.00000000"},{"id":109447,"name":"Broshniv-Osada","native":null,"lat":"48.99621000","lon":"24.19748000"},{"id":109461,"name":"Burshtyn","native":null,"lat":"49.25867000","lon":"24.62777000"},{"id":109462,"name":"Burshtyns’ka Mis’krada","native":null,"lat":"49.25217000","lon":"24.63320000"},{"id":109466,"name":"Bystrytsya","native":null,"lat":"48.45931000","lon":"24.24545000"},{"id":109467,"name":"Bytkiv","native":null,"lat":"48.62968000","lon":"24.47398000"},{"id":109478,"name":"Chernelytsya","native":null,"lat":"48.81207000","lon":"25.42477000"},{"id":109488,"name":"Cherniyiv","native":null,"lat":"48.85658000","lon":"24.71388000"},{"id":109496,"name":"Chernyatyn","native":null,"lat":"48.66034000","lon":"25.44832000"},{"id":109512,"name":"Chornoliztsi","native":null,"lat":"48.83034000","lon":"24.89576000"},{"id":109533,"name":"Delyatyn","native":null,"lat":"48.52354000","lon":"24.62466000"},{"id":109565,"name":"Dolyna","native":null,"lat":"48.97330000","lon":"24.00944000"},{"id":109567,"name":"Dolyns’kyy Rayon","native":null,"lat":"48.89148000","lon":"23.84343000"},{"id":109625,"name":"Halych","native":null,"lat":"49.12179000","lon":"24.72578000"},{"id":109626,"name":"Halyts’kyy Rayon","native":null,"lat":"49.16169000","lon":"24.71797000"},{"id":109643,"name":"Horodenka","native":null,"lat":"48.67274000","lon":"25.50163000"},{"id":109644,"name":"Horodenkivs’kyy Rayon","native":null,"lat":"48.70617000","lon":"25.42008000"},{"id":109665,"name":"Hvizd","native":null,"lat":"48.68517000","lon":"24.55055000"},{"id":109683,"name":"Ivano-Frankivs’ka Mis’krada","native":null,"lat":"48.91177000","lon":"24.72831000"},{"id":109682,"name":"Ivano-Frankivsk","native":null,"lat":"48.92150000","lon":"24.70972000"},{"id":109703,"name":"Kalus’kyy Rayon","native":null,"lat":"49.06088000","lon":"24.38766000"},{"id":109702,"name":"Kalush","native":null,"lat":"49.01187000","lon":"24.37308000"},{"id":109745,"name":"Khymchyn","native":null,"lat":"48.38639000","lon":"25.14803000"},{"id":109776,"name":"Kolomyia","native":null,"lat":"48.53115000","lon":"25.03649000"},{"id":109777,"name":"Kolomyys’kyy Rayon","native":null,"lat":"48.58586000","lon":"24.99300000"},{"id":109807,"name":"Kosiv","native":null,"lat":"48.31071000","lon":"25.09575000"},{"id":109808,"name":"Kosivs’kyy Rayon","native":null,"lat":"48.32569000","lon":"24.98641000"},{"id":109809,"name":"Kosmach","native":null,"lat":"48.75089000","lon":"24.36731000"},{"id":109829,"name":"Krasna","native":null,"lat":"48.57571000","lon":"24.70027000"},{"id":109894,"name":"Kuty","native":null,"lat":"48.25868000","lon":"25.17946000"},{"id":109903,"name":"Lanchyn","native":null,"lat":"48.55781000","lon":"24.75622000"},{"id":109996,"name":"Manyava","native":null,"lat":"48.65541000","lon":"24.37537000"},{"id":110002,"name":"Markova","native":null,"lat":"48.67576000","lon":"24.41382000"},{"id":110078,"name":"Nadvirna","native":null,"lat":"48.63480000","lon":"24.56936000"},{"id":110079,"name":"Nadvirnyans’kyy Rayon","native":null,"lat":"48.55387000","lon":"24.50381000"},{"id":110086,"name":"Nebyliv","native":null,"lat":"48.81526000","lon":"24.21657000"},{"id":110158,"name":"Novytsya","native":null,"lat":"48.96345000","lon":"24.33542000"},{"id":110170,"name":"Obertyn","native":null,"lat":"48.70032000","lon":"25.17012000"},{"id":110212,"name":"Otyniya","native":null,"lat":"48.73767000","lon":"24.86111000"},{"id":110229,"name":"Pasichna","native":null,"lat":"48.57152000","lon":"24.43003000"},{"id":110234,"name":"Pechenizhyn","native":null,"lat":"48.51551000","lon":"24.89423000"},{"id":110255,"name":"Petranka","native":null,"lat":"48.90246000","lon":"24.30347000"},{"id":110279,"name":"Pniv","native":null,"lat":"48.61783000","lon":"24.52872000"},{"id":110303,"name":"Porohy","native":null,"lat":"48.68755000","lon":"24.26322000"},{"id":110335,"name":"Radcha","native":null,"lat":"48.85023000","lon":"24.65502000"},{"id":110350,"name":"Rechka","native":null,"lat":"48.28034000","lon":"24.93330000"},{"id":110360,"name":"Rohatyn","native":null,"lat":"49.40900000","lon":"24.60927000"},{"id":110361,"name":"Rohatyns’kyy Rayon","native":null,"lat":"49.38025000","lon":"24.57111000"},{"id":110378,"name":"Rozhniativ","native":null,"lat":"48.93576000","lon":"24.16379000"},{"id":110379,"name":"Rozhniv","native":null,"lat":"48.36597000","lon":"25.22580000"},{"id":110380,"name":"Rozhnyativs’kyy Rayon","native":null,"lat":"48.75890000","lon":"24.07588000"},{"id":110400,"name":"Sadzhavka","native":null,"lat":"48.56603000","lon":"24.78820000"},{"id":110441,"name":"Sheshory","native":null,"lat":"48.33197000","lon":"24.98329000"},{"id":110491,"name":"Sniatyn","native":null,"lat":"48.44692000","lon":"25.56937000"},{"id":110495,"name":"Snyatyns’kyy Rayon","native":null,"lat":"48.47674000","lon":"25.41153000"},{"id":110512,"name":"Solotvyn","native":null,"lat":"48.70212000","lon":"24.42212000"},{"id":110520,"name":"Spas","native":null,"lat":"48.88992000","lon":"24.06293000"},{"id":110529,"name":"Stari Bohorodchany","native":null,"lat":"48.83361000","lon":"24.52430000"},{"id":110530,"name":"Stari Kuty","native":null,"lat":"48.27093000","lon":"25.17293000"},{"id":110551,"name":"Stetseva","native":null,"lat":"48.52767000","lon":"25.57572000"},{"id":110571,"name":"Svarychiv","native":null,"lat":"48.96220000","lon":"24.19658000"},{"id":110593,"name":"Tatariv","native":null,"lat":"48.34558000","lon":"24.57836000"},{"id":110608,"name":"Tlumach","native":null,"lat":"48.86403000","lon":"25.00325000"},{"id":110609,"name":"Tlumats’kyy Rayon","native":null,"lat":"48.82924000","lon":"25.09055000"},{"id":110644,"name":"Tysmenychany","native":null,"lat":"48.77168000","lon":"24.66626000"},{"id":110646,"name":"Tysmenyts’kyy Rayon","native":null,"lat":"48.92246000","lon":"24.74486000"},{"id":110645,"name":"Tysmenytsya","native":null,"lat":"48.90219000","lon":"24.84482000"},{"id":110650,"name":"Uhryniv","native":null,"lat":"48.95520000","lon":"24.69292000"},{"id":110697,"name":"Velykyy Klyuchiv","native":null,"lat":"48.47092000","lon":"24.94677000"},{"id":110707,"name":"Verkhniy Yasenov","native":null,"lat":"48.16156000","lon":"24.94532000"},{"id":110712,"name":"Verkhovyna","native":null,"lat":"48.15571000","lon":"24.79112000"},{"id":110741,"name":"Vorokhta","native":null,"lat":"48.28459000","lon":"24.56536000"},{"id":110770,"name":"Yabluniv","native":null,"lat":"48.40418000","lon":"24.93874000"},{"id":110771,"name":"Yablunytsya","native":null,"lat":"48.31742000","lon":"24.48448000"},{"id":110779,"name":"Yamnytsya","native":null,"lat":"48.98972000","lon":"24.70750000"},{"id":110783,"name":"Yaremchans’ks Mis’krada","native":null,"lat":"48.33234000","lon":"24.57426000"},{"id":110784,"name":"Yaremche","native":null,"lat":"48.45157000","lon":"24.55436000"},{"id":110806,"name":"Zabolotiv","native":null,"lat":"48.47054000","lon":"25.28571000"},{"id":110809,"name":"Zahvizdya","native":null,"lat":"48.91836000","lon":"24.65275000"},{"id":110823,"name":"Zarichchya","native":null,"lat":"48.52144000","lon":"24.64857000"}]},{"id":4686,"name":"Kharkivska oblast","native":null,"cities":[{"id":109344,"name":"Balakliya","native":null,"lat":"49.46270000","lon":"36.85951000"},{"id":109352,"name":"Barvinkove","native":null,"lat":"48.90970000","lon":"37.02051000"},{"id":109380,"name":"Berezivka","native":null,"lat":"49.43935000","lon":"35.70736000"},{"id":109390,"name":"Bezlyudivka","native":null,"lat":"49.87547000","lon":"36.26539000"},{"id":109413,"name":"Blyznyuky","native":null,"lat":"48.85775000","lon":"36.55505000"},{"id":109419,"name":"Bohodukhiv","native":null,"lat":"50.16466000","lon":"35.52765000"},{"id":109432,"name":"Borova","native":null,"lat":"49.37770000","lon":"37.62136000"},{"id":109458,"name":"Budy","native":null,"lat":"49.89133000","lon":"36.02096000"},{"id":109469,"name":"Chapayeve","native":null,"lat":"49.36625000","lon":"35.87486000"},{"id":109504,"name":"Chervonyy Oskil","native":null,"lat":"49.17906000","lon":"37.42593000"},{"id":109522,"name":"Chuhuyiv","native":null,"lat":"49.83588000","lon":"36.68803000"},{"id":109539,"name":"Derhachi","native":null,"lat":"50.10659000","lon":"36.12112000"},{"id":109590,"name":"Dvorichna","native":null,"lat":"49.85019000","lon":"37.68262000"},{"id":109596,"name":"Eskhar","native":null,"lat":"49.79614000","lon":"36.59047000"},{"id":109663,"name":"Huty","native":null,"lat":"50.13322000","lon":"35.34394000"},{"id":109691,"name":"Izyum","native":null,"lat":"49.20875000","lon":"37.24849000"},{"id":109724,"name":"Kehychivka","native":null,"lat":"49.28656000","lon":"35.76153000"},{"id":109727,"name":"Kharkiv","native":null,"lat":"49.98081000","lon":"36.25272000"},{"id":109736,"name":"Khorosheve","native":null,"lat":"49.85413000","lon":"36.21704000"},{"id":109757,"name":"Kivsharivka","native":null,"lat":"49.63096000","lon":"37.68821000"},{"id":109767,"name":"Kochetok","native":null,"lat":"49.88005000","lon":"36.73723000"},{"id":109775,"name":"Kolomak","native":null,"lat":"49.83987000","lon":"35.30441000"},{"id":109804,"name":"Korotych","native":null,"lat":"49.94737000","lon":"36.03736000"},{"id":109838,"name":"Krasnohrad","native":null,"lat":"49.38009000","lon":"35.44186000"},{"id":109841,"name":"Krasnokuts’k","native":null,"lat":"50.06602000","lon":"35.16275000"},{"id":109843,"name":"Krasnopavlivka","native":null,"lat":"49.13643000","lon":"36.31911000"},{"id":109886,"name":"Kulynychi","native":null,"lat":"49.98178000","lon":"36.38283000"},{"id":109887,"name":"Kupjansk","native":null,"lat":"49.71055000","lon":"37.61517000"},{"id":109932,"name":"Lozova","native":null,"lat":"48.88937000","lon":"36.31755000"},{"id":109951,"name":"Lyman","native":null,"lat":"49.59769000","lon":"36.47030000"},{"id":109966,"name":"Lyubotyn","native":null,"lat":"49.94691000","lon":"35.92907000"},{"id":109979,"name":"Mala Danylivka","native":null,"lat":"50.06354000","lon":"36.16564000"},{"id":109990,"name":"Malynivka","native":null,"lat":"49.81667000","lon":"36.73333000"},{"id":109991,"name":"Manchenky","native":null,"lat":"49.97982000","lon":"35.85835000"},{"id":110023,"name":"Merefa","native":null,"lat":"49.82302000","lon":"36.05069000"},{"id":110110,"name":"Nova Vodolaha","native":null,"lat":"49.71901000","lon":"35.86578000"},{"id":110141,"name":"Novopokrovka","native":null,"lat":"49.83349000","lon":"36.54771000"},{"id":110222,"name":"Panyutyne","native":null,"lat":"48.93692000","lon":"36.27563000"},{"id":110242,"name":"Peresichna","native":null,"lat":"50.02452000","lon":"35.97871000"},{"id":110247,"name":"Pervomaiskyi Raion","native":null,"lat":"49.41667000","lon":"36.33333000"},{"id":110252,"name":"Pervomays’kyy","native":null,"lat":"49.38742000","lon":"36.21471000"},{"id":110257,"name":"Petrivs’ke","native":null,"lat":"49.17695000","lon":"36.89999000"},{"id":110275,"name":"Pivdenne","native":null,"lat":"49.88315000","lon":"36.06785000"},{"id":110290,"name":"Pokotylivka","native":null,"lat":"49.91343000","lon":"36.17511000"},{"id":110317,"name":"Prudyanka","native":null,"lat":"50.23606000","lon":"36.16835000"},{"id":110319,"name":"Prykolotne","native":null,"lat":"50.16273000","lon":"37.34524000"},{"id":110401,"name":"Sakhnovshchyna","native":null,"lat":"49.15166000","lon":"35.87198000"},{"id":110411,"name":"Savyntsi","native":null,"lat":"49.40257000","lon":"37.06266000"},{"id":110445,"name":"Shevchenkove","native":null,"lat":"49.69585000","lon":"37.17348000"},{"id":110476,"name":"Slatyne","native":null,"lat":"50.21041000","lon":"36.15376000"},{"id":110484,"name":"Slobozhans’ke","native":null,"lat":"49.59701000","lon":"36.52618000"},{"id":110511,"name":"Solonytsivka","native":null,"lat":"49.99682000","lon":"36.03464000"},{"id":110540,"name":"Staryy Merchyk","native":null,"lat":"49.98147000","lon":"35.75904000"},{"id":110541,"name":"Staryy Saltiv","native":null,"lat":"50.07619000","lon":"36.78852000"},{"id":110558,"name":"Studenok","native":null,"lat":"49.09107000","lon":"37.48697000"},{"id":110663,"name":"Utkivka","native":null,"lat":"49.78583000","lon":"36.07528000"},{"id":110670,"name":"Valky","native":null,"lat":"49.83597000","lon":"35.61223000"},{"id":110680,"name":"Vasyshcheve","native":null,"lat":"49.82852000","lon":"36.32691000"},{"id":110696,"name":"Velykyy Burluk","native":null,"lat":"50.06170000","lon":"37.38373000"},{"id":110699,"name":"Verbivka","native":null,"lat":"49.41667000","lon":"35.53333000"},{"id":110747,"name":"Vovchans’k","native":null,"lat":"50.29078000","lon":"36.94108000"},{"id":110754,"name":"Vvedenka","native":null,"lat":"49.82372000","lon":"36.50264000"},{"id":110768,"name":"Vysokyy","native":null,"lat":"49.89156000","lon":"36.12175000"},{"id":110807,"name":"Zachepylivka","native":null,"lat":"49.19385000","lon":"35.23943000"},{"id":110857,"name":"Zmiyiv","native":null,"lat":"49.67453000","lon":"36.34775000"},{"id":110859,"name":"Zolochiv","native":null,"lat":"50.27985000","lon":"35.98179000"}]},{"id":4684,"name":"Khersonska oblast","native":null,"cities":[{"id":109331,"name":"Askaniya-Nova","native":null,"lat":"46.45135000","lon":"33.86889000"},{"id":109361,"name":"Bekhtery","native":null,"lat":"46.24790000","lon":"32.29123000"},{"id":109388,"name":"Beryslav","native":null,"lat":"46.84152000","lon":"33.42838000"},{"id":109404,"name":"Bilozerka","native":null,"lat":"46.62480000","lon":"32.44251000"},{"id":109454,"name":"Brylivka","native":null,"lat":"46.42476000","lon":"33.14721000"},{"id":109472,"name":"Chaplynka","native":null,"lat":"46.36507000","lon":"33.54027000"},{"id":109511,"name":"Chornobayivka","native":null,"lat":"46.69411000","lon":"32.55371000"},{"id":109516,"name":"Chornyanka","native":null,"lat":"46.65222000","lon":"33.35904000"},{"id":109523,"name":"Chulakivka","native":null,"lat":"46.35763000","lon":"32.35140000"},{"id":109554,"name":"Dnipryany","native":null,"lat":"46.74631000","lon":"33.27288000"},{"id":109587,"name":"Dudchany","native":null,"lat":"47.18557000","lon":"33.76390000"},{"id":109628,"name":"Heniches’k","native":null,"lat":"46.17592000","lon":"34.80340000"},{"id":109629,"name":"Heniches’kyy Rayon","native":null,"lat":"46.26451000","lon":"34.74488000"},{"id":109636,"name":"Hola Prystan’","native":null,"lat":"46.52719000","lon":"32.52417000"},{"id":109642,"name":"Hornostayivka","native":null,"lat":"47.00777000","lon":"33.72899000"},{"id":109679,"name":"Ivanivka","native":null,"lat":"46.72082000","lon":"34.55298000"},{"id":109697,"name":"Kakhovka","native":null,"lat":"46.81371000","lon":"33.48698000"},{"id":109698,"name":"Kalanchak","native":null,"lat":"46.25623000","lon":"33.29070000"},{"id":109722,"name":"Kayiry","native":null,"lat":"46.94537000","lon":"33.70591000"},{"id":109729,"name":"Kherson","native":null,"lat":"46.65581000","lon":"32.61780000"},{"id":109786,"name":"Komyshany","native":null,"lat":"46.63716000","lon":"32.50719000"},{"id":109823,"name":"Kozachi Laheri","native":null,"lat":"46.70372000","lon":"32.97760000"},{"id":109833,"name":"Krasne","native":null,"lat":"46.13088000","lon":"32.76910000"},{"id":109907,"name":"Lazurne","native":null,"lat":"46.08400000","lon":"32.52955000"},{"id":109967,"name":"Lyubymivka","native":null,"lat":"46.81063000","lon":"33.56862000"},{"id":109983,"name":"Malokakhovka","native":null,"lat":"46.78142000","lon":"33.44790000"},{"id":110104,"name":"Nova Kakhovka","native":null,"lat":"46.75451000","lon":"33.34864000"},{"id":110105,"name":"Nova Mayachka","native":null,"lat":"46.59996000","lon":"33.22707000"},{"id":110125,"name":"Novofedorivka","native":null,"lat":"46.17128000","lon":"32.31781000"},{"id":110137,"name":"Novooleksiyivka","native":null,"lat":"46.22472000","lon":"34.64031000"},{"id":110153,"name":"Novovorontsovka","native":null,"lat":"47.50035000","lon":"33.91748000"},{"id":110165,"name":"Nyzhni Sirohozy","native":null,"lat":"46.84842000","lon":"34.38044000"},{"id":110227,"name":"Partyzany","native":null,"lat":"46.33383000","lon":"34.75314000"},{"id":110336,"name":"Radens’k","native":null,"lat":"46.54860000","lon":"32.92787000"},{"id":110466,"name":"Skadovs’k","native":null,"lat":"46.11610000","lon":"32.91124000"},{"id":110525,"name":"Stanislav","native":null,"lat":"46.56909000","lon":"32.14777000"},{"id":110634,"name":"Tsyurupyns’k","native":null,"lat":"46.61842000","lon":"32.71890000"},{"id":110685,"name":"Velyka Lepetykha","native":null,"lat":"47.17572000","lon":"33.94362000"},{"id":110687,"name":"Velyka Oleksandrivka","native":null,"lat":"47.31969000","lon":"33.30373000"},{"id":110690,"name":"Velyki Kopani","native":null,"lat":"46.48684000","lon":"32.97498000"},{"id":110706,"name":"Verkhniy Rohachyk","native":null,"lat":"47.25053000","lon":"34.33797000"},{"id":110760,"name":"Vynohradove","native":null,"lat":"46.36957000","lon":"32.93980000"},{"id":110767,"name":"Vysokopillya","native":null,"lat":"47.49187000","lon":"33.53061000"},{"id":110817,"name":"Zaliznyy Port","native":null,"lat":"46.12337000","lon":"32.29892000"}]},{"id":4681,"name":"Khmelnytska oblast","native":null,"cities":[{"id":109322,"name":"Antoniny","native":null,"lat":"49.80974000","lon":"26.87714000"},{"id":109360,"name":"Bazaliya","native":null,"lat":"49.71267000","lon":"26.47331000"},{"id":109537,"name":"Derazhnya","native":null,"lat":"49.26920000","lon":"27.43382000"},{"id":109538,"name":"Derazhnyans’kyy Rayon","native":null,"lat":"49.22676000","lon":"27.46603000"},{"id":109589,"name":"Dunaivtsi","native":null,"lat":"48.88909000","lon":"26.85636000"},{"id":109650,"name":"Horodok","native":null,"lat":"49.16374000","lon":"26.58394000"},{"id":109690,"name":"Izyaslav","native":null,"lat":"50.11947000","lon":"26.82125000"},{"id":109708,"name":"Kamianets-Podilskyi","native":null,"lat":"48.68450000","lon":"26.58559000"},{"id":109731,"name":"Khmel’nyts’kyy Rayon","native":null,"lat":"49.44511000","lon":"26.93268000"},{"id":109730,"name":"Khmelnytskyi","native":null,"lat":"49.42161000","lon":"26.99653000"},{"id":109856,"name":"Krasyliv","native":null,"lat":"49.65186000","lon":"26.97253000"},{"id":109916,"name":"Letychiv","native":null,"lat":"49.38263000","lon":"27.63051000"},{"id":109975,"name":"Makiv","native":null,"lat":"48.79487000","lon":"26.69188000"},{"id":110015,"name":"Medzhybizh","native":null,"lat":"49.43748000","lon":"27.40487000"},{"id":110080,"name":"Narkevychi","native":null,"lat":"49.51717000","lon":"26.64178000"},{"id":110093,"name":"Netishyn","native":null,"lat":"50.34004000","lon":"26.64171000"},{"id":110109,"name":"Nova Ushytsya","native":null,"lat":"48.83716000","lon":"27.27434000"},{"id":110146,"name":"Novoselytsya","native":null,"lat":"50.07030000","lon":"27.51955000"},{"id":110294,"name":"Polonne","native":null,"lat":"50.12424000","lon":"27.51087000"},{"id":110299,"name":"Poninka","native":null,"lat":"50.18492000","lon":"27.53629000"},{"id":110440,"name":"Shepetivka","native":null,"lat":"50.18545000","lon":"27.06365000"},{"id":110479,"name":"Slavuta","native":null,"lat":"50.30155000","lon":"26.86506000"},{"id":110489,"name":"Smotrych","native":null,"lat":"48.66149000","lon":"26.56031000"},{"id":110490,"name":"Smyga","native":null,"lat":"50.23910000","lon":"25.76575000"},{"id":110527,"name":"Stara Syniava","native":null,"lat":"49.60318000","lon":"27.61909000"},{"id":110533,"name":"Starokostiantyniv","native":null,"lat":"49.75764000","lon":"27.20342000"},{"id":110787,"name":"Yarmolyntsi","native":null,"lat":"49.19236000","lon":"26.83725000"},{"id":110811,"name":"Zakupne","native":null,"lat":"49.11944000","lon":"26.33756000"},{"id":110851,"name":"Zhvanets","native":null,"lat":"48.54968000","lon":"26.48744000"}]},{"id":4677,"name":"Kirovohradska oblast","native":null,"cities":[{"id":109307,"name":"Adzhamka","native":null,"lat":"48.54245000","lon":"32.53542000"},{"id":109411,"name":"Blahovishchenske Raion","native":null,"lat":"48.25000000","lon":"30.25000000"},{"id":109416,"name":"Bobrynets","native":null,"lat":"48.05896000","lon":"32.16641000"},{"id":109544,"name":"Dmytrivka","native":null,"lat":"48.79690000","lon":"32.71645000"},{"id":109558,"name":"Dobrovelychkivka","native":null,"lat":"48.38778000","lon":"31.18028000"},{"id":109559,"name":"Dobrovelychkivs’kyy Rayon","native":null,"lat":"48.36935000","lon":"31.16354000"},{"id":109566,"name":"Dolyns'ka","native":null,"lat":"48.11041000","lon":"32.76449000"},{"id":109568,"name":"Dolyns’kyy Rayon","native":null,"lat":"48.16327000","lon":"32.88318000"},{"id":109627,"name":"Hayvoron","native":null,"lat":"48.33958000","lon":"29.86791000"},{"id":109715,"name":"Kapitanivka","native":null,"lat":"48.91719000","lon":"31.71671000"},{"id":109751,"name":"Kirovohrads’ka Mis’krada","native":null,"lat":"48.52185000","lon":"32.24367000"},{"id":109783,"name":"Kompaniyivka","native":null,"lat":"48.25115000","lon":"32.20795000"},{"id":109867,"name":"Kropyvnytskyi","native":null,"lat":"48.51320000","lon":"32.25970000"},{"id":109934,"name":"Lozuvatka","native":null,"lat":"48.05710000","lon":"33.28581000"},{"id":109955,"name":"Lypnyazhka","native":null,"lat":"48.44694000","lon":"31.07611000"},{"id":109981,"name":"Mala Vyska","native":null,"lat":"48.64308000","lon":"31.63657000"},{"id":109986,"name":"Malovyskivs’kyy Rayon","native":null,"lat":"48.57680000","lon":"31.57594000"},{"id":110048,"name":"Molodizhne","native":null,"lat":"48.17732000","lon":"32.66015000"},{"id":110107,"name":"Nova Praha","native":null,"lat":"48.56821000","lon":"32.90273000"},{"id":110114,"name":"Novhorodka","native":null,"lat":"48.36506000","lon":"32.65785000"},{"id":110119,"name":"Novoarkhanhel’s’k","native":null,"lat":"48.65803000","lon":"30.81821000"},{"id":110135,"name":"Novomyrhorod","native":null,"lat":"48.78105000","lon":"31.64204000"},{"id":110150,"name":"Novoukrayinka","native":null,"lat":"48.32635000","lon":"31.52852000"},{"id":110160,"name":"Novyy Starodub","native":null,"lat":"48.51580000","lon":"33.17329000"},{"id":110186,"name":"Oleksandrivka","native":null,"lat":"48.96336000","lon":"32.23492000"},{"id":110189,"name":"Oleksandriya","native":null,"lat":"48.66961000","lon":"33.11593000"},{"id":110190,"name":"Oleksandriys’ke","native":null,"lat":"48.60767000","lon":"32.98347000"},{"id":110198,"name":"Onufriyivka","native":null,"lat":"48.90716000","lon":"33.44869000"},{"id":110221,"name":"Pantayivka","native":null,"lat":"48.67400000","lon":"32.88410000"},{"id":110233,"name":"Pavlysh","native":null,"lat":"48.91762000","lon":"33.35691000"},{"id":110238,"name":"Perehonivka","native":null,"lat":"48.53552000","lon":"30.51923000"},{"id":110259,"name":"Petrove","native":null,"lat":"48.32467000","lon":"33.25617000"},{"id":110281,"name":"Pobugskoye","native":null,"lat":"48.16579000","lon":"30.59274000"},{"id":110297,"name":"Pomichna","native":null,"lat":"48.24222000","lon":"31.41583000"},{"id":110325,"name":"Pryyutivka","native":null,"lat":"48.72094000","lon":"33.07078000"},{"id":110355,"name":"Rivne","native":null,"lat":"48.24742000","lon":"31.75432000"},{"id":110559,"name":"Subottsi","native":null,"lat":"48.65545000","lon":"32.52093000"},{"id":110577,"name":"Svitlovods’k","native":null,"lat":"49.04894000","lon":"33.24106000"},{"id":110643,"name":"Tyshkivka","native":null,"lat":"48.49665000","lon":"30.94229000"},{"id":110662,"name":"Ustynivka","native":null,"lat":"47.95507000","lon":"32.53674000"},{"id":110793,"name":"Yelyzavethradka","native":null,"lat":"48.80381000","lon":"32.40460000"},{"id":110828,"name":"Zavallya","native":null,"lat":"48.21354000","lon":"30.01558000"},{"id":110856,"name":"Zlynka","native":null,"lat":"48.48521000","lon":"31.53906000"},{"id":110858,"name":"Znomenka","native":null,"lat":"48.71278000","lon":"32.66472000"}]},{"id":4676,"name":"Kyiv","native":null,"cities":[{"id":109529,"name":"Darnytsia Raion","native":null,"lat":"50.41333000","lon":"30.69305000"},{"id":109541,"name":"Desnyans’kyy Rayon","native":null,"lat":"50.53550000","lon":"30.60875000"},{"id":109550,"name":"Dnipro Raion","native":null,"lat":"50.46756000","lon":"30.63194000"},{"id":109637,"name":"Holosiiv Raion","native":null,"lat":"50.32749000","lon":"30.56740000"},{"id":109819,"name":"Kotsyubyns’ke","native":null,"lat":"50.48836000","lon":"30.32957000"},{"id":109897,"name":"Kyiv","native":null,"lat":"50.45466000","lon":"30.52380000"},{"id":110235,"name":"Pechersk Raion","native":null,"lat":"50.41902000","lon":"30.56602000"},{"id":110286,"name":"Podil’s’kyy Rayon","native":null,"lat":"50.45000000","lon":"30.53333000"},{"id":110313,"name":"Prolisky","native":null,"lat":"50.39118000","lon":"30.78000000"},{"id":110442,"name":"Shevchenkivs’kyy Rayon","native":null,"lat":"50.43333000","lon":"30.51667000"},{"id":110507,"name":"Solomianka Rayon","native":null,"lat":"50.42886000","lon":"30.45135000"},{"id":110580,"name":"Svyatoshyns’kyy Rayon","native":null,"lat":"50.48533000","lon":"30.38050000"}]},{"id":4671,"name":"Kyivska oblast","native":null,"cities":[{"id":109353,"name":"Baryshivka","native":null,"lat":"50.36098000","lon":"31.32173000"},{"id":109354,"name":"Baryshivs’kyy Rayon","native":null,"lat":"50.36919000","lon":"31.34896000"},{"id":109393,"name":"Bila Tserkva","native":null,"lat":"49.80939000","lon":"30.11209000"},{"id":109394,"name":"Bila Tserkva Raion","native":null,"lat":"49.75000000","lon":"30.08333000"},{"id":109422,"name":"Bohuslav","native":null,"lat":"49.54939000","lon":"30.87440000"},{"id":109426,"name":"Borispol’skiy Rayon","native":null,"lat":"50.33450000","lon":"31.02470000"},{"id":109427,"name":"Borodianka","native":null,"lat":"50.64484000","lon":"29.92010000"},{"id":109429,"name":"Borodyans’kyy Rayon","native":null,"lat":"50.65889000","lon":"29.88556000"},{"id":109431,"name":"Borova","native":null,"lat":"50.17625000","lon":"30.10429000"},{"id":109436,"name":"Boryspil’","native":null,"lat":"50.35269000","lon":"30.95501000"},{"id":109440,"name":"Boyarka","native":null,"lat":"50.31911000","lon":"30.29728000"},{"id":109449,"name":"Brovary","native":null,"lat":"50.51809000","lon":"30.80671000"},{"id":109450,"name":"Brovary Raion","native":null,"lat":"50.58333000","lon":"31.00000000"},{"id":109456,"name":"Bucha","native":null,"lat":"50.54345000","lon":"30.21201000"},{"id":109468,"name":"Chabany","native":null,"lat":"50.34071000","lon":"30.42356000"},{"id":109494,"name":"Chernyakhivka","native":null,"lat":"50.21882000","lon":"31.93082000"},{"id":109591,"name":"Dymer","native":null,"lat":"50.78647000","lon":"30.30260000"},{"id":109597,"name":"Fastiv","native":null,"lat":"50.07670000","lon":"29.91770000"},{"id":109598,"name":"Fastiv Raion","native":null,"lat":"50.08333000","lon":"30.00000000"},{"id":109631,"name":"Hlevakha","native":null,"lat":"50.27423000","lon":"30.32706000"},{"id":109635,"name":"Hnidyn","native":null,"lat":"50.32899000","lon":"30.71059000"},{"id":109639,"name":"Horenka","native":null,"lat":"50.55731000","lon":"30.33217000"},{"id":109655,"name":"Hostomel","native":null,"lat":"50.56841000","lon":"30.26510000"},{"id":109672,"name":"Irpin","native":null,"lat":"50.52175000","lon":"30.25055000"},{"id":109673,"name":"Irpins’ka Mis’krada","native":null,"lat":"50.51585000","lon":"30.24099000"},{"id":109680,"name":"Ivankiv","native":null,"lat":"50.93865000","lon":"29.89426000"},{"id":109681,"name":"Ivankiv Raion","native":null,"lat":"51.00000000","lon":"29.91667000"},{"id":109695,"name":"Kaharlyk","native":null,"lat":"49.86233000","lon":"30.82815000"},{"id":109696,"name":"Kaharlyk Raion","native":null,"lat":"49.91667000","lon":"30.75000000"},{"id":109705,"name":"Kalynove","native":null,"lat":"49.38179000","lon":"30.45137000"},{"id":109716,"name":"Karapyshi","native":null,"lat":"49.64237000","lon":"30.79002000"},{"id":109720,"name":"Katyuzhanka","native":null,"lat":"50.80595000","lon":"30.13763000"},{"id":109739,"name":"Khotiv","native":null,"lat":"50.33069000","lon":"30.46836000"},{"id":109749,"name":"Kirove","native":null,"lat":"50.36890000","lon":"31.12066000"},{"id":109758,"name":"Klavdiyevo-Tarasove","native":null,"lat":"50.58416000","lon":"30.01134000"},{"id":109764,"name":"Knyazhichi","native":null,"lat":"50.46275000","lon":"30.78369000"},{"id":109768,"name":"Kodra","native":null,"lat":"50.59488000","lon":"29.55873000"},{"id":109797,"name":"Korniyivka","native":null,"lat":"50.41661000","lon":"31.46261000"},{"id":109825,"name":"Kozhanka","native":null,"lat":"49.97231000","lon":"29.76424000"},{"id":109855,"name":"Krasyatychi","native":null,"lat":"51.07636000","lon":"29.64899000"},{"id":109865,"name":"Kriukivschina","native":null,"lat":"50.37153000","lon":"30.36861000"},{"id":109874,"name":"Kryva Hora","native":null,"lat":"51.38495000","lon":"30.19978000"},{"id":109900,"name":"Kyyevo-Svyatoshyns’kyy Rayon","native":null,"lat":"50.38530000","lon":"30.23129000"},{"id":109925,"name":"Liutizh","native":null,"lat":"50.68350000","lon":"30.39324000"},{"id":109972,"name":"Makariv","native":null,"lat":"50.46408000","lon":"29.81128000"},{"id":109973,"name":"Makariv Raion","native":null,"lat":"50.50000000","lon":"29.75000000"},{"id":110035,"name":"Mirovka","native":null,"lat":"49.93126000","lon":"30.62309000"},{"id":110057,"name":"Motovylivka","native":null,"lat":"50.15821000","lon":"30.07421000"},{"id":110076,"name":"Myronivka","native":null,"lat":"49.66007000","lon":"30.98225000"},{"id":110116,"name":"Novi Petrivtsi","native":null,"lat":"50.62754000","lon":"30.44310000"},{"id":110173,"name":"Obukhiv","native":null,"lat":"50.10689000","lon":"30.61848000"},{"id":110174,"name":"Obukhiv Raion","native":null,"lat":"50.16667000","lon":"30.66667000"},{"id":110175,"name":"Obukhivs’ka Mis’krada","native":null,"lat":"50.11425000","lon":"30.63293000"},{"id":110239,"name":"Pereiaslav-Khmelnytskyi","native":null,"lat":"50.06739000","lon":"31.44969000"},{"id":110240,"name":"Pereiaslav-Khmelnytskyi Raion","native":null,"lat":"50.08333000","lon":"31.50000000"},{"id":110274,"name":"Piskivka","native":null,"lat":"50.69378000","lon":"29.61934000"},{"id":110287,"name":"Pohreby","native":null,"lat":"50.55453000","lon":"30.64455000"},{"id":110327,"name":"Pukhivka","native":null,"lat":"50.60970000","lon":"30.71770000"},{"id":110363,"name":"Rokytne","native":null,"lat":"49.68665000","lon":"30.47384000"},{"id":110365,"name":"Rokytne Raion","native":null,"lat":"49.75000000","lon":"30.50000000"},{"id":110373,"name":"Roskoshnyy","native":null,"lat":"49.37087000","lon":"30.18471000"},{"id":110398,"name":"Rzhyshchiv","native":null,"lat":"49.96886000","lon":"31.04628000"},{"id":110417,"name":"Semypolky","native":null,"lat":"50.72627000","lon":"30.93441000"},{"id":110474,"name":"Skvyra","native":null,"lat":"49.73177000","lon":"29.66569000"},{"id":110475,"name":"Skvyrs’kyy Rayon","native":null,"lat":"49.74177000","lon":"29.70043000"},{"id":110480,"name":"Slavutych","native":null,"lat":"51.52250000","lon":"30.71806000"},{"id":110499,"name":"Sofiyivska Borschagivka","native":null,"lat":"50.41005000","lon":"30.36724000"},{"id":110543,"name":"Stavyshche","native":null,"lat":"49.39124000","lon":"30.19022000"},{"id":110545,"name":"Stayki","native":null,"lat":"50.07818000","lon":"30.90380000"},{"id":110590,"name":"Tarashcha","native":null,"lat":"49.55832000","lon":"30.49259000"},{"id":110606,"name":"Tetiiv","native":null,"lat":"49.37670000","lon":"29.66474000"},{"id":110620,"name":"Trebukhiv","native":null,"lat":"50.48432000","lon":"30.90304000"},{"id":110624,"name":"Trypillia","native":null,"lat":"50.11802000","lon":"30.78141000"},{"id":110632,"name":"Tsybli","native":null,"lat":"49.99484000","lon":"31.56281000"},{"id":110651,"name":"Ukrainka","native":null,"lat":"50.14317000","lon":"30.74612000"},{"id":110669,"name":"Uzyn","native":null,"lat":"49.82619000","lon":"30.41487000"},{"id":110678,"name":"Vasylkiv","native":null,"lat":"50.18693000","lon":"30.31346000"},{"id":110679,"name":"Vasylkiv Raion","native":null,"lat":"50.16667000","lon":"30.33333000"},{"id":110684,"name":"Velyka Dymerka","native":null,"lat":"50.59333000","lon":"30.90313000"},{"id":110733,"name":"Volodarka","native":null,"lat":"49.52484000","lon":"29.91222000"},{"id":110742,"name":"Voronkov","native":null,"lat":"50.22235000","lon":"30.89967000"},{"id":110745,"name":"Vorzel’","native":null,"lat":"50.54440000","lon":"30.15305000"},{"id":110762,"name":"Vyshgorodskiy Rayon","native":null,"lat":"50.58333000","lon":"30.50000000"},{"id":110763,"name":"Vyshhorod","native":null,"lat":"50.58476000","lon":"30.48980000"},{"id":110765,"name":"Vyshneve","native":null,"lat":"50.38913000","lon":"30.37050000"},{"id":110773,"name":"Yahotyn","native":null,"lat":"50.27975000","lon":"31.76246000"},{"id":110774,"name":"Yahotyns’kyy Rayon","native":null,"lat":"50.25722000","lon":"31.89456000"},{"id":110872,"name":"Z·hurivs’kyy Rayon","native":null,"lat":"50.47192000","lon":"31.79423000"},{"id":110839,"name":"Zgurovka","native":null,"lat":"50.50276000","lon":"31.78492000"}]},{"id":4673,"name":"Luhanska oblast","native":null,"cities":[{"id":109311,"name":"Alchevs’k","native":null,"lat":"48.46893000","lon":"38.81669000"},{"id":109312,"name":"Alchevs’ka Mis’krada","native":null,"lat":"48.48029000","lon":"38.79690000"},{"id":109323,"name":"Antratsyt","native":null,"lat":"48.11503000","lon":"39.09128000"},{"id":109324,"name":"Antratsytivs’kyy Rayon","native":null,"lat":"48.12450000","lon":"39.05683000"},{"id":109329,"name":"Artemivs’k","native":null,"lat":"48.44061000","lon":"38.73200000"},{"id":109359,"name":"Bayrachky","native":null,"lat":"48.39200000","lon":"38.60174000"},{"id":109395,"name":"Bile","native":null,"lat":"48.49523000","lon":"39.05051000"},{"id":109400,"name":"Bilohorivka","native":null,"lat":"48.92503000","lon":"38.24822000"},{"id":109401,"name":"Bilokurakyne","native":null,"lat":"49.53410000","lon":"38.73067000"},{"id":109403,"name":"Bilovods'k","native":null,"lat":"49.20846000","lon":"39.58975000"},{"id":109408,"name":"Biryukove","native":null,"lat":"47.95631000","lon":"39.73843000"},{"id":109453,"name":"Bryanka","native":null,"lat":"48.51100000","lon":"38.67222000"},{"id":109460,"name":"Buran","native":null,"lat":"48.30003000","lon":"39.61526000"},{"id":109502,"name":"Chervonopartyzans’k","native":null,"lat":"48.07613000","lon":"39.79618000"},{"id":109515,"name":"Chornukhyne","native":null,"lat":"48.32339000","lon":"38.52272000"},{"id":109574,"name":"Dovzhanskyy Rayon","native":null,"lat":"48.00000000","lon":"39.66667000"},{"id":109630,"name":"Hirs’ke","native":null,"lat":"48.73468000","lon":"38.49541000"},{"id":109693,"name":"Kadiyivka","native":null,"lat":"48.56818000","lon":"38.64352000"},{"id":109754,"name":"Kirovs’k","native":null,"lat":"48.63751000","lon":"38.64280000"},{"id":109755,"name":"Kirovs’ka Mis’krada","native":null,"lat":"48.63485000","lon":"38.64753000"},{"id":109760,"name":"Klenovyy","native":null,"lat":"48.11934000","lon":"39.45880000"},{"id":109853,"name":"Krasnyy Kut","native":null,"lat":"48.20138000","lon":"38.79765000"},{"id":109854,"name":"Krasnyy Luch","native":null,"lat":"48.13954000","lon":"38.93715000"},{"id":109860,"name":"Kreminna","native":null,"lat":"49.04950000","lon":"38.21792000"},{"id":109864,"name":"Kripens’kyy","native":null,"lat":"48.07709000","lon":"39.05800000"},{"id":109911,"name":"Lenina","native":null,"lat":"48.42944000","lon":"39.14556000"},{"id":109931,"name":"Lozno-Oleksandrivka","native":null,"lat":"49.83910000","lon":"38.74098000"},{"id":109939,"name":"Luhans’ka Mis’krada","native":null,"lat":"48.58083000","lon":"39.35478000"},{"id":109938,"name":"Luhansk","native":null,"lat":"48.56705000","lon":"39.31706000"},{"id":109945,"name":"Lutuhyne","native":null,"lat":"48.40507000","lon":"39.22675000"},{"id":109946,"name":"Lutuhyns’kyy Rayon","native":null,"lat":"48.38509000","lon":"39.21209000"},{"id":109960,"name":"Lysychans’k","native":null,"lat":"48.90485000","lon":"38.44207000"},{"id":109974,"name":"Makariv Yar","native":null,"lat":"48.57768000","lon":"39.71944000"},{"id":110001,"name":"Markivka","native":null,"lat":"49.52290000","lon":"39.57055000"},{"id":110030,"name":"Millerovo","native":null,"lat":"48.16829000","lon":"39.16537000"},{"id":110031,"name":"Milove","native":null,"lat":"49.37528000","lon":"40.13222000"},{"id":110038,"name":"Miusyns’k","native":null,"lat":"48.07750000","lon":"38.90364000"},{"id":110049,"name":"Molodohvardiys’k","native":null,"lat":"48.34511000","lon":"39.65244000"},{"id":110143,"name":"Novopskov","native":null,"lat":"49.54640000","lon":"39.08987000"},{"id":110166,"name":"Nyzhnya Duvanka","native":null,"lat":"49.58464000","lon":"38.17429000"},{"id":110231,"name":"Pavlivka","native":null,"lat":"49.60864000","lon":"38.70917000"},{"id":110244,"name":"Pereval’s’k","native":null,"lat":"48.43779000","lon":"38.84384000"},{"id":110250,"name":"Pervomays’k","native":null,"lat":"48.62988000","lon":"38.54806000"},{"id":110300,"name":"Popasna","native":null,"lat":"48.63328000","lon":"38.37804000"},{"id":110324,"name":"Pryvillya","native":null,"lat":"49.01501000","lon":"38.30457000"},{"id":110374,"name":"Roven’ky","native":null,"lat":"48.08331000","lon":"39.37764000"},{"id":110384,"name":"Rozkishne","native":null,"lat":"48.48959000","lon":"39.27881000"},{"id":110387,"name":"Rubizhans’ka Mis’krada","native":null,"lat":"49.01460000","lon":"38.38909000"},{"id":110388,"name":"Rubizhne","native":null,"lat":"49.01229000","lon":"38.37967000"},{"id":110433,"name":"Shchastya","native":null,"lat":"48.73963000","lon":"39.23230000"},{"id":110460,"name":"Simeykyne","native":null,"lat":"48.32643000","lon":"39.53366000"},{"id":110485,"name":"Slov`yanoserbsk","native":null,"lat":"48.69779000","lon":"38.98133000"},{"id":110514,"name":"Sorokyne","native":null,"lat":"48.29235000","lon":"39.73921000"},{"id":110515,"name":"Sorokyns'kyi Rayon","native":null,"lat":"48.33333000","lon":"39.75000000"},{"id":110526,"name":"Stanytsya Luhans’ka","native":null,"lat":"48.65433000","lon":"39.47943000"},{"id":110532,"name":"Starobil’s’k","native":null,"lat":"49.27832000","lon":"38.91069000"},{"id":110572,"name":"Svatove","native":null,"lat":"49.41029000","lon":"38.15035000"},{"id":110573,"name":"Sverdlovs’k","native":null,"lat":"48.08964000","lon":"39.65243000"},{"id":110574,"name":"Sverdlovs’ka Mis’krada","native":null,"lat":"48.06850000","lon":"39.58057000"},{"id":110582,"name":"Syevyerodonets’k","native":null,"lat":"48.94832000","lon":"38.49166000"},{"id":110597,"name":"Teple","native":null,"lat":"48.31245000","lon":"39.56284000"},{"id":110618,"name":"Toshkivka","native":null,"lat":"48.77914000","lon":"38.57903000"},{"id":110625,"name":"Tr’okhizbenka","native":null,"lat":"48.75751000","lon":"38.96333000"},{"id":110657,"name":"Uralo-Kavkaz","native":null,"lat":"48.32110000","lon":"39.80302000"},{"id":110661,"name":"Uspenka","native":null,"lat":"48.39077000","lon":"39.16284000"},{"id":110812,"name":"Zalesnoye","native":null,"lat":"48.03104000","lon":"38.80934000"},{"id":110866,"name":"Zoryns’k","native":null,"lat":"48.41194000","lon":"38.62361000"},{"id":110871,"name":"Zymohiria","native":null,"lat":"48.58528000","lon":"38.93750000"}]},{"id":4672,"name":"Lvivska oblast","native":null,"cities":[{"id":109366,"name":"Belz","native":null,"lat":"50.38226000","lon":"24.00642000"},{"id":109391,"name":"Bibrka","native":null,"lat":"49.64093000","lon":"24.28874000"},{"id":109435,"name":"Boryslav","native":null,"lat":"49.28672000","lon":"23.43238000"},{"id":109446,"name":"Brody","native":null,"lat":"50.08791000","lon":"25.15027000"},{"id":109455,"name":"Bryukhovychi","native":null,"lat":"49.90467000","lon":"23.95969000"},{"id":109500,"name":"Chervonohrad","native":null,"lat":"50.39105000","lon":"24.23514000"},{"id":109534,"name":"Demnya","native":null,"lat":"49.56738000","lon":"23.94607000"},{"id":109555,"name":"Dobromyl’","native":null,"lat":"49.57193000","lon":"22.78629000"},{"id":109578,"name":"Drohobych","native":null,"lat":"49.34991000","lon":"23.50561000"},{"id":109583,"name":"Dublyany","native":null,"lat":"49.90411000","lon":"24.08637000"},{"id":109588,"name":"Duliby","native":null,"lat":"49.23134000","lon":"23.81532000"},{"id":109594,"name":"Dzvinogrud","native":null,"lat":"49.73333000","lon":"24.25000000"},{"id":109634,"name":"Hlyns'k","native":null,"lat":"50.06033000","lon":"23.89956000"},{"id":109648,"name":"Horodok","native":null,"lat":"49.78465000","lon":"23.64806000"},{"id":109684,"name":"Ivano-Frankove","native":null,"lat":"49.91978000","lon":"23.72913000"},{"id":109733,"name":"Khodoriv","native":null,"lat":"49.40993000","lon":"24.30470000"},{"id":109746,"name":"Khyriv","native":null,"lat":"49.53417000","lon":"22.85538000"},{"id":109782,"name":"Komarno","native":null,"lat":"49.62739000","lon":"23.69952000"},{"id":109832,"name":"Krasne","native":null,"lat":"49.91447000","lon":"24.61340000"},{"id":109884,"name":"Kulykiv","native":null,"lat":"49.97954000","lon":"24.07817000"},{"id":109929,"name":"Lopatyn","native":null,"lat":"50.22022000","lon":"24.84831000"},{"id":109948,"name":"Lviv","native":null,"lat":"49.83826000","lon":"24.02324000"},{"id":110012,"name":"Medenychi","native":null,"lat":"49.43055000","lon":"23.75073000"},{"id":110052,"name":"Morshyn","native":null,"lat":"49.15652000","lon":"23.87232000"},{"id":110056,"name":"Mostys'ka","native":null,"lat":"49.79467000","lon":"23.15077000"},{"id":110062,"name":"Murovane","native":null,"lat":"49.52143000","lon":"22.93670000"},{"id":110070,"name":"Mykolaiv","native":null,"lat":"49.52372000","lon":"23.98522000"},{"id":110084,"name":"Navaria","native":null,"lat":"49.74952000","lon":"23.92746000"},{"id":110154,"name":"Novoyavorivs'k","native":null,"lat":"49.93023000","lon":"23.57357000"},{"id":110157,"name":"Novyi Yarychiv","native":null,"lat":"49.90444000","lon":"24.30523000"},{"id":110172,"name":"Obroshyne","native":null,"lat":"49.78333000","lon":"23.86667000"},{"id":110193,"name":"Olesko","native":null,"lat":"49.96233000","lon":"24.89336000"},{"id":110241,"name":"Peremyshlyany","native":null,"lat":"49.66523000","lon":"24.55846000"},{"id":110264,"name":"Pidbuzh","native":null,"lat":"49.33483000","lon":"23.24887000"},{"id":110266,"name":"Pidhirtsi","native":null,"lat":"49.94611000","lon":"24.97950000"},{"id":110269,"name":"Pidkamin’","native":null,"lat":"49.94599000","lon":"25.31672000"},{"id":110278,"name":"Pnikut","native":null,"lat":"49.71104000","lon":"23.13826000"},{"id":110298,"name":"Pomoriany","native":null,"lat":"49.64092000","lon":"24.93070000"},{"id":110306,"name":"Potelych","native":null,"lat":"50.20804000","lon":"23.54674000"},{"id":110330,"name":"Pustomyty","native":null,"lat":"49.71532000","lon":"23.91295000"},{"id":110344,"name":"Ralivka","native":null,"lat":"49.49982000","lon":"23.23739000"},{"id":110347,"name":"Rava-Rus’ka","native":null,"lat":"50.23079000","lon":"23.62825000"},{"id":110352,"name":"Richky","native":null,"lat":"50.27706000","lon":"23.64617000"},{"id":110357,"name":"Rodatychi","native":null,"lat":"49.79862000","lon":"23.53336000"},{"id":110376,"name":"Rozdil","native":null,"lat":"49.46144000","lon":"24.06230000"},{"id":110386,"name":"Rozvadiv","native":null,"lat":"49.50323000","lon":"23.96200000"},{"id":110390,"name":"Rudky","native":null,"lat":"49.65306000","lon":"23.48702000"},{"id":110391,"name":"Rudne","native":null,"lat":"49.83333000","lon":"23.90000000"},{"id":110397,"name":"Rykhtychi","native":null,"lat":"49.38511000","lon":"23.55662000"},{"id":110405,"name":"Sambir","native":null,"lat":"49.51830000","lon":"23.19752000"},{"id":110438,"name":"Shchyrets","native":null,"lat":"49.65096000","lon":"23.87426000"},{"id":110447,"name":"Shklo","native":null,"lat":"49.95675000","lon":"23.54408000"},{"id":110458,"name":"Silets’","native":null,"lat":"50.29712000","lon":"24.20462000"},{"id":110470,"name":"Skelivka","native":null,"lat":"49.53728000","lon":"22.96467000"},{"id":110471,"name":"Skhidnytsya","native":null,"lat":"49.22827000","lon":"23.35016000"},{"id":110472,"name":"Skole","native":null,"lat":"49.03717000","lon":"23.51346000"},{"id":110478,"name":"Slavske","native":null,"lat":"48.84734000","lon":"23.44587000"},{"id":110500,"name":"Sokal’","native":null,"lat":"50.47438000","lon":"24.28288000"},{"id":110510,"name":"Solonka","native":null,"lat":"49.75621000","lon":"24.01028000"},{"id":110535,"name":"Staroye Selo","native":null,"lat":"49.71037000","lon":"24.18950000"},{"id":110537,"name":"Starychi","native":null,"lat":"49.98001000","lon":"23.55848000"},{"id":110538,"name":"Staryy Dobrotvir","native":null,"lat":"50.23154000","lon":"24.37701000"},{"id":110542,"name":"Staryy Sambir","native":null,"lat":"49.43856000","lon":"23.00056000"},{"id":110547,"name":"Stebnyk","native":null,"lat":"49.29416000","lon":"23.56357000"},{"id":110557,"name":"Stryi","native":null,"lat":"49.26223000","lon":"23.85609000"},{"id":110561,"name":"Sudova Vyshnya","native":null,"lat":"49.78892000","lon":"23.37218000"},{"id":110562,"name":"Sukhovolya","native":null,"lat":"49.82426000","lon":"23.83770000"},{"id":110623,"name":"Truskavets’","native":null,"lat":"49.27837000","lon":"23.50618000"},{"id":110635,"name":"Tukhlia","native":null,"lat":"48.91218000","lon":"23.47303000"},{"id":110639,"name":"Turka","native":null,"lat":"49.15411000","lon":"23.02967000"},{"id":110649,"name":"Uhniv","native":null,"lat":"50.36811000","lon":"23.74895000"},{"id":110655,"name":"Ulychne","native":null,"lat":"49.23385000","lon":"23.65111000"},{"id":110700,"name":"Verblyany","native":null,"lat":"50.04747000","lon":"23.42189000"},{"id":110701,"name":"Verchnia Rozhanka","native":null,"lat":"48.78050000","lon":"23.51545000"},{"id":110705,"name":"Verkhnie Synevydne","native":null,"lat":"49.10307000","lon":"23.59099000"},{"id":110709,"name":"Verkhnyaya Belka","native":null,"lat":"49.81575000","lon":"24.30328000"},{"id":110749,"name":"Voyutychi","native":null,"lat":"49.55135000","lon":"23.10579000"},{"id":110792,"name":"Yavoriv","native":null,"lat":"49.93864000","lon":"23.38254000"},{"id":110845,"name":"Zhovkva","native":null,"lat":"50.05825000","lon":"23.97260000"},{"id":110852,"name":"Zhydachiv","native":null,"lat":"49.38468000","lon":"24.14254000"},{"id":110860,"name":"Zolochiv","native":null,"lat":"49.80597000","lon":"24.89436000"}]},{"id":4679,"name":"Mykolaivska oblast","native":null,"cities":[{"id":109326,"name":"Arbuzynka","native":null,"lat":"47.90972000","lon":"31.31963000"},{"id":109355,"name":"Bashtanka","native":null,"lat":"47.40719000","lon":"32.43868000"},{"id":109378,"name":"Berezanka","native":null,"lat":"46.85262000","lon":"31.38802000"},{"id":109382,"name":"Bereznehuvate","native":null,"lat":"47.30783000","lon":"32.84993000"},{"id":109569,"name":"Domanivka","native":null,"lat":"47.63192000","lon":"30.98851000"},{"id":109723,"name":"Kazanka","native":null,"lat":"47.84625000","lon":"32.82177000"},{"id":109765,"name":"Kobleve","native":null,"lat":"46.66499000","lon":"31.20804000"},{"id":109815,"name":"Kostyantynivka","native":null,"lat":"47.82660000","lon":"31.13551000"},{"id":109875,"name":"Kryve Ozero","native":null,"lat":"47.95242000","lon":"30.34928000"},{"id":109958,"name":"Lysa Hora","native":null,"lat":"48.17059000","lon":"31.10994000"},{"id":110066,"name":"Myhiya","native":null,"lat":"48.03719000","lon":"30.95153000"},{"id":110071,"name":"Mykolayiv","native":null,"lat":"46.96591000","lon":"31.99740000"},{"id":110106,"name":"Nova Odesa","native":null,"lat":"47.30778000","lon":"31.78506000"},