[{"name":"Autonomous Republic of Crimea","native":null,"cities":[{"name":"Abrikosovka","native":null,"lat":"45.10759000","lon":"35.10139000"},{"name":"Abrikosovo","native":null,"lat":"45.69236000","lon":"34.10156000"},{"name":"Aeroflotskiy","native":null,"lat":"45.01816000","lon":"33.99961000"},{"name":"Agrarnoye","native":null,"lat":"45.01596000","lon":"34.05725000"},{"name":"Akimovka","native":null,"lat":"45.51981000","lon":"34.82438000"},{"name":"Aleksandrovka","native":null,"lat":"45.57654000","lon":"34.09947000"},{"name":"Alekseyevka","native":null,"lat":"45.58194000","lon":"33.62980000"},{"name":"Alupka","native":null,"lat":"44.41808000","lon":"34.04531000"},{"name":"Alushta","native":null,"lat":"44.67728000","lon":"34.40970000"},{"name":"Amurskoye","native":null,"lat":"45.27822000","lon":"34.12823000"},{"name":"Armyansk","native":null,"lat":"46.10919000","lon":"33.69206000"},{"name":"Aromatnoye","native":null,"lat":"45.03678000","lon":"34.39921000"},{"name":"Azovskoye","native":null,"lat":"45.58604000","lon":"34.56680000"},{"name":"Baherove","native":null,"lat":"45.37417000","lon":"36.29705000"},{"name":"Bakhchysarai","native":null,"lat":"44.75525000","lon":"33.85782000"},{"name":"Bakhchysarai Raion","native":null,"lat":"44.75002000","lon":"33.86330000"},{"name":"Batal’noye","native":null,"lat":"45.19402000","lon":"35.61583000"},{"name":"Belinskoye","native":null,"lat":"45.37465000","lon":"36.08212000"},{"name":"Beloglinka","native":null,"lat":"44.99490000","lon":"34.04167000"},{"name":"Belogorskiy rayon","native":null,"lat":"45.06300000","lon":"34.55675000"},{"name":"Beregovoye","native":null,"lat":"45.09470000","lon":"35.43385000"},{"name":"Berezovka","native":null,"lat":"45.57471000","lon":"33.34397000"},{"name":"Bilohirsk","native":null,"lat":"45.05462000","lon":"34.60185000"},{"name":"Blizhneye","native":null,"lat":"45.05694000","lon":"35.33056000"},{"name":"Bogatoye","native":null,"lat":"45.02933000","lon":"34.76732000"},{"name":"Botanicheskoye","native":null,"lat":"45.78656000","lon":"33.54856000"},{"name":"Bratskoye","native":null,"lat":"45.83170000","lon":"33.92151000"},{"name":"Chapayevka","native":null,"lat":"45.28119000","lon":"34.89428000"},{"name":"Chaykino","native":null,"lat":"45.08223000","lon":"34.08673000"},{"name":"Chelyadinovo","native":null,"lat":"45.20729000","lon":"36.37620000"},{"name":"Chernomorskiy rayon","native":null,"lat":"45.48798000","lon":"32.92614000"},{"name":"Chernomorskoye","native":null,"lat":"45.50657000","lon":"32.69776000"},{"name":"Chernopolye","native":null,"lat":"45.04399000","lon":"34.63916000"},{"name":"Chernovo","native":null,"lat":"45.50833000","lon":"33.93397000"},{"name":"Chernozemnoye","native":null,"lat":"45.40808000","lon":"34.81990000"},{"name":"Chernyshevo","native":null,"lat":"45.78202000","lon":"33.42825000"},{"name":"Chervonoye","native":null,"lat":"45.12294000","lon":"33.68662000"},{"name":"Chisten’koye","native":null,"lat":"44.88152000","lon":"34.04716000"},{"name":"Chistopolye","native":null,"lat":"45.36541000","lon":"36.18312000"},{"name":"Chkalovo","native":null,"lat":"45.60474000","lon":"34.83395000"},{"name":"Dachnoye","native":null,"lat":"44.88448000","lon":"34.98333000"},{"name":"Dalekoye","native":null,"lat":"45.66006000","lon":"33.08059000"},{"name":"Dmitrovka","native":null,"lat":"45.48411000","lon":"35.05880000"},{"name":"Dneprovka","native":null,"lat":"45.71373000","lon":"34.36256000"},{"name":"Dobroye","native":null,"lat":"44.86632000","lon":"34.22661000"},{"name":"Dobrushino","native":null,"lat":"45.37441000","lon":"33.36547000"},{"name":"Dolinnoye","native":null,"lat":"44.75320000","lon":"33.77766000"},{"name":"Donskoye","native":null,"lat":"45.04509000","lon":"34.21413000"},{"name":"Drofino","native":null,"lat":"45.28629000","lon":"34.61589000"},{"name":"Dubki","native":null,"lat":"44.93581000","lon":"34.02355000"},{"name":"Dzhankoy","native":null,"lat":"45.71168000","lon":"34.39274000"},{"name":"Dzhankoyskiy rayon","native":null,"lat":"45.78706000","lon":"34.39197000"},{"name":"Feodosiya","native":null,"lat":"45.03677000","lon":"35.37789000"},{"name":"Filatovka","native":null,"lat":"46.08192000","lon":"33.78510000"},{"name":"Fontany","native":null,"lat":"44.89717000","lon":"34.07297000"},{"name":"Foros","native":null,"lat":"44.39214000","lon":"33.78798000"},{"name":"Frunze","native":null,"lat":"45.02688000","lon":"33.62956000"},{"name":"Gaspra","native":null,"lat":"44.43364000","lon":"34.10297000"},{"name":"Geroyskoye","native":null,"lat":"45.13857000","lon":"33.74675000"},{"name":"Glazovka","native":null,"lat":"45.38792000","lon":"36.57965000"},{"name":"Golubinka","native":null,"lat":"44.59382000","lon":"33.91521000"},{"name":"Gornostayevka","native":null,"lat":"45.27819000","lon":"36.18601000"},{"name":"Gorodskoy okrug Alushta","native":null,"lat":"44.67256000","lon":"34.41467000"},{"name":"Gorodskoy okrug Armyansk","native":null,"lat":"46.10871000","lon":"33.69095000"},{"name":"Gorodskoy okrug Dzhankoy","native":null,"lat":"45.70810000","lon":"34.39407000"},{"name":"Gorodskoy okrug Feodosiya","native":null,"lat":"45.04612000","lon":"35.37289000"},{"name":"Gorodskoy okrug Krasnoperekopsk","native":null,"lat":"45.95330000","lon":"33.79669000"},{"name":"Gorodskoy okrug Saki","native":null,"lat":"45.12780000","lon":"33.60134000"},{"name":"Gorodskoy okrug Simferopol","native":null,"lat":"44.94803000","lon":"34.10912000"},{"name":"Gorodskoy okrug Sudak","native":null,"lat":"44.91667000","lon":"35.00202000"},{"name":"Gorodskoy okrug Yalta","native":null,"lat":"44.49638000","lon":"34.16336000"},{"name":"Gorodskoy okrug Yevpatoriya","native":null,"lat":"45.19559000","lon":"33.36342000"},{"name":"Gresovskiy","native":null,"lat":"45.00804000","lon":"34.02657000"},{"name":"Grishino","native":null,"lat":"45.64219000","lon":"33.83098000"},{"name":"Grushevka","native":null,"lat":"45.02281000","lon":"34.97301000"},{"name":"Gurzuf","native":null,"lat":"44.54624000","lon":"34.27841000"},{"name":"Hvardiiske","native":null,"lat":"45.11692000","lon":"34.02188000"},{"name":"Ilychyovo","native":null,"lat":"45.28348000","lon":"35.73864000"},{"name":"Ilyichevo","native":null,"lat":"45.24524000","lon":"35.07127000"},{"name":"Ilyinka","native":null,"lat":"45.81784000","lon":"33.79482000"},{"name":"Ishun’","native":null,"lat":"45.92403000","lon":"33.82364000"},{"name":"Ivanovka","native":null,"lat":"45.07200000","lon":"33.66130000"},{"name":"Izobil’noye","native":null,"lat":"44.70276000","lon":"34.35357000"},{"name":"Izumrudnoye","native":null,"lat":"45.73704000","lon":"34.41299000"},{"name":"Izyumovka","native":null,"lat":"45.04437000","lon":"35.13717000"},{"name":"Kalinino","native":null,"lat":"45.59521000","lon":"34.22030000"},{"name":"Kalinovka","native":null,"lat":"45.31658000","lon":"35.74643000"},{"name":"Kamenolomnya","native":null,"lat":"45.24804000","lon":"33.41773000"},{"name":"Kashtanovoye","native":null,"lat":"44.83210000","lon":"34.05912000"},{"name":"Kashtany","native":null,"lat":"44.86760000","lon":"33.78995000"},{"name":"Kerch","native":null,"lat":"45.35310000","lon":"36.47429000"},{"name":"Kerchens'ka Mis'ka Rada","native":null,"lat":"45.35307000","lon":"36.47414000"},{"name":"Kholmovka","native":null,"lat":"44.65830000","lon":"33.75456000"},{"name":"Kirovo","native":null,"lat":"45.22106000","lon":"35.84227000"},{"name":"Kirovske Raion","native":null,"lat":"45.15522000","lon":"35.17696000"},{"name":"Kirovskoye","native":null,"lat":"45.22967000","lon":"35.19987000"},{"name":"Klepinino","native":null,"lat":"45.52800000","lon":"34.18315000"},{"name":"Koktebel","native":null,"lat":"44.96155000","lon":"35.24660000"},{"name":"Kol’chugino","native":null,"lat":"44.94367000","lon":"33.78865000"},{"name":"Kol’tsovo","native":null,"lat":"45.32807000","lon":"33.44992000"},{"name":"Kolodeznoye","native":null,"lat":"45.22682000","lon":"34.33698000"},{"name":"Koloski","native":null,"lat":"45.26936000","lon":"33.29386000"},{"name":"Komsomol’skoye","native":null,"lat":"45.01900000","lon":"34.03049000"},{"name":"Kondratyevo","native":null,"lat":"45.63125000","lon":"34.47387000"},{"name":"Konstantinovka","native":null,"lat":"44.85511000","lon":"34.12069000"},{"name":"Koreiz","native":null,"lat":"44.43374000","lon":"34.08516000"},{"name":"Kormovoye","native":null,"lat":"45.50001000","lon":"33.61192000"},{"name":"Kostochkovka","native":null,"lat":"45.31747000","lon":"34.67418000"},{"name":"Kotel’nikovo","native":null,"lat":"45.36584000","lon":"34.02575000"},{"name":"Kovyl’noye","native":null,"lat":"45.69028000","lon":"33.52775000"},{"name":"Krasna Zor'ka","native":null,"lat":"45.13432000","lon":"34.04015000"},{"name":"Krasnaya Polyana","native":null,"lat":"45.48241000","lon":"32.93790000"},{"name":"Krasnoarmeyskoye","native":null,"lat":"45.99103000","lon":"34.03037000"},{"name":"Krasnoflotskoye","native":null,"lat":"45.31572000","lon":"34.94756000"},{"name":"Krasnogorka","native":null,"lat":"45.24513000","lon":"35.80739000"},{"name":"Krasnogvardeyskoye","native":null,"lat":"45.50271000","lon":"34.30134000"},{"name":"Krasnohvardiiske Raion","native":null,"lat":"45.40230000","lon":"34.25464000"},{"name":"Krasnokamenka","native":null,"lat":"44.56383000","lon":"34.28877000"},{"name":"Krasnolesye","native":null,"lat":"44.83259000","lon":"34.23086000"},{"name":"Krasnoperekops’k","native":null,"lat":"45.95716000","lon":"33.79650000"},{"name":"Krasnoperekopsk Raion","native":null,"lat":"45.96992000","lon":"33.87990000"},{"name":"Krasnoyarskoye","native":null,"lat":"45.50661000","lon":"33.26641000"},{"name":"Krasnoye","native":null,"lat":"45.13999000","lon":"34.09452000"},{"name":"Krasnoznamenka","native":null,"lat":"45.28676000","lon":"34.00036000"},{"name":"Krasnyi Mak","native":null,"lat":"44.64218000","lon":"33.78130000"},{"name":"Krayneye","native":null,"lat":"45.22993000","lon":"33.83239000"},{"name":"Krest’yanovka","native":null,"lat":"45.72268000","lon":"33.93938000"},{"name":"Krinichnoye","native":null,"lat":"45.02428000","lon":"34.61202000"},{"name":"Krymka","native":null,"lat":"45.70453000","lon":"34.18782000"},{"name":"Krymskaya Roza","native":null,"lat":"45.05776000","lon":"34.35631000"},{"name":"Krymskoye","native":null,"lat":"45.18836000","lon":"33.80106000"},{"name":"Kuibyshevo","native":null,"lat":"44.62900000","lon":"33.86895000"},{"name":"Kukushkino","native":null,"lat":"45.71924000","lon":"33.39030000"},{"name":"Kurskoye","native":null,"lat":"45.02908000","lon":"34.93623000"},{"name":"L’govskoye","native":null,"lat":"45.09801000","lon":"34.95770000"},{"name":"Lekarstvennoye","native":null,"lat":"44.94194000","lon":"33.82229000"},{"name":"Lenine Raion","native":null,"lat":"45.24693000","lon":"36.00540000"},{"name":"Lenino","native":null,"lat":"45.29857000","lon":"35.77708000"},{"name":"Leninskoye","native":null,"lat":"45.26844000","lon":"34.05023000"},{"name":"Lesnovka","native":null,"lat":"45.15350000","lon":"33.61889000"},{"name":"Levadki","native":null,"lat":"44.87083000","lon":"34.04278000"},{"name":"Listvennoye","native":null,"lat":"45.48086000","lon":"34.81087000"},{"name":"Litvinenkovo","native":null,"lat":"45.08648000","lon":"34.31107000"},{"name":"Livadia","native":null,"lat":"44.47021000","lon":"34.14272000"},{"name":"Lobanovo","native":null,"lat":"45.77552000","lon":"34.24236000"},{"name":"Lozovoye","native":null,"lat":"44.90600000","lon":"34.16414000"},{"name":"Luchistoye","native":null,"lat":"44.73646000","lon":"34.40063000"},{"name":"Luganskoye","native":null,"lat":"45.80190000","lon":"34.23786000"},{"name":"Lugovoye","native":null,"lat":"45.23469000","lon":"35.72202000"},{"name":"Magazinka","native":null,"lat":"45.86312000","lon":"34.04969000"},{"name":"Malen’koye","native":null,"lat":"45.07585000","lon":"33.99942000"},{"name":"Malorechenskoye","native":null,"lat":"44.75888000","lon":"34.55789000"},{"name":"Maly Mayak","native":null,"lat":"44.61356000","lon":"34.36469000"},{"name":"Mar’yanovka","native":null,"lat":"45.44627000","lon":"34.29474000"},{"name":"Marfovka","native":null,"lat":"45.19853000","lon":"36.09144000"},{"name":"Maryevka","native":null,"lat":"45.11330000","lon":"36.23992000"},{"name":"Maslovo","native":null,"lat":"45.79197000","lon":"34.36298000"},{"name":"Massandra","native":null,"lat":"44.50958000","lon":"34.18817000"},{"name":"Mayskoye","native":null,"lat":"45.59555000","lon":"34.55213000"},{"name":"Mazanka","native":null,"lat":"45.00550000","lon":"34.25581000"},{"name":"Medvedevka","native":null,"lat":"45.88389000","lon":"34.55562000"},{"name":"Medvedevo","native":null,"lat":"45.38597000","lon":"33.00400000"},{"name":"Mel’nichnoye","native":null,"lat":"45.19885000","lon":"34.42012000"},{"name":"Mezhvodnoye","native":null,"lat":"45.58751000","lon":"32.84501000"},{"name":"Michurinskoye","native":null,"lat":"45.07430000","lon":"34.70672000"},{"name":"Mikhaylovka","native":null,"lat":"45.11325000","lon":"33.61071000"},{"name":"Mirnovka","native":null,"lat":"45.69083000","lon":"34.30966000"},{"name":"Mirnoye","native":null,"lat":"44.98330000","lon":"34.06160000"},{"name":"Mirny","native":null,"lat":"45.30788000","lon":"33.03501000"},{"name":"Mitrofanovka","native":null,"lat":"45.45114000","lon":"34.67883000"},{"name":"Mityayevo","native":null,"lat":"45.23423000","lon":"33.70150000"},{"name":"Molochnoye","native":null,"lat":"45.19960000","lon":"33.22233000"},{"name":"Molodyozhnoye","native":null,"lat":"45.00354000","lon":"34.05634000"},{"name":"Morskoye","native":null,"lat":"44.82593000","lon":"34.80314000"},{"name":"Muromskoye","native":null,"lat":"45.09051000","lon":"34.84900000"},{"name":"Muskatnoye","native":null,"lat":"45.46586000","lon":"34.54316000"},{"name":"Mysovoe","native":null,"lat":"45.44788000","lon":"35.83528000"},{"name":"Nasypnoe","native":null,"lat":"45.05285000","lon":"35.29415000"},{"name":"Naydenovka","native":null,"lat":"45.27088000","lon":"34.44898000"},{"name":"Nekrasovka","native":null,"lat":"45.44085000","lon":"34.98584000"},{"name":"Nekrasovo","native":null,"lat":"45.42453000","lon":"34.28545000"},{"name":"Nikita","native":null,"lat":"44.51564000","lon":"34.23840000"},{"name":"Nikolayevka","native":null,"lat":"44.96213000","lon":"33.61061000"},{"name":"Nizhnegorskiy","native":null,"lat":"45.44789000","lon":"34.73839000"},{"name":"Nizhnegorskiy rayon","native":null,"lat":"45.48430000","lon":"34.76798000"},{"name":"Novoandreyevka","native":null,"lat":"45.19904000","lon":"34.09384000"},{"name":"Novoestoniya","native":null,"lat":"45.49960000","lon":"34.24298000"},{"name":"Novofedorovka","native":null,"lat":"45.09473000","lon":"33.57211000"},{"name":"Novogrigoryevka","native":null,"lat":"45.45200000","lon":"34.60378000"},{"name":"Novoivanovka","native":null,"lat":"45.44914000","lon":"33.09833000"},{"name":"Novokrymskoye","native":null,"lat":"45.78007000","lon":"34.15543000"},{"name":"Novonikolayevka","native":null,"lat":"45.30855000","lon":"36.05749000"},{"name":"Novoozyornoye","native":null,"lat":"45.38314000","lon":"33.11715000"},{"name":"Novopavlovka","native":null,"lat":"45.86634000","lon":"33.89018000"},{"name":"Novopokrovka","native":null,"lat":"45.16517000","lon":"35.25304000"},{"name":"Novosel’skoye","native":null,"lat":"45.50357000","lon":"32.72250000"},{"name":"Novoselovskoye","native":null,"lat":"45.44276000","lon":"33.59795000"},{"name":"Novostepnoye","native":null,"lat":"45.66206000","lon":"34.38700000"},{"name":"Novosyolovka","native":null,"lat":"44.99377000","lon":"33.83525000"},{"name":"Novozhilovka","native":null,"lat":"45.15960000","lon":"34.23270000"},{"name":"Novy Svet","native":null,"lat":"44.83087000","lon":"34.91370000"},{"name":"Okhotnikovo","native":null,"lat":"45.23985000","lon":"33.59405000"},{"name":"Okhotskoye","native":null,"lat":"45.48612000","lon":"34.86401000"},{"name":"Oktyabr'skoye","native":null,"lat":"45.36215000","lon":"36.36803000"},{"name":"Oktyabr’skoye","native":null,"lat":"45.28866000","lon":"34.13521000"},{"name":"Okunevka","native":null,"lat":"45.36855000","lon":"32.76357000"},{"name":"Olenevka","native":null,"lat":"45.38333000","lon":"32.53333000"},{"name":"Ordzhonikidze","native":null,"lat":"44.96401000","lon":"35.35576000"},{"name":"Orekhovo","native":null,"lat":"45.12944000","lon":"33.63180000"},{"name":"Orlovskoye","native":null,"lat":"45.81070000","lon":"33.97308000"},{"name":"Ostanino","native":null,"lat":"45.32731000","lon":"35.91295000"},{"name":"Ostrovskoye","native":null,"lat":"45.74232000","lon":"34.06607000"},{"name":"Pakharevka","native":null,"lat":"45.83472000","lon":"34.16129000"},{"name":"Partenit","native":null,"lat":"44.57800000","lon":"34.34464000"},{"name":"Partizanskoye","native":null,"lat":"44.83379000","lon":"34.08465000"},{"name":"Partizany","native":null,"lat":"45.14373000","lon":"35.15509000"},{"name":"Pereval'noye","native":null,"lat":"44.84838000","lon":"34.31271000"},{"name":"Perovo","native":null,"lat":"44.92513000","lon":"34.05753000"},{"name":"Pervomayskiy rayon","native":null,"lat":"45.59825000","lon":"33.83249000"},{"name":"Pervomayskoye","native":null,"lat":"45.71744000","lon":"33.85596000"},{"name":"Peschanoye","native":null,"lat":"44.84342000","lon":"33.60921000"},{"name":"Petrovka","native":null,"lat":"45.49776000","lon":"34.28816000"},{"name":"Pionerskoye","native":null,"lat":"44.88083000","lon":"34.20194000"},{"name":"Plodovoye","native":null,"lat":"44.87156000","lon":"33.85615000"},{"name":"Pobednoye","native":null,"lat":"45.70109000","lon":"34.44805000"},{"name":"Pochetnoye","native":null,"lat":"45.99495000","lon":"33.76588000"},{"name":"Poltavka","native":null,"lat":"45.35133000","lon":"34.18371000"},{"name":"Poshtove","native":null,"lat":"44.83540000","lon":"33.96159000"},{"name":"Pozharskoye","native":null,"lat":"44.93554000","lon":"33.87109000"},{"name":"Pravda","native":null,"lat":"45.77903000","lon":"33.84649000"},{"name":"Primorskiy","native":null,"lat":"45.11904000","lon":"35.48025000"},{"name":"Priozyornoye","native":null,"lat":"45.26990000","lon":"36.33405000"},{"name":"Privetnoye","native":null,"lat":"45.11969000","lon":"35.05960000"},{"name":"Prostornoye","native":null,"lat":"45.65597000","lon":"34.69837000"},{"name":"Prudovoye","native":null,"lat":"44.90424000","lon":"33.78114000"},{"name":"Prudy","native":null,"lat":"45.23922000","lon":"34.70217000"},{"name":"Pshenichnoye","native":null,"lat":"45.64627000","lon":"34.83767000"},{"name":"Pushkino","native":null,"lat":"45.20373000","lon":"34.97642000"},{"name":"Pyatikhatka","native":null,"lat":"45.32347000","lon":"34.25516000"},{"name":"Razdol’nenskiy rayon","native":null,"lat":"45.67086000","lon":"33.44075000"},{"name":"Razdol’noye","native":null,"lat":"45.77083000","lon":"33.48777000"},{"name":"Rodnikovo","native":null,"lat":"45.04296000","lon":"33.95407000"},{"name":"Romashkino","native":null,"lat":"45.25647000","lon":"33.25517000"},{"name":"Roshchino","native":null,"lat":"45.60916000","lon":"34.37992000"},{"name":"Roskoshnoye","native":null,"lat":"45.65187000","lon":"34.11552000"},{"name":"Rovnoye","native":null,"lat":"45.35134000","lon":"34.35230000"},{"name":"Ruch’i","native":null,"lat":"45.78564000","lon":"33.66093000"},{"name":"Rusakovka","native":null,"lat":"45.12369000","lon":"34.47458000"},{"name":"Rybach'e","native":null,"lat":"44.77331000","lon":"34.59609000"},{"name":"Sadovoye","native":null,"lat":"45.31037000","lon":"34.65260000"},{"name":"Saki","native":null,"lat":"45.13424000","lon":"33.59996000"},{"name":"Sakskiy rayon","native":null,"lat":"45.27799000","lon":"33.52911000"},{"name":"Sary-Bash","native":null,"lat":"45.57142000","lon":"33.78728000"},{"name":"Semisotka","native":null,"lat":"45.24676000","lon":"35.56500000"},{"name":"Senokosnoye","native":null,"lat":"45.73277000","lon":"33.51552000"},{"name":"Serebryanka","native":null,"lat":"45.63937000","lon":"33.49632000"},{"name":"Shchebetovka","native":null,"lat":"44.93821000","lon":"35.15800000"},{"name":"Shchyolkino","native":null,"lat":"45.42985000","lon":"35.82250000"},{"name":"Shelkovichnoye","native":null,"lat":"45.18748000","lon":"33.68807000"},{"name":"Shirokoye","native":null,"lat":"45.20029000","lon":"34.05069000"},{"name":"Shkol’noye","native":null,"lat":"45.05758000","lon":"33.89737000"},{"name":"Shtormovoye","native":null,"lat":"45.26717000","lon":"33.08693000"},{"name":"Simeiz","native":null,"lat":"44.40646000","lon":"34.00704000"},{"name":"Simferopol","native":null,"lat":"44.95719000","lon":"34.11079000"},{"name":"Simferopol Raion","native":null,"lat":"44.95690000","lon":"34.10225000"},{"name":"Sinitsyno","native":null,"lat":"45.23862000","lon":"35.24659000"},{"name":"Sizovka","native":null,"lat":"45.34892000","lon":"33.87669000"},{"name":"Skalistoye","native":null,"lat":"44.81686000","lon":"33.97791000"},{"name":"Skvortsovo","native":null,"lat":"45.07542000","lon":"33.82084000"},{"name":"Slavnoye","native":null,"lat":"45.72176000","lon":"33.23689000"},{"name":"Slavyanskoye","native":null,"lat":"45.72768000","lon":"33.32165000"},{"name":"Sofiivka","native":null,"lat":"45.08985000","lon":"33.99887000"},{"name":"Sokolinoye","native":null,"lat":"44.55041000","lon":"33.95897000"},{"name":"Solnechnaya Dolina","native":null,"lat":"44.87185000","lon":"35.10622000"},{"name":"Solnechnogorskoye","native":null,"lat":"44.74722000","lon":"34.53999000"},{"name":"Solnechnoye","native":null,"lat":"45.04767000","lon":"34.08380000"},{"name":"Sovetskiy","native":null,"lat":"45.34267000","lon":"34.92463000"},{"name":"Sovietskyi Raion","native":null,"lat":"45.31516000","lon":"34.92914000"},{"name":"Sovkhoznoye","native":null,"lat":"45.96005000","lon":"33.77155000"},{"name":"Stakhanovka","native":null,"lat":"45.37062000","lon":"33.94883000"},{"name":"Stal’noye","native":null,"lat":"45.70814000","lon":"34.56238000"},{"name":"Stary Krym","native":null,"lat":"45.02887000","lon":"35.09174000"},{"name":"Stepnoye","native":null,"lat":"45.65212000","lon":"33.77441000"},{"name":"Stolbovoye","native":null,"lat":"45.36270000","lon":"33.49584000"},{"name":"Strogonovka","native":null,"lat":"44.94970000","lon":"34.17924000"},{"name":"Sudak","native":null,"lat":"44.84924000","lon":"34.97471000"},{"name":"Susanino","native":null,"lat":"45.49898000","lon":"33.69854000"},{"name":"Suvorovo","native":null,"lat":"46.08865000","lon":"33.68800000"},{"name":"Suvorovskoye","native":null,"lat":"45.25171000","lon":"33.37194000"},{"name":"Svetloye","native":null,"lat":"45.63320000","lon":"34.66264000"},{"name":"Tabachnoye","native":null,"lat":"44.90175000","lon":"33.67638000"},{"name":"Tankovoye","native":null,"lat":"44.65829000","lon":"33.80929000"},{"name":"Tenistoye","native":null,"lat":"44.74303000","lon":"33.66812000"},{"name":"Teplovka","native":null,"lat":"45.03239000","lon":"33.69588000"},{"name":"Tokarevo","native":null,"lat":"45.28367000","lon":"35.15244000"},{"name":"Trudovoye","native":null,"lat":"44.99133000","lon":"34.20311000"},{"name":"Tselinnoye","native":null,"lat":"45.90633000","lon":"34.18063000"},{"name":"Tsvetochnoye","native":null,"lat":"45.08655000","lon":"34.38521000"},{"name":"Turgenevka","native":null,"lat":"44.69747000","lon":"33.83007000"},{"name":"Uglovoye","native":null,"lat":"44.82146000","lon":"33.60452000"},{"name":"Ukrainka","native":null,"lat":"44.88730000","lon":"34.13973000"},{"name":"Ukromnoye","native":null,"lat":"45.04272000","lon":"34.00312000"},{"name":"Urozhaynoye","native":null,"lat":"45.04522000","lon":"34.13511000"},{"name":"Uvarovka","native":null,"lat":"45.45108000","lon":"34.78812000"},{"name":"Uvarovo","native":null,"lat":"45.26260000","lon":"35.66506000"},{"name":"Uyutnoye","native":null,"lat":"45.19769000","lon":"33.29796000"},{"name":"Vasilyevka","native":null,"lat":"45.13938000","lon":"34.72291000"},{"name":"Veresayevo","native":null,"lat":"45.30551000","lon":"33.50004000"},{"name":"Verkhorechye","native":null,"lat":"44.69738000","lon":"33.98696000"},{"name":"Vesele","native":null,"lat":"44.85807000","lon":"34.87952000"},{"name":"Veselovka","native":null,"lat":"45.37733000","lon":"33.21385000"},{"name":"Vilino","native":null,"lat":"44.84560000","lon":"33.67161000"},{"name":"Vinnitskoye","native":null,"lat":"44.98129000","lon":"33.73920000"},{"name":"Vinogradnoye","native":null,"lat":"44.48149000","lon":"34.12973000"},{"name":"Vinogradovo","native":null,"lat":"45.39264000","lon":"33.64668000"},{"name":"Vishennoye","native":null,"lat":"45.14509000","lon":"34.59691000"},{"name":"Vishnyovka","native":null,"lat":"45.95966000","lon":"33.95289000"},{"name":"Vladimirovka","native":null,"lat":"45.14760000","lon":"33.57583000"},{"name":"Vladislavovka","native":null,"lat":"45.16828000","lon":"35.37658000"},{"name":"Voinka","native":null,"lat":"45.86990000","lon":"33.99138000"},{"name":"Vol’noye","native":null,"lat":"45.56570000","lon":"34.30360000"},{"name":"Vorobyovo","native":null,"lat":"45.32895000","lon":"33.24654000"},{"name":"Voskhod","native":null,"lat":"45.50999000","lon":"34.39355000"},{"name":"Voykovo","native":null,"lat":"45.38329000","lon":"36.43739000"},{"name":"Yalta","native":null,"lat":"44.50218000","lon":"34.16624000"},{"name":"Yantarnoye","native":null,"lat":"45.43473000","lon":"34.22134000"},{"name":"Yarkoye","native":null,"lat":"45.69120000","lon":"34.26323000"},{"name":"Yarkoye Pole","native":null,"lat":"45.20581000","lon":"35.19848000"},{"name":"Yasnopolyanskoye","native":null,"lat":"45.94097000","lon":"34.35262000"},{"name":"Yemelyanovka","native":null,"lat":"45.53287000","lon":"34.89624000"},{"name":"Yermakovo","native":null,"lat":"45.85364000","lon":"34.48644000"},{"name":"Yevpatoriya","native":null,"lat":"45.20091000","lon":"33.36655000"},{"name":"Zalesye","native":null,"lat":"44.88687000","lon":"34.10168000"},{"name":"Zaozyornoye","native":null,"lat":"45.15816000","lon":"33.27866000"},{"name":"Zarechnoye","native":null,"lat":"44.85048000","lon":"34.26426000"},{"name":"Zavet-Leninskiy","native":null,"lat":"45.86258000","lon":"34.39160000"},{"name":"Zavetnoye","native":null,"lat":"45.32697000","lon":"34.80837000"},{"name":"Zelenogorskoye","native":null,"lat":"45.01249000","lon":"34.46848000"},{"name":"Zelyonoye","native":null,"lat":"44.59583000","lon":"34.00921000"},{"name":"Zemlyanichnoye","native":null,"lat":"44.97444000","lon":"34.83553000"},{"name":"Zernovoye","native":null,"lat":"45.32364000","lon":"34.48099000"},{"name":"Zheleznodorozhnoye","native":null,"lat":"44.71710000","lon":"33.80417000"},{"name":"Zhelyabovka","native":null,"lat":"45.39877000","lon":"34.75776000"},{"name":"Zhemchuzhina","native":null,"lat":"45.27466000","lon":"34.65778000"},{"name":"Zhuravki","native":null,"lat":"45.12629000","lon":"35.21513000"},{"name":"Zhuravli","native":null,"lat":"45.25246000","lon":"33.64104000"},{"name":"Zhuravlyovka","native":null,"lat":"45.17680000","lon":"33.99680000"},{"name":"Zimino","native":null,"lat":"45.50797000","lon":"33.51431000"},{"name":"Zolotoye Pole","native":null,"lat":"45.12774000","lon":"34.99148000"},{"name":"Zorkino","native":null,"lat":"45.54762000","lon":"34.71028000"},{"name":"Zuya","native":null,"lat":"45.05418000","lon":"34.32152000"},{"name":"Zybiny","native":null,"lat":"45.23674000","lon":"34.64987000"}]},{"name":"Cherkaska oblast","native":null,"cities":[{"name":"Babanka","native":null,"lat":"48.70971000","lon":"30.44827000"},{"name":"Buky","native":null,"lat":"49.09252000","lon":"30.40355000"},{"name":"Cherkasy","native":null,"lat":"49.42854000","lon":"32.06207000"},{"name":"Chervona Sloboda","native":null,"lat":"49.37281000","lon":"32.15742000"},{"name":"Chornobay","native":null,"lat":"49.66644000","lon":"32.32932000"},{"name":"Chyhyryn","native":null,"lat":"49.08376000","lon":"32.65549000"},{"name":"Drabiv","native":null,"lat":"49.96029000","lon":"32.14070000"},{"name":"Horodyshche","native":null,"lat":"49.28489000","lon":"31.44513000"},{"name":"Kamianka","native":null,"lat":"49.03180000","lon":"32.10396000"},{"name":"Kaniv","native":null,"lat":"49.75182000","lon":"31.46004000"},{"name":"Khrystynivka","native":null,"lat":"48.81577000","lon":"29.97703000"},{"name":"Korsun-Shevchenkivskyi","native":null,"lat":"49.41894000","lon":"31.25865000"},{"name":"Lebedyn","native":null,"lat":"48.96242000","lon":"31.52696000"},{"name":"Lysianka","native":null,"lat":"49.25229000","lon":"30.82946000"},{"name":"Mankivka","native":null,"lat":"48.96349000","lon":"30.33366000"},{"name":"Mliiv","native":null,"lat":"49.33691000","lon":"31.51704000"},{"name":"Monastyryshche","native":null,"lat":"48.99090000","lon":"29.80470000"},{"name":"Moshny","native":null,"lat":"49.52754000","lon":"31.73708000"},{"name":"Nove-Misto","native":null,"lat":"48.98113000","lon":"29.82813000"},{"name":"Ruska Poliana","native":null,"lat":"49.41700000","lon":"31.92009000"},{"name":"Shpola","native":null,"lat":"49.00687000","lon":"31.39471000"},{"name":"Smila","native":null,"lat":"49.22242000","lon":"31.88714000"},{"name":"Stebliv","native":null,"lat":"49.40186000","lon":"31.09764000"},{"name":"Talne","native":null,"lat":"48.88877000","lon":"30.69482000"},{"name":"Tsibulev","native":null,"lat":"49.07907000","lon":"29.84727000"},{"name":"Tsvitkove","native":null,"lat":"49.15231000","lon":"31.53739000"},{"name":"Uman","native":null,"lat":"48.74838000","lon":"30.22184000"},{"name":"Vatutine","native":null,"lat":"49.01502000","lon":"31.06211000"},{"name":"Verkhniachka","native":null,"lat":"48.82849000","lon":"30.03957000"},{"name":"Yerky","native":null,"lat":"48.99062000","lon":"30.98818000"},{"name":"Yurkivka","native":null,"lat":"49.01082000","lon":"31.08797000"},{"name":"Zhashkiv","native":null,"lat":"49.24545000","lon":"30.11020000"},{"name":"Zolotonosha","native":null,"lat":"49.66832000","lon":"32.04047000"},{"name":"Zvenihorodka","native":null,"lat":"49.07866000","lon":"30.96755000"}]},{"name":"Chernihivska oblast","native":null,"cities":[{"name":"Avdiyivka","native":null,"lat":"51.77660000","lon":"32.79988000"},{"name":"Bakhmach","native":null,"lat":"51.18144000","lon":"32.83463000"},{"name":"Baturyn","native":null,"lat":"51.34567000","lon":"32.87794000"},{"name":"Berezna","native":null,"lat":"51.57160000","lon":"31.78456000"},{"name":"Bobrovytsya","native":null,"lat":"50.74693000","lon":"31.39480000"},{"name":"Borzna","native":null,"lat":"51.25464000","lon":"32.42690000"},{"name":"Chernihiv","native":null,"lat":"51.50551000","lon":"31.28487000"},{"name":"Chernihiv Raion","native":null,"lat":"51.58333000","lon":"31.33333000"},{"name":"Chernihivs’ka Mis’krada","native":null,"lat":"51.49923000","lon":"31.28805000"},{"name":"Desna","native":null,"lat":"50.92731000","lon":"30.76048000"},{"name":"Dihtyari","native":null,"lat":"50.58264000","lon":"32.77012000"},{"name":"Dobryanka","native":null,"lat":"52.06314000","lon":"31.18567000"},{"name":"Horodnya","native":null,"lat":"51.89085000","lon":"31.59741000"},{"name":"Ichnya","native":null,"lat":"50.86258000","lon":"32.39425000"},{"name":"Kholmy","native":null,"lat":"51.87096000","lon":"32.60063000"},{"name":"Kobyzhcha","native":null,"lat":"50.82854000","lon":"31.50439000"},{"name":"Korop","native":null,"lat":"51.56638000","lon":"32.95861000"},{"name":"Koryukivka","native":null,"lat":"51.76877000","lon":"32.24813000"},{"name":"Kozelets’","native":null,"lat":"50.91334000","lon":"31.12140000"},{"name":"Kruty","native":null,"lat":"51.05974000","lon":"32.10634000"},{"name":"Kulykivka","native":null,"lat":"51.37345000","lon":"31.64661000"},{"name":"Ladan","native":null,"lat":"50.51959000","lon":"32.58178000"},{"name":"Lisovi Sorochyntsi","native":null,"lat":"50.68920000","lon":"32.32919000"},{"name":"Lyubech","native":null,"lat":"51.70260000","lon":"30.65692000"},{"name":"Mena","native":null,"lat":"51.52170000","lon":"32.21568000"},{"name":"Mens’kyy Rayon","native":null,"lat":"51.52148000","lon":"32.02166000"},{"name":"Nizhyn","native":null,"lat":"51.04801000","lon":"31.88688000"},{"name":"Nosivka","native":null,"lat":"50.93152000","lon":"31.58282000"},{"name":"Novhorod-Sivers’kyy","native":null,"lat":"52.00577000","lon":"33.26150000"},{"name":"Olyshivka","native":null,"lat":"51.22266000","lon":"31.33314000"},{"name":"Oster","native":null,"lat":"50.95060000","lon":"30.88229000"},{"name":"Pryluky","native":null,"lat":"50.59323000","lon":"32.38761000"},{"name":"Ripky","native":null,"lat":"51.80105000","lon":"31.08383000"},{"name":"Sedniv","native":null,"lat":"51.64473000","lon":"31.56497000"},{"name":"Semenivka","native":null,"lat":"52.17827000","lon":"32.58183000"},{"name":"Shchors","native":null,"lat":"51.81865000","lon":"31.94504000"},{"name":"Snovs'kyy Rayon","native":null,"lat":"51.83333000","lon":"32.00000000"},{"name":"Sosnytsya","native":null,"lat":"51.52387000","lon":"32.49985000"},{"name":"Sribne","native":null,"lat":"50.66384000","lon":"32.91867000"},{"name":"Varva","native":null,"lat":"50.49503000","lon":"32.71968000"},{"name":"Zhuravka","native":null,"lat":"50.48108000","lon":"32.59490000"}]},{"name":"Chernivetska oblast","native":null,"cities":[{"name":"Banyliv","native":null,"lat":"48.36612000","lon":"25.34549000"},{"name":"Berehomet","native":null,"lat":"48.17882000","lon":"25.34855000"},{"name":"Boyany","native":null,"lat":"48.27077000","lon":"26.12624000"},{"name":"Chernivtsi","native":null,"lat":"48.29149000","lon":"25.94034000"},{"name":"Chernivtsi Municipality","native":null,"lat":"48.31932000","lon":"25.94104000"},{"name":"Chudey","native":null,"lat":"48.05247000","lon":"25.62208000"},{"name":"Davydivka","native":null,"lat":"48.12099000","lon":"25.56461000"},{"name":"Hlyboka","native":null,"lat":"48.08971000","lon":"25.92933000"},{"name":"Ispas","native":null,"lat":"48.29734000","lon":"25.27406000"},{"name":"Kadubivtsi","native":null,"lat":"48.58337000","lon":"25.76871000"},{"name":"Khotyn","native":null,"lat":"48.50693000","lon":"26.49121000"},{"name":"Klishkivtsi","native":null,"lat":"48.43161000","lon":"26.26231000"},{"name":"Kostryzhivka","native":null,"lat":"48.65455000","lon":"25.71316000"},{"name":"Luzhany","native":null,"lat":"48.36492000","lon":"25.77173000"},{"name":"Marshintsy","native":null,"lat":"48.21751000","lon":"26.29133000"},{"name":"Molodiya","native":null,"lat":"48.22326000","lon":"26.02139000"},{"name":"Myhove","native":null,"lat":"48.15749000","lon":"25.37904000"},{"name":"Novodnistrovs’k","native":null,"lat":"48.58303000","lon":"27.44070000"},{"name":"Novoselytsya","native":null,"lat":"48.21931000","lon":"26.26531000"},{"name":"Nyzhni Petrivtsi","native":null,"lat":"48.02847000","lon":"25.72327000"},{"name":"Putyla Raion","native":null,"lat":"48.00000000","lon":"25.00000000"},{"name":"Ropcha","native":null,"lat":"48.11988000","lon":"25.77421000"},{"name":"Shypyntsi","native":null,"lat":"48.37677000","lon":"25.74664000"},{"name":"Sokyryany","native":null,"lat":"48.44747000","lon":"27.41678000"},{"name":"Vashkivtsi","native":null,"lat":"48.38491000","lon":"25.51023000"},{"name":"Verenchanka","native":null,"lat":"48.54653000","lon":"25.74533000"},{"name":"Voloka","native":null,"lat":"48.19225000","lon":"25.93074000"},{"name":"Vyzhnytsya","native":null,"lat":"48.24801000","lon":"25.19452000"},{"name":"Yizhivtsi","native":null,"lat":"48.03962000","lon":"25.66232000"},{"name":"Zastavna","native":null,"lat":"48.52307000","lon":"25.84369000"}]},{"name":"Dnipropetrovska oblast","native":null,"cities":[{"name":"Apostolove","native":null,"lat":"47.66003000","lon":"33.71369000"},{"name":"Auly","native":null,"lat":"48.56660000","lon":"34.46111000"},{"name":"Aviatorske","native":null,"lat":"48.36714000","lon":"35.08132000"},{"name":"Chervonohryhorivka","native":null,"lat":"47.62298000","lon":"34.53887000"},{"name":"Chortomlyk","native":null,"lat":"47.62315000","lon":"34.14198000"},{"name":"Dnipro","native":null,"lat":"48.45930000","lon":"35.03865000"},{"name":"Dnipro Raion","native":null,"lat":"48.45608000","lon":"35.02167000"},{"name":"Dniprovs’ka Mis’ka Rada","native":null,"lat":"48.46726000","lon":"34.99898000"},{"name":"Hubynykha","native":null,"lat":"48.80980000","lon":"35.25602000"},{"name":"Hupalivka","native":null,"lat":"49.11139000","lon":"34.73556000"},{"name":"Kamianske","native":null,"lat":"48.51134000","lon":"34.60210000"},{"name":"Kaydaki","native":null,"lat":"48.37678000","lon":"35.12398000"},{"name":"Krynychky","native":null,"lat":"48.37551000","lon":"34.46701000"},{"name":"Kryvoriz’ka Mis’krada","native":null,"lat":"47.94730000","lon":"33.42489000"},{"name":"Kryvyi Rih","native":null,"lat":"47.90966000","lon":"33.38044000"},{"name":"Lykhivka","native":null,"lat":"48.68735000","lon":"33.92279000"},{"name":"Mahdalynivka","native":null,"lat":"48.92111000","lon":"34.91491000"},{"name":"Mahdalynivs’kyy Rayon","native":null,"lat":"48.97612000","lon":"34.96762000"},{"name":"Marhanets’","native":null,"lat":"47.63543000","lon":"34.62769000"},{"name":"Melioratyvne","native":null,"lat":"48.63009000","lon":"35.41558000"},{"name":"Mezhova","native":null,"lat":"48.25318000","lon":"36.73468000"},{"name":"Nikopol","native":null,"lat":"47.57119000","lon":"34.39637000"},{"name":"Novomoskovs’k","native":null,"lat":"48.63799000","lon":"35.24548000"},{"name":"Novomoskovsk Raion","native":null,"lat":"48.66667000","lon":"35.41667000"},{"name":"Novomykolayivka","native":null,"lat":"48.55625000","lon":"34.37399000"},{"name":"Novopokrovka","native":null,"lat":"48.05918000","lon":"34.60619000"},{"name":"Ordzhonikidze","native":null,"lat":"47.66763000","lon":"34.05957000"},{"name":"Partyzans’ke","native":null,"lat":"48.58680000","lon":"34.80948000"},{"name":"Pavlohrad","native":null,"lat":"48.53426000","lon":"35.87098000"},{"name":"Petropavlivka","native":null,"lat":"48.45643000","lon":"36.43670000"},{"name":"Petrykivka","native":null,"lat":"48.72933000","lon":"34.63358000"},{"name":"Petrykivs’kyy Rayon","native":null,"lat":"48.68914000","lon":"34.61098000"},{"name":"Piatykhatky","native":null,"lat":"48.41333000","lon":"33.71056000"},{"name":"Pidhorodne","native":null,"lat":"48.57528000","lon":"35.10680000"},{"name":"Sholokhove","native":null,"lat":"47.69453000","lon":"34.03119000"},{"name":"Shyroke","native":null,"lat":"47.69173000","lon":"33.25715000"},{"name":"Shyroke Raion","native":null,"lat":"47.66667000","lon":"33.33333000"},{"name":"Sofiyivka","native":null,"lat":"48.04865000","lon":"33.87618000"},{"name":"Solone","native":null,"lat":"48.20805000","lon":"34.87208000"},{"name":"Solone Raion","native":null,"lat":"48.16667000","lon":"35.00000000"},{"name":"Spas’ke","native":null,"lat":"48.66667000","lon":"35.05385000"},{"name":"Surs’ko-Mykhaylivka","native":null,"lat":"48.27202000","lon":"34.72759000"},{"name":"Synel’nykove","native":null,"lat":"48.32044000","lon":"35.51792000"},{"name":"Tomakivka","native":null,"lat":"47.81569000","lon":"34.74137000"},{"name":"Tsarychanka","native":null,"lat":"48.93697000","lon":"34.47860000"},{"name":"Tsarychans’kyy Rayon","native":null,"lat":"48.93329000","lon":"34.53043000"},{"name":"Verkhn’odniprovs’k","native":null,"lat":"48.65242000","lon":"34.33457000"},{"name":"Vil’ne","native":null,"lat":"47.63645000","lon":"34.81387000"},{"name":"Vyshchetarasivka","native":null,"lat":"47.56851000","lon":"34.88096000"},{"name":"Vyshneve","native":null,"lat":"48.43611000","lon":"33.91556000"},{"name":"Yur”yivs’kyy Rayon","native":null,"lat":"48.80743000","lon":"35.91325000"},{"name":"Zhovti Vody","native":null,"lat":"48.34493000","lon":"33.50374000"}]},{"name":"Donetska oblast","native":null,"cities":[{"name":"Amvrosiivka Raion","native":null,"lat":"47.75000000","lon":"38.50000000"},{"name":"Amvrosiyivka","native":null,"lat":"47.79348000","lon":"38.47768000"},{"name":"Avdiyivka","native":null,"lat":"48.13989000","lon":"37.74255000"},{"name":"Bakhmut","native":null,"lat":"48.59559000","lon":"37.99987000"},{"name":"Bakhmut Raion","native":null,"lat":"48.58333000","lon":"38.00000000"},{"name":"Bezimenne","native":null,"lat":"47.10716000","lon":"37.93815000"},{"name":"Bilyts’ke","native":null,"lat":"48.40642000","lon":"37.18111000"},{"name":"Blahodatne","native":null,"lat":"47.87928000","lon":"38.48492000"},{"name":"Boykivske","native":null,"lat":"47.40994000","lon":"38.02476000"},{"name":"Boykivske Raion","native":null,"lat":"47.41667000","lon":"38.00000000"},{"name":"Chasiv Yar","native":null,"lat":"48.59348000","lon":"37.85724000"},{"name":"Chystyakove","native":null,"lat":"48.03876000","lon":"38.59685000"},{"name":"Debal’tseve","native":null,"lat":"48.34072000","lon":"38.40490000"},{"name":"Dmytrivka","native":null,"lat":"47.93611000","lon":"38.93661000"},{"name":"Dobropillia Raion","native":null,"lat":"48.41667000","lon":"37.16667000"},{"name":"Dobropillya","native":null,"lat":"48.46147000","lon":"37.08524000"},{"name":"Dokuchayevs’k","native":null,"lat":"47.75046000","lon":"37.67936000"},{"name":"Donetsk","native":null,"lat":"48.02300000","lon":"37.80224000"},{"name":"Druzhkivka","native":null,"lat":"48.63013000","lon":"37.55259000"},{"name":"Horlivka","native":null,"lat":"48.33576000","lon":"38.05325000"},{"name":"Ilovays’k","native":null,"lat":"47.92498000","lon":"38.20235000"},{"name":"Khartsyz’k","native":null,"lat":"48.04243000","lon":"38.14728000"},{"name":"Kostiantynivka Raion","native":null,"lat":"48.50000000","lon":"37.75000000"},{"name":"Kostyantynivka","native":null,"lat":"48.52770000","lon":"37.70690000"},{"name":"Kramators’k","native":null,"lat":"48.72305000","lon":"37.55629000"},{"name":"Krasnotorka","native":null,"lat":"48.68204000","lon":"37.53266000"},{"name":"Krinichnaya","native":null,"lat":"48.12899000","lon":"38.02597000"},{"name":"Kurakhovo","native":null,"lat":"47.98522000","lon":"37.28210000"},{"name":"Kuteynykove","native":null,"lat":"47.81227000","lon":"38.28822000"},{"name":"Luhans’ke","native":null,"lat":"48.44574000","lon":"38.26153000"},{"name":"Lyman","native":null,"lat":"48.98837000","lon":"37.80225000"},{"name":"Lyman Raion","native":null,"lat":"49.00000000","lon":"37.83333000"},{"name":"Makiyivka","native":null,"lat":"48.04782000","lon":"37.92576000"},{"name":"Makiyivs’ka Mis’krada","native":null,"lat":"48.06287000","lon":"38.03075000"},{"name":"Manhush","native":null,"lat":"47.05582000","lon":"37.31068000"},{"name":"Mar'yinka","native":null,"lat":"47.94527000","lon":"37.50544000"},{"name":"Mariupol","native":null,"lat":"47.09514000","lon":"37.54131000"},{"name":"Melekyne","native":null,"lat":"46.95957000","lon":"37.39981000"},{"name":"Mospyne","native":null,"lat":"47.89081000","lon":"38.06395000"},{"name":"Myrnohrad","native":null,"lat":"48.30523000","lon":"37.26091000"},{"name":"Nikolske Raion","native":null,"lat":"47.25000000","lon":"37.25000000"},{"name":"Novoazovs'k","native":null,"lat":"47.11389000","lon":"38.08599000"},{"name":"Novodonets’ke","native":null,"lat":"48.63526000","lon":"36.98477000"},{"name":"Novyy Svit","native":null,"lat":"47.80591000","lon":"38.02112000"},{"name":"Nyzhnya Krynka","native":null,"lat":"48.11350000","lon":"38.16064000"},{"name":"P'yatypill'ya","native":null,"lat":"48.01590000","lon":"38.09979000"},{"name":"Pokrovsk","native":null,"lat":"48.28198000","lon":"37.17585000"},{"name":"Pokrovsk Raion","native":null,"lat":"48.25000000","lon":"37.16667000"},{"name":"Rodyns’ke","native":null,"lat":"48.35199000","lon":"37.20602000"},{"name":"Rozsypne","native":null,"lat":"48.14966000","lon":"38.57619000"},{"name":"Sartana","native":null,"lat":"47.17436000","lon":"37.69266000"},{"name":"Selydivs’ka Mis’krada","native":null,"lat":"48.14530000","lon":"37.29962000"},{"name":"Selydove","native":null,"lat":"48.14708000","lon":"37.30032000"},{"name":"Serebryanka","native":null,"lat":"48.91917000","lon":"38.13494000"},{"name":"Shakhtars’k","native":null,"lat":"48.05657000","lon":"38.43826000"},{"name":"Shcherbynivka","native":null,"lat":"48.39489000","lon":"37.79102000"},{"name":"Shyroke","native":null,"lat":"47.95711000","lon":"38.23160000"},{"name":"Sivers’k","native":null,"lat":"48.86699000","lon":"38.10007000"},{"name":"Sloviansk","native":null,"lat":"48.86667000","lon":"37.61667000"},{"name":"Sloviansk Raion","native":null,"lat":"48.91667000","lon":"37.50000000"},{"name":"Snizhne","native":null,"lat":"48.02612000","lon":"38.77225000"},{"name":"Soledar","native":null,"lat":"48.67935000","lon":"38.08902000"},{"name":"Starobesheve","native":null,"lat":"47.75038000","lon":"38.03051000"},{"name":"Staryy Krym","native":null,"lat":"47.16146000","lon":"37.48934000"},{"name":"Stizhkivs’ke","native":null,"lat":"48.11333000","lon":"38.49250000"},{"name":"Svetlodarsk","native":null,"lat":"48.43374000","lon":"38.22331000"},{"name":"Svyatogorsk","native":null,"lat":"49.03333000","lon":"37.56667000"},{"name":"Syedove","native":null,"lat":"47.07678000","lon":"38.15602000"},{"name":"Temriuk","native":null,"lat":"47.26857000","lon":"36.98115000"},{"name":"Toretsk","native":null,"lat":"48.39869000","lon":"37.84787000"},{"name":"Urzuf","native":null,"lat":"46.91562000","lon":"37.09961000"},{"name":"Volnovakha","native":null,"lat":"47.60103000","lon":"37.49674000"},{"name":"Vuhlehirs’k","native":null,"lat":"48.31474000","lon":"38.27423000"},{"name":"Yalta","native":null,"lat":"46.96279000","lon":"37.27365000"},{"name":"Yasynuvata","native":null,"lat":"48.12980000","lon":"37.85940000"},{"name":"Yasynuvata Raion","native":null,"lat":"48.16667000","lon":"37.83333000"},{"name":"Yenakiyeve","native":null,"lat":"48.23331000","lon":"38.21137000"},{"name":"Zuhres","native":null,"lat":"48.01140000","lon":"38.26444000"}]},{"name":"Ivano-Frankivska oblast","native":null,"cities":[{"name":"Bili Oslavy","native":null,"lat":"48.48722000","lon":"24.70078000"},{"name":"Bilshivtsi","native":null,"lat":"49.18333000","lon":"24.75000000"},{"name":"Bohorodchans’kyy Rayon","native":null,"lat":"48.72278000","lon":"24.38042000"},{"name":"Bohorodchany","native":null,"lat":"48.80700000","lon":"24.53834000"},{"name":"Bolekhiv","native":null,"lat":"49.06607000","lon":"23.86435000"},{"name":"Bolekhivs’ka Mis’krada","native":null,"lat":"49.06255000","lon":"23.84339000"},{"name":"Borshchevskiy Rayon","native":null,"lat":"48.75000000","lon":"26.00000000"},{"name":"Broshniv-Osada","native":null,"lat":"48.99621000","lon":"24.19748000"},{"name":"Burshtyn","native":null,"lat":"49.25867000","lon":"24.62777000"},{"name":"Burshtyns’ka Mis’krada","native":null,"lat":"49.25217000","lon":"24.63320000"},{"name":"Bystrytsya","native":null,"lat":"48.45931000","lon":"24.24545000"},{"name":"Bytkiv","native":null,"lat":"48.62968000","lon":"24.47398000"},{"name":"Chernelytsya","native":null,"lat":"48.81207000","lon":"25.42477000"},{"name":"Cherniyiv","native":null,"lat":"48.85658000","lon":"24.71388000"},{"name":"Chernyatyn","native":null,"lat":"48.66034000","lon":"25.44832000"},{"name":"Chornoliztsi","native":null,"lat":"48.83034000","lon":"24.89576000"},{"name":"Delyatyn","native":null,"lat":"48.52354000","lon":"24.62466000"},{"name":"Dolyna","native":null,"lat":"48.97330000","lon":"24.00944000"},{"name":"Dolyns’kyy Rayon","native":null,"lat":"48.89148000","lon":"23.84343000"},{"name":"Halych","native":null,"lat":"49.12179000","lon":"24.72578000"},{"name":"Halyts’kyy Rayon","native":null,"lat":"49.16169000","lon":"24.71797000"},{"name":"Horodenka","native":null,"lat":"48.67274000","lon":"25.50163000"},{"name":"Horodenkivs’kyy Rayon","native":null,"lat":"48.70617000","lon":"25.42008000"},{"name":"Hvizd","native":null,"lat":"48.68517000","lon":"24.55055000"},{"name":"Ivano-Frankivs’ka Mis’krada","native":null,"lat":"48.91177000","lon":"24.72831000"},{"name":"Ivano-Frankivsk","native":null,"lat":"48.92150000","lon":"24.70972000"},{"name":"Kalus’kyy Rayon","native":null,"lat":"49.06088000","lon":"24.38766000"},{"name":"Kalush","native":null,"lat":"49.01187000","lon":"24.37308000"},{"name":"Khymchyn","native":null,"lat":"48.38639000","lon":"25.14803000"},{"name":"Kolomyia","native":null,"lat":"48.53115000","lon":"25.03649000"},{"name":"Kolomyys’kyy Rayon","native":null,"lat":"48.58586000","lon":"24.99300000"},{"name":"Kosiv","native":null,"lat":"48.31071000","lon":"25.09575000"},{"name":"Kosivs’kyy Rayon","native":null,"lat":"48.32569000","lon":"24.98641000"},{"name":"Kosmach","native":null,"lat":"48.75089000","lon":"24.36731000"},{"name":"Krasna","native":null,"lat":"48.57571000","lon":"24.70027000"},{"name":"Kuty","native":null,"lat":"48.25868000","lon":"25.17946000"},{"name":"Lanchyn","native":null,"lat":"48.55781000","lon":"24.75622000"},{"name":"Manyava","native":null,"lat":"48.65541000","lon":"24.37537000"},{"name":"Markova","native":null,"lat":"48.67576000","lon":"24.41382000"},{"name":"Nadvirna","native":null,"lat":"48.63480000","lon":"24.56936000"},{"name":"Nadvirnyans’kyy Rayon","native":null,"lat":"48.55387000","lon":"24.50381000"},{"name":"Nebyliv","native":null,"lat":"48.81526000","lon":"24.21657000"},{"name":"Novytsya","native":null,"lat":"48.96345000","lon":"24.33542000"},{"name":"Obertyn","native":null,"lat":"48.70032000","lon":"25.17012000"},{"name":"Otyniya","native":null,"lat":"48.73767000","lon":"24.86111000"},{"name":"Pasichna","native":null,"lat":"48.57152000","lon":"24.43003000"},{"name":"Pechenizhyn","native":null,"lat":"48.51551000","lon":"24.89423000"},{"name":"Petranka","native":null,"lat":"48.90246000","lon":"24.30347000"},{"name":"Pniv","native":null,"lat":"48.61783000","lon":"24.52872000"},{"name":"Porohy","native":null,"lat":"48.68755000","lon":"24.26322000"},{"name":"Radcha","native":null,"lat":"48.85023000","lon":"24.65502000"},{"name":"Rechka","native":null,"lat":"48.28034000","lon":"24.93330000"},{"name":"Rohatyn","native":null,"lat":"49.40900000","lon":"24.60927000"},{"name":"Rohatyns’kyy Rayon","native":null,"lat":"49.38025000","lon":"24.57111000"},{"name":"Rozhniativ","native":null,"lat":"48.93576000","lon":"24.16379000"},{"name":"Rozhniv","native":null,"lat":"48.36597000","lon":"25.22580000"},{"name":"Rozhnyativs’kyy Rayon","native":null,"lat":"48.75890000","lon":"24.07588000"},{"name":"Sadzhavka","native":null,"lat":"48.56603000","lon":"24.78820000"},{"name":"Sheshory","native":null,"lat":"48.33197000","lon":"24.98329000"},{"name":"Sniatyn","native":null,"lat":"48.44692000","lon":"25.56937000"},{"name":"Snyatyns’kyy Rayon","native":null,"lat":"48.47674000","lon":"25.41153000"},{"name":"Solotvyn","native":null,"lat":"48.70212000","lon":"24.42212000"},{"name":"Spas","native":null,"lat":"48.88992000","lon":"24.06293000"},{"name":"Stari Bohorodchany","native":null,"lat":"48.83361000","lon":"24.52430000"},{"name":"Stari Kuty","native":null,"lat":"48.27093000","lon":"25.17293000"},{"name":"Stetseva","native":null,"lat":"48.52767000","lon":"25.57572000"},{"name":"Svarychiv","native":null,"lat":"48.96220000","lon":"24.19658000"},{"name":"Tatariv","native":null,"lat":"48.34558000","lon":"24.57836000"},{"name":"Tlumach","native":null,"lat":"48.86403000","lon":"25.00325000"},{"name":"Tlumats’kyy Rayon","native":null,"lat":"48.82924000","lon":"25.09055000"},{"name":"Tysmenychany","native":null,"lat":"48.77168000","lon":"24.66626000"},{"name":"Tysmenyts’kyy Rayon","native":null,"lat":"48.92246000","lon":"24.74486000"},{"name":"Tysmenytsya","native":null,"lat":"48.90219000","lon":"24.84482000"},{"name":"Uhryniv","native":null,"lat":"48.95520000","lon":"24.69292000"},{"name":"Velykyy Klyuchiv","native":null,"lat":"48.47092000","lon":"24.94677000"},{"name":"Verkhniy Yasenov","native":null,"lat":"48.16156000","lon":"24.94532000"},{"name":"Verkhovyna","native":null,"lat":"48.15571000","lon":"24.79112000"},{"name":"Vorokhta","native":null,"lat":"48.28459000","lon":"24.56536000"},{"name":"Yabluniv","native":null,"lat":"48.40418000","lon":"24.93874000"},{"name":"Yablunytsya","native":null,"lat":"48.31742000","lon":"24.48448000"},{"name":"Yamnytsya","native":null,"lat":"48.98972000","lon":"24.70750000"},{"name":"Yaremchans’ks Mis’krada","native":null,"lat":"48.33234000","lon":"24.57426000"},{"name":"Yaremche","native":null,"lat":"48.45157000","lon":"24.55436000"},{"name":"Zabolotiv","native":null,"lat":"48.47054000","lon":"25.28571000"},{"name":"Zahvizdya","native":null,"lat":"48.91836000","lon":"24.65275000"},{"name":"Zarichchya","native":null,"lat":"48.52144000","lon":"24.64857000"}]},{"name":"Kharkivska oblast","native":null,"cities":[{"name":"Balakliya","native":null,"lat":"49.46270000","lon":"36.85951000"},{"name":"Barvinkove","native":null,"lat":"48.90970000","lon":"37.02051000"},{"name":"Berezivka","native":null,"lat":"49.43935000","lon":"35.70736000"},{"name":"Bezlyudivka","native":null,"lat":"49.87547000","lon":"36.26539000"},{"name":"Blyznyuky","native":null,"lat":"48.85775000","lon":"36.55505000"},{"name":"Bohodukhiv","native":null,"lat":"50.16466000","lon":"35.52765000"},{"name":"Borova","native":null,"lat":"49.37770000","lon":"37.62136000"},{"name":"Budy","native":null,"lat":"49.89133000","lon":"36.02096000"},{"name":"Chapayeve","native":null,"lat":"49.36625000","lon":"35.87486000"},{"name":"Chervonyy Oskil","native":null,"lat":"49.17906000","lon":"37.42593000"},{"name":"Chuhuyiv","native":null,"lat":"49.83588000","lon":"36.68803000"},{"name":"Derhachi","native":null,"lat":"50.10659000","lon":"36.12112000"},{"name":"Dvorichna","native":null,"lat":"49.85019000","lon":"37.68262000"},{"name":"Eskhar","native":null,"lat":"49.79614000","lon":"36.59047000"},{"name":"Huty","native":null,"lat":"50.13322000","lon":"35.34394000"},{"name":"Izyum","native":null,"lat":"49.20875000","lon":"37.24849000"},{"name":"Kehychivka","native":null,"lat":"49.28656000","lon":"35.76153000"},{"name":"Kharkiv","native":null,"lat":"49.98081000","lon":"36.25272000"},{"name":"Khorosheve","native":null,"lat":"49.85413000","lon":"36.21704000"},{"name":"Kivsharivka","native":null,"lat":"49.63096000","lon":"37.68821000"},{"name":"Kochetok","native":null,"lat":"49.88005000","lon":"36.73723000"},{"name":"Kolomak","native":null,"lat":"49.83987000","lon":"35.30441000"},{"name":"Korotych","native":null,"lat":"49.94737000","lon":"36.03736000"},{"name":"Krasnohrad","native":null,"lat":"49.38009000","lon":"35.44186000"},{"name":"Krasnokuts’k","native":null,"lat":"50.06602000","lon":"35.16275000"},{"name":"Krasnopavlivka","native":null,"lat":"49.13643000","lon":"36.31911000"},{"name":"Kulynychi","native":null,"lat":"49.98178000","lon":"36.38283000"},{"name":"Kupjansk","native":null,"lat":"49.71055000","lon":"37.61517000"},{"name":"Lozova","native":null,"lat":"48.88937000","lon":"36.31755000"},{"name":"Lyman","native":null,"lat":"49.59769000","lon":"36.47030000"},{"name":"Lyubotyn","native":null,"lat":"49.94691000","lon":"35.92907000"},{"name":"Mala Danylivka","native":null,"lat":"50.06354000","lon":"36.16564000"},{"name":"Malynivka","native":null,"lat":"49.81667000","lon":"36.73333000"},{"name":"Manchenky","native":null,"lat":"49.97982000","lon":"35.85835000"},{"name":"Merefa","native":null,"lat":"49.82302000","lon":"36.05069000"},{"name":"Nova Vodolaha","native":null,"lat":"49.71901000","lon":"35.86578000"},{"name":"Novopokrovka","native":null,"lat":"49.83349000","lon":"36.54771000"},{"name":"Panyutyne","native":null,"lat":"48.93692000","lon":"36.27563000"},{"name":"Peresichna","native":null,"lat":"50.02452000","lon":"35.97871000"},{"name":"Pervomaiskyi Raion","native":null,"lat":"49.41667000","lon":"36.33333000"},{"name":"Pervomays’kyy","native":null,"lat":"49.38742000","lon":"36.21471000"},{"name":"Petrivs’ke","native":null,"lat":"49.17695000","lon":"36.89999000"},{"name":"Pivdenne","native":null,"lat":"49.88315000","lon":"36.06785000"},{"name":"Pokotylivka","native":null,"lat":"49.91343000","lon":"36.17511000"},{"name":"Prudyanka","native":null,"lat":"50.23606000","lon":"36.16835000"},{"name":"Prykolotne","native":null,"lat":"50.16273000","lon":"37.34524000"},{"name":"Sakhnovshchyna","native":null,"lat":"49.15166000","lon":"35.87198000"},{"name":"Savyntsi","native":null,"lat":"49.40257000","lon":"37.06266000"},{"name":"Shevchenkove","native":null,"lat":"49.69585000","lon":"37.17348000"},{"name":"Slatyne","native":null,"lat":"50.21041000","lon":"36.15376000"},{"name":"Slobozhans’ke","native":null,"lat":"49.59701000","lon":"36.52618000"},{"name":"Solonytsivka","native":null,"lat":"49.99682000","lon":"36.03464000"},{"name":"Staryy Merchyk","native":null,"lat":"49.98147000","lon":"35.75904000"},{"name":"Staryy Saltiv","native":null,"lat":"50.07619000","lon":"36.78852000"},{"name":"Studenok","native":null,"lat":"49.09107000","lon":"37.48697000"},{"name":"Utkivka","native":null,"lat":"49.78583000","lon":"36.07528000"},{"name":"Valky","native":null,"lat":"49.83597000","lon":"35.61223000"},{"name":"Vasyshcheve","native":null,"lat":"49.82852000","lon":"36.32691000"},{"name":"Velykyy Burluk","native":null,"lat":"50.06170000","lon":"37.38373000"},{"name":"Verbivka","native":null,"lat":"49.41667000","lon":"35.53333000"},{"name":"Vovchans’k","native":null,"lat":"50.29078000","lon":"36.94108000"},{"name":"Vvedenka","native":null,"lat":"49.82372000","lon":"36.50264000"},{"name":"Vysokyy","native":null,"lat":"49.89156000","lon":"36.12175000"},{"name":"Zachepylivka","native":null,"lat":"49.19385000","lon":"35.23943000"},{"name":"Zmiyiv","native":null,"lat":"49.67453000","lon":"36.34775000"},{"name":"Zolochiv","native":null,"lat":"50.27985000","lon":"35.98179000"}]},{"name":"Khersonska oblast","native":null,"cities":[{"name":"Askaniya-Nova","native":null,"lat":"46.45135000","lon":"33.86889000"},{"name":"Bekhtery","native":null,"lat":"46.24790000","lon":"32.29123000"},{"name":"Beryslav","native":null,"lat":"46.84152000","lon":"33.42838000"},{"name":"Bilozerka","native":null,"lat":"46.62480000","lon":"32.44251000"},{"name":"Brylivka","native":null,"lat":"46.42476000","lon":"33.14721000"},{"name":"Chaplynka","native":null,"lat":"46.36507000","lon":"33.54027000"},{"name":"Chornobayivka","native":null,"lat":"46.69411000","lon":"32.55371000"},{"name":"Chornyanka","native":null,"lat":"46.65222000","lon":"33.35904000"},{"name":"Chulakivka","native":null,"lat":"46.35763000","lon":"32.35140000"},{"name":"Dnipryany","native":null,"lat":"46.74631000","lon":"33.27288000"},{"name":"Dudchany","native":null,"lat":"47.18557000","lon":"33.76390000"},{"name":"Heniches’k","native":null,"lat":"46.17592000","lon":"34.80340000"},{"name":"Heniches’kyy Rayon","native":null,"lat":"46.26451000","lon":"34.74488000"},{"name":"Hola Prystan’","native":null,"lat":"46.52719000","lon":"32.52417000"},{"name":"Hornostayivka","native":null,"lat":"47.00777000","lon":"33.72899000"},{"name":"Ivanivka","native":null,"lat":"46.72082000","lon":"34.55298000"},{"name":"Kakhovka","native":null,"lat":"46.81371000","lon":"33.48698000"},{"name":"Kalanchak","native":null,"lat":"46.25623000","lon":"33.29070000"},{"name":"Kayiry","native":null,"lat":"46.94537000","lon":"33.70591000"},{"name":"Kherson","native":null,"lat":"46.65581000","lon":"32.61780000"},{"name":"Komyshany","native":null,"lat":"46.63716000","lon":"32.50719000"},{"name":"Kozachi Laheri","native":null,"lat":"46.70372000","lon":"32.97760000"},{"name":"Krasne","native":null,"lat":"46.13088000","lon":"32.76910000"},{"name":"Lazurne","native":null,"lat":"46.08400000","lon":"32.52955000"},{"name":"Lyubymivka","native":null,"lat":"46.81063000","lon":"33.56862000"},{"name":"Malokakhovka","native":null,"lat":"46.78142000","lon":"33.44790000"},{"name":"Nova Kakhovka","native":null,"lat":"46.75451000","lon":"33.34864000"},{"name":"Nova Mayachka","native":null,"lat":"46.59996000","lon":"33.22707000"},{"name":"Novofedorivka","native":null,"lat":"46.17128000","lon":"32.31781000"},{"name":"Novooleksiyivka","native":null,"lat":"46.22472000","lon":"34.64031000"},{"name":"Novovorontsovka","native":null,"lat":"47.50035000","lon":"33.91748000"},{"name":"Nyzhni Sirohozy","native":null,"lat":"46.84842000","lon":"34.38044000"},{"name":"Partyzany","native":null,"lat":"46.33383000","lon":"34.75314000"},{"name":"Radens’k","native":null,"lat":"46.54860000","lon":"32.92787000"},{"name":"Skadovs’k","native":null,"lat":"46.11610000","lon":"32.91124000"},{"name":"Stanislav","native":null,"lat":"46.56909000","lon":"32.14777000"},{"name":"Tsyurupyns’k","native":null,"lat":"46.61842000","lon":"32.71890000"},{"name":"Velyka Lepetykha","native":null,"lat":"47.17572000","lon":"33.94362000"},{"name":"Velyka Oleksandrivka","native":null,"lat":"47.31969000","lon":"33.30373000"},{"name":"Velyki Kopani","native":null,"lat":"46.48684000","lon":"32.97498000"},{"name":"Verkhniy Rohachyk","native":null,"lat":"47.25053000","lon":"34.33797000"},{"name":"Vynohradove","native":null,"lat":"46.36957000","lon":"32.93980000"},{"name":"Vysokopillya","native":null,"lat":"47.49187000","lon":"33.53061000"},{"name":"Zaliznyy Port","native":null,"lat":"46.12337000","lon":"32.29892000"}]},{"name":"Khmelnytska oblast","native":null,"cities":[{"name":"Antoniny","native":null,"lat":"49.80974000","lon":"26.87714000"},{"name":"Bazaliya","native":null,"lat":"49.71267000","lon":"26.47331000"},{"name":"Derazhnya","native":null,"lat":"49.26920000","lon":"27.43382000"},{"name":"Derazhnyans’kyy Rayon","native":null,"lat":"49.22676000","lon":"27.46603000"},{"name":"Dunaivtsi","native":null,"lat":"48.88909000","lon":"26.85636000"},{"name":"Horodok","native":null,"lat":"49.16374000","lon":"26.58394000"},{"name":"Izyaslav","native":null,"lat":"50.11947000","lon":"26.82125000"},{"name":"Kamianets-Podilskyi","native":null,"lat":"48.68450000","lon":"26.58559000"},{"name":"Khmel’nyts’kyy Rayon","native":null,"lat":"49.44511000","lon":"26.93268000"},{"name":"Khmelnytskyi","native":null,"lat":"49.42161000","lon":"26.99653000"},{"name":"Krasyliv","native":null,"lat":"49.65186000","lon":"26.97253000"},{"name":"Letychiv","native":null,"lat":"49.38263000","lon":"27.63051000"},{"name":"Makiv","native":null,"lat":"48.79487000","lon":"26.69188000"},{"name":"Medzhybizh","native":null,"lat":"49.43748000","lon":"27.40487000"},{"name":"Narkevychi","native":null,"lat":"49.51717000","lon":"26.64178000"},{"name":"Netishyn","native":null,"lat":"50.34004000","lon":"26.64171000"},{"name":"Nova Ushytsya","native":null,"lat":"48.83716000","lon":"27.27434000"},{"name":"Novoselytsya","native":null,"lat":"50.07030000","lon":"27.51955000"},{"name":"Polonne","native":null,"lat":"50.12424000","lon":"27.51087000"},{"name":"Poninka","native":null,"lat":"50.18492000","lon":"27.53629000"},{"name":"Shepetivka","native":null,"lat":"50.18545000","lon":"27.06365000"},{"name":"Slavuta","native":null,"lat":"50.30155000","lon":"26.86506000"},{"name":"Smotrych","native":null,"lat":"48.66149000","lon":"26.56031000"},{"name":"Smyga","native":null,"lat":"50.23910000","lon":"25.76575000"},{"name":"Stara Syniava","native":null,"lat":"49.60318000","lon":"27.61909000"},{"name":"Starokostiantyniv","native":null,"lat":"49.75764000","lon":"27.20342000"},{"name":"Yarmolyntsi","native":null,"lat":"49.19236000","lon":"26.83725000"},{"name":"Zakupne","native":null,"lat":"49.11944000","lon":"26.33756000"},{"name":"Zhvanets","native":null,"lat":"48.54968000","lon":"26.48744000"}]},{"name":"Kirovohradska oblast","native":null,"cities":[{"name":"Adzhamka","native":null,"lat":"48.54245000","lon":"32.53542000"},{"name":"Blahovishchenske Raion","native":null,"lat":"48.25000000","lon":"30.25000000"},{"name":"Bobrynets","native":null,"lat":"48.05896000","lon":"32.16641000"},{"name":"Dmytrivka","native":null,"lat":"48.79690000","lon":"32.71645000"},{"name":"Dobrovelychkivka","native":null,"lat":"48.38778000","lon":"31.18028000"},{"name":"Dobrovelychkivs’kyy Rayon","native":null,"lat":"48.36935000","lon":"31.16354000"},{"name":"Dolyns'ka","native":null,"lat":"48.11041000","lon":"32.76449000"},{"name":"Dolyns’kyy Rayon","native":null,"lat":"48.16327000","lon":"32.88318000"},{"name":"Hayvoron","native":null,"lat":"48.33958000","lon":"29.86791000"},{"name":"Kapitanivka","native":null,"lat":"48.91719000","lon":"31.71671000"},{"name":"Kirovohrads’ka Mis’krada","native":null,"lat":"48.52185000","lon":"32.24367000"},{"name":"Kompaniyivka","native":null,"lat":"48.25115000","lon":"32.20795000"},{"name":"Kropyvnytskyi","native":null,"lat":"48.51320000","lon":"32.25970000"},{"name":"Lozuvatka","native":null,"lat":"48.05710000","lon":"33.28581000"},{"name":"Lypnyazhka","native":null,"lat":"48.44694000","lon":"31.07611000"},{"name":"Mala Vyska","native":null,"lat":"48.64308000","lon":"31.63657000"},{"name":"Malovyskivs’kyy Rayon","native":null,"lat":"48.57680000","lon":"31.57594000"},{"name":"Molodizhne","native":null,"lat":"48.17732000","lon":"32.66015000"},{"name":"Nova Praha","native":null,"lat":"48.56821000","lon":"32.90273000"},{"name":"Novhorodka","native":null,"lat":"48.36506000","lon":"32.65785000"},{"name":"Novoarkhanhel’s’k","native":null,"lat":"48.65803000","lon":"30.81821000"},{"name":"Novomyrhorod","native":null,"lat":"48.78105000","lon":"31.64204000"},{"name":"Novoukrayinka","native":null,"lat":"48.32635000","lon":"31.52852000"},{"name":"Novyy Starodub","native":null,"lat":"48.51580000","lon":"33.17329000"},{"name":"Oleksandrivka","native":null,"lat":"48.96336000","lon":"32.23492000"},{"name":"Oleksandriya","native":null,"lat":"48.66961000","lon":"33.11593000"},{"name":"Oleksandriys’ke","native":null,"lat":"48.60767000","lon":"32.98347000"},{"name":"Onufriyivka","native":null,"lat":"48.90716000","lon":"33.44869000"},{"name":"Pantayivka","native":null,"lat":"48.67400000","lon":"32.88410000"},{"name":"Pavlysh","native":null,"lat":"48.91762000","lon":"33.35691000"},{"name":"Perehonivka","native":null,"lat":"48.53552000","lon":"30.51923000"},{"name":"Petrove","native":null,"lat":"48.32467000","lon":"33.25617000"},{"name":"Pobugskoye","native":null,"lat":"48.16579000","lon":"30.59274000"},{"name":"Pomichna","native":null,"lat":"48.24222000","lon":"31.41583000"},{"name":"Pryyutivka","native":null,"lat":"48.72094000","lon":"33.07078000"},{"name":"Rivne","native":null,"lat":"48.24742000","lon":"31.75432000"},{"name":"Subottsi","native":null,"lat":"48.65545000","lon":"32.52093000"},{"name":"Svitlovods’k","native":null,"lat":"49.04894000","lon":"33.24106000"},{"name":"Tyshkivka","native":null,"lat":"48.49665000","lon":"30.94229000"},{"name":"Ustynivka","native":null,"lat":"47.95507000","lon":"32.53674000"},{"name":"Yelyzavethradka","native":null,"lat":"48.80381000","lon":"32.40460000"},{"name":"Zavallya","native":null,"lat":"48.21354000","lon":"30.01558000"},{"name":"Zlynka","native":null,"lat":"48.48521000","lon":"31.53906000"},{"name":"Znomenka","native":null,"lat":"48.71278000","lon":"32.66472000"}]},{"name":"Kyiv","native":null,"cities":[{"name":"Darnytsia Raion","native":null,"lat":"50.41333000","lon":"30.69305000"},{"name":"Desnyans’kyy Rayon","native":null,"lat":"50.53550000","lon":"30.60875000"},{"name":"Dnipro Raion","native":null,"lat":"50.46756000","lon":"30.63194000"},{"name":"Holosiiv Raion","native":null,"lat":"50.32749000","lon":"30.56740000"},{"name":"Kotsyubyns’ke","native":null,"lat":"50.48836000","lon":"30.32957000"},{"name":"Kyiv","native":null,"lat":"50.45466000","lon":"30.52380000"},{"name":"Pechersk Raion","native":null,"lat":"50.41902000","lon":"30.56602000"},{"name":"Podil’s’kyy Rayon","native":null,"lat":"50.45000000","lon":"30.53333000"},{"name":"Prolisky","native":null,"lat":"50.39118000","lon":"30.78000000"},{"name":"Shevchenkivs’kyy Rayon","native":null,"lat":"50.43333000","lon":"30.51667000"},{"name":"Solomianka Rayon","native":null,"lat":"50.42886000","lon":"30.45135000"},{"name":"Svyatoshyns’kyy Rayon","native":null,"lat":"50.48533000","lon":"30.38050000"}]},{"name":"Kyivska oblast","native":null,"cities":[{"name":"Baryshivka","native":null,"lat":"50.36098000","lon":"31.32173000"},{"name":"Baryshivs’kyy Rayon","native":null,"lat":"50.36919000","lon":"31.34896000"},{"name":"Bila Tserkva","native":null,"lat":"49.80939000","lon":"30.11209000"},{"name":"Bila Tserkva Raion","native":null,"lat":"49.75000000","lon":"30.08333000"},{"name":"Bohuslav","native":null,"lat":"49.54939000","lon":"30.87440000"},{"name":"Borispol’skiy Rayon","native":null,"lat":"50.33450000","lon":"31.02470000"},{"name":"Borodianka","native":null,"lat":"50.64484000","lon":"29.92010000"},{"name":"Borodyans’kyy Rayon","native":null,"lat":"50.65889000","lon":"29.88556000"},{"name":"Borova","native":null,"lat":"50.17625000","lon":"30.10429000"},{"name":"Boryspil’","native":null,"lat":"50.35269000","lon":"30.95501000"},{"name":"Boyarka","native":null,"lat":"50.31911000","lon":"30.29728000"},{"name":"Brovary","native":null,"lat":"50.51809000","lon":"30.80671000"},{"name":"Brovary Raion","native":null,"lat":"50.58333000","lon":"31.00000000"},{"name":"Bucha","native":null,"lat":"50.54345000","lon":"30.21201000"},{"name":"Chabany","native":null,"lat":"50.34071000","lon":"30.42356000"},{"name":"Chernyakhivka","native":null,"lat":"50.21882000","lon":"31.93082000"},{"name":"Dymer","native":null,"lat":"50.78647000","lon":"30.30260000"},{"name":"Fastiv","native":null,"lat":"50.07670000","lon":"29.91770000"},{"name":"Fastiv Raion","native":null,"lat":"50.08333000","lon":"30.00000000"},{"name":"Hlevakha","native":null,"lat":"50.27423000","lon":"30.32706000"},{"name":"Hnidyn","native":null,"lat":"50.32899000","lon":"30.71059000"},{"name":"Horenka","native":null,"lat":"50.55731000","lon":"30.33217000"},{"name":"Hostomel","native":null,"lat":"50.56841000","lon":"30.26510000"},{"name":"Irpin","native":null,"lat":"50.52175000","lon":"30.25055000"},{"name":"Irpins’ka Mis’krada","native":null,"lat":"50.51585000","lon":"30.24099000"},{"name":"Ivankiv","native":null,"lat":"50.93865000","lon":"29.89426000"},{"name":"Ivankiv Raion","native":null,"lat":"51.00000000","lon":"29.91667000"},{"name":"Kaharlyk","native":null,"lat":"49.86233000","lon":"30.82815000"},{"name":"Kaharlyk Raion","native":null,"lat":"49.91667000","lon":"30.75000000"},{"name":"Kalynove","native":null,"lat":"49.38179000","lon":"30.45137000"},{"name":"Karapyshi","native":null,"lat":"49.64237000","lon":"30.79002000"},{"name":"Katyuzhanka","native":null,"lat":"50.80595000","lon":"30.13763000"},{"name":"Khotiv","native":null,"lat":"50.33069000","lon":"30.46836000"},{"name":"Kirove","native":null,"lat":"50.36890000","lon":"31.12066000"},{"name":"Klavdiyevo-Tarasove","native":null,"lat":"50.58416000","lon":"30.01134000"},{"name":"Knyazhichi","native":null,"lat":"50.46275000","lon":"30.78369000"},{"name":"Kodra","native":null,"lat":"50.59488000","lon":"29.55873000"},{"name":"Korniyivka","native":null,"lat":"50.41661000","lon":"31.46261000"},{"name":"Kozhanka","native":null,"lat":"49.97231000","lon":"29.76424000"},{"name":"Krasyatychi","native":null,"lat":"51.07636000","lon":"29.64899000"},{"name":"Kriukivschina","native":null,"lat":"50.37153000","lon":"30.36861000"},{"name":"Kryva Hora","native":null,"lat":"51.38495000","lon":"30.19978000"},{"name":"Kyyevo-Svyatoshyns’kyy Rayon","native":null,"lat":"50.38530000","lon":"30.23129000"},{"name":"Liutizh","native":null,"lat":"50.68350000","lon":"30.39324000"},{"name":"Makariv","native":null,"lat":"50.46408000","lon":"29.81128000"},{"name":"Makariv Raion","native":null,"lat":"50.50000000","lon":"29.75000000"},{"name":"Mirovka","native":null,"lat":"49.93126000","lon":"30.62309000"},{"name":"Motovylivka","native":null,"lat":"50.15821000","lon":"30.07421000"},{"name":"Myronivka","native":null,"lat":"49.66007000","lon":"30.98225000"},{"name":"Novi Petrivtsi","native":null,"lat":"50.62754000","lon":"30.44310000"},{"name":"Obukhiv","native":null,"lat":"50.10689000","lon":"30.61848000"},{"name":"Obukhiv Raion","native":null,"lat":"50.16667000","lon":"30.66667000"},{"name":"Obukhivs’ka Mis’krada","native":null,"lat":"50.11425000","lon":"30.63293000"},{"name":"Pereiaslav-Khmelnytskyi","native":null,"lat":"50.06739000","lon":"31.44969000"},{"name":"Pereiaslav-Khmelnytskyi Raion","native":null,"lat":"50.08333000","lon":"31.50000000"},{"name":"Piskivka","native":null,"lat":"50.69378000","lon":"29.61934000"},{"name":"Pohreby","native":null,"lat":"50.55453000","lon":"30.64455000"},{"name":"Pukhivka","native":null,"lat":"50.60970000","lon":"30.71770000"},{"name":"Rokytne","native":null,"lat":"49.68665000","lon":"30.47384000"},{"name":"Rokytne Raion","native":null,"lat":"49.75000000","lon":"30.50000000"},{"name":"Roskoshnyy","native":null,"lat":"49.37087000","lon":"30.18471000"},{"name":"Rzhyshchiv","native":null,"lat":"49.96886000","lon":"31.04628000"},{"name":"Semypolky","native":null,"lat":"50.72627000","lon":"30.93441000"},{"name":"Skvyra","native":null,"lat":"49.73177000","lon":"29.66569000"},{"name":"Skvyrs’kyy Rayon","native":null,"lat":"49.74177000","lon":"29.70043000"},{"name":"Slavutych","native":null,"lat":"51.52250000","lon":"30.71806000"},{"name":"Sofiyivska Borschagivka","native":null,"lat":"50.41005000","lon":"30.36724000"},{"name":"Stavyshche","native":null,"lat":"49.39124000","lon":"30.19022000"},{"name":"Stayki","native":null,"lat":"50.07818000","lon":"30.90380000"},{"name":"Tarashcha","native":null,"lat":"49.55832000","lon":"30.49259000"},{"name":"Tetiiv","native":null,"lat":"49.37670000","lon":"29.66474000"},{"name":"Trebukhiv","native":null,"lat":"50.48432000","lon":"30.90304000"},{"name":"Trypillia","native":null,"lat":"50.11802000","lon":"30.78141000"},{"name":"Tsybli","native":null,"lat":"49.99484000","lon":"31.56281000"},{"name":"Ukrainka","native":null,"lat":"50.14317000","lon":"30.74612000"},{"name":"Uzyn","native":null,"lat":"49.82619000","lon":"30.41487000"},{"name":"Vasylkiv","native":null,"lat":"50.18693000","lon":"30.31346000"},{"name":"Vasylkiv Raion","native":null,"lat":"50.16667000","lon":"30.33333000"},{"name":"Velyka Dymerka","native":null,"lat":"50.59333000","lon":"30.90313000"},{"name":"Volodarka","native":null,"lat":"49.52484000","lon":"29.91222000"},{"name":"Voronkov","native":null,"lat":"50.22235000","lon":"30.89967000"},{"name":"Vorzel’","native":null,"lat":"50.54440000","lon":"30.15305000"},{"name":"Vyshgorodskiy Rayon","native":null,"lat":"50.58333000","lon":"30.50000000"},{"name":"Vyshhorod","native":null,"lat":"50.58476000","lon":"30.48980000"},{"name":"Vyshneve","native":null,"lat":"50.38913000","lon":"30.37050000"},{"name":"Yahotyn","native":null,"lat":"50.27975000","lon":"31.76246000"},{"name":"Yahotyns’kyy Rayon","native":null,"lat":"50.25722000","lon":"31.89456000"},{"name":"Z·hurivs’kyy Rayon","native":null,"lat":"50.47192000","lon":"31.79423000"},{"name":"Zgurovka","native":null,"lat":"50.50276000","lon":"31.78492000"}]},{"name":"Luhanska oblast","native":null,"cities":[{"name":"Alchevs’k","native":null,"lat":"48.46893000","lon":"38.81669000"},{"name":"Alchevs’ka Mis’krada","native":null,"lat":"48.48029000","lon":"38.79690000"},{"name":"Antratsyt","native":null,"lat":"48.11503000","lon":"39.09128000"},{"name":"Antratsytivs’kyy Rayon","native":null,"lat":"48.12450000","lon":"39.05683000"},{"name":"Artemivs’k","native":null,"lat":"48.44061000","lon":"38.73200000"},{"name":"Bayrachky","native":null,"lat":"48.39200000","lon":"38.60174000"},{"name":"Bile","native":null,"lat":"48.49523000","lon":"39.05051000"},{"name":"Bilohorivka","native":null,"lat":"48.92503000","lon":"38.24822000"},{"name":"Bilokurakyne","native":null,"lat":"49.53410000","lon":"38.73067000"},{"name":"Bilovods'k","native":null,"lat":"49.20846000","lon":"39.58975000"},{"name":"Biryukove","native":null,"lat":"47.95631000","lon":"39.73843000"},{"name":"Bryanka","native":null,"lat":"48.51100000","lon":"38.67222000"},{"name":"Buran","native":null,"lat":"48.30003000","lon":"39.61526000"},{"name":"Chervonopartyzans’k","native":null,"lat":"48.07613000","lon":"39.79618000"},{"name":"Chornukhyne","native":null,"lat":"48.32339000","lon":"38.52272000"},{"name":"Dovzhanskyy Rayon","native":null,"lat":"48.00000000","lon":"39.66667000"},{"name":"Hirs’ke","native":null,"lat":"48.73468000","lon":"38.49541000"},{"name":"Kadiyivka","native":null,"lat":"48.56818000","lon":"38.64352000"},{"name":"Kirovs’k","native":null,"lat":"48.63751000","lon":"38.64280000"},{"name":"Kirovs’ka Mis’krada","native":null,"lat":"48.63485000","lon":"38.64753000"},{"name":"Klenovyy","native":null,"lat":"48.11934000","lon":"39.45880000"},{"name":"Krasnyy Kut","native":null,"lat":"48.20138000","lon":"38.79765000"},{"name":"Krasnyy Luch","native":null,"lat":"48.13954000","lon":"38.93715000"},{"name":"Kreminna","native":null,"lat":"49.04950000","lon":"38.21792000"},{"name":"Kripens’kyy","native":null,"lat":"48.07709000","lon":"39.05800000"},{"name":"Lenina","native":null,"lat":"48.42944000","lon":"39.14556000"},{"name":"Lozno-Oleksandrivka","native":null,"lat":"49.83910000","lon":"38.74098000"},{"name":"Luhans’ka Mis’krada","native":null,"lat":"48.58083000","lon":"39.35478000"},{"name":"Luhansk","native":null,"lat":"48.56705000","lon":"39.31706000"},{"name":"Lutuhyne","native":null,"lat":"48.40507000","lon":"39.22675000"},{"name":"Lutuhyns’kyy Rayon","native":null,"lat":"48.38509000","lon":"39.21209000"},{"name":"Lysychans’k","native":null,"lat":"48.90485000","lon":"38.44207000"},{"name":"Makariv Yar","native":null,"lat":"48.57768000","lon":"39.71944000"},{"name":"Markivka","native":null,"lat":"49.52290000","lon":"39.57055000"},{"name":"Millerovo","native":null,"lat":"48.16829000","lon":"39.16537000"},{"name":"Milove","native":null,"lat":"49.37528000","lon":"40.13222000"},{"name":"Miusyns’k","native":null,"lat":"48.07750000","lon":"38.90364000"},{"name":"Molodohvardiys’k","native":null,"lat":"48.34511000","lon":"39.65244000"},{"name":"Novopskov","native":null,"lat":"49.54640000","lon":"39.08987000"},{"name":"Nyzhnya Duvanka","native":null,"lat":"49.58464000","lon":"38.17429000"},{"name":"Pavlivka","native":null,"lat":"49.60864000","lon":"38.70917000"},{"name":"Pereval’s’k","native":null,"lat":"48.43779000","lon":"38.84384000"},{"name":"Pervomays’k","native":null,"lat":"48.62988000","lon":"38.54806000"},{"name":"Popasna","native":null,"lat":"48.63328000","lon":"38.37804000"},{"name":"Pryvillya","native":null,"lat":"49.01501000","lon":"38.30457000"},{"name":"Roven’ky","native":null,"lat":"48.08331000","lon":"39.37764000"},{"name":"Rozkishne","native":null,"lat":"48.48959000","lon":"39.27881000"},{"name":"Rubizhans’ka Mis’krada","native":null,"lat":"49.01460000","lon":"38.38909000"},{"name":"Rubizhne","native":null,"lat":"49.01229000","lon":"38.37967000"},{"name":"Shchastya","native":null,"lat":"48.73963000","lon":"39.23230000"},{"name":"Simeykyne","native":null,"lat":"48.32643000","lon":"39.53366000"},{"name":"Slov`yanoserbsk","native":null,"lat":"48.69779000","lon":"38.98133000"},{"name":"Sorokyne","native":null,"lat":"48.29235000","lon":"39.73921000"},{"name":"Sorokyns'kyi Rayon","native":null,"lat":"48.33333000","lon":"39.75000000"},{"name":"Stanytsya Luhans’ka","native":null,"lat":"48.65433000","lon":"39.47943000"},{"name":"Starobil’s’k","native":null,"lat":"49.27832000","lon":"38.91069000"},{"name":"Svatove","native":null,"lat":"49.41029000","lon":"38.15035000"},{"name":"Sverdlovs’k","native":null,"lat":"48.08964000","lon":"39.65243000"},{"name":"Sverdlovs’ka Mis’krada","native":null,"lat":"48.06850000","lon":"39.58057000"},{"name":"Syevyerodonets’k","native":null,"lat":"48.94832000","lon":"38.49166000"},{"name":"Teple","native":null,"lat":"48.31245000","lon":"39.56284000"},{"name":"Toshkivka","native":null,"lat":"48.77914000","lon":"38.57903000"},{"name":"Tr’okhizbenka","native":null,"lat":"48.75751000","lon":"38.96333000"},{"name":"Uralo-Kavkaz","native":null,"lat":"48.32110000","lon":"39.80302000"},{"name":"Uspenka","native":null,"lat":"48.39077000","lon":"39.16284000"},{"name":"Zalesnoye","native":null,"lat":"48.03104000","lon":"38.80934000"},{"name":"Zoryns’k","native":null,"lat":"48.41194000","lon":"38.62361000"},{"name":"Zymohiria","native":null,"lat":"48.58528000","lon":"38.93750000"}]},{"name":"Lvivska oblast","native":null,"cities":[{"name":"Belz","native":null,"lat":"50.38226000","lon":"24.00642000"},{"name":"Bibrka","native":null,"lat":"49.64093000","lon":"24.28874000"},{"name":"Boryslav","native":null,"lat":"49.28672000","lon":"23.43238000"},{"name":"Brody","native":null,"lat":"50.08791000","lon":"25.15027000"},{"name":"Bryukhovychi","native":null,"lat":"49.90467000","lon":"23.95969000"},{"name":"Chervonohrad","native":null,"lat":"50.39105000","lon":"24.23514000"},{"name":"Demnya","native":null,"lat":"49.56738000","lon":"23.94607000"},{"name":"Dobromyl’","native":null,"lat":"49.57193000","lon":"22.78629000"},{"name":"Drohobych","native":null,"lat":"49.34991000","lon":"23.50561000"},{"name":"Dublyany","native":null,"lat":"49.90411000","lon":"24.08637000"},{"name":"Duliby","native":null,"lat":"49.23134000","lon":"23.81532000"},{"name":"Dzvinogrud","native":null,"lat":"49.73333000","lon":"24.25000000"},{"name":"Hlyns'k","native":null,"lat":"50.06033000","lon":"23.89956000"},{"name":"Horodok","native":null,"lat":"49.78465000","lon":"23.64806000"},{"name":"Ivano-Frankove","native":null,"lat":"49.91978000","lon":"23.72913000"},{"name":"Khodoriv","native":null,"lat":"49.40993000","lon":"24.30470000"},{"name":"Khyriv","native":null,"lat":"49.53417000","lon":"22.85538000"},{"name":"Komarno","native":null,"lat":"49.62739000","lon":"23.69952000"},{"name":"Krasne","native":null,"lat":"49.91447000","lon":"24.61340000"},{"name":"Kulykiv","native":null,"lat":"49.97954000","lon":"24.07817000"},{"name":"Lopatyn","native":null,"lat":"50.22022000","lon":"24.84831000"},{"name":"Lviv","native":null,"lat":"49.83826000","lon":"24.02324000"},{"name":"Medenychi","native":null,"lat":"49.43055000","lon":"23.75073000"},{"name":"Morshyn","native":null,"lat":"49.15652000","lon":"23.87232000"},{"name":"Mostys'ka","native":null,"lat":"49.79467000","lon":"23.15077000"},{"name":"Murovane","native":null,"lat":"49.52143000","lon":"22.93670000"},{"name":"Mykolaiv","native":null,"lat":"49.52372000","lon":"23.98522000"},{"name":"Navaria","native":null,"lat":"49.74952000","lon":"23.92746000"},{"name":"Novoyavorivs'k","native":null,"lat":"49.93023000","lon":"23.57357000"},{"name":"Novyi Yarychiv","native":null,"lat":"49.90444000","lon":"24.30523000"},{"name":"Obroshyne","native":null,"lat":"49.78333000","lon":"23.86667000"},{"name":"Olesko","native":null,"lat":"49.96233000","lon":"24.89336000"},{"name":"Peremyshlyany","native":null,"lat":"49.66523000","lon":"24.55846000"},{"name":"Pidbuzh","native":null,"lat":"49.33483000","lon":"23.24887000"},{"name":"Pidhirtsi","native":null,"lat":"49.94611000","lon":"24.97950000"},{"name":"Pidkamin’","native":null,"lat":"49.94599000","lon":"25.31672000"},{"name":"Pnikut","native":null,"lat":"49.71104000","lon":"23.13826000"},{"name":"Pomoriany","native":null,"lat":"49.64092000","lon":"24.93070000"},{"name":"Potelych","native":null,"lat":"50.20804000","lon":"23.54674000"},{"name":"Pustomyty","native":null,"lat":"49.71532000","lon":"23.91295000"},{"name":"Ralivka","native":null,"lat":"49.49982000","lon":"23.23739000"},{"name":"Rava-Rus’ka","native":null,"lat":"50.23079000","lon":"23.62825000"},{"name":"Richky","native":null,"lat":"50.27706000","lon":"23.64617000"},{"name":"Rodatychi","native":null,"lat":"49.79862000","lon":"23.53336000"},{"name":"Rozdil","native":null,"lat":"49.46144000","lon":"24.06230000"},{"name":"Rozvadiv","native":null,"lat":"49.50323000","lon":"23.96200000"},{"name":"Rudky","native":null,"lat":"49.65306000","lon":"23.48702000"},{"name":"Rudne","native":null,"lat":"49.83333000","lon":"23.90000000"},{"name":"Rykhtychi","native":null,"lat":"49.38511000","lon":"23.55662000"},{"name":"Sambir","native":null,"lat":"49.51830000","lon":"23.19752000"},{"name":"Shchyrets","native":null,"lat":"49.65096000","lon":"23.87426000"},{"name":"Shklo","native":null,"lat":"49.95675000","lon":"23.54408000"},{"name":"Silets’","native":null,"lat":"50.29712000","lon":"24.20462000"},{"name":"Skelivka","native":null,"lat":"49.53728000","lon":"22.96467000"},{"name":"Skhidnytsya","native":null,"lat":"49.22827000","lon":"23.35016000"},{"name":"Skole","native":null,"lat":"49.03717000","lon":"23.51346000"},{"name":"Slavske","native":null,"lat":"48.84734000","lon":"23.44587000"},{"name":"Sokal’","native":null,"lat":"50.47438000","lon":"24.28288000"},{"name":"Solonka","native":null,"lat":"49.75621000","lon":"24.01028000"},{"name":"Staroye Selo","native":null,"lat":"49.71037000","lon":"24.18950000"},{"name":"Starychi","native":null,"lat":"49.98001000","lon":"23.55848000"},{"name":"Staryy Dobrotvir","native":null,"lat":"50.23154000","lon":"24.37701000"},{"name":"Staryy Sambir","native":null,"lat":"49.43856000","lon":"23.00056000"},{"name":"Stebnyk","native":null,"lat":"49.29416000","lon":"23.56357000"},{"name":"Stryi","native":null,"lat":"49.26223000","lon":"23.85609000"},{"name":"Sudova Vyshnya","native":null,"lat":"49.78892000","lon":"23.37218000"},{"name":"Sukhovolya","native":null,"lat":"49.82426000","lon":"23.83770000"},{"name":"Truskavets’","native":null,"lat":"49.27837000","lon":"23.50618000"},{"name":"Tukhlia","native":null,"lat":"48.91218000","lon":"23.47303000"},{"name":"Turka","native":null,"lat":"49.15411000","lon":"23.02967000"},{"name":"Uhniv","native":null,"lat":"50.36811000","lon":"23.74895000"},{"name":"Ulychne","native":null,"lat":"49.23385000","lon":"23.65111000"},{"name":"Verblyany","native":null,"lat":"50.04747000","lon":"23.42189000"},{"name":"Verchnia Rozhanka","native":null,"lat":"48.78050000","lon":"23.51545000"},{"name":"Verkhnie Synevydne","native":null,"lat":"49.10307000","lon":"23.59099000"},{"name":"Verkhnyaya Belka","native":null,"lat":"49.81575000","lon":"24.30328000"},{"name":"Voyutychi","native":null,"lat":"49.55135000","lon":"23.10579000"},{"name":"Yavoriv","native":null,"lat":"49.93864000","lon":"23.38254000"},{"name":"Zhovkva","native":null,"lat":"50.05825000","lon":"23.97260000"},{"name":"Zhydachiv","native":null,"lat":"49.38468000","lon":"24.14254000"},{"name":"Zolochiv","native":null,"lat":"49.80597000","lon":"24.89436000"}]},{"name":"Mykolaivska oblast","native":null,"cities":[{"name":"Arbuzynka","native":null,"lat":"47.90972000","lon":"31.31963000"},{"name":"Bashtanka","native":null,"lat":"47.40719000","lon":"32.43868000"},{"name":"Berezanka","native":null,"lat":"46.85262000","lon":"31.38802000"},{"name":"Bereznehuvate","native":null,"lat":"47.30783000","lon":"32.84993000"},{"name":"Domanivka","native":null,"lat":"47.63192000","lon":"30.98851000"},{"name":"Kazanka","native":null,"lat":"47.84625000","lon":"32.82177000"},{"name":"Kobleve","native":null,"lat":"46.66499000","lon":"31.20804000"},{"name":"Kostyantynivka","native":null,"lat":"47.82660000","lon":"31.13551000"},{"name":"Kryve Ozero","native":null,"lat":"47.95242000","lon":"30.34928000"},{"name":"Lysa Hora","native":null,"lat":"48.17059000","lon":"31.10994000"},{"name":"Myhiya","native":null,"lat":"48.03719000","lon":"30.95153000"},{"name":"Mykolayiv","native":null,"lat":"46.96591000","lon":"31.99740000"},{"name":"Nova Odesa","native":null,"lat":"47.30778000","lon":"31.78506000"},{"name":"Novyy Buh","native":null,"lat":"47.69308000","lon":"32.52160000"},{"name":"Ochakiv","native":null,"lat":"46.61283000","lon":"31.54982000"},{"name":"Ol'shanskoye","native":null,"lat":"47.18411000","lon":"31.79375000"},{"name":"Oleksandrivka","native":null,"lat":"46.83826000","lon":"32.76116000"},{"name":"Parutyne","native":null,"lat":"46.70538000","lon":"31.89709000"},{"name":"Pervomays’k","native":null,"lat":"48.04433000","lon":"30.85073000"},{"name":"Pidhorodna","native":null,"lat":"48.10704000","lon":"30.88953000"},{"name":"Rybakivka","native":null,"lat":"46.61712000","lon":"31.34995000"},{"name":"Shevchenkove","native":null,"lat":"46.86289000","lon":"32.20387000"},{"name":"Snihurivka","native":null,"lat":"47.07579000","lon":"32.80516000"},{"name":"Veselynove","native":null,"lat":"47.35666000","lon":"31.23488000"},{"name":"Voznesensk","native":null,"lat":"47.56494000","lon":"31.33078000"},{"name":"Vradiyivka","native":null,"lat":"47.86195000","lon":"30.59195000"},{"name":"Yuzhnoukrains'k","native":null,"lat":"47.81777000","lon":"31.18263000"}]},{"name":"Odeska oblast","native":null,"cities":[{"name":"Artsyz","native":null,"lat":"45.99194000","lon":"29.41824000"},{"name":"Balta","native":null,"lat":"47.93548000","lon":"29.61982000"},{"name":"Balts’kyy Rayon","native":null,"lat":"47.99828000","lon":"29.64835000"},{"name":"Berezivka","native":null,"lat":"47.20429000","lon":"30.90780000"},{"name":"Berezyne","native":null,"lat":"46.22968000","lon":"29.20436000"},{"name":"Bilhorod-Dnistrovskyi","native":null,"lat":"46.19520000","lon":"30.34938000"},{"name":"Bilyayivka","native":null,"lat":"46.48319000","lon":"30.21678000"},{"name":"Bolhrad","native":null,"lat":"45.68262000","lon":"28.61487000"},{"name":"Borodino","native":null,"lat":"46.30250000","lon":"29.24167000"},{"name":"Broska","native":null,"lat":"45.37327000","lon":"28.78300000"},{"name":"Chornomors’k","native":null,"lat":"46.30495000","lon":"30.65478000"},{"name":"Dmytrivka","native":null,"lat":"45.97167000","lon":"28.98639000"},{"name":"Fontanka","native":null,"lat":"46.56646000","lon":"30.85965000"},{"name":"Horodnye","native":null,"lat":"45.89083000","lon":"28.84833000"},{"name":"Ivanivka","native":null,"lat":"46.97569000","lon":"30.46998000"},{"name":"Izmayil","native":null,"lat":"45.34929000","lon":"28.84079000"},{"name":"Kalcheva","native":null,"lat":"45.73746000","lon":"28.81441000"},{"name":"Kamyshevka Vtoraya","native":null,"lat":"46.23333000","lon":"29.83333000"},{"name":"Karolino-Buhaz","native":null,"lat":"46.14492000","lon":"30.52609000"},{"name":"Kiliya","native":null,"lat":"45.45518000","lon":"29.26367000"},{"name":"Kodyma","native":null,"lat":"48.09875000","lon":"29.12463000"},{"name":"Kodyms’kyy Rayon","native":null,"lat":"48.02284000","lon":"29.14010000"},{"name":"Krasnosilka","native":null,"lat":"46.62258000","lon":"30.77421000"},{"name":"Kremidivka","native":null,"lat":"46.73351000","lon":"30.78472000"},{"name":"Kryzhanivka","native":null,"lat":"46.56167000","lon":"30.79487000"},{"name":"Kuchurhan","native":null,"lat":"47.16302000","lon":"29.78937000"},{"name":"Kulevcha","native":null,"lat":"46.03034000","lon":"29.93614000"},{"name":"Kurisove","native":null,"lat":"46.96951000","lon":"30.95914000"},{"name":"Lymanske","native":null,"lat":"46.65570000","lon":"29.96722000"},{"name":"Lyubashivka","native":null,"lat":"47.83716000","lon":"30.25976000"},{"name":"Mayaky","native":null,"lat":"46.41748000","lon":"30.27413000"},{"name":"Mykolayivka","native":null,"lat":"47.54135000","lon":"30.75615000"},{"name":"Mykolayivs’kyy Rayon","native":null,"lat":"47.46720000","lon":"30.60283000"},{"name":"Novi Troyany","native":null,"lat":"45.94275000","lon":"28.85628000"},{"name":"Odesa","native":null,"lat":"46.47747000","lon":"30.73262000"},{"name":"Okny","native":null,"lat":"47.54044000","lon":"29.46001000"},{"name":"Oleksandrivka","native":null,"lat":"46.32893000","lon":"30.63481000"},{"name":"Ovidiopol","native":null,"lat":"46.24998000","lon":"30.44127000"},{"name":"Ozerne","native":null,"lat":"45.40300000","lon":"28.67546000"},{"name":"Peschana","native":null,"lat":"48.12918000","lon":"29.73086000"},{"name":"Plakhtiyivka","native":null,"lat":"46.10060000","lon":"29.72169000"},{"name":"Podil’s’k","native":null,"lat":"47.75305000","lon":"29.53205000"},{"name":"Podilsk Raion","native":null,"lat":"47.71642000","lon":"29.54509000"},{"name":"Reni","native":null,"lat":"45.45623000","lon":"28.27914000"},{"name":"Rozdil’na","native":null,"lat":"46.84334000","lon":"30.07919000"},{"name":"Salhany","native":null,"lat":"46.14881000","lon":"30.34601000"},{"name":"Sarata","native":null,"lat":"46.01966000","lon":"29.66567000"},{"name":"Savran","native":null,"lat":"48.13219000","lon":"30.08247000"},{"name":"Serhiyivka","native":null,"lat":"46.02720000","lon":"30.37682000"},{"name":"Serpneve","native":null,"lat":"46.30094000","lon":"29.01958000"},{"name":"Shabo","native":null,"lat":"46.13262000","lon":"30.38595000"},{"name":"Shevchenkove","native":null,"lat":"45.55604000","lon":"29.33357000"},{"name":"Shyryayeve","native":null,"lat":"47.38052000","lon":"30.19638000"},{"name":"Slobidka","native":null,"lat":"47.88694000","lon":"29.34611000"},{"name":"Starokozache","native":null,"lat":"46.33722000","lon":"29.98528000"},{"name":"Stepanivka","native":null,"lat":"46.79489000","lon":"29.98684000"},{"name":"Stepove","native":null,"lat":"46.70385000","lon":"30.07919000"},{"name":"Tarutyne","native":null,"lat":"46.18636000","lon":"29.15203000"},{"name":"Tatarbunary","native":null,"lat":"45.83731000","lon":"29.61424000"},{"name":"Tayirove","native":null,"lat":"46.36313000","lon":"30.64891000"},{"name":"Teplodar","native":null,"lat":"46.50585000","lon":"30.32521000"},{"name":"Usatove","native":null,"lat":"46.53296000","lon":"30.65960000"},{"name":"Velyka Mykhaylivka","native":null,"lat":"47.07971000","lon":"29.85753000"},{"name":"Velykoploske","native":null,"lat":"47.01254000","lon":"29.67171000"},{"name":"Vylkove","native":null,"lat":"45.40214000","lon":"29.58595000"},{"name":"Vynohradivka","native":null,"lat":"45.68119000","lon":"28.57138000"},{"name":"Yuzhne","native":null,"lat":"46.62211000","lon":"31.10131000"},{"name":"Zagnitkiv","native":null,"lat":"48.04878000","lon":"28.89234000"},{"name":"Zakharivka","native":null,"lat":"47.33232000","lon":"29.75903000"},{"name":"Zaliznychne","native":null,"lat":"45.74890000","lon":"28.61466000"},{"name":"Zatoka","native":null,"lat":"46.07251000","lon":"30.46538000"},{"name":"Zatyshshya","native":null,"lat":"47.33351000","lon":"29.87327000"},{"name":"Zorya","native":null,"lat":"45.99080000","lon":"29.69672000"}]},{"name":"Poltavska oblast","native":null,"cities":[{"name":"Abramok","native":null,"lat":"50.63694444","lon":"27.90750000"},{"name":"Adamivka","native":null,"lat":"50.37694444","lon":"27.91527778"},{"name":"Adamove","native":null,"lat":"50.83111111","lon":"27.48305556"},{"name":"Agativka","native":null,"lat":"49.98611111","lon":"28.60500000"},{"name":"Andriyivka","native":null,"lat":"49.76293844","lon":"34.30037490"},{"name":"Andrushivka","native":null,"lat":"50.01666667","lon":"29.01666667"},{"name":"Autozavodskoy Raion","native":null,"lat":"49.07173000","lon":"33.41552000"},{"name":"Avratin","native":null,"lat":"49.87611111","lon":"27.82638889"},{"name":"Bairak","native":null,"lat":"49.72043437","lon":"34.37378921"},{"name":"Baliasne","native":null,"lat":"49.82119646","lon":"34.33881183"},{"name":"Baranivka","native":null,"lat":"50.30000000","lon":"27.66666667"},{"name":"Baranivka","native":null,"lat":"49.94809180","lon":"34.00827580"},{"name":"Barashi","native":null,"lat":"50.71555556","lon":"28.03083333"},{"name":"Bazar","native":null,"lat":"51.04388889","lon":"29.29361111"},{"name":"Bekhi","native":null,"lat":"51.01972222","lon":"28.69333333"},{"name":"Berdychiv","native":null,"lat":"49.89194444","lon":"28.60000000"},{"name":"Berestivka","native":null,"lat":"50.34055556","lon":"27.47611111"},{"name":"Berestovets","native":null,"lat":"51.02000000","lon":"28.87027778"},{"name":"Berezianka","native":null,"lat":"49.69194444","lon":"29.45305556"},{"name":"Berezovii Grud","native":null,"lat":"50.99666667","lon":"28.35888889"},{"name":"Bereztsi","native":null,"lat":"50.50555556","lon":"29.31750000"},{"name":"Bicheva","native":null,"lat":"49.75055556","lon":"27.77777778"},{"name":"Bigun","native":null,"lat":"51.40194444","lon":"28.28277778"},{"name":"Bikiv","native":null,"lat":"50.17833333","lon":"29.29638889"},{"name":"Bila Krynytsia","native":null,"lat":"50.63638889","lon":"29.46361111"},{"name":"Bilii Bereg","native":null,"lat":"50.75638889","lon":"29.47888889"},{"name":"Bilka","native":null,"lat":"50.81861111","lon":"28.18777778"},{"name":"Bilylivka","native":null,"lat":"49.68000000","lon":"29.03000000"},{"name":"Bistrik","native":null,"lat":"49.85638889","lon":"28.56638889"},{"name":"Bistriyivka","native":null,"lat":"50.47777778","lon":"29.16472222"},{"name":"Borisivka","native":null,"lat":"49.76934347","lon":"34.33837579"},{"name":"Broniki","native":null,"lat":"50.55361111","lon":"27.80777778"},{"name":"Bronitsia","native":null,"lat":"50.94666667","lon":"27.34527778"},{"name":"Bronitska Guta","native":null,"lat":"50.93138889","lon":"27.31388889"},{"name":"Brovki Pershi","native":null,"lat":"49.93194444","lon":"29.19750000"},{"name":"Brusyliv","native":null,"lat":"50.28333333","lon":"29.53333333"},{"name":"Buchmany","native":null,"lat":"51.07000000","lon":"28.04250000"},{"name":"Buki","native":null,"lat":"50.19638889","lon":"28.32500000"},{"name":"Buldichiv","native":null,"lat":"50.11361111","lon":"27.79666667"},{"name":"Buriaki","native":null,"lat":"49.81888889","lon":"28.28361111"},{"name":"Burkivtsi","native":null,"lat":"49.87888889","lon":"28.04444444"},{"name":"Bykivka","native":null,"lat":"50.29277778","lon":"27.98305556"},{"name":"Chernechii Iar","native":null,"lat":"49.83543000","lon":"34.59174000"},{"name":"Cherniakhiv","native":null,"lat":"50.45500000","lon":"28.66527778"},{"name":"Chervone","native":null,"lat":"49.94972222","lon":"28.86861111"},{"name":"Chopovychi","native":null,"lat":"50.83333333","lon":"28.95250000"},{"name":"Chornukhy","native":null,"lat":"50.26990573","lon":"32.94757796"},{"name":"Chudniv","native":null,"lat":"50.05277778","lon":"28.09694444"},{"name":"Chutove","native":null,"lat":"49.71689367","lon":"35.17463951"},{"name":"Dashynka","native":null,"lat":"50.64944444","lon":"28.39500000"},{"name":"Davidivka","native":null,"lat":"50.52694444","lon":"28.41000000"},{"name":"Davydky","native":null,"lat":"50.94888889","lon":"28.43861111"},{"name":"Denyshi","native":null,"lat":"50.21527778","lon":"28.40777778"},{"name":"Derhanivka","native":null,"lat":"49.69222222","lon":"29.06333333"},{"name":"Dibrova","native":null,"lat":"51.16027778","lon":"27.97277778"},{"name":"Didkovichi","native":null,"lat":"51.09972222","lon":"28.83194444"},{"name":"Didovichi","native":null,"lat":"50.60916667","lon":"27.35583333"},{"name":"Divochki","native":null,"lat":"50.44694444","lon":"28.74972222"},{"name":"Dovbysh","native":null,"lat":"50.37223889","lon":"27.98947500"},{"name":"Druzhba","native":null,"lat":"51.18611111","lon":"27.96611111"},{"name":"Dubivka","native":null,"lat":"49.90861111","lon":"28.78444444"},{"name":"Dubnyki","native":null,"lat":"50.87416667","lon":"27.34888889"},{"name":"Dubrivka","native":null,"lat":"50.28527778","lon":"29.59333333"},{"name":"Dvorishche","native":null,"lat":"50.56194444","lon":"28.39777778"},{"name":"Dykanka","native":null,"lat":"49.82223788","lon":"34.53408003"},{"name":"Elivka","native":null,"lat":"50.72722222","lon":"29.18388889"},{"name":"Fedorivka","native":null,"lat":"49.77617039","lon":"34.43944548"},{"name":"Filenkove","native":null,"lat":"49.83559723","lon":"35.00298408"},{"name":"Glinivtsi","native":null,"lat":"50.04611111","lon":"28.80416667"},{"name":"Godikha","native":null,"lat":"50.19027778","lon":"28.22194444"},{"name":"Golovenka","native":null,"lat":"50.15361111","lon":"28.54388889"},{"name":"Golovki","native":null,"lat":"50.83972222","lon":"29.13333333"},{"name":"Golubyatin","native":null,"lat":"49.85500000","lon":"29.51361111"},{"name":"Gorbuliv","native":null,"lat":"50.53750000","lon":"28.92333333"},{"name":"Gordiyivka","native":null,"lat":"50.05444444","lon":"27.87500000"},{"name":"Gorianshchina","native":null,"lat":"49.91185729","lon":"34.45818988"},{"name":"Gorodkivka","native":null,"lat":"49.90972222","lon":"28.99416667"},{"name":"Gorodok","native":null,"lat":"49.60027778","lon":"29.19500000"},{"name":"Gorodske","native":null,"lat":"50.37750000","lon":"29.16888889"},{"name":"Goropayi","native":null,"lat":"50.01388889","lon":"27.83388889"},{"name":"Goshiv","native":null,"lat":"51.23916667","lon":"28.71388889"},{"name":"Gromada","native":null,"lat":"49.94638889","lon":"27.76222222"},{"name":"Grozyne","native":null,"lat":"50.95888889","lon":"28.73055556"},{"name":"Grushki","native":null,"lat":"50.49277778","lon":"28.45500000"},{"name":"Gubske","native":null,"lat":"50.09951906","lon":"32.83123218"},{"name":"Gulsk","native":null,"lat":"50.51916667","lon":"27.72111111"},{"name":"Gumenniki","native":null,"lat":"50.39694444","lon":"28.92666667"},{"name":"Guta-Potiyivka","native":null,"lat":"50.69111111","lon":"28.87416667"},{"name":"Guto-Mariatin","native":null,"lat":"51.03000000","lon":"29.41666667"},{"name":"Hadiach","native":null,"lat":"50.36666667","lon":"34.00000000"},{"name":"Hlobyne","native":null,"lat":"49.38856468","lon":"33.26320863"},{"name":"Holovyne","native":null,"lat":"50.47250000","lon":"28.82805556"},{"name":"Holubivka","native":null,"lat":"49.68097000","lon":"29.16059000"},