[{"name":"Amazonas","native":null,"cities":[{"name":"Maroa","native":null,"lat":"2.71880000","lon":"-67.56046000"},{"name":"Municipio Autónomo Alto Orinoco","native":null,"lat":"2.73456000","lon":"-64.83032000"},{"name":"Puerto Ayacucho","native":null,"lat":"5.66049000","lon":"-67.58343000"},{"name":"San Carlos de Río Negro","native":null,"lat":"1.92027000","lon":"-67.06089000"},{"name":"San Fernando de Atabapo","native":null,"lat":"4.04564000","lon":"-67.69934000"},{"name":"San Juan de Manapiare","native":null,"lat":"5.32665000","lon":"-66.05402000"}]},{"name":"Anzoátegui","native":null,"cities":[{"name":"Anaco","native":null,"lat":"9.42958000","lon":"-64.46428000"},{"name":"Aragua de Barcelona","native":null,"lat":"9.45588000","lon":"-64.82928000"},{"name":"Barcelona","native":null,"lat":"10.13625000","lon":"-64.68618000"},{"name":"Cantaura","native":null,"lat":"9.30571000","lon":"-64.35841000"},{"name":"El Tigre","native":null,"lat":"8.88902000","lon":"-64.25270000"},{"name":"Municipio José Gregorio Monagas","native":null,"lat":"7.73874000","lon":"-64.71876000"},{"name":"Onoto","native":null,"lat":"9.59714000","lon":"-65.19350000"},{"name":"Puerto La Cruz","native":null,"lat":"10.21382000","lon":"-64.63280000"},{"name":"Puerto Píritu","native":null,"lat":"10.05896000","lon":"-65.03698000"},{"name":"San José de Guanipa","native":null,"lat":"8.88724000","lon":"-64.16512000"}]},{"name":"Apure","native":null,"cities":[{"name":"San Fernando de Apure","native":null,"lat":"7.87266930","lon":"-67.48193280"}]},{"name":"Aragua","native":null,"cities":[{"name":"Cagua","native":null,"lat":"10.18634000","lon":"-67.45935000"},{"name":"El Limón","native":null,"lat":"10.30589000","lon":"-67.63212000"},{"name":"La Victoria","native":null,"lat":"10.22677000","lon":"-67.33122000"},{"name":"Las Tejerías","native":null,"lat":"10.25416000","lon":"-67.17333000"},{"name":"Maracay","native":null,"lat":"10.23535000","lon":"-67.59113000"},{"name":"Palo Negro","native":null,"lat":"10.17389000","lon":"-67.54194000"},{"name":"San Mateo","native":null,"lat":"10.21302000","lon":"-67.42365000"},{"name":"Santa Rita","native":null,"lat":"10.20540000","lon":"-67.55948000"},{"name":"Turmero","native":null,"lat":"10.22856000","lon":"-67.47421000"},{"name":"Villa de Cura","native":null,"lat":"10.03863000","lon":"-67.48938000"}]},{"name":"Barinas","native":null,"cities":[{"name":"Alto Barinas","native":null,"lat":"8.59310000","lon":"-70.22610000"},{"name":"Barinas","native":null,"lat":"8.62261000","lon":"-70.20749000"},{"name":"Barinitas","native":null,"lat":"8.76171000","lon":"-70.41199000"},{"name":"Municipio Barinas","native":null,"lat":"8.61497000","lon":"-70.19852000"}]},{"name":"Bolívar","native":null,"cities":[{"name":"Ciudad Bolívar","native":null,"lat":"8.12923000","lon":"-63.54086000"},{"name":"Ciudad Guayana","native":null,"lat":"8.35122000","lon":"-62.64102000"},{"name":"Municipio Padre Pedro Chien","native":null,"lat":"8.02455000","lon":"-61.88187000"},{"name":"Santa Elena de Uairén","native":null,"lat":"4.60226000","lon":"-61.11025000"},{"name":"Upata","native":null,"lat":"8.01620000","lon":"-62.40561000"}]},{"name":"Carabobo","native":null,"cities":[{"name":"Guacara","native":null,"lat":"10.22609000","lon":"-67.87700000"},{"name":"Güigüe","native":null,"lat":"10.08344000","lon":"-67.77799000"},{"name":"Los Guayos","native":null,"lat":"10.18932000","lon":"-67.93828000"},{"name":"Mariara","native":null,"lat":"10.29532000","lon":"-67.71770000"},{"name":"Morón","native":null,"lat":"10.48715000","lon":"-68.20078000"},{"name":"Puerto Cabello","native":null,"lat":"10.47306000","lon":"-68.01250000"},{"name":"San Joaquín","native":null,"lat":"10.26061000","lon":"-67.79348000"},{"name":"Tacarigua","native":null,"lat":"10.08621000","lon":"-67.91982000"},{"name":"Tocuyito","native":null,"lat":"10.11347000","lon":"-68.06783000"},{"name":"Valencia","native":null,"lat":"10.16202000","lon":"-68.00765000"}]},{"name":"Cojedes","native":null,"cities":[{"name":"San Carlos","native":null,"lat":"9.66124000","lon":"-68.58268000"},{"name":"Tinaquillo","native":null,"lat":"9.91861000","lon":"-68.30472000"}]},{"name":"Delta Amacuro","native":null,"cities":[{"name":"Tucupita","native":null,"lat":"9.05806000","lon":"-62.05000000"}]},{"name":"Distrito Capital","native":null,"cities":[{"name":"Caracas","native":null,"lat":"10.50000000","lon":"-66.93333333"}]},{"name":"Falcón","native":null,"cities":[{"name":"Chichiriviche","native":null,"lat":"10.92872000","lon":"-68.27283000"},{"name":"Coro","native":null,"lat":"11.40450000","lon":"-69.67344000"},{"name":"Municipio Los Taques","native":null,"lat":"11.82308000","lon":"-70.25353000"},{"name":"Municipio Miranda","native":null,"lat":"11.31667000","lon":"-69.86667000"},{"name":"Punta Cardón","native":null,"lat":"11.65806000","lon":"-70.21500000"},{"name":"Punto Fijo","native":null,"lat":"11.69152000","lon":"-70.19918000"},{"name":"Tucacas","native":null,"lat":"10.79006000","lon":"-68.32564000"}]},{"name":"Federal Dependencies of Venezuela","native":null,"cities":[]},{"name":"Guárico","native":null,"cities":[{"name":"Altagracia de Orituco","native":null,"lat":"9.86005000","lon":"-66.38139000"},{"name":"Calabozo","native":null,"lat":"8.92416000","lon":"-67.42929000"},{"name":"San Juan de los Morros","native":null,"lat":"9.91152000","lon":"-67.35381000"},{"name":"Valle de La Pascua","native":null,"lat":"9.21554000","lon":"-66.00734000"},{"name":"Zaraza","native":null,"lat":"9.35029000","lon":"-65.32452000"}]},{"name":"La Guaira","native":null,"cities":[{"name":"Caraballeda","native":null,"lat":"10.61216000","lon":"-66.85192000"},{"name":"Catia La Mar","native":null,"lat":"10.60545000","lon":"-67.03238000"},{"name":"La Guaira","native":null,"lat":"10.60156000","lon":"-66.93293000"},{"name":"Maiquetía","native":null,"lat":"10.59450000","lon":"-66.95624000"}]},{"name":"Lara","native":null,"cities":[{"name":"Barquisimeto","native":null,"lat":"10.06470000","lon":"-69.35703000"},{"name":"Cabudare","native":null,"lat":"10.02658000","lon":"-69.26203000"},{"name":"Carora","native":null,"lat":"10.17283000","lon":"-70.08100000"},{"name":"El Tocuyo","native":null,"lat":"9.78709000","lon":"-69.79294000"},{"name":"Los Rastrojos","native":null,"lat":"10.02588000","lon":"-69.24166000"},{"name":"Quíbor","native":null,"lat":"9.92866000","lon":"-69.62010000"}]},{"name":"Mérida","native":null,"cities":[{"name":"Ejido","native":null,"lat":"8.54665000","lon":"-71.24087000"},{"name":"El Vigía","native":null,"lat":"8.61350000","lon":"-71.65702000"},{"name":"Mérida","native":null,"lat":"8.58972000","lon":"-71.15611000"},{"name":"Mucumpiz","native":null,"lat":"8.41667000","lon":"-71.13333000"},{"name":"Municipio Libertador","native":null,"lat":"8.33333000","lon":"-71.11667000"}]},{"name":"Miranda","native":null,"cities":[{"name":"Baruta","native":null,"lat":"10.43424000","lon":"-66.87558000"},{"name":"Carrizal","native":null,"lat":"10.34985000","lon":"-66.98632000"},{"name":"Caucaguita","native":null,"lat":"10.35782000","lon":"-66.80252000"},{"name":"Caucagüito","native":null,"lat":"10.48666000","lon":"-66.73799000"},{"name":"Chacao","native":null,"lat":"10.49581000","lon":"-66.85367000"},{"name":"Charallave","native":null,"lat":"10.24247000","lon":"-66.85723000"},{"name":"Cúa","native":null,"lat":"10.16245000","lon":"-66.88248000"},{"name":"El Cafetal","native":null,"lat":"10.46541000","lon":"-66.82951000"},{"name":"El Hatillo","native":null,"lat":"10.42411000","lon":"-66.82581000"},{"name":"Guarenas","native":null,"lat":"10.47027000","lon":"-66.61934000"},{"name":"Guatire","native":null,"lat":"10.47400000","lon":"-66.54241000"},{"name":"La Dolorita","native":null,"lat":"10.48830000","lon":"-66.78608000"},{"name":"Los Dos Caminos","native":null,"lat":"10.49389000","lon":"-66.82863000"},{"name":"Los Teques","native":null,"lat":"10.34447000","lon":"-67.04325000"},{"name":"Ocumare del Tuy","native":null,"lat":"10.11820000","lon":"-66.77513000"},{"name":"Petare","native":null,"lat":"10.47679000","lon":"-66.80786000"},{"name":"San Antonio de Los Altos","native":null,"lat":"10.38853000","lon":"-66.95179000"},{"name":"Santa Teresa del Tuy","native":null,"lat":"10.23291000","lon":"-66.66474000"}]},{"name":"Monagas","native":null,"cities":[{"name":"Caripito","native":null,"lat":"10.11135000","lon":"-63.09985000"},{"name":"Maturín","native":null,"lat":"9.74569000","lon":"-63.18323000"},{"name":"Municipio Maturín","native":null,"lat":"9.40000000","lon":"-63.03333000"},{"name":"Municipio Uracoa","native":null,"lat":"8.99960000","lon":"-62.35164000"}]},{"name":"Nueva Esparta","native":null,"cities":[{"name":"Juan Griego","native":null,"lat":"11.08172000","lon":"-63.96549000"},{"name":"La Asunción","native":null,"lat":"11.03333000","lon":"-63.86278000"},{"name":"Porlamar","native":null,"lat":"10.95771000","lon":"-63.86971000"}]},{"name":"Portuguesa","native":null,"cities":[{"name":"Acarigua","native":null,"lat":"9.55451000","lon":"-69.19564000"},{"name":"Araure","native":null,"lat":"9.58144000","lon":"-69.23851000"},{"name":"Guanare","native":null,"lat":"9.04183000","lon":"-69.74206000"},{"name":"Villa Bruzual","native":null,"lat":"9.33186000","lon":"-69.11968000"}]},{"name":"Sucre","native":null,"cities":[{"name":"Carúpano","native":null,"lat":"10.66516000","lon":"-63.25387000"},{"name":"Cumaná","native":null,"lat":"10.45397000","lon":"-64.18256000"},{"name":"Güiria","native":null,"lat":"10.57721000","lon":"-62.29841000"},{"name":"Municipio Valdez","native":null,"lat":"10.57945000","lon":"-62.30029000"}]},{"name":"Táchira","native":null,"cities":[{"name":"Colón","native":null,"lat":"8.03125000","lon":"-72.26053000"},{"name":"La Fría","native":null,"lat":"8.21523000","lon":"-72.24888000"},{"name":"La Grita","native":null,"lat":"8.13316000","lon":"-71.98390000"},{"name":"Municipio José María Vargas","native":null,"lat":"8.03514000","lon":"-72.05675000"},{"name":"Rubio","native":null,"lat":"7.70131000","lon":"-72.35569000"},{"name":"San Antonio del Táchira","native":null,"lat":"7.81454000","lon":"-72.44310000"},{"name":"San Cristóbal","native":null,"lat":"7.76694000","lon":"-72.22500000"},{"name":"Táriba","native":null,"lat":"7.81880000","lon":"-72.22427000"}]},{"name":"Trujillo","native":null,"cities":[{"name":"Boconó","native":null,"lat":"9.25385000","lon":"-70.25105000"},{"name":"Municipio Pampanito","native":null,"lat":"9.41147000","lon":"-70.49592000"},{"name":"Municipio San Rafael de Carvajal","native":null,"lat":"9.30756000","lon":"-70.58965000"},{"name":"Trujillo","native":null,"lat":"9.36583000","lon":"-70.43694000"},{"name":"Valera","native":null,"lat":"9.31778000","lon":"-70.60361000"}]},{"name":"Yaracuy","native":null,"cities":[{"name":"Chivacoa","native":null,"lat":"10.15951000","lon":"-68.89453000"},{"name":"Municipio Independencia","native":null,"lat":"10.33472000","lon":"-68.75555000"},{"name":"Nirgua","native":null,"lat":"10.15039000","lon":"-68.56478000"},{"name":"San Felipe","native":null,"lat":"10.33991000","lon":"-68.74247000"},{"name":"Yaritagua","native":null,"lat":"10.08081000","lon":"-69.12420000"}]},{"name":"Zulia","native":null,"cities":[{"name":"Cabimas","native":null,"lat":"10.39907000","lon":"-71.45206000"},{"name":"Ciudad Ojeda","native":null,"lat":"10.20161000","lon":"-71.31480000"},{"name":"La Villa del Rosario","native":null,"lat":"10.32580000","lon":"-72.31343000"},{"name":"Lagunillas","native":null,"lat":"10.13008000","lon":"-71.25946000"},{"name":"Machiques","native":null,"lat":"10.06077000","lon":"-72.55212000"},{"name":"Maracaibo","native":null,"lat":"10.66663000","lon":"-71.61245000"},{"name":"San Carlos del Zulia","native":null,"lat":"9.00098000","lon":"-71.92683000"},{"name":"Santa Rita","native":null,"lat":"10.53642000","lon":"-71.51104000"}]}]