[{"id":3794,"name":"An Giang","native":null,"cities":[{"id":130185,"name":"Cho Dok","native":null,"lat":"10.70000000","lon":"105.11667000"},{"id":130211,"name":"Huyện An Phú","native":null,"lat":"10.84274000","lon":"105.08990000"},{"id":130248,"name":"Huyện Châu Phú","native":null,"lat":"10.57166000","lon":"105.16991000"},{"id":130262,"name":"Huyện Chợ Mới","native":null,"lat":"10.47730000","lon":"105.49092000"},{"id":130401,"name":"Huyện Phú Tân","native":null,"lat":"10.65716000","lon":"105.28459000"},{"id":130461,"name":"Huyện Tri Tôn","native":null,"lat":"10.41416000","lon":"104.96136000"},{"id":130569,"name":"Long Xuyên","native":null,"lat":"10.38639000","lon":"105.43518000"},{"id":130570,"name":"Long Xuyên City","native":null,"lat":"10.36857000","lon":"105.42340000"}]},{"id":3770,"name":"Bà Rịa-Vũng Tàu","native":null,"cities":[{"id":130189,"name":"Côn Sơn","native":null,"lat":"8.68641000","lon":"106.60824000"},{"id":130255,"name":"Huyện Châu Đức","native":null,"lat":"10.65805000","lon":"107.25098000"},{"id":130539,"name":"Huyện Đất Đỏ","native":null,"lat":"10.48025000","lon":"107.27879000"},{"id":130487,"name":"Huyện Tân Thành","native":null,"lat":"10.57381000","lon":"107.10189000"},{"id":130510,"name":"Huyện Xuyên Mộc","native":null,"lat":"10.63048000","lon":"107.46568000"},{"id":130604,"name":"Thành Phố Vũng Tàu","native":null,"lat":"10.40239000","lon":"107.14239000"},{"id":130613,"name":"Thị Xã Phú Mỹ","native":null,"lat":"10.56815000","lon":"107.12999000"},{"id":130626,"name":"Vũng Tàu","native":null,"lat":"10.34599000","lon":"107.08426000"}]},{"id":3815,"name":"Bắc Giang","native":null,"cities":[{"id":130177,"name":"Bắc Giang","native":null,"lat":"21.27307000","lon":"106.19460000"},{"id":130353,"name":"Huyện Lục Nam","native":null,"lat":"21.27548000","lon":"106.46519000"},{"id":130354,"name":"Huyện Lục Ngạn","native":null,"lat":"21.43719000","lon":"106.65845000"},{"id":130521,"name":"Huyện Yên Thế","native":null,"lat":"21.51667000","lon":"106.11689000"}]},{"id":3822,"name":"Bắc Kạn","native":null,"cities":[{"id":130178,"name":"Bắc Kạn","native":null,"lat":"22.14701000","lon":"105.83481000"},{"id":130213,"name":"Huyện Ba Bể","native":null,"lat":"22.41667000","lon":"105.75000000"},{"id":130228,"name":"Huyện Bạch Thông","native":null,"lat":"22.25758000","lon":"105.83295000"},{"id":130263,"name":"Huyện Chợ Đồn","native":null,"lat":"22.18681000","lon":"105.57280000"},{"id":130374,"name":"Huyện Na Rì","native":null,"lat":"22.17883000","lon":"106.11221000"},{"id":130387,"name":"Huyện Ngân Sơn","native":null,"lat":"22.42962000","lon":"106.01030000"},{"id":130608,"name":"Thị Xã Bắc Kạn","native":null,"lat":"22.14130000","lon":"105.83867000"}]},{"id":3804,"name":"Bạc Liêu","native":null,"cities":[{"id":130175,"name":"Bạc Liêu","native":null,"lat":"9.29414000","lon":"105.72776000"},{"id":130289,"name":"Huyện Giá Rai","native":null,"lat":"9.27162000","lon":"105.40017000"},{"id":130318,"name":"Huyện Hồng Dân","native":null,"lat":"9.53822000","lon":"105.42242000"}]},{"id":3791,"name":"Bắc Ninh","native":null,"cities":[{"id":130179,"name":"Bắc Ninh","native":null,"lat":"21.18608000","lon":"106.07631000"},{"id":130186,"name":"Cung Kiệm","native":null,"lat":"21.18697000","lon":"106.16076000"},{"id":130285,"name":"Huyện Gia Bình","native":null,"lat":"21.07795000","lon":"106.20903000"},{"id":130441,"name":"Huyện Thuận Thành","native":null,"lat":"21.04085000","lon":"106.07515000"},{"id":130455,"name":"Huyện Tiên Du","native":null,"lat":"21.12195000","lon":"106.03995000"},{"id":130518,"name":"Huyện Yên Phong","native":null,"lat":"21.20676000","lon":"105.99427000"}]},{"id":3796,"name":"Bến Tre","native":null,"cities":[{"id":130635,"name":"Ấp Tân Ngãi","native":null,"lat":"10.23333000","lon":"106.28333000"},{"id":130180,"name":"Bến Tre","native":null,"lat":"10.24147000","lon":"106.37585000"},{"id":130215,"name":"Huyện Ba Tri","native":null,"lat":"10.06627000","lon":"106.60554000"},{"id":130226,"name":"Huyện Bình Đại","native":null,"lat":"10.19354000","lon":"106.64455000"},{"id":130250,"name":"Huyện Châu Thành","native":null,"lat":"10.29212000","lon":"106.30827000"},{"id":130261,"name":"Huyện Chợ Lách","native":null,"lat":"10.22674000","lon":"106.17077000"},{"id":130291,"name":"Huyện Giồng Trôm","native":null,"lat":"10.15909000","lon":"106.47004000"},{"id":130449,"name":"Huyện Thạnh Phú","native":null,"lat":"9.92993000","lon":"106.54316000"}]},{"id":3785,"name":"Bình Dương","native":null,"cities":[{"id":130198,"name":"Dĩ An","native":null,"lat":"10.90682000","lon":"106.76940000"},{"id":130616,"name":"Thủ Dầu Một","native":null,"lat":"10.98040000","lon":"106.65190000"}]},{"id":3830,"name":"Bình Định","native":null,"cities":[{"id":130209,"name":"Huyện An Lão","native":null,"lat":"14.55676000","lon":"108.80100000"},{"id":130298,"name":"Huyện Hoài Nhơn","native":null,"lat":"14.50535000","lon":"109.02315000"},{"id":130397,"name":"Huyện Phù Mỹ","native":null,"lat":"14.22304000","lon":"109.08611000"},{"id":130490,"name":"Huyện Tây Sơn","native":null,"lat":"13.94306000","lon":"108.87999000"},{"id":130476,"name":"Huyện Tuy Phước","native":null,"lat":"13.84564000","lon":"109.15275000"},{"id":130503,"name":"Huyện Vĩnh Thạnh","native":null,"lat":"14.21100000","lon":"108.74389000"},{"id":130584,"name":"Qui Nhon","native":null,"lat":"13.77648000","lon":"109.22367000"}]},{"id":3797,"name":"Bình Phước","native":null,"cities":[{"id":130174,"name":"Bình Long","native":null,"lat":"11.64711000","lon":"106.60586000"},{"id":130197,"name":"Don Luan","native":null,"lat":"11.53495000","lon":"106.88324000"},{"id":130227,"name":"Huyện Bù Đốp","native":null,"lat":"12.00374000","lon":"106.81545000"},{"id":130256,"name":"Huyện Chơn Thành","native":null,"lat":"11.46283000","lon":"106.66655000"},{"id":130547,"name":"Huyện Đồng Phú","native":null,"lat":"11.50071000","lon":"107.01192000"},{"id":130319,"name":"Huyện Hớn Quản","native":null,"lat":"11.59718000","lon":"106.62739000"},{"id":130614,"name":"Thị Xã Phước Long","native":null,"lat":"11.81142000","lon":"106.99670000"}]},{"id":3787,"name":"Bình Thuận","native":null,"cities":[{"id":130233,"name":"Huyện Bắc Bình","native":null,"lat":"11.27571000","lon":"108.38506000"},{"id":130304,"name":"Huyện Hàm Tân","native":null,"lat":"10.76856000","lon":"107.64233000"},{"id":130302,"name":"Huyện Hàm Thuận Bắc","native":null,"lat":"11.14703000","lon":"108.08172000"},{"id":130303,"name":"Huyện Hàm Thuận Nam","native":null,"lat":"10.92101000","lon":"107.93325000"},{"id":130479,"name":"Huyện Tánh Linh","native":null,"lat":"11.11367000","lon":"107.68427000"},{"id":130475,"name":"Huyện Tuy Phong","native":null,"lat":"11.34746000","lon":"108.70466000"},{"id":130567,"name":"La Gi","native":null,"lat":"10.65993000","lon":"107.77206000"},{"id":130579,"name":"Phan Thiết","native":null,"lat":"10.92889000","lon":"108.10208000"},{"id":130601,"name":"Thành Phố Phan Thiết","native":null,"lat":"10.93700000","lon":"108.15778000"}]},{"id":3778,"name":"Cà Mau","native":null,"cities":[{"id":130187,"name":"Cà Mau","native":null,"lat":"9.17682000","lon":"105.15242000"},{"id":130267,"name":"Huyện Cái Nước","native":null,"lat":"9.00094000","lon":"105.04201000"},{"id":130540,"name":"Huyện Đầm Dơi","native":null,"lat":"8.96029000","lon":"105.24107000"},{"id":130204,"name":"Huyen Nam Can","native":null,"lat":"8.81531000","lon":"105.05574000"},{"id":130453,"name":"Huyện Thới Bình","native":null,"lat":"9.35790000","lon":"105.16023000"}]},{"id":4925,"name":"Cần Thơ","native":null,"cities":[{"id":148322,"name":"Cần Thơ","native":null,"lat":"10.11667000","lon":"105.50000000"},{"id":148323,"name":"Cờ Đỏ","native":null,"lat":"10.09472222","lon":"105.43194444"},{"id":148324,"name":"Thới Lai","native":null,"lat":"10.06305556","lon":"105.56083333"},{"id":148325,"name":"Vĩnh Thạnh","native":null,"lat":"10.21916667","lon":"105.40111111"}]},{"id":3782,"name":"Cao Bằng","native":null,"cities":[{"id":130183,"name":"Cao Bằng","native":null,"lat":"22.66568000","lon":"106.25786000"},{"id":130229,"name":"Huyện Bảo Lac","native":null,"lat":"22.90085000","lon":"105.73332000"},{"id":130231,"name":"Huyện Bảo Lâm","native":null,"lat":"22.87041000","lon":"105.48780000"},{"id":130313,"name":"Huyện Hạ Lang","native":null,"lat":"22.70933000","lon":"106.67657000"},{"id":130300,"name":"Huyện Hà Quảng","native":null,"lat":"22.90763000","lon":"106.12487000"},{"id":130386,"name":"Huyện Nguyên Bình","native":null,"lat":"22.62400000","lon":"105.93248000"},{"id":130206,"name":"Huyen Phuc Hoa","native":null,"lat":"22.53840000","lon":"106.51039000"},{"id":130446,"name":"Huyện Thạch An","native":null,"lat":"22.47654000","lon":"106.34237000"},{"id":130444,"name":"Huyện Thông Nông","native":null,"lat":"22.80735000","lon":"105.95846000"},{"id":130466,"name":"Huyện Trà Lĩnh","native":null,"lat":"22.80961000","lon":"106.32543000"},{"id":130469,"name":"Huyện Trùng Khánh","native":null,"lat":"22.83333000","lon":"106.56074000"}]},{"id":3806,"name":"Đà Nẵng","native":null,"cities":[{"id":130195,"name":"Da Nang","native":null,"lat":"16.06778000","lon":"108.22083000"}]},{"id":3829,"name":"Đắk Lắk","native":null,"cities":[{"id":130173,"name":"Buôn Ma Thuột","native":null,"lat":"12.66747000","lon":"108.03775000"},{"id":130217,"name":"Huyện Buôn Đôn","native":null,"lat":"12.90396000","lon":"107.73870000"},{"id":130283,"name":"Huyện Ea H'Leo","native":null,"lat":"13.31814000","lon":"108.07148000"},{"id":130284,"name":"Huyện Ea Súp","native":null,"lat":"13.18279000","lon":"107.79954000"}]},{"id":3823,"name":"Đắk Nông","native":null,"cities":[{"id":130269,"name":"Huyện Cư Jút","native":null,"lat":"12.69591000","lon":"107.76316000"},{"id":130544,"name":"Huyện Đắk R’Lấp","native":null,"lat":"11.87990000","lon":"107.52244000"},{"id":130333,"name":"Huyện Krông Nô","native":null,"lat":"12.36285000","lon":"107.83445000"}]},{"id":3773,"name":"Điện Biên","native":null,"cities":[{"id":130196,"name":"Dien Bien Phu","native":null,"lat":"21.38602000","lon":"103.02301000"},{"id":130528,"name":"Huyện Điện Biên Đông","native":null,"lat":"21.25266000","lon":"103.26900000"},{"id":130365,"name":"Huyện Mường Nhé","native":null,"lat":"22.10353000","lon":"102.58465000"},{"id":130493,"name":"Huyện Tủa Chùa","native":null,"lat":"21.95357000","lon":"103.37332000"},{"id":130478,"name":"Huyện Tuần Giáo","native":null,"lat":"21.69481000","lon":"103.41758000"},{"id":130611,"name":"Thị Xã Mưòng Lay","native":null,"lat":"22.03374000","lon":"103.12331000"}]},{"id":3821,"name":"Đồng Nai","native":null,"cities":[{"id":130172,"name":"Biên Hòa","native":null,"lat":"10.94469000","lon":"106.82432000"},{"id":130546,"name":"Huyện Định Quán","native":null,"lat":"11.21866000","lon":"107.33959000"},{"id":130344,"name":"Huyện Long Thành","native":null,"lat":"10.76162000","lon":"107.02688000"},{"id":130485,"name":"Huyện Tân Phú","native":null,"lat":"11.39867000","lon":"107.39976000"},{"id":130452,"name":"Huyện Thống Nhất","native":null,"lat":"10.97764000","lon":"107.15909000"},{"id":130471,"name":"Huyện Trảng Bom","native":null,"lat":"10.96624000","lon":"107.03614000"},{"id":130498,"name":"Huyện Vĩnh Cửu","native":null,"lat":"11.25725000","lon":"107.02773000"}]},{"id":3769,"name":"Đồng Tháp","native":null,"cities":[{"id":130184,"name":"Cao Lãnh","native":null,"lat":"10.46017000","lon":"105.63294000"},{"id":130253,"name":"Huyện Châu Thành","native":null,"lat":"10.22543000","lon":"105.82380000"},{"id":130340,"name":"Huyện Lai Vung","native":null,"lat":"10.24051000","lon":"105.66327000"},{"id":130351,"name":"Huyện Lấp Vò","native":null,"lat":"10.35918000","lon":"105.60611000"},{"id":130430,"name":"Huyện Tam Nông","native":null,"lat":"10.72761000","lon":"105.52522000"},{"id":130483,"name":"Huyện Tân Hồng","native":null,"lat":"10.87089000","lon":"105.49104000"},{"id":130435,"name":"Huyện Thanh Bình","native":null,"lat":"10.60137000","lon":"105.47811000"},{"id":130443,"name":"Huyện Tháp Mười","native":null,"lat":"10.54398000","lon":"105.81875000"},{"id":130589,"name":"Sa Dec","native":null,"lat":"10.29085000","lon":"105.75635000"},{"id":130590,"name":"Sa Dec city","native":null,"lat":"10.30550000","lon":"105.74757000"},{"id":130607,"name":"Thị Trấn Tân Thành","native":null,"lat":"10.25616000","lon":"105.59280000"}]},{"id":3813,"name":"Gia Lai","native":null,"cities":[{"id":130258,"name":"Huyện Chư Păh","native":null,"lat":"14.15941000","lon":"107.98411000"},{"id":130257,"name":"Huyện Chư Prông","native":null,"lat":"13.59976000","lon":"107.81099000"},{"id":130259,"name":"Huyện Chư Sê","native":null,"lat":"13.74254000","lon":"108.08663000"},{"id":130549,"name":"Huyện Đức Cơ","native":null,"lat":"13.78454000","lon":"107.66970000"},{"id":130320,"name":"Huyện Ia Grai","native":null,"lat":"13.98937000","lon":"107.73740000"},{"id":130322,"name":"Huyện KBang","native":null,"lat":"14.30506000","lon":"108.49779000"},{"id":130335,"name":"Huyện Kông Chro","native":null,"lat":"13.73519000","lon":"108.59697000"},{"id":130334,"name":"Huyện Krông Pa","native":null,"lat":"13.23152000","lon":"108.65494000"},{"id":130358,"name":"Huyện Mang Yang","native":null,"lat":"13.92840000","lon":"108.30246000"},{"id":130583,"name":"Pleiku","native":null,"lat":"13.98333000","lon":"108.00000000"}]},{"id":3779,"name":"Hà Giang","native":null,"cities":[{"id":130555,"name":"Hà Giang","native":null,"lat":"22.82333000","lon":"104.98357000"},{"id":130235,"name":"Huyện Bắc Mê","native":null,"lat":"22.75477000","lon":"105.29023000"},{"id":130236,"name":"Huyện Bắc Quang","native":null,"lat":"22.42301000","lon":"104.91831000"},{"id":130548,"name":"Huyện Đồng Văn","native":null,"lat":"23.25449000","lon":"105.27626000"},{"id":130406,"name":"Huyện Quang Bình","native":null,"lat":"22.41507000","lon":"104.66018000"},{"id":130508,"name":"Huyện Vị Xuyên","native":null,"lat":"22.73096000","lon":"104.90827000"},{"id":130511,"name":"Huyện Xín Mần","native":null,"lat":"22.64148000","lon":"104.52089000"},{"id":130516,"name":"Huyện Yên Minh","native":null,"lat":"23.06992000","lon":"105.17865000"}]},{"id":3802,"name":"Hà Nam","native":null,"cities":[{"id":130223,"name":"Huyện Bình Lục","native":null,"lat":"20.50126000","lon":"106.02959000"},{"id":130280,"name":"Huyện Duy Tiên","native":null,"lat":"20.62803000","lon":"105.96193000"},{"id":130326,"name":"Huyện Kim Bảng","native":null,"lat":"20.57254000","lon":"105.85043000"},{"id":130347,"name":"Huyện Lý Nhân","native":null,"lat":"20.56422000","lon":"106.09455000"},{"id":130437,"name":"Huyện Thanh Liêm","native":null,"lat":"20.46249000","lon":"105.92100000"},{"id":130582,"name":"Phủ Lý","native":null,"lat":"20.54531000","lon":"105.91221000"}]},{"id":3810,"name":"Hà Nội","native":null,"cities":[{"id":130558,"name":"Hà Đông","native":null,"lat":"20.97136000","lon":"105.77876000"},{"id":130201,"name":"Hanoi","native":null,"lat":"21.02450000","lon":"105.84117000"},{"id":130412,"name":"Huyện Quốc Oai","native":null,"lat":"20.97060000","lon":"105.61127000"},{"id":130586,"name":"Quận Ba Đình","native":null,"lat":"21.03587000","lon":"105.82163000"},{"id":130587,"name":"Quận Hà Đông","native":null,"lat":"20.95482000","lon":"105.76851000"},{"id":130595,"name":"Sơn Tây","native":null,"lat":"21.14053000","lon":"105.50686000"}]},{"id":3816,"name":"Hà Tĩnh","native":null,"cities":[{"id":130557,"name":"Hà Tĩnh","native":null,"lat":"18.34282000","lon":"105.90569000"},{"id":130277,"name":"Huyện Cẩm Xuyên","native":null,"lat":"18.19059000","lon":"106.00186000"},{"id":130243,"name":"Huyện Can Lộc","native":null,"lat":"18.44414000","lon":"105.76350000"},{"id":130525,"name":"Huyện Ðức Thọ","native":null,"lat":"18.49699000","lon":"105.61016000"},{"id":130337,"name":"Huyện Kỳ Anh","native":null,"lat":"18.05805000","lon":"106.24580000"},{"id":130382,"name":"Huyện Nghi Xuân","native":null,"lat":"18.62419000","lon":"105.76829000"},{"id":130447,"name":"Huyện Thạch Hà","native":null,"lat":"18.35091000","lon":"105.81123000"}]},{"id":3827,"name":"Hải Dương","native":null,"cities":[{"id":130562,"name":"Hải Dương","native":null,"lat":"20.94099000","lon":"106.33302000"},{"id":130221,"name":"Huyện Bình Giang","native":null,"lat":"20.87586000","lon":"106.19138000"},{"id":130274,"name":"Huyện Cẩm Giàng","native":null,"lat":"20.95000000","lon":"106.21667000"},{"id":130286,"name":"Huyện Gia Lộc","native":null,"lat":"20.85164000","lon":"106.29130000"},{"id":130329,"name":"Huyện Kinh Môn","native":null,"lat":"21.01634000","lon":"106.50384000"},{"id":130376,"name":"Huyện Nam Sách","native":null,"lat":"21.00484000","lon":"106.34042000"},{"id":130438,"name":"Huyện Thanh Miện","native":null,"lat":"20.77953000","lon":"106.22218000"},{"id":130609,"name":"Thị Xã Chí Linh","native":null,"lat":"21.13722000","lon":"106.39638000"}]},{"id":3783,"name":"Hải Phòng","native":null,"cities":[{"id":130188,"name":"Cát Bà","native":null,"lat":"20.72779000","lon":"107.04819000"},{"id":130200,"name":"Haiphong","native":null,"lat":"20.86481000","lon":"106.68345000"}]},{"id":3777,"name":"Hậu Giang","native":null,"cities":[{"id":130254,"name":"Huyện Châu Thành A","native":null,"lat":"9.93056000","lon":"105.64194000"},{"id":130627,"name":"Vị Thanh","native":null,"lat":"9.78449000","lon":"105.47012000"}]},{"id":3811,"name":"Hồ Chí Minh","native":null,"cities":[{"id":130191,"name":"Cần Giờ","native":null,"lat":"10.41115000","lon":"106.95474000"},{"id":130194,"name":"Củ Chi","native":null,"lat":"10.97333000","lon":"106.49325000"},{"id":130202,"name":"Ho Chi Minh City","native":null,"lat":"10.82302000","lon":"106.62965000"}]},{"id":3799,"name":"Hòa Bình","native":null,"cities":[{"id":130559,"name":"Hòa Bình","native":null,"lat":"20.81717000","lon":"105.33759000"},{"id":130245,"name":"Huyện Cao Phong","native":null,"lat":"20.69532000","lon":"105.33559000"},{"id":130338,"name":"Huyện Kỳ Sơn","native":null,"lat":"20.89631000","lon":"105.39659000"},{"id":130350,"name":"Huyện Lạc Thủy","native":null,"lat":"20.49794000","lon":"105.74092000"},{"id":130349,"name":"Huyện Lương Sơn","native":null,"lat":"20.87650000","lon":"105.51219000"},{"id":130484,"name":"Huyện Tân Lạc","native":null,"lat":"20.60557000","lon":"105.23399000"}]},{"id":3768,"name":"Hưng Yên","native":null,"cities":[{"id":130560,"name":"Hưng Yên","native":null,"lat":"20.64637000","lon":"106.05112000"},{"id":130523,"name":"Huyện Ân Thi","native":null,"lat":"20.81086000","lon":"106.09995000"},{"id":130323,"name":"Huyện Khoái Châu","native":null,"lat":"20.82170000","lon":"105.97455000"},{"id":130328,"name":"Huyện Kim Động","native":null,"lat":"20.74645000","lon":"106.03632000"},{"id":130369,"name":"Huyện Mỹ Hào","native":null,"lat":"20.93210000","lon":"106.10630000"},{"id":130396,"name":"Huyện Phù Cừ","native":null,"lat":"20.70997000","lon":"106.19744000"},{"id":130456,"name":"Huyện Tiên Lữ","native":null,"lat":"20.68490000","lon":"106.12513000"}]},{"id":3793,"name":"Khánh Hòa","native":null,"cities":[{"id":130182,"name":"Cam Ranh","native":null,"lat":"11.92144000","lon":"109.15913000"},{"id":130278,"name":"Huyện Diên Khánh","native":null,"lat":"12.27341000","lon":"109.03890000"},{"id":130324,"name":"Huyện Khánh Sơn","native":null,"lat":"12.02858000","lon":"108.90814000"},{"id":130325,"name":"Huyện Khánh Vĩnh","native":null,"lat":"12.30593000","lon":"108.83073000"},{"id":130506,"name":"Huyện Vạn Ninh","native":null,"lat":"12.72344000","lon":"109.24586000"},{"id":130576,"name":"Nha Trang","native":null,"lat":"12.24507000","lon":"109.19432000"},{"id":130598,"name":"Thành Phố Cam Ranh","native":null,"lat":"11.90707000","lon":"109.14861000"},{"id":130600,"name":"Thành Phố Nha Trang","native":null,"lat":"12.25458000","lon":"109.16655000"},{"id":130612,"name":"Thị Xã Ninh Hòa","native":null,"lat":"12.53796000","lon":"109.06057000"}]},{"id":3800,"name":"Kiên Giang","native":null,"cities":[{"id":130199,"name":"Dương Đông","native":null,"lat":"10.21716000","lon":"103.95929000"},{"id":130556,"name":"Hà Tiên","native":null,"lat":"10.38310000","lon":"104.48753000"},{"id":130208,"name":"Huyện An Biên","native":null,"lat":"9.81291000","lon":"105.05230000"},{"id":130210,"name":"Huyện An Minh","native":null,"lat":"9.66704000","lon":"104.94848000"},{"id":130249,"name":"Huyện Châu Thành","native":null,"lat":"9.94372000","lon":"105.16868000"},{"id":130290,"name":"Huyện Giồng Riềng","native":null,"lat":"9.91224000","lon":"105.37311000"},{"id":130295,"name":"Huyện Gò Quao","native":null,"lat":"9.74027000","lon":"105.29766000"},{"id":130307,"name":"Huyện Hòn Đất","native":null,"lat":"10.22908000","lon":"104.95280000"},{"id":130330,"name":"Huyện Kiên Hải","native":null,"lat":"9.83971000","lon":"104.61560000"},{"id":130400,"name":"Huyện Phú Quốc","native":null,"lat":"10.25516000","lon":"104.01455000"},{"id":130481,"name":"Huyện Tân Hiệp","native":null,"lat":"10.09540000","lon":"105.25936000"},{"id":130502,"name":"Huyện Vĩnh Thuận","native":null,"lat":"9.53306000","lon":"105.24490000"},{"id":130564,"name":"Kien Luong Town","native":null,"lat":"10.24892000","lon":"104.59000000"},{"id":130588,"name":"Rạch Giá","native":null,"lat":"10.01245000","lon":"105.08091000"}]},{"id":3772,"name":"Kon Tum","native":null,"cities":[{"id":130542,"name":"Huyện Đắk Glei","native":null,"lat":"15.11358000","lon":"107.75093000"},{"id":130543,"name":"Huyện Đắk Hà","native":null,"lat":"14.60326000","lon":"107.98547000"},{"id":130545,"name":"Huyện Đắk Tô","native":null,"lat":"14.70087000","lon":"107.80816000"},{"id":130321,"name":"Huyện Ia H'Drai","native":null,"lat":"14.06032000","lon":"107.46243000"},{"id":130332,"name":"Huyện Kon Plông","native":null,"lat":"14.75620000","lon":"108.32057000"},{"id":130388,"name":"Huyện Ngọc Hồi","native":null,"lat":"14.71940000","lon":"107.62636000"},{"id":130419,"name":"Huyện Sa Thầy","native":null,"lat":"14.32050000","lon":"107.59862000"},{"id":130565,"name":"Kon Tum","native":null,"lat":"14.35451000","lon":"108.00759000"}]},{"id":3825,"name":"Lai Châu","native":null,"cities":[{"id":130361,"name":"Huyện Mưòng Tè","native":null,"lat":"22.37443000","lon":"102.73835000"},{"id":130431,"name":"Huyện Tam Đường","native":null,"lat":"22.35391000","lon":"103.59342000"},{"id":130433,"name":"Huyện Than Uyên","native":null,"lat":"21.91424000","lon":"103.82857000"}]},{"id":3818,"name":"Lâm Đồng","native":null,"cities":[{"id":130176,"name":"Bảo Lộc","native":null,"lat":"11.54798000","lon":"107.80772000"},{"id":130632,"name":"Đam Rong","native":null,"lat":"12.05409000","lon":"108.14941000"},{"id":130633,"name":"Đinh Văn","native":null,"lat":"11.78624000","lon":"108.24282000"},{"id":130634,"name":"Đưc Trọng","native":null,"lat":"11.73559000","lon":"108.37330000"},{"id":130630,"name":"Ðà Lạt","native":null,"lat":"11.94646000","lon":"108.44193000"},{"id":130230,"name":"Huyện Bảo Lâm","native":null,"lat":"11.71163000","lon":"107.75338000"},{"id":130536,"name":"Huyện Đạ Huoai","native":null,"lat":"11.42465000","lon":"107.63825000"},{"id":130537,"name":"Huyện Đạ Tẻh","native":null,"lat":"11.58446000","lon":"107.52792000"},{"id":130535,"name":"Huyện Đơn Dương","native":null,"lat":"11.75308000","lon":"108.55397000"},{"id":130553,"name":"Huyện Đức Trọng","native":null,"lat":"11.62686000","lon":"108.35330000"},{"id":130346,"name":"Huyện Lâm Hà","native":null,"lat":"11.81890000","lon":"108.21215000"}]},{"id":3792,"name":"Lạng Sơn","native":null,"cities":[{"id":130237,"name":"Huyện Bắc Sơn","native":null,"lat":"21.83801000","lon":"106.27690000"},{"id":130220,"name":"Huyện Bình Gia","native":null,"lat":"22.07281000","lon":"106.30410000"},{"id":130244,"name":"Huyện Cao Lộc","native":null,"lat":"21.89857000","lon":"106.85435000"},{"id":130246,"name":"Huyện Chi Lăng","native":null,"lat":"21.67602000","lon":"106.62925000"},{"id":130531,"name":"Huyện Đình Lập","native":null,"lat":"21.54210000","lon":"107.12925000"},{"id":130308,"name":"Huyện Hũu Lũng","native":null,"lat":"21.54474000","lon":"106.34386000"},{"id":130507,"name":"Huyện Vặn Quan","native":null,"lat":"21.83333000","lon":"106.54942000"},{"id":130572,"name":"Lạng Sơn","native":null,"lat":"21.85264000","lon":"106.76101000"}]},{"id":3817,"name":"Lào Cai","native":null,"cities":[{"id":130234,"name":"Huyện Bắc Hà","native":null,"lat":"22.50998000","lon":"104.30769000"},{"id":130232,"name":"Huyện Bảo Yên","native":null,"lat":"22.26109000","lon":"104.46424000"},{"id":130219,"name":"Huyện Bát Xát","native":null,"lat":"22.56767000","lon":"103.71339000"},{"id":130362,"name":"Huyện Mường Khương","native":null,"lat":"22.67111000","lon":"104.11772000"},{"id":130418,"name":"Huyện Sa Pa","native":null,"lat":"22.33769000","lon":"103.84037000"},{"id":130420,"name":"Huyện Si Ma Cai","native":null,"lat":"22.67161000","lon":"104.27326000"},{"id":130495,"name":"Huyện Văn Bàn","native":null,"lat":"22.07002000","lon":"104.18122000"},{"id":130571,"name":"Lào Cai","native":null,"lat":"22.48556000","lon":"103.97066000"},{"id":130568,"name":"Lao Chải","native":null,"lat":"22.31377000","lon":"103.86844000"},{"id":130591,"name":"Sa Pa","native":null,"lat":"22.34023000","lon":"103.84415000"}]},{"id":3808,"name":"Long An","native":null,"cities":[{"id":130190,"name":"Cần Giuộc","native":null,"lat":"10.60857000","lon":"106.67135000"},{"id":130240,"name":"Huyện Bến Lức","native":null,"lat":"10.68858000","lon":"106.45484000"},{"id":130271,"name":"Huyện Cần Đước","native":null,"lat":"10.54148000","lon":"106.59636000"},{"id":130270,"name":"Huyện Cần Giuộc","native":null,"lat":"10.57742000","lon":"106.67279000"},{"id":130251,"name":"Huyện Châu Thành","native":null,"lat":"10.45214000","lon":"106.49015000"},{"id":130551,"name":"Huyện Đức Hòa","native":null,"lat":"10.87838000","lon":"106.42422000"},{"id":130550,"name":"Huyện Đức Huệ","native":null,"lat":"10.86473000","lon":"106.25914000"},{"id":130368,"name":"Huyện Mộc Hóa","native":null,"lat":"10.75166000","lon":"106.01729000"},{"id":130482,"name":"Huyện Tân Hưng","native":null,"lat":"10.83380000","lon":"105.68848000"},{"id":130488,"name":"Huyện Tân Thạnh","native":null,"lat":"10.60351000","lon":"105.96576000"},{"id":130489,"name":"Huyện Tân Trụ","native":null,"lat":"10.53182000","lon":"106.51644000"},{"id":130448,"name":"Huyện Thạnh Hóa","native":null,"lat":"10.66667000","lon":"106.16667000"},{"id":130454,"name":"Huyện Thủ Thừa","native":null,"lat":"10.65639000","lon":"106.34580000"},{"id":130499,"name":"Huyện Vĩnh Hưng","native":null,"lat":"10.88299000","lon":"105.80364000"},{"id":130620,"name":"Tân An","native":null,"lat":"10.53589000","lon":"106.41366000"}]},{"id":3789,"name":"Nam Định","native":null,"cities":[{"id":130287,"name":"Huyện Giao Thủy","native":null,"lat":"20.25706000","lon":"106.46245000"},{"id":130315,"name":"Huyện Hải Hậu","native":null,"lat":"20.15057000","lon":"106.27161000"},{"id":130370,"name":"Huyện Mỹ Lộc","native":null,"lat":"20.46079000","lon":"106.12319000"},{"id":130377,"name":"Huyện Nam Trực","native":null,"lat":"20.34106000","lon":"106.20821000"},{"id":130384,"name":"Huyện Nghĩa Hưng","native":null,"lat":"20.10598000","lon":"106.17345000"},{"id":130474,"name":"Huyện Trực Ninh","native":null,"lat":"20.25690000","lon":"106.24582000"},{"id":130509,"name":"Huyện Vụ Bản","native":null,"lat":"20.37705000","lon":"106.09707000"},{"id":130526,"name":"Huyện Ý Yên","native":null,"lat":"20.31669000","lon":"106.02327000"},{"id":130575,"name":"Nam Định","native":null,"lat":"20.43389000","lon":"106.17729000"}]},{"id":3780,"name":"Nghệ An","native":null,"cities":[{"id":130212,"name":"Huyện Anh Sơn","native":null,"lat":"18.92902000","lon":"105.08294000"},{"id":130264,"name":"Huyện Con Cuông","native":null,"lat":"19.03898000","lon":"104.80353000"},{"id":130279,"name":"Huyện Diễn Châu","native":null,"lat":"18.98892000","lon":"105.57625000"},{"id":130532,"name":"Huyện Đô Lương","native":null,"lat":"18.89259000","lon":"105.34027000"},{"id":130310,"name":"Huyện Hưng Nguyên","native":null,"lat":"18.67811000","lon":"105.62523000"},{"id":130339,"name":"Huyện Kỳ Sơn","native":null,"lat":"19.42397000","lon":"104.22199000"},{"id":130378,"name":"Huyện Nam Đàn","native":null,"lat":"18.67041000","lon":"105.52575000"},{"id":130381,"name":"Huyện Nghi Lộc","native":null,"lat":"18.83131000","lon":"105.62411000"},{"id":130385,"name":"Huyện Nghĩa Đàn","native":null,"lat":"19.38234000","lon":"105.44072000"},{"id":130411,"name":"Huyện Quế Phong","native":null,"lat":"19.70177000","lon":"104.87913000"},{"id":130413,"name":"Huyện Quỳ Châu","native":null,"lat":"19.55707000","lon":"105.09173000"},{"id":130414,"name":"Huyện Quỳ Hợp","native":null,"lat":"19.32514000","lon":"105.16009000"},{"id":130415,"name":"Huyện Quỳnh Lưu","native":null,"lat":"19.22717000","lon":"105.64354000"},{"id":130436,"name":"Huyện Thanh Chương","native":null,"lat":"18.73929000","lon":"105.24053000"},{"id":130492,"name":"Huyện Tương Dương","native":null,"lat":"19.30979000","lon":"104.57788000"},{"id":130520,"name":"Huyện Yên Thành","native":null,"lat":"19.02724000","lon":"105.43649000"},{"id":130622,"name":"Vinh","native":null,"lat":"18.67337000","lon":"105.69232000"},{"id":130629,"name":"Yên Vinh","native":null,"lat":"18.66667000","lon":"105.66667000"}]},{"id":3786,"name":"Ninh Bình","native":null,"cities":[{"id":130297,"name":"Huyện Hoa Lư","native":null,"lat":"20.25391000","lon":"105.90789000"},{"id":130327,"name":"Huyện Kim Sơn","native":null,"lat":"20.06034000","lon":"106.09863000"},{"id":130390,"name":"Huyện Nho Quan","native":null,"lat":"20.27606000","lon":"105.75442000"},{"id":130513,"name":"Huyện Yên Khánh","native":null,"lat":"20.19017000","lon":"106.09605000"},{"id":130517,"name":"Huyện Yên Mô","native":null,"lat":"20.12984000","lon":"106.00199000"},{"id":130577,"name":"Ninh Bình","native":null,"lat":"20.25809000","lon":"105.97965000"}]},{"id":3788,"name":"Ninh Thuận","native":null,"cities":[{"id":130578,"name":"Phan Rang-Tháp Chàm","native":null,"lat":"11.56432000","lon":"108.98858000"}]},{"id":3801,"name":"Phú Thọ","native":null,"cities":[{"id":130275,"name":"Huyện Cẩm Khê","native":null,"lat":"21.40683000","lon":"105.09845000"},{"id":130530,"name":"Huyện Đoan Hùng","native":null,"lat":"21.61776000","lon":"105.16110000"},{"id":130312,"name":"Huyện Hạ Hòa","native":null,"lat":"21.57763000","lon":"104.99464000"},{"id":130203,"name":"Huyen Lam Thao","native":null,"lat":"21.29971000","lon":"105.31119000"},{"id":130434,"name":"Huyện Thanh Ba","native":null,"lat":"21.47816000","lon":"105.15881000"},{"id":130515,"name":"Huyện Yên Lập","native":null,"lat":"21.35569000","lon":"105.00493000"},{"id":130603,"name":"Thành Phố Việt Trì","native":null,"lat":"21.32958000","lon":"105.39217000"},{"id":130615,"name":"Thị xã Phú Thọ","native":null,"lat":"21.41664000","lon":"105.23636000"},{"id":130623,"name":"Việt Trì","native":null,"lat":"21.32274000","lon":"105.40198000"}]},{"id":3824,"name":"Phú Yên","native":null,"cities":[{"id":130425,"name":"Huyện Sơn Hòa","native":null,"lat":"13.15868000","lon":"108.97281000"},{"id":130421,"name":"Huyện Sông Hinh","native":null,"lat":"12.91667000","lon":"108.91667000"},{"id":130593,"name":"Sông Cầu","native":null,"lat":"13.45560000","lon":"109.22348000"},{"id":130618,"name":"Tuy Hòa","native":null,"lat":"13.09546000","lon":"109.32094000"}]},{"id":3809,"name":"Quảng Bình","native":null,"cities":[{"id":130352,"name":"Huyện Lệ Thủy","native":null,"lat":"17.11239000","lon":"106.70471000"},{"id":130407,"name":"Huyện Quảng Ninh","native":null,"lat":"17.27067000","lon":"106.51387000"},{"id":130408,"name":"Huyện Quảng Trạch","native":null,"lat":"17.83447000","lon":"106.36705000"},{"id":130477,"name":"Huyện Tuyên Hóa","native":null,"lat":"17.91323000","lon":"106.02678000"},{"id":130566,"name":"Kwang Binh","native":null,"lat":"17.46885000","lon":"106.62226000"}]},{"id":3776,"name":"Quảng Nam","native":null,"cities":[{"id":130563,"name":"Hội An","native":null,"lat":"15.87944000","lon":"108.33500000"},{"id":130281,"name":"Huyện Duy Xuyên","native":null,"lat":"15.78970000","lon":"108.20247000"},{"id":130538,"name":"Huyện Đại Lộc","native":null,"lat":"15.83721000","lon":"107.97894000"},{"id":130529,"name":"Huyện Điện Bàn","native":null,"lat":"15.89917000","lon":"108.22470000"},{"id":130296,"name":"Huyện Hiệp Đức","native":null,"lat":"15.53857000","lon":"108.09539000"},{"id":130375,"name":"Huyện Nam Giang","native":null,"lat":"15.63201000","lon":"107.60267000"},{"id":130394,"name":"Huyện Núi Thành","native":null,"lat":"15.43345000","lon":"108.57438000"},{"id":130403,"name":"Huyện Phước Sơn","native":null,"lat":"15.38806000","lon":"107.85766000"},{"id":130457,"name":"Huyện Tiên Phước","native":null,"lat":"15.47090000","lon":"108.28257000"},{"id":130467,"name":"Huyện Trà My","native":null,"lat":"15.25000000","lon":"108.08333000"},{"id":130596,"name":"Tam Kỳ","native":null,"lat":"15.57364000","lon":"108.47403000"}]},{"id":3828,"name":"Quảng Ngãi","native":null,"cities":[{"id":130216,"name":"Huyện Ba Tơ","native":null,"lat":"14.73973000","lon":"108.69326000"},{"id":130224,"name":"Huyện Bình Sơn","native":null,"lat":"15.31899000","lon":"108.76383000"},{"id":130552,"name":"Huyện Đức Phổ","native":null,"lat":"14.78000000","lon":"108.97857000"},{"id":130348,"name":"Huyện Lý Sơn","native":null,"lat":"15.40608000","lon":"109.09707000"},{"id":130359,"name":"Huyện Minh Long","native":null,"lat":"14.95375000","lon":"108.67724000"},{"id":130366,"name":"Huyện Mộ Đức","native":null,"lat":"14.95515000","lon":"108.88841000"},{"id":130383,"name":"Huyện Nghĩa Hành","native":null,"lat":"14.98712000","lon":"108.80036000"},{"id":130424,"name":"Huyện Sơn Hà","native":null,"lat":"14.98427000","lon":"108.53643000"},{"id":130426,"name":"Huyện Sơn Tây","native":null,"lat":"14.96392000","lon":"108.36419000"},{"id":130427,"name":"Huyện Sơn Tịnh","native":null,"lat":"15.19090000","lon":"108.74295000"},{"id":130464,"name":"Huyện Trà Bồng","native":null,"lat":"15.23752000","lon":"108.52633000"},{"id":130491,"name":"Huyện Tư Nghĩa","native":null,"lat":"15.09499000","lon":"108.77053000"},{"id":130585,"name":"Quảng Ngãi","native":null,"lat":"15.12047000","lon":"108.79232000"}]},{"id":3814,"name":"Quảng Ninh","native":null,"cities":[{"id":130192,"name":"Cẩm Phả","native":null,"lat":"21.01004000","lon":"107.27345000"},{"id":130193,"name":"Cẩm Phả Mines","native":null,"lat":"21.01667000","lon":"107.30000000"},{"id":130561,"name":"Hạ Long","native":null,"lat":"20.95045000","lon":"107.07336000"},{"id":130214,"name":"Huyện Ba Chẽ","native":null,"lat":"21.29503000","lon":"107.19298000"},{"id":130222,"name":"Huyện Bình Liêu","native":null,"lat":"21.54389000","lon":"107.44047000"},{"id":130268,"name":"Huyện Cô Tô","native":null,"lat":"21.05418000","lon":"107.80698000"},{"id":130541,"name":"Huyện Đầm Hà","native":null,"lat":"21.39689000","lon":"107.56175000"},{"id":130534,"name":"Huyện Đông Triều","native":null,"lat":"21.11043000","lon":"106.59662000"},{"id":130314,"name":"Huyện Hải Hà","native":null,"lat":"21.49537000","lon":"107.66790000"},{"id":130299,"name":"Huyện Hoành Bồ","native":null,"lat":"21.11888000","lon":"107.03149000"},{"id":130458,"name":"Huyện Tiên Yên","native":null,"lat":"21.37571000","lon":"107.37468000"},{"id":130494,"name":"Huyện Vân Đồn","native":null,"lat":"21.04921000","lon":"107.50971000"},{"id":130573,"name":"Móng Cái","native":null,"lat":"21.52471000","lon":"107.96619000"},{"id":130602,"name":"Thành Phố Uông Bí","native":null,"lat":"21.03433000","lon":"106.77049000"}]},{"id":3803,"name":"Quảng Trị","native":null,"cities":[{"id":130631,"name":"Ðông Hà","native":null,"lat":"16.81625000","lon":"107.10031000"},{"id":130242,"name":"Huyện Cam Lộ","native":null,"lat":"16.79335000","lon":"106.96175000"},{"id":130527,"name":"Huyện Đa Krông","native":null,"lat":"16.55543000","lon":"106.97208000"},{"id":130288,"name":"Huyện Gio Linh","native":null,"lat":"16.91667000","lon":"107.00000000"},{"id":130316,"name":"Huyện Hải Lăng","native":null,"lat":"16.67574000","lon":"107.23388000"},{"id":130311,"name":"Huyện Hướng Hóa","native":null,"lat":"16.70132000","lon":"106.67036000"},{"id":130462,"name":"Huyện Triệu Phong","native":null,"lat":"16.78132000","lon":"107.16034000"},{"id":130500,"name":"Huyện Vĩnh Linh","native":null,"lat":"17.01600000","lon":"106.93384000"}]},{"id":3819,"name":"Sóc Trăng","native":null,"cities":[{"id":130336,"name":"Huyện Kế Sách","native":null,"lat":"9.81771000","lon":"105.94190000"},{"id":130343,"name":"Huyện Long Phú","native":null,"lat":"9.63715000","lon":"106.08226000"},{"id":130371,"name":"Huyện Mỹ Tú","native":null,"lat":"9.60849000","lon":"105.80681000"},{"id":130372,"name":"Huyện Mỹ Xuyên","native":null,"lat":"9.44200000","lon":"105.88546000"},{"id":130205,"name":"Huyen Nga Nam","native":null,"lat":"9.56127000","lon":"105.59476000"},{"id":130450,"name":"Huyện Thạnh Trị","native":null,"lat":"9.46939000","lon":"105.71196000"},{"id":130592,"name":"Sóc Trăng","native":null,"lat":"9.59995000","lon":"105.97193000"}]},{"id":3812,"name":"Sơn La","native":null,"cities":[{"id":130238,"name":"Huyện Bắc Yên","native":null,"lat":"21.25042000","lon":"104.38501000"},{"id":130356,"name":"Huyện Mai Sơn","native":null,"lat":"21.15884000","lon":"104.04821000"},{"id":130367,"name":"Huyện Mộc Châu","native":null,"lat":"21.83333000","lon":"104.75000000"},{"id":130363,"name":"Huyện Mường La","native":null,"lat":"21.52960000","lon":"104.11113000"},{"id":130398,"name":"Huyện Phù Yên","native":null,"lat":"21.21412000","lon":"104.68993000"},{"id":130416,"name":"Huyện Quỳnh Nhai","native":null,"lat":"21.77224000","lon":"103.64920000"},{"id":130422,"name":"Huyện Sông Mã","native":null,"lat":"21.06971000","lon":"103.68727000"},{"id":130440,"name":"Huyện Thuận Châu","native":null,"lat":"21.42319000","lon":"103.64408000"},{"id":130512,"name":"Huyện Yên Châu","native":null,"lat":"21.00500000","lon":"104.33264000"},{"id":130594,"name":"Sơn La","native":null,"lat":"21.32560000","lon":"103.91882000"}]},{"id":3826,"name":"Tây Ninh","native":null,"cities":[{"id":130239,"name":"Huyện Bến Cầu","native":null,"lat":"11.12889000","lon":"106.14296000"},{"id":130282,"name":"Huyện Dương Minh Châu","native":null,"lat":"11.31833000","lon":"106.25697000"},{"id":130294,"name":"Huyện Gò Dầu","native":null,"lat":"11.15737000","lon":"106.27307000"},{"id":130306,"name":"Huyện Hòa Thành","native":null,"lat":"11.26706000","lon":"106.14486000"},{"id":130480,"name":"Huyện Tân Châu","native":null,"lat":"11.58739000","lon":"106.28270000"},{"id":130472,"name":"Huyện Trảng Bàng","native":null,"lat":"11.05720000","lon":"106.37539000"},{"id":130581,"name":"Phú Khương","native":null,"lat":"11.28333000","lon":"106.13333000"},{"id":130621,"name":"Tây Ninh","native":null,"lat":"11.31004000","lon":"106.09828000"}]},{"id":3775,"name":"Thái Bình","native":null,"cities":[{"id":130524,"name":"Huyện Ðông Hưng","native":null,"lat":"20.54388000","lon":"106.34090000"},{"id":130309,"name":"Huyện Hưng Hà","native":null,"lat":"20.59464000","lon":"106.21230000"},{"id":130331,"name":"Huyện Kiến Xương","native":null,"lat":"20.40081000","lon":"106.42032000"},{"id":130417,"name":"Huyện Quỳnh Phụ","native":null,"lat":"20.65095000","lon":"106.36359000"},{"id":130442,"name":"Huyện Thái Thụy","native":null,"lat":"20.53916000","lon":"106.51688000"},{"id":130459,"name":"Huyện Tiền Hải","native":null,"lat":"20.38465000","lon":"106.52882000"},{"id":130504,"name":"Huyện Vũ Thư","native":null,"lat":"20.43732000","lon":"106.26529000"},{"id":130605,"name":"Thái Bình","native":null,"lat":"20.45000000","lon":"106.34002000"}]},{"id":3807,"name":"Thái Nguyên","native":null,"cities":[{"id":130606,"name":"Thái Nguyên","native":null,"lat":"21.59422000","lon":"105.84817000"}]},{"id":3771,"name":"Thanh Hóa","native":null,"cities":[{"id":130181,"name":"Bỉm Sơn","native":null,"lat":"20.07806000","lon":"105.86028000"},{"id":130218,"name":"Huyện Bá Thước","native":null,"lat":"20.35767000","lon":"105.25301000"},{"id":130276,"name":"Huyện Cẩm Thủy","native":null,"lat":"20.19586000","lon":"105.46817000"},{"id":130533,"name":"Huyện Đông Sơn","native":null,"lat":"19.79742000","lon":"105.72465000"},{"id":130301,"name":"Huyện Hà Trung","native":null,"lat":"20.02654000","lon":"105.81931000"},{"id":130317,"name":"Huyện Hậu Lộc","native":null,"lat":"19.93337000","lon":"105.88894000"},{"id":130341,"name":"Huyện Lang Chánh","native":null,"lat":"20.15926000","lon":"105.15071000"},{"id":130364,"name":"Huyện Mường Lát","native":null,"lat":"20.52763000","lon":"104.62941000"},{"id":130380,"name":"Huyện Nga Sơn","native":null,"lat":"20.01561000","lon":"105.98975000"},{"id":130389,"name":"Huyện Ngọc Lặc","native":null,"lat":"20.06777000","lon":"105.37386000"},{"id":130391,"name":"Huyện Như Thanh","native":null,"lat":"19.57798000","lon":"105.55616000"},{"id":130392,"name":"Huyện Như Xuân","native":null,"lat":"19.62527000","lon":"105.38856000"},{"id":130393,"name":"Huyện Nông Cống","native":null,"lat":"19.61376000","lon":"105.68279000"},{"id":130404,"name":"Huyện Quan Hóa","native":null,"lat":"20.47565000","lon":"104.95335000"},{"id":130405,"name":"Huyện Quan Sơn","native":null,"lat":"20.25758000","lon":"104.83416000"},{"id":130409,"name":"Huyện Quảng Xương","native":null,"lat":"19.70252000","lon":"105.79298000"},{"id":130439,"name":"Huyện Thiệu Hóa","native":null,"lat":"19.89713000","lon":"105.68144000"},{"id":130451,"name":"Huyện Thọ Xuân","native":null,"lat":"19.93114000","lon":"105.48284000"},{"id":130445,"name":"Huyện Thường Xuân","native":null,"lat":"19.93684000","lon":"105.24109000"},{"id":130463,"name":"Huyện Triệu Sơn","native":null,"lat":"19.82578000","lon":"105.58293000"},{"id":130501,"name":"Huyện Vĩnh Lộc","native":null,"lat":"20.03482000","lon":"105.65755000"},{"id":130522,"name":"Huyện Yên Định","native":null,"lat":"19.98666000","lon":"105.61482000"},{"id":130597,"name":"Thanh Hóa","native":null,"lat":"19.80000000","lon":"105.76667000"}]},{"id":3798,"name":"Thừa Thiên-Huế","native":null,"cities":[{"id":130554,"name":"Huế","native":null,"lat":"16.46190000","lon":"107.59546000"},{"id":130207,"name":"Huyện A Lưới","native":null,"lat":"16.23422000","lon":"107.30650000"},{"id":130379,"name":"Huyện Nam Đông","native":null,"lat":"16.12396000","lon":"107.69270000"},{"id":130395,"name":"Huyện Phong Điền","native":null,"lat":"16.48769000","lon":"107.28889000"},{"id":130399,"name":"Huyện Phú Lộc","native":null,"lat":"16.27066000","lon":"107.88545000"},{"id":130402,"name":"Huyện Phú Vang","native":null,"lat":"16.47007000","lon":"107.71458000"},{"id":130410,"name":"Huyện Quảng Ðiền","native":null,"lat":"16.57941000","lon":"107.49370000"}]},{"id":3781,"name":"Tiền Giang","native":null,"cities":[{"id":130266,"name":"Huyện Cái Bè","native":null,"lat":"10.38824000","lon":"105.94620000"},{"id":130241,"name":"Huyện Cai Lậy","native":null,"lat":"10.38943000","lon":"106.06774000"},{"id":130252,"name":"Huyện Châu Thành","native":null,"lat":"10.38600000","lon":"106.27311000"},{"id":130260,"name":"Huyện Chợ Gạo","native":null,"lat":"10.37373000","lon":"106.44341000"},{"id":130293,"name":"Huyện Gò Công Đông","native":null,"lat":"10.36784000","lon":"106.74592000"},{"id":130292,"name":"Huyện Gò Công Tây","native":null,"lat":"10.34527000","lon":"106.59851000"},{"id":130486,"name":"Huyện Tân Phước","native":null,"lat":"10.51489000","lon":"106.23312000"},{"id":130574,"name":"Mỹ Tho","native":null,"lat":"10.36004000","lon":"106.35996000"},{"id":130599,"name":"Thành Phố Mỹ Tho","native":null,"lat":"10.36221000","lon":"106.36824000"},{"id":130610,"name":"Thị Xã Gò Công","native":null,"lat":"10.40005000","lon":"106.65847000"}]},{"id":3805,"name":"Trà Vinh","native":null,"cities":[{"id":130265,"name":"Huyện Càng Long","native":null,"lat":"9.95883000","lon":"106.21395000"},{"id":130272,"name":"Huyện Cầu Kè","native":null,"lat":"9.86738000","lon":"106.07916000"},{"id":130273,"name":"Huyện Cầu Ngang","native":null,"lat":"9.77186000","lon":"106.43654000"},{"id":130460,"name":"Huyện Tiểu Cần","native":null,"lat":"9.80350000","lon":"106.20594000"},{"id":130465,"name":"Huyện Trà Cú","native":null,"lat":"9.69706000","lon":"106.29423000"},{"id":130617,"name":"Trà Vinh","native":null,"lat":"9.94719000","lon":"106.34225000"}]},{"id":3795,"name":"Tuyên Quang","native":null,"cities":[{"id":130247,"name":"Huyện Chiêm Hóa","native":null,"lat":"22.17895000","lon":"105.27671000"},{"id":130305,"name":"Huyện Hàm Yên","native":null,"lat":"22.10935000","lon":"105.01630000"},{"id":130345,"name":"Huyện Lâm Bình","native":null,"lat":"22.46411000","lon":"105.21903000"},{"id":130373,"name":"Huyện Na Hang","native":null,"lat":"22.47522000","lon":"105.48380000"},{"id":130423,"name":"Huyện Sơn Dương","native":null,"lat":"21.63623000","lon":"105.38901000"},{"id":130519,"name":"Huyện Yên Sơn","native":null,"lat":"21.88363000","lon":"105.27656000"},{"id":130619,"name":"Tuyên Quang","native":null,"lat":"21.82356000","lon":"105.21424000"}]},{"id":3790,"name":"Vĩnh Long","native":null,"cities":[{"id":130342,"name":"Huyện Long Hồ","native":null,"lat":"10.21640000","lon":"105.98483000"},{"id":130357,"name":"Huyện Mang Thít","native":null,"lat":"10.18731000","lon":"106.07472000"},{"id":130428,"name":"Huyện Tam Bình","native":null,"lat":"10.08127000","lon":"105.95352000"},{"id":130468,"name":"Huyện Trà Ôn","native":null,"lat":"9.97522000","lon":"106.00957000"},{"id":130505,"name":"Huyện Vũng Liêm","native":null,"lat":"10.08717000","lon":"106.16038000"},{"id":130624,"name":"Vĩnh Long","native":null,"lat":"10.25369000","lon":"105.97220000"}]},{"id":3774,"name":"Vĩnh Phúc","native":null,"cities":[{"id":130225,"name":"Huyện Bình Xuyên","native":null,"lat":"21.30561000","lon":"105.66225000"},{"id":130429,"name":"Huyện Tam Dương","native":null,"lat":"21.36189000","lon":"105.55690000"},{"id":130432,"name":"Huyện Tam Đảo","native":null,"lat":"21.45690000","lon":"105.59460000"},{"id":130514,"name":"Huyện Yên Lạc","native":null,"lat":"21.21845000","lon":"105.57586000"},{"id":130625,"name":"Vĩnh Yên","native":null,"lat":"21.30891000","lon":"105.60489000"}]},{"id":3784,"name":"Yên Bái","native":null,"cities":[{"id":130355,"name":"Huyện Lục Yên","native":null,"lat":"22.10235000","lon":"104.72538000"},{"id":130360,"name":"Huyện Mù Cang Chải","native":null,"lat":"21.78815000","lon":"104.11998000"},{"id":130470,"name":"Huyện Trạm Tấu","native":null,"lat":"21.48553000","lon":"104.42756000"},{"id":130473,"name":"Huyện Trấn Yên","native":null,"lat":"21.66586000","lon":"104.79702000"},{"id":130496,"name":"Huyện Văn Chấn","native":null,"lat":"21.55722000","lon":"104.64038000"},{"id":130497,"name":"Huyện Văn Yên","native":null,"lat":"21.90022000","lon":"104.56669000"},{"id":130628,"name":"Yên Bái","native":null,"lat":"21.72288000","lon":"104.91130000"}]}]