[{"name":"An Giang","native":null,"cities":[{"name":"Cho Dok","native":null,"lat":"10.70000000","lon":"105.11667000"},{"name":"Huyện An Phú","native":null,"lat":"10.84274000","lon":"105.08990000"},{"name":"Huyện Châu Phú","native":null,"lat":"10.57166000","lon":"105.16991000"},{"name":"Huyện Chợ Mới","native":null,"lat":"10.47730000","lon":"105.49092000"},{"name":"Huyện Phú Tân","native":null,"lat":"10.65716000","lon":"105.28459000"},{"name":"Huyện Tri Tôn","native":null,"lat":"10.41416000","lon":"104.96136000"},{"name":"Long Xuyên","native":null,"lat":"10.38639000","lon":"105.43518000"},{"name":"Long Xuyên City","native":null,"lat":"10.36857000","lon":"105.42340000"}]},{"name":"Bà Rịa-Vũng Tàu","native":null,"cities":[{"name":"Côn Sơn","native":null,"lat":"8.68641000","lon":"106.60824000"},{"name":"Huyện Châu Đức","native":null,"lat":"10.65805000","lon":"107.25098000"},{"name":"Huyện Đất Đỏ","native":null,"lat":"10.48025000","lon":"107.27879000"},{"name":"Huyện Tân Thành","native":null,"lat":"10.57381000","lon":"107.10189000"},{"name":"Huyện Xuyên Mộc","native":null,"lat":"10.63048000","lon":"107.46568000"},{"name":"Thành Phố Vũng Tàu","native":null,"lat":"10.40239000","lon":"107.14239000"},{"name":"Thị Xã Phú Mỹ","native":null,"lat":"10.56815000","lon":"107.12999000"},{"name":"Vũng Tàu","native":null,"lat":"10.34599000","lon":"107.08426000"}]},{"name":"Bắc Giang","native":null,"cities":[{"name":"Bắc Giang","native":null,"lat":"21.27307000","lon":"106.19460000"},{"name":"Huyện Lục Nam","native":null,"lat":"21.27548000","lon":"106.46519000"},{"name":"Huyện Lục Ngạn","native":null,"lat":"21.43719000","lon":"106.65845000"},{"name":"Huyện Yên Thế","native":null,"lat":"21.51667000","lon":"106.11689000"}]},{"name":"Bắc Kạn","native":null,"cities":[{"name":"Bắc Kạn","native":null,"lat":"22.14701000","lon":"105.83481000"},{"name":"Huyện Ba Bể","native":null,"lat":"22.41667000","lon":"105.75000000"},{"name":"Huyện Bạch Thông","native":null,"lat":"22.25758000","lon":"105.83295000"},{"name":"Huyện Chợ Đồn","native":null,"lat":"22.18681000","lon":"105.57280000"},{"name":"Huyện Na Rì","native":null,"lat":"22.17883000","lon":"106.11221000"},{"name":"Huyện Ngân Sơn","native":null,"lat":"22.42962000","lon":"106.01030000"},{"name":"Thị Xã Bắc Kạn","native":null,"lat":"22.14130000","lon":"105.83867000"}]},{"name":"Bạc Liêu","native":null,"cities":[{"name":"Bạc Liêu","native":null,"lat":"9.29414000","lon":"105.72776000"},{"name":"Huyện Giá Rai","native":null,"lat":"9.27162000","lon":"105.40017000"},{"name":"Huyện Hồng Dân","native":null,"lat":"9.53822000","lon":"105.42242000"}]},{"name":"Bắc Ninh","native":null,"cities":[{"name":"Bắc Ninh","native":null,"lat":"21.18608000","lon":"106.07631000"},{"name":"Cung Kiệm","native":null,"lat":"21.18697000","lon":"106.16076000"},{"name":"Huyện Gia Bình","native":null,"lat":"21.07795000","lon":"106.20903000"},{"name":"Huyện Thuận Thành","native":null,"lat":"21.04085000","lon":"106.07515000"},{"name":"Huyện Tiên Du","native":null,"lat":"21.12195000","lon":"106.03995000"},{"name":"Huyện Yên Phong","native":null,"lat":"21.20676000","lon":"105.99427000"}]},{"name":"Bến Tre","native":null,"cities":[{"name":"Ấp Tân Ngãi","native":null,"lat":"10.23333000","lon":"106.28333000"},{"name":"Bến Tre","native":null,"lat":"10.24147000","lon":"106.37585000"},{"name":"Huyện Ba Tri","native":null,"lat":"10.06627000","lon":"106.60554000"},{"name":"Huyện Bình Đại","native":null,"lat":"10.19354000","lon":"106.64455000"},{"name":"Huyện Châu Thành","native":null,"lat":"10.29212000","lon":"106.30827000"},{"name":"Huyện Chợ Lách","native":null,"lat":"10.22674000","lon":"106.17077000"},{"name":"Huyện Giồng Trôm","native":null,"lat":"10.15909000","lon":"106.47004000"},{"name":"Huyện Thạnh Phú","native":null,"lat":"9.92993000","lon":"106.54316000"}]},{"name":"Bình Dương","native":null,"cities":[{"name":"Dĩ An","native":null,"lat":"10.90682000","lon":"106.76940000"},{"name":"Thủ Dầu Một","native":null,"lat":"10.98040000","lon":"106.65190000"}]},{"name":"Bình Định","native":null,"cities":[{"name":"Huyện An Lão","native":null,"lat":"14.55676000","lon":"108.80100000"},{"name":"Huyện Hoài Nhơn","native":null,"lat":"14.50535000","lon":"109.02315000"},{"name":"Huyện Phù Mỹ","native":null,"lat":"14.22304000","lon":"109.08611000"},{"name":"Huyện Tây Sơn","native":null,"lat":"13.94306000","lon":"108.87999000"},{"name":"Huyện Tuy Phước","native":null,"lat":"13.84564000","lon":"109.15275000"},{"name":"Huyện Vĩnh Thạnh","native":null,"lat":"14.21100000","lon":"108.74389000"},{"name":"Qui Nhon","native":null,"lat":"13.77648000","lon":"109.22367000"}]},{"name":"Bình Phước","native":null,"cities":[{"name":"Bình Long","native":null,"lat":"11.64711000","lon":"106.60586000"},{"name":"Don Luan","native":null,"lat":"11.53495000","lon":"106.88324000"},{"name":"Huyện Bù Đốp","native":null,"lat":"12.00374000","lon":"106.81545000"},{"name":"Huyện Chơn Thành","native":null,"lat":"11.46283000","lon":"106.66655000"},{"name":"Huyện Đồng Phú","native":null,"lat":"11.50071000","lon":"107.01192000"},{"name":"Huyện Hớn Quản","native":null,"lat":"11.59718000","lon":"106.62739000"},{"name":"Thị Xã Phước Long","native":null,"lat":"11.81142000","lon":"106.99670000"}]},{"name":"Bình Thuận","native":null,"cities":[{"name":"Huyện Bắc Bình","native":null,"lat":"11.27571000","lon":"108.38506000"},{"name":"Huyện Hàm Tân","native":null,"lat":"10.76856000","lon":"107.64233000"},{"name":"Huyện Hàm Thuận Bắc","native":null,"lat":"11.14703000","lon":"108.08172000"},{"name":"Huyện Hàm Thuận Nam","native":null,"lat":"10.92101000","lon":"107.93325000"},{"name":"Huyện Tánh Linh","native":null,"lat":"11.11367000","lon":"107.68427000"},{"name":"Huyện Tuy Phong","native":null,"lat":"11.34746000","lon":"108.70466000"},{"name":"La Gi","native":null,"lat":"10.65993000","lon":"107.77206000"},{"name":"Phan Thiết","native":null,"lat":"10.92889000","lon":"108.10208000"},{"name":"Thành Phố Phan Thiết","native":null,"lat":"10.93700000","lon":"108.15778000"}]},{"name":"Cà Mau","native":null,"cities":[{"name":"Cà Mau","native":null,"lat":"9.17682000","lon":"105.15242000"},{"name":"Huyện Cái Nước","native":null,"lat":"9.00094000","lon":"105.04201000"},{"name":"Huyện Đầm Dơi","native":null,"lat":"8.96029000","lon":"105.24107000"},{"name":"Huyen Nam Can","native":null,"lat":"8.81531000","lon":"105.05574000"},{"name":"Huyện Thới Bình","native":null,"lat":"9.35790000","lon":"105.16023000"}]},{"name":"Cần Thơ","native":null,"cities":[{"name":"Cần Thơ","native":null,"lat":"10.11667000","lon":"105.50000000"},{"name":"Cờ Đỏ","native":null,"lat":"10.09472222","lon":"105.43194444"},{"name":"Thới Lai","native":null,"lat":"10.06305556","lon":"105.56083333"},{"name":"Vĩnh Thạnh","native":null,"lat":"10.21916667","lon":"105.40111111"}]},{"name":"Cao Bằng","native":null,"cities":[{"name":"Cao Bằng","native":null,"lat":"22.66568000","lon":"106.25786000"},{"name":"Huyện Bảo Lac","native":null,"lat":"22.90085000","lon":"105.73332000"},{"name":"Huyện Bảo Lâm","native":null,"lat":"22.87041000","lon":"105.48780000"},{"name":"Huyện Hạ Lang","native":null,"lat":"22.70933000","lon":"106.67657000"},{"name":"Huyện Hà Quảng","native":null,"lat":"22.90763000","lon":"106.12487000"},{"name":"Huyện Nguyên Bình","native":null,"lat":"22.62400000","lon":"105.93248000"},{"name":"Huyen Phuc Hoa","native":null,"lat":"22.53840000","lon":"106.51039000"},{"name":"Huyện Thạch An","native":null,"lat":"22.47654000","lon":"106.34237000"},{"name":"Huyện Thông Nông","native":null,"lat":"22.80735000","lon":"105.95846000"},{"name":"Huyện Trà Lĩnh","native":null,"lat":"22.80961000","lon":"106.32543000"},{"name":"Huyện Trùng Khánh","native":null,"lat":"22.83333000","lon":"106.56074000"}]},{"name":"Đà Nẵng","native":null,"cities":[{"name":"Da Nang","native":null,"lat":"16.06778000","lon":"108.22083000"}]},{"name":"Đắk Lắk","native":null,"cities":[{"name":"Buôn Ma Thuột","native":null,"lat":"12.66747000","lon":"108.03775000"},{"name":"Huyện Buôn Đôn","native":null,"lat":"12.90396000","lon":"107.73870000"},{"name":"Huyện Ea H'Leo","native":null,"lat":"13.31814000","lon":"108.07148000"},{"name":"Huyện Ea Súp","native":null,"lat":"13.18279000","lon":"107.79954000"}]},{"name":"Đắk Nông","native":null,"cities":[{"name":"Huyện Cư Jút","native":null,"lat":"12.69591000","lon":"107.76316000"},{"name":"Huyện Đắk R’Lấp","native":null,"lat":"11.87990000","lon":"107.52244000"},{"name":"Huyện Krông Nô","native":null,"lat":"12.36285000","lon":"107.83445000"}]},{"name":"Điện Biên","native":null,"cities":[{"name":"Dien Bien Phu","native":null,"lat":"21.38602000","lon":"103.02301000"},{"name":"Huyện Điện Biên Đông","native":null,"lat":"21.25266000","lon":"103.26900000"},{"name":"Huyện Mường Nhé","native":null,"lat":"22.10353000","lon":"102.58465000"},{"name":"Huyện Tủa Chùa","native":null,"lat":"21.95357000","lon":"103.37332000"},{"name":"Huyện Tuần Giáo","native":null,"lat":"21.69481000","lon":"103.41758000"},{"name":"Thị Xã Mưòng Lay","native":null,"lat":"22.03374000","lon":"103.12331000"}]},{"name":"Đồng Nai","native":null,"cities":[{"name":"Biên Hòa","native":null,"lat":"10.94469000","lon":"106.82432000"},{"name":"Huyện Định Quán","native":null,"lat":"11.21866000","lon":"107.33959000"},{"name":"Huyện Long Thành","native":null,"lat":"10.76162000","lon":"107.02688000"},{"name":"Huyện Tân Phú","native":null,"lat":"11.39867000","lon":"107.39976000"},{"name":"Huyện Thống Nhất","native":null,"lat":"10.97764000","lon":"107.15909000"},{"name":"Huyện Trảng Bom","native":null,"lat":"10.96624000","lon":"107.03614000"},{"name":"Huyện Vĩnh Cửu","native":null,"lat":"11.25725000","lon":"107.02773000"}]},{"name":"Đồng Tháp","native":null,"cities":[{"name":"Cao Lãnh","native":null,"lat":"10.46017000","lon":"105.63294000"},{"name":"Huyện Châu Thành","native":null,"lat":"10.22543000","lon":"105.82380000"},{"name":"Huyện Lai Vung","native":null,"lat":"10.24051000","lon":"105.66327000"},{"name":"Huyện Lấp Vò","native":null,"lat":"10.35918000","lon":"105.60611000"},{"name":"Huyện Tam Nông","native":null,"lat":"10.72761000","lon":"105.52522000"},{"name":"Huyện Tân Hồng","native":null,"lat":"10.87089000","lon":"105.49104000"},{"name":"Huyện Thanh Bình","native":null,"lat":"10.60137000","lon":"105.47811000"},{"name":"Huyện Tháp Mười","native":null,"lat":"10.54398000","lon":"105.81875000"},{"name":"Sa Dec","native":null,"lat":"10.29085000","lon":"105.75635000"},{"name":"Sa Dec city","native":null,"lat":"10.30550000","lon":"105.74757000"},{"name":"Thị Trấn Tân Thành","native":null,"lat":"10.25616000","lon":"105.59280000"}]},{"name":"Gia Lai","native":null,"cities":[{"name":"Huyện Chư Păh","native":null,"lat":"14.15941000","lon":"107.98411000"},{"name":"Huyện Chư Prông","native":null,"lat":"13.59976000","lon":"107.81099000"},{"name":"Huyện Chư Sê","native":null,"lat":"13.74254000","lon":"108.08663000"},{"name":"Huyện Đức Cơ","native":null,"lat":"13.78454000","lon":"107.66970000"},{"name":"Huyện Ia Grai","native":null,"lat":"13.98937000","lon":"107.73740000"},{"name":"Huyện KBang","native":null,"lat":"14.30506000","lon":"108.49779000"},{"name":"Huyện Kông Chro","native":null,"lat":"13.73519000","lon":"108.59697000"},{"name":"Huyện Krông Pa","native":null,"lat":"13.23152000","lon":"108.65494000"},{"name":"Huyện Mang Yang","native":null,"lat":"13.92840000","lon":"108.30246000"},{"name":"Pleiku","native":null,"lat":"13.98333000","lon":"108.00000000"}]},{"name":"Hà Giang","native":null,"cities":[{"name":"Hà Giang","native":null,"lat":"22.82333000","lon":"104.98357000"},{"name":"Huyện Bắc Mê","native":null,"lat":"22.75477000","lon":"105.29023000"},{"name":"Huyện Bắc Quang","native":null,"lat":"22.42301000","lon":"104.91831000"},{"name":"Huyện Đồng Văn","native":null,"lat":"23.25449000","lon":"105.27626000"},{"name":"Huyện Quang Bình","native":null,"lat":"22.41507000","lon":"104.66018000"},{"name":"Huyện Vị Xuyên","native":null,"lat":"22.73096000","lon":"104.90827000"},{"name":"Huyện Xín Mần","native":null,"lat":"22.64148000","lon":"104.52089000"},{"name":"Huyện Yên Minh","native":null,"lat":"23.06992000","lon":"105.17865000"}]},{"name":"Hà Nam","native":null,"cities":[{"name":"Huyện Bình Lục","native":null,"lat":"20.50126000","lon":"106.02959000"},{"name":"Huyện Duy Tiên","native":null,"lat":"20.62803000","lon":"105.96193000"},{"name":"Huyện Kim Bảng","native":null,"lat":"20.57254000","lon":"105.85043000"},{"name":"Huyện Lý Nhân","native":null,"lat":"20.56422000","lon":"106.09455000"},{"name":"Huyện Thanh Liêm","native":null,"lat":"20.46249000","lon":"105.92100000"},{"name":"Phủ Lý","native":null,"lat":"20.54531000","lon":"105.91221000"}]},{"name":"Hà Nội","native":null,"cities":[{"name":"Hà Đông","native":null,"lat":"20.97136000","lon":"105.77876000"},{"name":"Hanoi","native":null,"lat":"21.02450000","lon":"105.84117000"},{"name":"Huyện Quốc Oai","native":null,"lat":"20.97060000","lon":"105.61127000"},{"name":"Quận Ba Đình","native":null,"lat":"21.03587000","lon":"105.82163000"},{"name":"Quận Hà Đông","native":null,"lat":"20.95482000","lon":"105.76851000"},{"name":"Sơn Tây","native":null,"lat":"21.14053000","lon":"105.50686000"}]},{"name":"Hà Tĩnh","native":null,"cities":[{"name":"Hà Tĩnh","native":null,"lat":"18.34282000","lon":"105.90569000"},{"name":"Huyện Cẩm Xuyên","native":null,"lat":"18.19059000","lon":"106.00186000"},{"name":"Huyện Can Lộc","native":null,"lat":"18.44414000","lon":"105.76350000"},{"name":"Huyện Ðức Thọ","native":null,"lat":"18.49699000","lon":"105.61016000"},{"name":"Huyện Kỳ Anh","native":null,"lat":"18.05805000","lon":"106.24580000"},{"name":"Huyện Nghi Xuân","native":null,"lat":"18.62419000","lon":"105.76829000"},{"name":"Huyện Thạch Hà","native":null,"lat":"18.35091000","lon":"105.81123000"}]},{"name":"Hải Dương","native":null,"cities":[{"name":"Hải Dương","native":null,"lat":"20.94099000","lon":"106.33302000"},{"name":"Huyện Bình Giang","native":null,"lat":"20.87586000","lon":"106.19138000"},{"name":"Huyện Cẩm Giàng","native":null,"lat":"20.95000000","lon":"106.21667000"},{"name":"Huyện Gia Lộc","native":null,"lat":"20.85164000","lon":"106.29130000"},{"name":"Huyện Kinh Môn","native":null,"lat":"21.01634000","lon":"106.50384000"},{"name":"Huyện Nam Sách","native":null,"lat":"21.00484000","lon":"106.34042000"},{"name":"Huyện Thanh Miện","native":null,"lat":"20.77953000","lon":"106.22218000"},{"name":"Thị Xã Chí Linh","native":null,"lat":"21.13722000","lon":"106.39638000"}]},{"name":"Hải Phòng","native":null,"cities":[{"name":"Cát Bà","native":null,"lat":"20.72779000","lon":"107.04819000"},{"name":"Haiphong","native":null,"lat":"20.86481000","lon":"106.68345000"}]},{"name":"Hậu Giang","native":null,"cities":[{"name":"Huyện Châu Thành A","native":null,"lat":"9.93056000","lon":"105.64194000"},{"name":"Vị Thanh","native":null,"lat":"9.78449000","lon":"105.47012000"}]},{"name":"Hồ Chí Minh","native":null,"cities":[{"name":"Cần Giờ","native":null,"lat":"10.41115000","lon":"106.95474000"},{"name":"Củ Chi","native":null,"lat":"10.97333000","lon":"106.49325000"},{"name":"Ho Chi Minh City","native":null,"lat":"10.82302000","lon":"106.62965000"}]},{"name":"Hòa Bình","native":null,"cities":[{"name":"Hòa Bình","native":null,"lat":"20.81717000","lon":"105.33759000"},{"name":"Huyện Cao Phong","native":null,"lat":"20.69532000","lon":"105.33559000"},{"name":"Huyện Kỳ Sơn","native":null,"lat":"20.89631000","lon":"105.39659000"},{"name":"Huyện Lạc Thủy","native":null,"lat":"20.49794000","lon":"105.74092000"},{"name":"Huyện Lương Sơn","native":null,"lat":"20.87650000","lon":"105.51219000"},{"name":"Huyện Tân Lạc","native":null,"lat":"20.60557000","lon":"105.23399000"}]},{"name":"Hưng Yên","native":null,"cities":[{"name":"Hưng Yên","native":null,"lat":"20.64637000","lon":"106.05112000"},{"name":"Huyện Ân Thi","native":null,"lat":"20.81086000","lon":"106.09995000"},{"name":"Huyện Khoái Châu","native":null,"lat":"20.82170000","lon":"105.97455000"},{"name":"Huyện Kim Động","native":null,"lat":"20.74645000","lon":"106.03632000"},{"name":"Huyện Mỹ Hào","native":null,"lat":"20.93210000","lon":"106.10630000"},{"name":"Huyện Phù Cừ","native":null,"lat":"20.70997000","lon":"106.19744000"},{"name":"Huyện Tiên Lữ","native":null,"lat":"20.68490000","lon":"106.12513000"}]},{"name":"Khánh Hòa","native":null,"cities":[{"name":"Cam Ranh","native":null,"lat":"11.92144000","lon":"109.15913000"},{"name":"Huyện Diên Khánh","native":null,"lat":"12.27341000","lon":"109.03890000"},{"name":"Huyện Khánh Sơn","native":null,"lat":"12.02858000","lon":"108.90814000"},{"name":"Huyện Khánh Vĩnh","native":null,"lat":"12.30593000","lon":"108.83073000"},{"name":"Huyện Vạn Ninh","native":null,"lat":"12.72344000","lon":"109.24586000"},{"name":"Nha Trang","native":null,"lat":"12.24507000","lon":"109.19432000"},{"name":"Thành Phố Cam Ranh","native":null,"lat":"11.90707000","lon":"109.14861000"},{"name":"Thành Phố Nha Trang","native":null,"lat":"12.25458000","lon":"109.16655000"},{"name":"Thị Xã Ninh Hòa","native":null,"lat":"12.53796000","lon":"109.06057000"}]},{"name":"Kiên Giang","native":null,"cities":[{"name":"Dương Đông","native":null,"lat":"10.21716000","lon":"103.95929000"},{"name":"Hà Tiên","native":null,"lat":"10.38310000","lon":"104.48753000"},{"name":"Huyện An Biên","native":null,"lat":"9.81291000","lon":"105.05230000"},{"name":"Huyện An Minh","native":null,"lat":"9.66704000","lon":"104.94848000"},{"name":"Huyện Châu Thành","native":null,"lat":"9.94372000","lon":"105.16868000"},{"name":"Huyện Giồng Riềng","native":null,"lat":"9.91224000","lon":"105.37311000"},{"name":"Huyện Gò Quao","native":null,"lat":"9.74027000","lon":"105.29766000"},{"name":"Huyện Hòn Đất","native":null,"lat":"10.22908000","lon":"104.95280000"},{"name":"Huyện Kiên Hải","native":null,"lat":"9.83971000","lon":"104.61560000"},{"name":"Huyện Phú Quốc","native":null,"lat":"10.25516000","lon":"104.01455000"},{"name":"Huyện Tân Hiệp","native":null,"lat":"10.09540000","lon":"105.25936000"},{"name":"Huyện Vĩnh Thuận","native":null,"lat":"9.53306000","lon":"105.24490000"},{"name":"Kien Luong Town","native":null,"lat":"10.24892000","lon":"104.59000000"},{"name":"Rạch Giá","native":null,"lat":"10.01245000","lon":"105.08091000"}]},{"name":"Kon Tum","native":null,"cities":[{"name":"Huyện Đắk Glei","native":null,"lat":"15.11358000","lon":"107.75093000"},{"name":"Huyện Đắk Hà","native":null,"lat":"14.60326000","lon":"107.98547000"},{"name":"Huyện Đắk Tô","native":null,"lat":"14.70087000","lon":"107.80816000"},{"name":"Huyện Ia H'Drai","native":null,"lat":"14.06032000","lon":"107.46243000"},{"name":"Huyện Kon Plông","native":null,"lat":"14.75620000","lon":"108.32057000"},{"name":"Huyện Ngọc Hồi","native":null,"lat":"14.71940000","lon":"107.62636000"},{"name":"Huyện Sa Thầy","native":null,"lat":"14.32050000","lon":"107.59862000"},{"name":"Kon Tum","native":null,"lat":"14.35451000","lon":"108.00759000"}]},{"name":"Lai Châu","native":null,"cities":[{"name":"Huyện Mưòng Tè","native":null,"lat":"22.37443000","lon":"102.73835000"},{"name":"Huyện Tam Đường","native":null,"lat":"22.35391000","lon":"103.59342000"},{"name":"Huyện Than Uyên","native":null,"lat":"21.91424000","lon":"103.82857000"}]},{"name":"Lâm Đồng","native":null,"cities":[{"name":"Bảo Lộc","native":null,"lat":"11.54798000","lon":"107.80772000"},{"name":"Đam Rong","native":null,"lat":"12.05409000","lon":"108.14941000"},{"name":"Đinh Văn","native":null,"lat":"11.78624000","lon":"108.24282000"},{"name":"Đưc Trọng","native":null,"lat":"11.73559000","lon":"108.37330000"},{"name":"Ðà Lạt","native":null,"lat":"11.94646000","lon":"108.44193000"},{"name":"Huyện Bảo Lâm","native":null,"lat":"11.71163000","lon":"107.75338000"},{"name":"Huyện Đạ Huoai","native":null,"lat":"11.42465000","lon":"107.63825000"},{"name":"Huyện Đạ Tẻh","native":null,"lat":"11.58446000","lon":"107.52792000"},{"name":"Huyện Đơn Dương","native":null,"lat":"11.75308000","lon":"108.55397000"},{"name":"Huyện Đức Trọng","native":null,"lat":"11.62686000","lon":"108.35330000"},{"name":"Huyện Lâm Hà","native":null,"lat":"11.81890000","lon":"108.21215000"}]},{"name":"Lạng Sơn","native":null,"cities":[{"name":"Huyện Bắc Sơn","native":null,"lat":"21.83801000","lon":"106.27690000"},{"name":"Huyện Bình Gia","native":null,"lat":"22.07281000","lon":"106.30410000"},{"name":"Huyện Cao Lộc","native":null,"lat":"21.89857000","lon":"106.85435000"},{"name":"Huyện Chi Lăng","native":null,"lat":"21.67602000","lon":"106.62925000"},{"name":"Huyện Đình Lập","native":null,"lat":"21.54210000","lon":"107.12925000"},{"name":"Huyện Hũu Lũng","native":null,"lat":"21.54474000","lon":"106.34386000"},{"name":"Huyện Vặn Quan","native":null,"lat":"21.83333000","lon":"106.54942000"},{"name":"Lạng Sơn","native":null,"lat":"21.85264000","lon":"106.76101000"}]},{"name":"Lào Cai","native":null,"cities":[{"name":"Huyện Bắc Hà","native":null,"lat":"22.50998000","lon":"104.30769000"},{"name":"Huyện Bảo Yên","native":null,"lat":"22.26109000","lon":"104.46424000"},{"name":"Huyện Bát Xát","native":null,"lat":"22.56767000","lon":"103.71339000"},{"name":"Huyện Mường Khương","native":null,"lat":"22.67111000","lon":"104.11772000"},{"name":"Huyện Sa Pa","native":null,"lat":"22.33769000","lon":"103.84037000"},{"name":"Huyện Si Ma Cai","native":null,"lat":"22.67161000","lon":"104.27326000"},{"name":"Huyện Văn Bàn","native":null,"lat":"22.07002000","lon":"104.18122000"},{"name":"Lào Cai","native":null,"lat":"22.48556000","lon":"103.97066000"},{"name":"Lao Chải","native":null,"lat":"22.31377000","lon":"103.86844000"},{"name":"Sa Pa","native":null,"lat":"22.34023000","lon":"103.84415000"}]},{"name":"Long An","native":null,"cities":[{"name":"Cần Giuộc","native":null,"lat":"10.60857000","lon":"106.67135000"},{"name":"Huyện Bến Lức","native":null,"lat":"10.68858000","lon":"106.45484000"},{"name":"Huyện Cần Đước","native":null,"lat":"10.54148000","lon":"106.59636000"},{"name":"Huyện Cần Giuộc","native":null,"lat":"10.57742000","lon":"106.67279000"},{"name":"Huyện Châu Thành","native":null,"lat":"10.45214000","lon":"106.49015000"},{"name":"Huyện Đức Hòa","native":null,"lat":"10.87838000","lon":"106.42422000"},{"name":"Huyện Đức Huệ","native":null,"lat":"10.86473000","lon":"106.25914000"},{"name":"Huyện Mộc Hóa","native":null,"lat":"10.75166000","lon":"106.01729000"},{"name":"Huyện Tân Hưng","native":null,"lat":"10.83380000","lon":"105.68848000"},{"name":"Huyện Tân Thạnh","native":null,"lat":"10.60351000","lon":"105.96576000"},{"name":"Huyện Tân Trụ","native":null,"lat":"10.53182000","lon":"106.51644000"},{"name":"Huyện Thạnh Hóa","native":null,"lat":"10.66667000","lon":"106.16667000"},{"name":"Huyện Thủ Thừa","native":null,"lat":"10.65639000","lon":"106.34580000"},{"name":"Huyện Vĩnh Hưng","native":null,"lat":"10.88299000","lon":"105.80364000"},{"name":"Tân An","native":null,"lat":"10.53589000","lon":"106.41366000"}]},{"name":"Nam Định","native":null,"cities":[{"name":"Huyện Giao Thủy","native":null,"lat":"20.25706000","lon":"106.46245000"},{"name":"Huyện Hải Hậu","native":null,"lat":"20.15057000","lon":"106.27161000"},{"name":"Huyện Mỹ Lộc","native":null,"lat":"20.46079000","lon":"106.12319000"},{"name":"Huyện Nam Trực","native":null,"lat":"20.34106000","lon":"106.20821000"},{"name":"Huyện Nghĩa Hưng","native":null,"lat":"20.10598000","lon":"106.17345000"},{"name":"Huyện Trực Ninh","native":null,"lat":"20.25690000","lon":"106.24582000"},{"name":"Huyện Vụ Bản","native":null,"lat":"20.37705000","lon":"106.09707000"},{"name":"Huyện Ý Yên","native":null,"lat":"20.31669000","lon":"106.02327000"},{"name":"Nam Định","native":null,"lat":"20.43389000","lon":"106.17729000"}]},{"name":"Nghệ An","native":null,"cities":[{"name":"Huyện Anh Sơn","native":null,"lat":"18.92902000","lon":"105.08294000"},{"name":"Huyện Con Cuông","native":null,"lat":"19.03898000","lon":"104.80353000"},{"name":"Huyện Diễn Châu","native":null,"lat":"18.98892000","lon":"105.57625000"},{"name":"Huyện Đô Lương","native":null,"lat":"18.89259000","lon":"105.34027000"},{"name":"Huyện Hưng Nguyên","native":null,"lat":"18.67811000","lon":"105.62523000"},{"name":"Huyện Kỳ Sơn","native":null,"lat":"19.42397000","lon":"104.22199000"},{"name":"Huyện Nam Đàn","native":null,"lat":"18.67041000","lon":"105.52575000"},{"name":"Huyện Nghi Lộc","native":null,"lat":"18.83131000","lon":"105.62411000"},{"name":"Huyện Nghĩa Đàn","native":null,"lat":"19.38234000","lon":"105.44072000"},{"name":"Huyện Quế Phong","native":null,"lat":"19.70177000","lon":"104.87913000"},{"name":"Huyện Quỳ Châu","native":null,"lat":"19.55707000","lon":"105.09173000"},{"name":"Huyện Quỳ Hợp","native":null,"lat":"19.32514000","lon":"105.16009000"},{"name":"Huyện Quỳnh Lưu","native":null,"lat":"19.22717000","lon":"105.64354000"},{"name":"Huyện Thanh Chương","native":null,"lat":"18.73929000","lon":"105.24053000"},{"name":"Huyện Tương Dương","native":null,"lat":"19.30979000","lon":"104.57788000"},{"name":"Huyện Yên Thành","native":null,"lat":"19.02724000","lon":"105.43649000"},{"name":"Vinh","native":null,"lat":"18.67337000","lon":"105.69232000"},{"name":"Yên Vinh","native":null,"lat":"18.66667000","lon":"105.66667000"}]},{"name":"Ninh Bình","native":null,"cities":[{"name":"Huyện Hoa Lư","native":null,"lat":"20.25391000","lon":"105.90789000"},{"name":"Huyện Kim Sơn","native":null,"lat":"20.06034000","lon":"106.09863000"},{"name":"Huyện Nho Quan","native":null,"lat":"20.27606000","lon":"105.75442000"},{"name":"Huyện Yên Khánh","native":null,"lat":"20.19017000","lon":"106.09605000"},{"name":"Huyện Yên Mô","native":null,"lat":"20.12984000","lon":"106.00199000"},{"name":"Ninh Bình","native":null,"lat":"20.25809000","lon":"105.97965000"}]},{"name":"Ninh Thuận","native":null,"cities":[{"name":"Phan Rang-Tháp Chàm","native":null,"lat":"11.56432000","lon":"108.98858000"}]},{"name":"Phú Thọ","native":null,"cities":[{"name":"Huyện Cẩm Khê","native":null,"lat":"21.40683000","lon":"105.09845000"},{"name":"Huyện Đoan Hùng","native":null,"lat":"21.61776000","lon":"105.16110000"},{"name":"Huyện Hạ Hòa","native":null,"lat":"21.57763000","lon":"104.99464000"},{"name":"Huyen Lam Thao","native":null,"lat":"21.29971000","lon":"105.31119000"},{"name":"Huyện Thanh Ba","native":null,"lat":"21.47816000","lon":"105.15881000"},{"name":"Huyện Yên Lập","native":null,"lat":"21.35569000","lon":"105.00493000"},{"name":"Thành Phố Việt Trì","native":null,"lat":"21.32958000","lon":"105.39217000"},{"name":"Thị xã Phú Thọ","native":null,"lat":"21.41664000","lon":"105.23636000"},{"name":"Việt Trì","native":null,"lat":"21.32274000","lon":"105.40198000"}]},{"name":"Phú Yên","native":null,"cities":[{"name":"Huyện Sơn Hòa","native":null,"lat":"13.15868000","lon":"108.97281000"},{"name":"Huyện Sông Hinh","native":null,"lat":"12.91667000","lon":"108.91667000"},{"name":"Sông Cầu","native":null,"lat":"13.45560000","lon":"109.22348000"},{"name":"Tuy Hòa","native":null,"lat":"13.09546000","lon":"109.32094000"}]},{"name":"Quảng Bình","native":null,"cities":[{"name":"Huyện Lệ Thủy","native":null,"lat":"17.11239000","lon":"106.70471000"},{"name":"Huyện Quảng Ninh","native":null,"lat":"17.27067000","lon":"106.51387000"},{"name":"Huyện Quảng Trạch","native":null,"lat":"17.83447000","lon":"106.36705000"},{"name":"Huyện Tuyên Hóa","native":null,"lat":"17.91323000","lon":"106.02678000"},{"name":"Kwang Binh","native":null,"lat":"17.46885000","lon":"106.62226000"}]},{"name":"Quảng Nam","native":null,"cities":[{"name":"Hội An","native":null,"lat":"15.87944000","lon":"108.33500000"},{"name":"Huyện Duy Xuyên","native":null,"lat":"15.78970000","lon":"108.20247000"},{"name":"Huyện Đại Lộc","native":null,"lat":"15.83721000","lon":"107.97894000"},{"name":"Huyện Điện Bàn","native":null,"lat":"15.89917000","lon":"108.22470000"},{"name":"Huyện Hiệp Đức","native":null,"lat":"15.53857000","lon":"108.09539000"},{"name":"Huyện Nam Giang","native":null,"lat":"15.63201000","lon":"107.60267000"},{"name":"Huyện Núi Thành","native":null,"lat":"15.43345000","lon":"108.57438000"},{"name":"Huyện Phước Sơn","native":null,"lat":"15.38806000","lon":"107.85766000"},{"name":"Huyện Tiên Phước","native":null,"lat":"15.47090000","lon":"108.28257000"},{"name":"Huyện Trà My","native":null,"lat":"15.25000000","lon":"108.08333000"},{"name":"Tam Kỳ","native":null,"lat":"15.57364000","lon":"108.47403000"}]},{"name":"Quảng Ngãi","native":null,"cities":[{"name":"Huyện Ba Tơ","native":null,"lat":"14.73973000","lon":"108.69326000"},{"name":"Huyện Bình Sơn","native":null,"lat":"15.31899000","lon":"108.76383000"},{"name":"Huyện Đức Phổ","native":null,"lat":"14.78000000","lon":"108.97857000"},{"name":"Huyện Lý Sơn","native":null,"lat":"15.40608000","lon":"109.09707000"},{"name":"Huyện Minh Long","native":null,"lat":"14.95375000","lon":"108.67724000"},{"name":"Huyện Mộ Đức","native":null,"lat":"14.95515000","lon":"108.88841000"},{"name":"Huyện Nghĩa Hành","native":null,"lat":"14.98712000","lon":"108.80036000"},{"name":"Huyện Sơn Hà","native":null,"lat":"14.98427000","lon":"108.53643000"},{"name":"Huyện Sơn Tây","native":null,"lat":"14.96392000","lon":"108.36419000"},{"name":"Huyện Sơn Tịnh","native":null,"lat":"15.19090000","lon":"108.74295000"},{"name":"Huyện Trà Bồng","native":null,"lat":"15.23752000","lon":"108.52633000"},{"name":"Huyện Tư Nghĩa","native":null,"lat":"15.09499000","lon":"108.77053000"},{"name":"Quảng Ngãi","native":null,"lat":"15.12047000","lon":"108.79232000"}]},{"name":"Quảng Ninh","native":null,"cities":[{"name":"Cẩm Phả","native":null,"lat":"21.01004000","lon":"107.27345000"},{"name":"Cẩm Phả Mines","native":null,"lat":"21.01667000","lon":"107.30000000"},{"name":"Hạ Long","native":null,"lat":"20.95045000","lon":"107.07336000"},{"name":"Huyện Ba Chẽ","native":null,"lat":"21.29503000","lon":"107.19298000"},{"name":"Huyện Bình Liêu","native":null,"lat":"21.54389000","lon":"107.44047000"},{"name":"Huyện Cô Tô","native":null,"lat":"21.05418000","lon":"107.80698000"},{"name":"Huyện Đầm Hà","native":null,"lat":"21.39689000","lon":"107.56175000"},{"name":"Huyện Đông Triều","native":null,"lat":"21.11043000","lon":"106.59662000"},{"name":"Huyện Hải Hà","native":null,"lat":"21.49537000","lon":"107.66790000"},{"name":"Huyện Hoành Bồ","native":null,"lat":"21.11888000","lon":"107.03149000"},{"name":"Huyện Tiên Yên","native":null,"lat":"21.37571000","lon":"107.37468000"},{"name":"Huyện Vân Đồn","native":null,"lat":"21.04921000","lon":"107.50971000"},{"name":"Móng Cái","native":null,"lat":"21.52471000","lon":"107.96619000"},{"name":"Thành Phố Uông Bí","native":null,"lat":"21.03433000","lon":"106.77049000"}]},{"name":"Quảng Trị","native":null,"cities":[{"name":"Ðông Hà","native":null,"lat":"16.81625000","lon":"107.10031000"},{"name":"Huyện Cam Lộ","native":null,"lat":"16.79335000","lon":"106.96175000"},{"name":"Huyện Đa Krông","native":null,"lat":"16.55543000","lon":"106.97208000"},{"name":"Huyện Gio Linh","native":null,"lat":"16.91667000","lon":"107.00000000"},{"name":"Huyện Hải Lăng","native":null,"lat":"16.67574000","lon":"107.23388000"},{"name":"Huyện Hướng Hóa","native":null,"lat":"16.70132000","lon":"106.67036000"},{"name":"Huyện Triệu Phong","native":null,"lat":"16.78132000","lon":"107.16034000"},{"name":"Huyện Vĩnh Linh","native":null,"lat":"17.01600000","lon":"106.93384000"}]},{"name":"Sóc Trăng","native":null,"cities":[{"name":"Huyện Kế Sách","native":null,"lat":"9.81771000","lon":"105.94190000"},{"name":"Huyện Long Phú","native":null,"lat":"9.63715000","lon":"106.08226000"},{"name":"Huyện Mỹ Tú","native":null,"lat":"9.60849000","lon":"105.80681000"},{"name":"Huyện Mỹ Xuyên","native":null,"lat":"9.44200000","lon":"105.88546000"},{"name":"Huyen Nga Nam","native":null,"lat":"9.56127000","lon":"105.59476000"},{"name":"Huyện Thạnh Trị","native":null,"lat":"9.46939000","lon":"105.71196000"},{"name":"Sóc Trăng","native":null,"lat":"9.59995000","lon":"105.97193000"}]},{"name":"Sơn La","native":null,"cities":[{"name":"Huyện Bắc Yên","native":null,"lat":"21.25042000","lon":"104.38501000"},{"name":"Huyện Mai Sơn","native":null,"lat":"21.15884000","lon":"104.04821000"},{"name":"Huyện Mộc Châu","native":null,"lat":"21.83333000","lon":"104.75000000"},{"name":"Huyện Mường La","native":null,"lat":"21.52960000","lon":"104.11113000"},{"name":"Huyện Phù Yên","native":null,"lat":"21.21412000","lon":"104.68993000"},{"name":"Huyện Quỳnh Nhai","native":null,"lat":"21.77224000","lon":"103.64920000"},{"name":"Huyện Sông Mã","native":null,"lat":"21.06971000","lon":"103.68727000"},{"name":"Huyện Thuận Châu","native":null,"lat":"21.42319000","lon":"103.64408000"},{"name":"Huyện Yên Châu","native":null,"lat":"21.00500000","lon":"104.33264000"},{"name":"Sơn La","native":null,"lat":"21.32560000","lon":"103.91882000"}]},{"name":"Tây Ninh","native":null,"cities":[{"name":"Huyện Bến Cầu","native":null,"lat":"11.12889000","lon":"106.14296000"},{"name":"Huyện Dương Minh Châu","native":null,"lat":"11.31833000","lon":"106.25697000"},{"name":"Huyện Gò Dầu","native":null,"lat":"11.15737000","lon":"106.27307000"},{"name":"Huyện Hòa Thành","native":null,"lat":"11.26706000","lon":"106.14486000"},{"name":"Huyện Tân Châu","native":null,"lat":"11.58739000","lon":"106.28270000"},{"name":"Huyện Trảng Bàng","native":null,"lat":"11.05720000","lon":"106.37539000"},{"name":"Phú Khương","native":null,"lat":"11.28333000","lon":"106.13333000"},{"name":"Tây Ninh","native":null,"lat":"11.31004000","lon":"106.09828000"}]},{"name":"Thái Bình","native":null,"cities":[{"name":"Huyện Ðông Hưng","native":null,"lat":"20.54388000","lon":"106.34090000"},{"name":"Huyện Hưng Hà","native":null,"lat":"20.59464000","lon":"106.21230000"},{"name":"Huyện Kiến Xương","native":null,"lat":"20.40081000","lon":"106.42032000"},{"name":"Huyện Quỳnh Phụ","native":null,"lat":"20.65095000","lon":"106.36359000"},{"name":"Huyện Thái Thụy","native":null,"lat":"20.53916000","lon":"106.51688000"},{"name":"Huyện Tiền Hải","native":null,"lat":"20.38465000","lon":"106.52882000"},{"name":"Huyện Vũ Thư","native":null,"lat":"20.43732000","lon":"106.26529000"},{"name":"Thái Bình","native":null,"lat":"20.45000000","lon":"106.34002000"}]},{"name":"Thái Nguyên","native":null,"cities":[{"name":"Thái Nguyên","native":null,"lat":"21.59422000","lon":"105.84817000"}]},{"name":"Thanh Hóa","native":null,"cities":[{"name":"Bỉm Sơn","native":null,"lat":"20.07806000","lon":"105.86028000"},{"name":"Huyện Bá Thước","native":null,"lat":"20.35767000","lon":"105.25301000"},{"name":"Huyện Cẩm Thủy","native":null,"lat":"20.19586000","lon":"105.46817000"},{"name":"Huyện Đông Sơn","native":null,"lat":"19.79742000","lon":"105.72465000"},{"name":"Huyện Hà Trung","native":null,"lat":"20.02654000","lon":"105.81931000"},{"name":"Huyện Hậu Lộc","native":null,"lat":"19.93337000","lon":"105.88894000"},{"name":"Huyện Lang Chánh","native":null,"lat":"20.15926000","lon":"105.15071000"},{"name":"Huyện Mường Lát","native":null,"lat":"20.52763000","lon":"104.62941000"},{"name":"Huyện Nga Sơn","native":null,"lat":"20.01561000","lon":"105.98975000"},{"name":"Huyện Ngọc Lặc","native":null,"lat":"20.06777000","lon":"105.37386000"},{"name":"Huyện Như Thanh","native":null,"lat":"19.57798000","lon":"105.55616000"},{"name":"Huyện Như Xuân","native":null,"lat":"19.62527000","lon":"105.38856000"},{"name":"Huyện Nông Cống","native":null,"lat":"19.61376000","lon":"105.68279000"},{"name":"Huyện Quan Hóa","native":null,"lat":"20.47565000","lon":"104.95335000"},{"name":"Huyện Quan Sơn","native":null,"lat":"20.25758000","lon":"104.83416000"},{"name":"Huyện Quảng Xương","native":null,"lat":"19.70252000","lon":"105.79298000"},{"name":"Huyện Thiệu Hóa","native":null,"lat":"19.89713000","lon":"105.68144000"},{"name":"Huyện Thọ Xuân","native":null,"lat":"19.93114000","lon":"105.48284000"},{"name":"Huyện Thường Xuân","native":null,"lat":"19.93684000","lon":"105.24109000"},{"name":"Huyện Triệu Sơn","native":null,"lat":"19.82578000","lon":"105.58293000"},{"name":"Huyện Vĩnh Lộc","native":null,"lat":"20.03482000","lon":"105.65755000"},{"name":"Huyện Yên Định","native":null,"lat":"19.98666000","lon":"105.61482000"},{"name":"Thanh Hóa","native":null,"lat":"19.80000000","lon":"105.76667000"}]},{"name":"Thừa Thiên-Huế","native":null,"cities":[{"name":"Huế","native":null,"lat":"16.46190000","lon":"107.59546000"},{"name":"Huyện A Lưới","native":null,"lat":"16.23422000","lon":"107.30650000"},{"name":"Huyện Nam Đông","native":null,"lat":"16.12396000","lon":"107.69270000"},{"name":"Huyện Phong Điền","native":null,"lat":"16.48769000","lon":"107.28889000"},{"name":"Huyện Phú Lộc","native":null,"lat":"16.27066000","lon":"107.88545000"},{"name":"Huyện Phú Vang","native":null,"lat":"16.47007000","lon":"107.71458000"},{"name":"Huyện Quảng Ðiền","native":null,"lat":"16.57941000","lon":"107.49370000"}]},{"name":"Tiền Giang","native":null,"cities":[{"name":"Huyện Cái Bè","native":null,"lat":"10.38824000","lon":"105.94620000"},{"name":"Huyện Cai Lậy","native":null,"lat":"10.38943000","lon":"106.06774000"},{"name":"Huyện Châu Thành","native":null,"lat":"10.38600000","lon":"106.27311000"},{"name":"Huyện Chợ Gạo","native":null,"lat":"10.37373000","lon":"106.44341000"},{"name":"Huyện Gò Công Đông","native":null,"lat":"10.36784000","lon":"106.74592000"},{"name":"Huyện Gò Công Tây","native":null,"lat":"10.34527000","lon":"106.59851000"},{"name":"Huyện Tân Phước","native":null,"lat":"10.51489000","lon":"106.23312000"},{"name":"Mỹ Tho","native":null,"lat":"10.36004000","lon":"106.35996000"},{"name":"Thành Phố Mỹ Tho","native":null,"lat":"10.36221000","lon":"106.36824000"},{"name":"Thị Xã Gò Công","native":null,"lat":"10.40005000","lon":"106.65847000"}]},{"name":"Trà Vinh","native":null,"cities":[{"name":"Huyện Càng Long","native":null,"lat":"9.95883000","lon":"106.21395000"},{"name":"Huyện Cầu Kè","native":null,"lat":"9.86738000","lon":"106.07916000"},{"name":"Huyện Cầu Ngang","native":null,"lat":"9.77186000","lon":"106.43654000"},{"name":"Huyện Tiểu Cần","native":null,"lat":"9.80350000","lon":"106.20594000"},{"name":"Huyện Trà Cú","native":null,"lat":"9.69706000","lon":"106.29423000"},{"name":"Trà Vinh","native":null,"lat":"9.94719000","lon":"106.34225000"}]},{"name":"Tuyên Quang","native":null,"cities":[{"name":"Huyện Chiêm Hóa","native":null,"lat":"22.17895000","lon":"105.27671000"},{"name":"Huyện Hàm Yên","native":null,"lat":"22.10935000","lon":"105.01630000"},{"name":"Huyện Lâm Bình","native":null,"lat":"22.46411000","lon":"105.21903000"},{"name":"Huyện Na Hang","native":null,"lat":"22.47522000","lon":"105.48380000"},{"name":"Huyện Sơn Dương","native":null,"lat":"21.63623000","lon":"105.38901000"},{"name":"Huyện Yên Sơn","native":null,"lat":"21.88363000","lon":"105.27656000"},{"name":"Tuyên Quang","native":null,"lat":"21.82356000","lon":"105.21424000"}]},{"name":"Vĩnh Long","native":null,"cities":[{"name":"Huyện Long Hồ","native":null,"lat":"10.21640000","lon":"105.98483000"},{"name":"Huyện Mang Thít","native":null,"lat":"10.18731000","lon":"106.07472000"},{"name":"Huyện Tam Bình","native":null,"lat":"10.08127000","lon":"105.95352000"},{"name":"Huyện Trà Ôn","native":null,"lat":"9.97522000","lon":"106.00957000"},{"name":"Huyện Vũng Liêm","native":null,"lat":"10.08717000","lon":"106.16038000"},{"name":"Vĩnh Long","native":null,"lat":"10.25369000","lon":"105.97220000"}]},{"name":"Vĩnh Phúc","native":null,"cities":[{"name":"Huyện Bình Xuyên","native":null,"lat":"21.30561000","lon":"105.66225000"},{"name":"Huyện Tam Dương","native":null,"lat":"21.36189000","lon":"105.55690000"},{"name":"Huyện Tam Đảo","native":null,"lat":"21.45690000","lon":"105.59460000"},{"name":"Huyện Yên Lạc","native":null,"lat":"21.21845000","lon":"105.57586000"},{"name":"Vĩnh Yên","native":null,"lat":"21.30891000","lon":"105.60489000"}]},{"name":"Yên Bái","native":null,"cities":[{"name":"Huyện Lục Yên","native":null,"lat":"22.10235000","lon":"104.72538000"},{"name":"Huyện Mù Cang Chải","native":null,"lat":"21.78815000","lon":"104.11998000"},{"name":"Huyện Trạm Tấu","native":null,"lat":"21.48553000","lon":"104.42756000"},{"name":"Huyện Trấn Yên","native":null,"lat":"21.66586000","lon":"104.79702000"},{"name":"Huyện Văn Chấn","native":null,"lat":"21.55722000","lon":"104.64038000"},{"name":"Huyện Văn Yên","native":null,"lat":"21.90022000","lon":"104.56669000"},{"name":"Yên Bái","native":null,"lat":"21.72288000","lon":"104.91130000"}]}]