[{"id":4763,"name":"A'ana","native":null,"cities":[{"id":130647,"name":"Fasito‘outa","native":null,"lat":"-13.81163000","lon":"-171.94063000"},{"id":130649,"name":"Leulumoega","native":null,"lat":"-13.82297000","lon":"-171.96127000"},{"id":130655,"name":"Nofoali‘i","native":null,"lat":"-13.82170000","lon":"-171.95873000"},{"id":130658,"name":"Satapuala","native":null,"lat":"-13.83535000","lon":"-171.97963000"}]},{"id":4761,"name":"Aiga-i-le-Tai","native":null,"cities":[{"id":130654,"name":"Mulifanua","native":null,"lat":"-13.83183000","lon":"-172.03602000"}]},{"id":4765,"name":"Atua","native":null,"cities":[{"id":130646,"name":"Falefa","native":null,"lat":"-13.88695000","lon":"-171.58805000"},{"id":130650,"name":"Lotofagā","native":null,"lat":"-13.97643000","lon":"-171.85781000"},{"id":130651,"name":"Lufilufi","native":null,"lat":"-13.87449000","lon":"-171.59857000"},{"id":130659,"name":"Solosolo","native":null,"lat":"-13.87504000","lon":"-171.64181000"}]},{"id":4764,"name":"Fa'asaleleaga","native":null,"cities":[]},{"id":4769,"name":"Gaga'emauga","native":null,"cities":[]},{"id":4771,"name":"Gaga'ifomauga","native":null,"cities":[{"id":130653,"name":"Matavai","native":null,"lat":"-14.03208000","lon":"-171.64768000"},{"id":130656,"name":"Safotu","native":null,"lat":"-13.45132000","lon":"-172.40177000"}]},{"id":4767,"name":"Palauli","native":null,"cities":[{"id":130648,"name":"Gataivai","native":null,"lat":"-13.77360000","lon":"-172.38802000"},{"id":130661,"name":"Vailoa","native":null,"lat":"-13.75551000","lon":"-172.30698000"}]},{"id":4762,"name":"Satupa'itea","native":null,"cities":[]},{"id":4770,"name":"Tuamasaga","native":null,"cities":[{"id":130643,"name":"Afega","native":null,"lat":"-13.79726000","lon":"-171.85308000"},{"id":130644,"name":"Apia","native":null,"lat":"-13.83333000","lon":"-171.76666000"},{"id":130652,"name":"Malie","native":null,"lat":"-13.80044000","lon":"-171.84690000"},{"id":130660,"name":"Vailima","native":null,"lat":"-13.86417000","lon":"-171.76126000"},{"id":130662,"name":"Vaiusu","native":null,"lat":"-13.82678000","lon":"-171.79333000"}]},{"id":4768,"name":"Va'a-o-Fonoti","native":null,"cities":[{"id":130657,"name":"Samamea","native":null,"lat":"-13.93375000","lon":"-171.53122000"}]},{"id":4766,"name":"Vaisigano","native":null,"cities":[{"id":130645,"name":"Asau","native":null,"lat":"-13.51963000","lon":"-172.63784000"}]}]