[{"id":1986,"name":"Central Province","native":null,"cities":[{"id":131332,"name":"Chibombo","native":null,"lat":"-14.65685000","lon":"28.07057000"},{"id":131333,"name":"Chibombo District","native":null,"lat":"-14.65808000","lon":"28.07376000"},{"id":131345,"name":"Kabwe","native":null,"lat":"-14.44690000","lon":"28.44644000"},{"id":131352,"name":"Kapiri Mposhi","native":null,"lat":"-13.97147000","lon":"28.66985000"},{"id":131371,"name":"Mkushi","native":null,"lat":"-13.62015000","lon":"29.39390000"},{"id":131380,"name":"Mumbwa","native":null,"lat":"-14.98293000","lon":"27.06190000"},{"id":131393,"name":"Serenje","native":null,"lat":"-13.23251000","lon":"30.23522000"}]},{"id":1984,"name":"Copperbelt Province","native":null,"cities":[{"id":131331,"name":"Chambishi","native":null,"lat":"-12.63247000","lon":"28.05367000"},{"id":131334,"name":"Chililabombwe","native":null,"lat":"-12.36475000","lon":"27.82286000"},{"id":131335,"name":"Chingola","native":null,"lat":"-12.52897000","lon":"27.88382000"},{"id":131336,"name":"Chingola District","native":null,"lat":"-12.48478000","lon":"27.66313000"},{"id":131349,"name":"Kalulushi","native":null,"lat":"-12.84151000","lon":"28.09479000"},{"id":131356,"name":"Kataba","native":null,"lat":"-11.88333000","lon":"29.78333000"},{"id":131358,"name":"Kitwe","native":null,"lat":"-12.80243000","lon":"28.21323000"},{"id":131362,"name":"Luanshya","native":null,"lat":"-13.13667000","lon":"28.41661000"},{"id":131375,"name":"Mpongwe","native":null,"lat":"-13.50914000","lon":"28.15504000"},{"id":131378,"name":"Mufulira","native":null,"lat":"-12.54982000","lon":"28.24071000"},{"id":131388,"name":"Ndola","native":null,"lat":"-12.95867000","lon":"28.63659000"}]},{"id":1991,"name":"Eastern Province","native":null,"cities":[{"id":131329,"name":"Chadiza","native":null,"lat":"-14.06779000","lon":"32.43917000"},{"id":131338,"name":"Chipata","native":null,"lat":"-13.63333000","lon":"32.65000000"},{"id":131364,"name":"Lundazi","native":null,"lat":"-12.29292000","lon":"33.17820000"},{"id":131389,"name":"Nyimba","native":null,"lat":"-14.55656000","lon":"30.81490000"},{"id":131390,"name":"Petauke","native":null,"lat":"-14.24117000","lon":"31.31975000"}]},{"id":1987,"name":"Luapula Province","native":null,"cities":[{"id":131357,"name":"Kawambwa","native":null,"lat":"-9.79150000","lon":"29.07913000"},{"id":131368,"name":"Mansa","native":null,"lat":"-11.19976000","lon":"28.89431000"},{"id":131382,"name":"Mwense","native":null,"lat":"-10.38447000","lon":"28.69800000"},{"id":131387,"name":"Nchelenge","native":null,"lat":"-9.34506000","lon":"28.73396000"},{"id":131391,"name":"Samfya","native":null,"lat":"-11.36491000","lon":"29.55652000"}]},{"id":1988,"name":"Lusaka Province","native":null,"cities":[{"id":131340,"name":"Chongwe","native":null,"lat":"-15.32916000","lon":"28.68204000"},{"id":131346,"name":"Kafue","native":null,"lat":"-15.76911000","lon":"28.18136000"},{"id":131361,"name":"Luangwa","native":null,"lat":"-15.61667000","lon":"30.41667000"},{"id":131365,"name":"Lusaka","native":null,"lat":"-15.40669000","lon":"28.28713000"}]},{"id":1989,"name":"Muchinga Province","native":null,"cities":[{"id":131330,"name":"Chama","native":null,"lat":"-11.21303000","lon":"33.15210000"},{"id":131337,"name":"Chinsali","native":null,"lat":"-10.54142000","lon":"32.08162000"},{"id":131342,"name":"Isoka","native":null,"lat":"-10.16062000","lon":"32.63353000"},{"id":131374,"name":"Mpika","native":null,"lat":"-11.83431000","lon":"31.45287000"},{"id":131385,"name":"Nakonde","native":null,"lat":"-9.34213000","lon":"32.74500000"}]},{"id":1982,"name":"Northern Province","native":null,"cities":[{"id":131353,"name":"Kaputa","native":null,"lat":"-8.46887000","lon":"29.66193000"},{"id":131354,"name":"Kasama","native":null,"lat":"-10.21289000","lon":"31.18084000"},{"id":131366,"name":"Luwingu","native":null,"lat":"-10.26210000","lon":"29.92712000"},{"id":131370,"name":"Mbala","native":null,"lat":"-8.84024000","lon":"31.36587000"},{"id":131376,"name":"Mporokoso","native":null,"lat":"-9.37273000","lon":"30.12501000"},{"id":131377,"name":"Mpulungu","native":null,"lat":"-8.76234000","lon":"31.11405000"},{"id":131381,"name":"Mungwi","native":null,"lat":"-10.17320000","lon":"31.36942000"}]},{"id":1985,"name":"Northwestern Province","native":null,"cities":[{"id":131344,"name":"Kabompo","native":null,"lat":"-13.59268000","lon":"24.20081000"},{"id":131348,"name":"Kalengwa","native":null,"lat":"-13.46586000","lon":"25.00271000"},{"id":131350,"name":"Kansanshi","native":null,"lat":"-12.09514000","lon":"26.42727000"},{"id":131355,"name":"Kasempa","native":null,"lat":"-13.45836000","lon":"25.83380000"},{"id":131379,"name":"Mufumbwe","native":null,"lat":"-13.68333000","lon":"24.80000000"},{"id":131383,"name":"Mwinilunga","native":null,"lat":"-11.73584000","lon":"24.42926000"},{"id":131398,"name":"Solwezi","native":null,"lat":"-12.16880000","lon":"26.38938000"},{"id":131399,"name":"Zambezi","native":null,"lat":"-13.54323000","lon":"23.10467000"}]},{"id":1990,"name":"Southern Province","native":null,"cities":[{"id":131339,"name":"Choma","native":null,"lat":"-16.80889000","lon":"26.98750000"},{"id":131341,"name":"Gwembe","native":null,"lat":"-16.49755000","lon":"27.60691000"},{"id":131343,"name":"Itezhi-Tezhi District","native":null,"lat":"-15.74092000","lon":"26.04146000"},{"id":131360,"name":"Livingstone","native":null,"lat":"-17.84194000","lon":"25.85425000"},{"id":131367,"name":"Maamba","native":null,"lat":"-17.36667000","lon":"27.15000000"},{"id":131369,"name":"Mazabuka","native":null,"lat":"-15.85601000","lon":"27.74800000"},{"id":131373,"name":"Monze","native":null,"lat":"-16.28333000","lon":"27.48333000"},{"id":131384,"name":"Nakambala","native":null,"lat":"-15.83244000","lon":"27.77994000"},{"id":131386,"name":"Namwala","native":null,"lat":"-15.75042000","lon":"26.43839000"},{"id":131395,"name":"Siavonga","native":null,"lat":"-16.53818000","lon":"28.70876000"},{"id":131396,"name":"Siavonga District","native":null,"lat":"-16.26742000","lon":"28.55036000"},{"id":131397,"name":"Sinazongwe","native":null,"lat":"-17.26140000","lon":"27.46179000"}]},{"id":1983,"name":"Western Province","native":null,"cities":[{"id":131347,"name":"Kalabo","native":null,"lat":"-14.99307000","lon":"22.67926000"},{"id":131351,"name":"Kaoma","native":null,"lat":"-14.78333000","lon":"24.80000000"},{"id":131359,"name":"Limulunga","native":null,"lat":"-15.09691000","lon":"23.13757000"},{"id":131363,"name":"Lukulu","native":null,"lat":"-14.37067000","lon":"23.24196000"},{"id":131372,"name":"Mongu","native":null,"lat":"-15.24835000","lon":"23.12741000"},{"id":131392,"name":"Senanga","native":null,"lat":"-16.11667000","lon":"23.26667000"},{"id":131394,"name":"Sesheke","native":null,"lat":"-17.47593000","lon":"24.29684000"}]}]